###############################################
##         ENVERUS                           ##
##         ESS - Open Hole                   ##
##         PERMIAN / DELAWARE                ##
##         Nov 02 2023  V4.0                 ##
##         42-109-31383-00-00                ##
###############################################
## Copyright 2017-2023  ENVERUS.  All Rights Reserved. 
## Confidential - Property of ENVERUS, use governed by terms and 
## conditions found within the existing Information Services Subscription Agreement 
## (as may be amended, the “ISSA”) between Customer and ENVERUS. 
## 
~VERSION INFORMATION
# MNEM.UNIT                               DATA : DESCRIPTION OF MNEMONIC
#-----.-----     ----------------------------- : -----------------------------
VERS.                                     2.00 : CWLS LOG ASCII STANDARD - VERSION 2.00
WRAP.                                       NO : MULTIPLE LINES PER DEPTH STEP
VEND.                                  ENVERUS : VENDOR
TYPE.                          ESS - OPEN HOLE : ENVERUS ESSENTIAL CURVES – ACCESSIBLE THROUGH ENVERUS PRISM(TM)
DOC.                                  31887493 : ENVERUS HEADER RAW DOCUMENT ID
#___________________________________________________________________________________________________ 
~WELL INFORMATION 
# e8MMFGpko9nixUfuEkfb9P8cKS4olzuguLrtdgPIjARTX3oRymgI2EYtnk6GmA/F0PbYW2Z7xnLx5OgyGayifw== 
# MNEM.UNIT                                              DATA : DESCRIPTION OF MNEMONIC 
#-----.-----                    ----------------------------- : ----------------------------- 
CNTY.                                               CULBERSON : COUNTY 
STATE.                                                  TEXAS : STATE 
CNTRY.                                                    USA : COUNTRY 
API.                                             42-109-31383 : API (10 Digit) 
API_14.                                    42-109-31383-00-00 : API (14 Digits) 
API_14_std.                                 42-109-31383-0000 : API (14 Digits Standard) 
UWI.                                           42109313830000 : UNIQUE WELL ID 
WELL.                                          KIRK  T. A.  1 : WELL NAME
STRT.FT                                                  43.0 : START DEPTH
STOP.FT                                               16492.0 : STOP DEPTH
STEP.FT                                                   0.5 : STEP BETWEEN DEPTHS
NULL.                                                 -999.25 : NULL VALUE
COMP.                                             EXXON CORP. : COMPANY 
DATE.                                             05-AUG-1981 : LOG DATE
#___________________________________________________________________________________________________ 
~CURVE INFORMATION 
# MNEM.UNIT           : CURVE DESCRIPTION 
#-----.-----          : ----------------------------- 
 DEPT.FT               : MEASURED DEPTH 
 CALI.IN               : CALIPER (CAL - CAL) 
 GR.API                : GAMMA RAY (GR) 
 SP.MV                 : SPONTANEOUS POTENTIAL (SP) 
 DT.US/FT              : SONIC DELTA TRANSIT TIME (DT) 
 RESS.OHMM             : SHALLOW INDUCTION RESISTIVITY (ILS - ILS) 
 RESD.OHMM             : DEEP INDUCTION RESISTIVITY (ILD - ILD) 
 NPHI.V/V              : NEUTRON POROSITY (NPHI) 
 #___________________________________________________________________________________________________ 
~A         DEPT           CALI             GR             SP             DT           RESS           RESD           NPHI
# ...
         3326.0         14.134         54.744       -999.250         74.730         20.315         19.427     -999.25000
         3326.5         14.138         54.506       -999.250         76.161         20.268         19.835     -999.25000
         3327.0         14.141         53.329       -999.250         77.592         20.039         20.242     -999.25000
         3327.5         14.145         64.257       -999.250         78.221         19.809         20.650     -999.25000
         3328.0         14.148         62.454       -999.250         77.688         19.580         21.022     -999.25000
         3328.5         14.152         60.652       -999.250         77.154         19.351         21.308     -999.25000
         3329.0         14.155         58.850       -999.250         76.621         19.310         21.594     -999.25000
         3329.5         14.159         57.047       -999.250         76.087         19.898         21.880     -999.25000
         3330.0         14.163         55.245       -999.250         75.554         20.486         22.166     -999.25000
         3330.5         14.166         54.509       -999.250         75.530         21.074         22.451     -999.25000
         3331.0         14.170         55.254       -999.250         75.608         21.662         22.737     -999.25000
         3331.5         14.173         55.998       -999.250         75.686         22.251         23.023     -999.25000
         3332.0         14.177         56.743       -999.250         75.764         22.839         23.309     -999.25000
         3332.5         14.180         57.452       -999.250         75.511         23.349         23.475     -999.25000
         3333.0         14.184         56.406       -999.250         75.029         23.349         23.379     -999.25000
         3333.5         14.187         55.360       -999.250         74.547         23.350         23.283     -999.25000
         3334.0         14.191         54.314       -999.250         74.089         23.351         23.186     -999.25000
         3334.5         14.194         53.268       -999.250         74.469         23.351         23.090     -999.25000
         3335.0         14.198         52.222       -999.250         74.850         23.321         22.994     -999.25000
         3335.5         14.202         51.176       -999.250         75.231         23.063         22.897     -999.25000
         3336.0         14.205         57.309       -999.250         75.612         22.806         22.801     -999.25000
         3336.5         14.209         58.645       -999.250         75.534         22.548         22.202     -999.25000
         3337.0         14.212         52.253       -999.250         75.246         22.291         21.586     -999.25000
         3337.5         14.216         45.861       -999.250         74.958         21.488         20.971     -999.25000
         3338.0         14.219         39.469       -999.250         74.670         20.654         20.355     -999.25000
         3338.5         14.223         38.889       -999.250         74.382         19.820         19.740     -999.25000
         3339.0         14.226         40.366       -999.250         74.094         18.985         19.124     -999.25000
         3339.5         14.230         41.842       -999.250         73.701         18.151         18.501     -999.25000
         3340.0         14.233         43.318       -999.250         73.198         17.317         17.641     -999.25000
         3340.5         14.237         40.625       -999.250         72.695         16.267         16.781     -999.25000
         3341.0         14.240         37.782       -999.250         72.191         15.115         15.921     -999.25000
         3341.5         14.244         34.939       -999.250         73.037         13.964         15.061     -999.25000
         3342.0         14.248         32.096       -999.250         75.745         12.812         14.201     -999.25000
         3342.5         14.251         32.653       -999.250         78.454         11.661         13.341     -999.25000
         3343.0         14.254         35.647       -999.250         79.325         10.509         12.693     -999.25000
         3343.5         14.254         38.641       -999.250         79.723          9.453         12.258     -999.25000
         3344.0         14.254         41.634       -999.250         80.134          8.536         11.823     -999.25000
         3344.5         14.254         44.628       -999.250         80.546          7.618         11.388     -999.25000
         3345.0         14.254         45.021       -999.250         80.957          6.700         10.953     -999.25000
         3345.5         14.254         43.255       -999.250         81.368          6.358         10.518     -999.25000
         3346.0         14.254         41.490       -999.250         81.780          6.331         10.083     -999.25000
         3346.5         14.254         39.725       -999.250         82.191          6.303          9.712     -999.25000
         3347.0         14.254         37.960       -999.250         82.326          6.275          9.696     -999.25000
         3347.5         14.254         37.131       -999.250         82.297          6.248          9.680     -999.25000
         3348.0         14.254         37.130       -999.250         82.268          6.220          9.664     -999.25000
         3348.5         14.254         37.129       -999.250         82.239          6.192          9.648     -999.25000
         3349.0         14.254         37.129       -999.250         82.210          6.503          9.631     -999.25000
         3349.5         14.254         38.776       -999.250         82.182          7.093          9.615     -999.25000
         3350.0         14.254         40.935       -999.250         82.153          7.683          9.599     -999.25000
         3350.5         14.254         43.093       -999.250         82.245          8.273          9.583     -999.25000
         3351.0         14.253         45.251       -999.250         82.369          8.862          9.567     -999.25000
         3351.5         14.253         47.148       -999.250         82.494          9.380          9.550     -999.25000
         3352.0         14.253         48.581       -999.250         82.618          9.380          9.534     -999.25000
         3352.5         14.253         50.014       -999.250         82.742          9.380          9.518     -999.25000
         3353.0         14.253         51.447       -999.250         82.867          9.380          9.502     -999.25000
         3353.5         14.253         52.880       -999.250         82.991          9.381          9.376     -999.25000
         3354.0         14.253         52.493       -999.250         83.116          8.185          9.200     -999.25000
         3354.5         14.253         48.416       -999.250         83.191          6.923          9.025     -999.25000
         3355.0         14.253         44.339       -999.250         83.137          5.661          8.849     -999.25000
         3355.5         14.253         40.262       -999.250         83.083          5.148          8.674     -999.25000
         3356.0         14.253         36.186       -999.250         83.029          5.130          8.498     -999.25000
         3356.5         14.253         32.109       -999.250         83.516          5.112          8.323     -999.25000
         3357.0         14.253         31.817       -999.250         84.364          5.094          8.147     -999.25000
         3357.5         14.253         33.143       -999.250         85.213          5.076          7.972     -999.25000
         3358.0         14.253         34.470       -999.250         86.061          5.058          7.796     -999.25000
         3358.5         14.253         35.796       -999.250         86.910          5.041          7.778     -999.25000
         3359.0         14.253         37.123       -999.250         86.485          5.667          7.779     -999.25000
