~VERSION INFORMATION
VERS.           1.2   :CWLS Log ASCII Standard - VERSION 1.2
WRAP.           NO    :One Line per depth step
PROD.  Schlumberger   :LAS Producer
PROG.  DLIS to ASCII 10C0-306                          :LAS Program name and version
CREA.        2007/06/08 22:43                          :LAS Creation date {YYYY/MM/DD hh:mm}
SOURCE.     294b92a6-1e54-4f75-8d20-4493e48002f1       :DLIS File Name
#--------------------------------------------------
~WELL INFORMATION
#MNEM.UNIT      DATA             DESCRIPTION
#---- ------ --------------   -----------------------------
STRT .F      4145.5000       :START DEPTH     
STOP .F      10380.0000      :STOP DEPTH     
STEP .F       0.5000         :STEP       
NULL .          -999.25      :NULL VALUE
COMP .                 COMPANY:  Chesapeake Operating Inc.          
WELL .                    WELL:  University Lands 4627-1            
FLD  .                   FIELD:  Wildcat                            
LOC  .                LOCATION:  1200' FNL & 1995; FEL              
CNTY .                  COUNTY:  Culberson                          
STAT .                   STATE:  Texas                              
CTRY .                 COUNTRY:                                     
SRVC .         SERVICE COMPANY:  Schlumberger                       
API  .              API NUMBER:  42-109-32287                       
DATE .                LOG DATE:  7-Jun-2007
UWI  .          UNIQUE WELL ID:  42-109-32287-0000                  
#-----------------------------------------------------------------------------
~PARAMETER INFORMATION
#MNEM.UNIT    VALUE                      DESCRIPTION
#---- -----   --------------------       ------------------------
CN   .        Chesapeake Operating Inc.  :Company Name
WN   .        University Lands 4627-1    :Well Name
FN   .        Wildcat                    :Field Name
FL   .        1200' FNL & 1995  FEL      :Field Location
FL1  .        Secion  27  Block  46  Abstract  2860 :Field Location Line 1
COUN .        Culberson                  :County or Rig Name
STAT .        Texas                      :State or Province
NATI .                                   :Nation
DATE .        7-Jun-2007                 :Date as Month-Day-Year
APIN .        42-109-32287               :API Serial Number
SECT .        27                         :Section
TOWN .        46                         :Township
RANG .        2860                       :Range
DMF  .        Kelly Bushing              :Drilling Measured From
LMF  .        Kelly Bushing              :Log Measured From
PDAT .        Ground Level               :Permanent Datum
ENGI .        Tarek Sheira               :Engineer's Name
WITN .        Wiley Tisdale /Jud Walker  :Witness's Name
LATI .                                   :Latitude
LONG .                                   :Longitude
LUL  .        Midland  TX                :Logging Unit Location
LUN  .              2365                 :Logging Unit Number
RUN  .        2                          :Run Number
SON  .        11592406                   :Service Order Number
BHT  .DEGF     185.00000                 :Bottom Hole Temperature (used in calculations)
BS   .IN         8.75000                 :Bit Size
DFD  .LB/G       8.60000                 :Drilling Fluid Density
DFV  .S         39.00000                 :Drilling Fluid Viscosity
DFL  .C3         8.00000                 :Drilling Fluid Loss
RMFS .OHMM       0.42100                 :Resistivity of Mud Filtrate Sample
EKB  .F       4323.00000                 :Elevation of Kelly Bushing
EGL  .F       4283.00000                 :Elevation of Ground Level
BLI  .F       10360.70020                :Bottom Log Interval
BSAL .PPM      500.00000                 :Borehole Salinity
FLEV .                                   :Fluid Level
MCST .                                   :Mud Cake Sample Temperature
MFST .DEGF      96.90000                 :Mud Filtrate Sample Temperature
MRT  .DEGF     185.00000                 :Maximum Recorded Temperature
MST  .DEGF      96.90000                 :Mud Sample Temperature
RMCS .                                   :Resistivity of Mud Cake Sample
RMS  .OHMM       0.42100                 :Resistivity of Mud Sample
RW   .OHMM       1.00000                 :Resistivity of Connate Water
TDD  .F       10350.00000                :Total Depth - Driller
TDL  .F       10362.00000                :Total Depth - Logger
TLI  .F       4200.00000                 :Top Log Interval
HIDE .        Formation Micro Imager     :Header Identifier
MATR .        LIME                       :Rock Matrix for Neutron Porosity Corrections
FNUM .           1.00000                 :Form Factor Numerator
FEXP .           2.00000                 :Form Factor Exponent
DFT  .        Fresh Mud                  :Drilling Fluid Type
DFPH .           9.00000                 :Drilling Fluid PH
MCSS .        Calculated                 :Mud Cake Sample Source
MFSS .        Calculated                 :Mud Filtrate Sample Source
MSS  .        Circulation Tank           :Mud Sample Source
OS1  .        TLD-APS-HNGS               :Other Services Line 1
OS2  .        HRLA-HNGS                  :Other Services Line 2
OS3  .        FMI-GR                     :Other Services Line 3
OS4  .        DSI-GR                     :Other Services Line 4
OS5  .        HNGS                       :Other Services Line 5
R1   .        -Tool ran as per tool sketch. :Remark Line 1
R2   .        -Hole size & standoff corrections applied to APS porosity. :Remark Line 2
R3   .        -Log performed on a limestone matrix (MDEN = 2.71 g/cc  DTM = 47.6 us/ft) :Remark Line 3
R4   .        -Hole & cement volumes computed using FCD = 7 . :Remark Line 4
R5   .        -Source of max. hole temperature is CTEM = 185 DegF. :Remark Line 5
R6   .        -Source of max. hole deviation is company man = 3 Deg. :Remark Line 6
R7   .        -Repeat performed off bottom for 300' as per client request. :Remark Line 7
R8   .        -Density measurment is affected by washouts. :Remark Line 8
TCS  .        9 00                       :Time Circulation Stopped
TLAB .        22 15                      :Time Logger At Bottom
EPD  .F         4283.000000              :Elevation of Permanent Datum above Mean Sea Level
APD  .F          40.000000               :Elevation of Depth Reference (LMF) above Permanent Datum
#-----------------------------------------------------------------------------
~CURVE INFORMATION
#MNEM.UNIT   API CODE                                  DESCRIPTION
#---- -----  --------                                  -----------------------
DEPT .F                                                :DEPTH (BOREHOLE) {F12.4}
C1   .IN                                               :Caliper 1 {F11.4}
C2   .IN                                               :Caliper 2 {F11.4}
CHRP .                                                 :Label Peak Coherence, Receiver Array, Compressional - Monopole P&S {F11.4}
CHR1 .                                                 :Label Peak Coherence, Receiver Array - Lower Dipole {F11.4}
CHR2 .                                                 :Label Peak Coherence, Receiver Array - Upper Dipole {F11.4}
DCAL .IN                                               :Differential Caliper {F11.4}
DEVI .DEG                                              :Hole Deviation {F11.4}
DT1R .US/F                                             :Delta-T Shear, Receiver Array - Lower Dipole {F11.4}
DT2  .US/F                                             :Delta-T Shear - Upper Dipole {F11.4}
DT2R .US/F                                             :Delta-T Shear, Receiver Array - Upper Dipole {F11.4}
DT4P .US/F                                             :Delta-T Compressional - Monopole P&S {F11.4}
DT4S .US/F                                             :Delta-T Shear - Monopole P&S {F11.4}
DTCO .US/F                                             :Delta-T Compressional {F11.4}
DTRP .US/F                                             :Delta-T Compressional, Receiver Array - Monopole P&S {F11.4}
DTRS .US/F                                             :Delta-T Shear, Receiver Array - Monopole P&S {F11.4}
DTSM .US/F                                             :Delta-T Shear {F11.4}
ED   .F                                                :East Departure {F11.4}
GR_EDTC.GAPI                                           :Gamma Ray {F11.4}
GTEM .DEGF                                             :Generalized Borehole Temperature {F11.4}
HAZI .DEG                                              :Hole Azimuth {F11.4}
ITT  .S                                                :Integrated Transit Time {F11.4}
ND   .F                                                :North Departure {F11.4}
P1AZ .DEG                                              :Pad 1 Azimuth {F11.4}
PR   .                                                 :Poisson's Ratio {F11.4}
RB   .DEG                                              :Relative Bearing {F11.4}
SDEV .DEG                                              :Sonde Deviation {F11.4}
SPHI .CFCF                                             :Sonic Porosity {F11.4}
STIT .F                                                :Stuck Tool Indicator, Total {F11.4}
TENS .LBF                                              :Cable Tension {F11.4}
#-----------------------------------------------------------------------------
# 
#      DEPT         C1         C2        CHRP       CHR1       CHR2       DCAL       DEVI       DT1R       DT2        DT2R       DT4P       DT4S       DTCO       DTRP       DTRS       DTSM        ED      GR_EDTC      GTEM       HAZI       ITT         ND        P1AZ        PR         RB        SDEV       SPHI       STIT       TENS
#
~A  
# ...
   5395.5000     9.4319     9.7986     0.4545     0.9963     0.9836     0.8635     3.0243   117.5142   113.0484   124.7862    68.2433   111.5182    68.2433    68.2433   111.5182   113.0484   255.8623    77.7231   142.3424   256.7075     0.3331    11.3588   354.6469     0.2133    97.9503     3.0243     0.1460     0.0000  2956.0000
   5396.0000     9.4319     9.7863     0.3507     0.9916     0.9865     0.8575     3.0236   117.3909   106.7148   118.9749    67.5310   108.0795    67.5310    67.5310   108.0795   106.7148   255.8369    74.4246   142.3467   256.7049     0.3330    11.3523   353.7997     0.1660    97.1046     3.0236     0.1410     0.0000  2962.0000
   5396.5000     9.4319     9.7863     0.2602     0.9862     0.9882     0.8575     3.0227   116.0750   110.3075   119.0741    65.8321   104.4635    65.8321    65.8321   104.4635   110.3075   255.8115    75.8294   142.3510   256.6826     0.3330    11.3458   352.9330     0.2234    96.2590     3.0227     0.1289     0.0000  2907.0000
   5397.0000     9.4319     9.8109     0.4939     0.9836     0.9784     0.8695     3.0213   114.3921   108.7221   116.3134    64.1158   103.2082    64.1158    64.1158   103.2082   108.7221   255.7861    68.7374   142.3553   256.6817     0.3330    11.3392   352.2790     0.2334    95.6051     3.0213     0.1168     0.0000  2967.0000
   5397.5000     9.4319     9.7986     0.4804     0.9692     0.9708     0.8635     3.0213   113.5083   109.5062   115.0464    66.2990   105.9077    66.2990    66.2990   105.9077   109.5062   255.7607    68.5694   142.3596   256.6700     0.3329    11.3327   351.3910     0.2107    94.7276     3.0213     0.1322     0.0000  2950.0000
   5398.0000     9.4319     9.7986     0.2794     0.9815     0.9719     0.8635     3.0196   114.0718   111.7502   114.4853    65.7355   106.3356    65.7355    65.7355   106.3356   111.7502   255.7353    58.7256   142.3639   256.6474     0.3329    11.3261   350.2697     0.2354    93.6273     3.0196     0.1283     0.0000  2965.0000
   5398.5000     9.4319     9.8109     0.4352     0.9830     0.9791     0.8695     3.0194   115.8909   115.3649   118.2649    67.5491   115.6796    67.5491    67.5491   115.6796   115.3649   255.7099    54.1391   142.3682   256.6151     0.3329    11.3195   349.1728     0.2392    92.5612     3.0194     0.1411     0.0000  2950.0000
   5399.0000     9.4319     9.7863     0.4332     0.9891     0.9870     0.8575     3.0191   118.7997   114.0329   118.3300    68.8247   115.4945    68.8247    68.8247   115.4945   114.0329   255.6846    59.6477   142.3725   256.5916     0.3328    11.3130   347.6869     0.2135    91.0967     3.0191     0.1501     0.0000  2961.0000
   5399.5000     9.5324     9.7863     0.3401     0.9946     0.9868     0.9085     3.0182   120.3219   111.5592   116.7607    68.5593   112.6978    68.5593    68.5593   112.6978   111.5592   255.6593    76.1589   142.3768   256.5644     0.3328    11.3064   346.2072     0.1966    89.6421     3.0182     0.1482     0.0000  2945.0000
   5400.0000     9.5198     9.7844     0.3636     0.9913     0.9850     0.9012     3.0168   120.6202   111.1342   117.3336    66.3481   107.8040    66.3481    66.3481   107.8040   111.1342   255.6339    89.0071   142.3811   256.5412     0.3328    11.2997   345.1011     0.2231    88.5580     3.0168     0.1326     0.0000  2928.0000
   5400.5000     9.6077     9.7863     0.3412     0.9842     0.9776     0.9466     3.0164   119.3309   112.2785   115.6760    64.9629   108.8068    64.9629    64.9629   108.8068   112.2785   255.6086    88.0657   142.3854   256.4858     0.3327    11.2931   344.0835     0.2484    87.5941     3.0164     0.1228     0.0000  2932.0000
   5401.0000     9.5449     9.7844     0.3866     0.9836     0.9741     0.9139     3.0164   117.2574   111.0804   113.6599    66.2440   107.0587    66.2440    66.2440   107.0587   111.0804   255.5833    76.1601   142.3897   256.4390     0.3327    11.2865   343.4512     0.2240    87.0079     3.0164     0.1319     0.0000  2905.0000
   5401.5000     9.6077     9.7863     0.3422     0.9922     0.9769     0.9466     3.0152   115.8671   109.9940   112.1793    67.3877   107.6340    67.3877    67.3877   107.6340   109.9940   255.5579    68.4487   142.3940   256.3787     0.3327    11.2798   343.2122     0.1996    86.8290     3.0152     0.1399     0.0000  2868.0000
   5402.0000     9.6328     9.7844     0.5139     0.9928     0.9729     0.9583     3.0146   115.4304   107.7521   110.7156    67.6905   107.8601    67.6905    67.6905   107.8601   107.7521   255.5326    70.2832   142.3983   256.3217     0.3326    11.2731   342.7279     0.1740    86.4013     3.0146     0.1421     0.0000  2951.0000
   5402.5000     9.6077     9.7863     0.4483     0.9903     0.9742     0.9466     3.0158   119.1261   107.7435   109.0531    67.7376   106.9314    67.7376    67.7376   106.9314   107.7435   255.5072    72.2822   142.4026   256.2678     0.3326    11.2664   342.2047     0.1732    85.9311     3.0158     0.1424     0.0000  2950.0000
   5403.0000     9.6328     9.8109     0.4164     0.9893     0.9682     0.9715     3.0143   123.6692   109.2206   111.7262    66.8900   110.5591    66.8900    66.8900   110.5591   109.2206   255.4819    72.4838   142.4068   256.2083     0.3326    11.2597   341.6870     0.1999    85.4723     3.0143     0.1364     0.0000  2926.0000
   5403.5000     9.6328     9.8109     0.4054     0.9835     0.9780     0.9715     3.0143   123.7185   110.6089   114.8364    66.7227   112.3688    66.7227    66.7227   112.3688   110.6089   255.4566    59.0913   142.4111   256.1525     0.3325    11.2530   341.4427     0.2140    85.2836     3.0143     0.1352     0.0000  2942.0000
   5404.0000     9.6328     9.8070     0.4353     0.9793     0.9759     0.9695     3.0143   123.3463   113.2490   116.9149    67.1985   115.9719    67.1985    67.1985   115.9719   113.2490   255.4313    52.6855   142.4154   256.1006     0.3325    11.2462   341.3671     0.2283    85.2601     3.0143     0.1386     0.0000  2884.0000
   5404.5000     9.6328     9.8109     0.4003     0.9843     0.9648     0.9715     3.0128   121.9417   114.9925   118.9476    67.0430   113.7429    67.0430    67.0430   113.7429   114.9925   255.4059    58.2457   142.4197   256.0243     0.3325    11.2394   341.4682     0.2425    85.4376     3.0128     0.1375     0.0000  2895.0000
   5405.0000     9.6328     9.7986     0.2968     0.9816     0.9542     0.9654     3.0117   121.6216   116.9108   119.3854    67.2001   114.3574    67.2001    67.2001   114.3574   116.9108   255.3806    71.6224   142.4240   255.9743     0.3324    11.2326   341.4004     0.2533    85.4197     3.0117     0.1386     0.0000  2945.0000
   5405.5000     9.6328     9.8109     0.3854     0.9827     0.9496     0.9715     3.0108   121.9831   117.5920   118.0334    68.1548   115.3509    68.1548    68.1548   115.3509   117.5920   255.3553    81.6575   142.4283   255.9045     0.3324    11.2257   341.2033     0.2471    85.2922     3.0108     0.1454     0.0000  2914.0000
   5406.0000     9.6328     9.7986     0.3416     0.9816     0.9476     0.9654     3.0090   121.6417   117.7963   113.2737    68.9295   116.9229    68.9295    68.9295   116.9229   117.7963   255.3300    81.0551   142.4326   255.8310     0.3324    11.2189   341.2781     0.2396    85.4409     3.0090     0.1508     0.0000  2900.0000
   5406.5000     9.6328     9.7844     0.4152     0.9819     0.9560     0.9583     3.0090   121.2953   116.0449   111.7132    73.7038   117.8113    73.7038    73.7038   117.8113   116.0449   255.3047    79.6031   142.4369   255.7786     0.3323    11.2120   341.5026     0.1619    85.7180     3.0090     0.1846     0.0000  2920.0000
   5407.0000     9.6328     9.7986     0.5103     0.9819     0.9537     0.9654     3.0088   120.9968   116.0537   112.7568    72.5394   117.6585    72.5394    72.5394   117.6585   116.0537   255.2793    82.0279   142.4412   255.7187     0.3323    11.2050   341.6135     0.1794    85.8889     3.0088     0.1764     0.0000  2893.0000
   5407.5000     9.6328     9.7863     0.5361     0.9846     0.9558     0.9593     3.0077   121.4001   116.3665   114.5345    73.0144   116.1287    73.0144    73.0144   116.1287   116.3665   255.2540    87.9037   142.4455   255.6645     0.3323    11.1980   341.4696     0.1753    85.7993     3.0077     0.1797     0.0000  2884.0000
