###############################################
##         ENVERUS                           ##
##         ESS - Open Hole                   ##
##         PERMIAN / DELAWARE                ##
##         Nov 02 2023  V4.0                 ##
##         42-109-31550-00-00                ##
###############################################
## Copyright 2017-2023  ENVERUS.  All Rights Reserved. 
## Confidential - Property of ENVERUS, use governed by terms and 
## conditions found within the existing Information Services Subscription Agreement 
## (as may be amended, the “ISSA”) between Customer and ENVERUS. 
## 
~VERSION INFORMATION
# MNEM.UNIT                               DATA : DESCRIPTION OF MNEMONIC
#-----.-----     ----------------------------- : -----------------------------
VERS.                                     2.00 : CWLS LOG ASCII STANDARD - VERSION 2.00
WRAP.                                       NO : MULTIPLE LINES PER DEPTH STEP
VEND.                                  ENVERUS : VENDOR
TYPE.                          ESS - OPEN HOLE : ENVERUS ESSENTIAL CURVES – ACCESSIBLE THROUGH ENVERUS PRISM(TM)
DOC.                                  22584426 : ENVERUS HEADER RAW DOCUMENT ID
#___________________________________________________________________________________________________ 
~WELL INFORMATION 
# ASdzl/zqz3tyMoI2i40d5lqA861uk+/GXWRvioHJ4uiq1sQ7a4yIDDt4z64Puw3+ifUTTkKIB4eyCaXtXAsvCw== 
# MNEM.UNIT                                              DATA : DESCRIPTION OF MNEMONIC 
#-----.-----                    ----------------------------- : ----------------------------- 
CNTY.                                               CULBERSON : COUNTY 
STATE.                                                  TEXAS : STATE 
CNTRY.                                                    USA : COUNTRY 
API.                                             42-109-31550 : API (10 Digit) 
API_14.                                    42-109-31550-00-00 : API (14 Digits) 
API_14_std.                                 42-109-31550-0000 : API (14 Digits Standard) 
UWI.                                           42109315500000 : UNIQUE WELL ID 
WELL.                                       UNIVERSITY_6-46-1 : WELL NAME
STRT.FT                                                 249.5 : START DEPTH
STOP.FT                                               10300.0 : STOP DEPTH
STEP.FT                                                   0.5 : STEP BETWEEN DEPTHS
NULL.                                                 -999.25 : NULL VALUE
COMP.                                    MONSANTO OIL COMPANY : COMPANY 
FLD.                                                  WILDCAT : FIELD 
DATE.                                              10/31/2016 : DATE 
TVD.                                                       NO : TVD FLAG 
WSTA.                                                     LOC : WELL STATUS
#___________________________________________________________________________________________________ 
~PARAMETER INFORMATION 
# MNEM.UNIT                                              DATA : DESCRIPTION OF MNEMONIC 
#-----.-----                    ----------------------------- : ----------------------------- 
RUN.                                                      ONE : RUN NUMBER 
PDAT.                                                      GL : PERMANENT DATUM 
LMF.                                            KELLY BUSHING : LOG MEASURED FROM
#___________________________________________________________________________________________________ 
~CURVE INFORMATION 
# MNEM.UNIT           : CURVE DESCRIPTION 
#-----.-----          : ----------------------------- 
 DEPT.FT               : MEASURED DEPTH 
 DT.US/FT              : SONIC DELTA TRANSIT TIME (DELTA-T) 
 RESS_LL.OHMM          : SHALLOW LATEROLOG (LLS - LATERO-LOG SHALLOW (RESISTIVITY)) 
 RESD_LL.OHMM          : DEEP LATEROLOG (LLD - LATERO-LOG DEEP (RESISTIVITY)) 
 #___________________________________________________________________________________________________ 
~A         DEPT             DT        RESS_LL        RESD_LL
# ...
         1305.5         65.375       255.0102       298.2788
         1306.0         65.787       274.6546       309.7867
         1306.5         65.908       297.8944       318.5503
         1307.0         65.547       304.6741       318.7227
         1307.5         65.005       290.2947       306.8737
         1308.0         64.517       277.1651       298.4691
         1308.5         63.982       262.1911       287.6199
         1309.0         64.230       255.0102       279.7426
         1309.5         64.895       272.0811       325.8039
         1310.0         65.567       344.2781       445.7627
         1310.5         66.028       405.1004       539.7415
         1311.0         65.667       608.7614       662.1572
         1311.5         65.246       575.8727       857.4145
         1312.0         65.246       811.8433      1251.4068
         1312.5         65.968      1008.1904      2009.2781
         1313.0         67.352      1312.5487      2085.0691
         1313.5         69.639      1550.5195      2364.1446
         1314.0         71.264      1609.0059      2173.6435
         1314.5         72.466      1337.0746      1731.4581
         1315.0         72.768       949.2271      1008.8502
         1315.5         72.052       531.9368       583.5111
         1316.0         71.638       198.4759       333.9325
         1316.5         71.348       144.1295       157.5841
         1317.0         70.758       121.8421       142.3283
         1317.5         69.679       122.3984       139.7176
         1318.0         68.104       155.4400       183.5116
         1318.5         66.809       184.4396       222.3161
         1319.0         67.042       186.1548       224.3669
         1319.5         68.255       180.9235       219.9055
         1320.0         68.917       172.3532       214.9993
         1320.5         68.676       164.8559       208.7725
         1321.0         68.014       156.3957       198.7405
         1321.5         68.014       147.5737       186.1548
         1322.0         68.375       138.3819       178.6765
         1322.5         68.857       130.9437       171.3988
         1323.0         69.579       127.4244       164.4479
         1323.5         70.060       126.1858       161.6653
         1324.0         70.782       123.8767       161.1695
         1324.5         71.416       125.9208       160.5287
         1325.0         71.745       129.1458       163.8123
         1325.5         71.625       130.9515       168.4806
         1326.0         71.384       135.8910       171.5555
         1326.5         71.161       134.6389       176.0977
         1327.0         70.843       135.8910       175.6803
         1327.5         70.361       135.8910       174.9309
         1328.0         69.880       133.3984       172.8835
         1328.5         69.909       130.4240       168.8661
         1329.0         70.000       128.6167       166.5935
         1329.5         70.843       128.4208       172.9310
         1330.0         71.143       139.6450       183.9671
         1330.5         70.064       151.8673       199.8635
         1331.0         68.616       160.5287       211.9097
         1331.5         67.172       162.0215       208.0820
         1332.0         66.810       157.5310       206.1082
         1332.5         66.871       157.5649       206.1082
         1333.0         66.991       160.4973       206.1082
         1333.5         67.352       165.0388       206.1082
         1334.0         67.412       166.6680       208.0249
         1334.5         67.853       166.4628       209.9595
         1335.0         68.379       168.2673       202.3276
         1335.5         68.675       171.3189       208.0249
         1336.0         68.615       168.1493       208.0249
         1336.5         68.473       171.3260       216.5442
         1337.0         68.255       181.1396       227.9591
         1337.5         68.134       200.9775       272.0811
         1338.0         67.653       230.3226       298.4691
         1338.5         66.676       255.0102       324.3996
         1339.0         65.366       274.6113       346.1154
         1339.5         64.885       284.9698       355.8617
         1340.0         64.824       297.3660       365.8824
         1340.5         65.047       306.8737       376.1853
         1341.0         65.186       312.6078       379.6837
         1341.5         64.824       315.5150       390.3752
         1342.0         64.764       330.4612       416.5076
         1342.5         65.270       386.7784       505.8772
         1343.0         66.028       661.6495       763.9818
         1343.5         67.111       923.3186      1165.6088
         1344.0         69.037      1218.8622      2020.3559
         1344.5         70.793      1536.2331      2163.7190
         1345.0         70.839      1550.5195      2245.3355
         1345.5         68.575      1426.5806      2124.0300
         1346.0         63.983      1300.4550      1494.1591
         1346.5         62.259      1174.5573      1362.0587
         1347.0         61.394      1070.7133      1276.6008
         1347.5         61.876      1031.7936      1303.0371
         1348.0         62.357      1114.4661      2085.0691
         1348.5         62.236      1312.5487      2266.2163
         1349.0         61.815      1579.4920      2486.0071
         1349.5         60.444      1781.4709      2532.4598
         1350.0         58.788      1639.0713      2276.7293
         1350.5         57.482      1312.5487      2086.7103
         1351.0         58.430      1218.8622      1609.3038
         1351.5         59.709      1131.8629      1433.4640
         1352.0         61.334      1031.7936      1299.1315
         1352.5         61.350       865.3881      1100.8636
         1353.0         61.274       719.1325       909.7445
         1353.5         61.815       549.8269       694.6561
         1354.0         63.320       412.6700       537.6128
         1354.5         65.624       295.7190       299.7162
         1355.0         67.292       239.0105       267.1047
         1355.5         68.736       196.1031       226.4185
         1356.0         69.037       179.4704       210.2639
         1356.5         68.118       179.0736       205.6867
         1357.0         66.810       182.3555       208.0249
         1357.5         65.547       185.2910       222.0532
         1358.0         64.885       197.8272       234.1490
         1358.5         64.564       202.3276       243.4765
         1359.0         64.343       206.1082       241.8089
         1359.5         63.741       191.3967       231.3268
         1360.0         63.200       171.9897       212.1083
         1360.5         64.645       157.5841       192.5043
         1361.0         65.426       149.0705       182.7402
         1361.5         66.570       141.0017       171.4878
         1362.0         66.871       131.5054       160.6986
         1362.5         67.593       121.0166       149.0705
         1363.0         68.676       111.8842       138.2411
         1363.5         70.602       108.8199       132.1865
         1364.0         71.986       104.8644       136.2220
         1364.5         73.180       113.8948       143.5381
         1365.0         73.490       124.9406       161.2609
         1365.5         72.828       141.1191       183.4723
         1366.0         71.583       159.2950       208.4594
         1366.5         70.630       171.5229       226.1894
         1367.0         69.666       168.3376       230.2764
         1367.5         68.518       159.0496       213.6848
         1368.0         67.834       150.5906       203.4921
         1368.5         67.653       146.3361       194.9731
         1369.0         67.894       154.6936       208.2617
         1369.5         68.375       168.1331       229.6584
         1370.0         68.372       177.8176       247.4691
         1370.5         67.238       187.8860       257.3817
         1371.0         66.332       181.0564       248.0716
