~VERSION INFORMATION
 VERS.                2.0:   CWLS LOG ASCII STANDARD - VERSION 2.0
 WRAP.                 NO:   ONE LINE PER DEPTH STEP
~WELL INFORMATION
#MNEM.UNIT      DATA TYPE    INFORMATION
#----------   ------------   ------------------------------
 STRT.FT          68.0000:   START DEPTH
 STOP.FT        1517.0000:   STOP DEPTH
 STEP.FT           0.5000:   STEP LENGTH
 NULL.          -999.2500:   NULL VALUE
 COMP. LINCOLN ROCK CORPORATION:   COMPANY
 WELL.        HOLLER #602:   WELL
 FLD .            UNNAMED:   FIELD
 LOC .                   :   LOCATION
 CNTY.          CULBERSON:   COUNTY
 STAT.              TEXAS:   STATE
 CTRY. UNITED STATES OF AMERICA:   COUNTRY
 SRVC.           Gearhart:   SERVICE COMPANY
 DATE.        24-Jun-1984:   LOGDATE
 API .     42109317410000:   API NUMBER
~CURVE INFORMATION
#MNEM.UNIT       API CODE    CURVE DESCRIPTION
#----------   ------------   ------------------------------
 DEPT.F                  :   
 CALXS.IN    60 280 13 00:   CALIPER FROM X AXIS OF X-Y CALIPER(S) FROM SONIC LOG
 GRD .GAPI   45 310 01 00:   GAMMA RAY FROM DENSITY LOG
 GRS .GAPI   60 310 01 00:   GAMMA RAY FROM SONIC LOG
 TEND.LB     45 635 00 00:   TENSION FROM DENSITY LOG
 TENR.LB     11 635 00 00:   TENSION FROM RESISTIVITY LOG
 TENS.LB     60 635 00 00:   TENSION FROM SONIC LOG
 CALYD.IN    45 280 24 00:   CALIPER FROM X AXIS OF X-Y CALIPER(S) FROM DENSITY LOG
 CNS_LS.DEC  42 890 01 00:   COMPENSATED NEUTRON POROSITY
 CDL_LS.DEC  45 890 10 00:   COMPENSATED DENSITY POROSITY LIMESTONE
 RHOB.G/C3   45 350 01 00:   BULK DENSITY
 DRHO.G/C3   45 356 01 00:   BULK DENSITY CORRECTION
 GRR .GAPI   11 310 01 00:   GAMMA RAY FROM RESISTIVITY LOG
 RLLD.OHMM   11 220 10 00:   RAW LATEROLOG DEEP RESISTIVITY
 RLLS.OHMM   11 220 09 00:   RAW LATEROLOG SHALLOW RESISTIVITY
 DT  .US/F   60 500 00 00:   DELTA-T (INTERVAL TRANSIT TIME)
 SPHI.DEC    60 890 00 00:   SONIC POROSITY
~PARAMETER INFORMATION
#MNEM.UNIT          VALUE    DESCRIPTION
#----------   ------------   ------------------------------
 PD  .                 GL:   PERMANENT DATUM
 EPD .FT             3532:   ELEVATION PERMANENT DATUM
 LMF .                 GL:   LOG MEASURED FROM
 DMF .                RKB:   DRILLING MEASURED FROM
 EKB .FT             3544:   KELLY BUSHING
 EDF .FT             3543:   DRILLING FLOOR
 EGL .FT             3532:   GROUND LEVEL
 DATE.           06/24/84:   RUN DATE
 RUN .                  1:   RUN NUMBER
 DD  .FT             1502:   DEPTH DRILLER
 DL  .FT             1506:   DEPTH LOGGER
 BLI .FT             1505:   BOTTOM LOG INTERVAL
 TLI .FT               90:   TOP LOG INTERVAL
 CS  .IN              4.5:   CASING SIZE
 CBD .FT              101:   CASING BOTTOM DRILLER
 CBL .FT             1502:   CASING BOTTOM LOGGER
 BS  .IN            7.875:   BIT SIZE
 BSD .FT             1502:   BIT SIZE AT DEPTH
 DFT .          FRESH H2O:   DRILLING FLUID TYPE
 DFD .                8.4:   DRILLING FLUID DENSITY
 DFV .                 27:   DRILLING FLUID VISCOSITY
 DFPH.                 12:   DRILLING FLUID PH
 MSS .                PIT:   MUD SAMPLE SOURCE
 RMS .OHMM           2.32:   RESISTIVITY MUD SAMPLE
 MST .DEGF             77:   MUD SAMPLE TEMPERATURE
 RMF .OHMM           2.32:   RESISTIVITY MUD FILTRATE SAMPLE
 MFST.DEGF             77:   MUD FILTRATE SAMPLE TEMPERATURE
 MFSS.               MEAS:   MUD FILTRATE SAMPLE SOURCE
 TCS .HRS            0940:   TIME CIRCULATED STOPPED
 TLAB.HRS            1319:   TIME LOGGER AT BOTTOM
 MRT .DEGF            770:   MAXIMUM RECORDED TEMPERATURE
 LUN .               7583:   LOGGING UNIT NUMBER
 LUL .              HOBBS:   LOGGING UNIT LOCATION
 ENGI.             BRYANT:   RECORDING ENGINEER
 WITN.             BURROW:   WITNESSED BY
 CLNT.            :   CLIENT CODE
 ORIG.      1" 2.5" PRINT:   ORIGIN OF DATA
 UWI .     42109317410000:   UNIQUE WELL ID
 
~OTHER INFORMATION
~A   DEPT    CALXS        GRD        GRS       TEND       TENR       TENS      CALYD      CNS_LS     CDL_LS      RHOB       DRHO          GRR     RLLD       RLLS         DT       SPHI   
# ...
  111.0000  -999.2500     7.7659     8.2323  -999.2500  -999.2500  -999.2500  -999.2500     0.6660  -999.2500  -999.2500  -999.2500     8.4729  -999.2500  -999.2500  -999.2500  -999.2500
  111.5000  -999.2500     8.1264     7.6166  -999.2500  -999.2500  -999.2500  -999.2500     0.5257  -999.2500  -999.2500  -999.2500     9.1093  -999.2500  -999.2500  -999.2500  -999.2500
  112.0000  -999.2500     8.1497     6.8152  -999.2500  -999.2500  -999.2500  -999.2500     0.3853  -999.2500  -999.2500  -999.2500     9.0263  -999.2500  -999.2500  -999.2500  -999.2500
  112.5000  -999.2500     7.4234     6.0139  -999.2500  -999.2500  -999.2500  -999.2500     0.6002  -999.2500  -999.2500  -999.2500     8.9406  -999.2500  -999.2500  -999.2500  -999.2500
  113.0000  -999.2500     6.6399     5.3437  -999.2500  -999.2500  -999.2500  -999.2500     0.1546  -999.2500  -999.2500  -999.2500     8.8549  -999.2500  -999.2500  -999.2500  -999.2500
  113.5000  -999.2500     5.8379     5.0957  -999.2500  -999.2500  -999.2500  -999.2500     0.0768  -999.2500  -999.2500  -999.2500     8.7692  -999.2500  -999.2500  -999.2500  -999.2500
  114.0000     8.0031     5.5396     5.1319   891.0114   627.7207   704.8161     7.5310     0.0768     0.2392     2.8775    -0.0175     8.5371  2969.5117  -999.2500    62.4890  -999.2500
  114.5000     8.0022     6.2888     5.8573   884.8918   612.6614   699.1926     7.5631     0.0593     0.1823     2.8775     0.0448     7.8516     0.2825  -999.2500    61.0386     0.0650
  115.0000     8.0013     7.0067     6.5825   878.7663   603.8500   693.5691     7.9578     0.0417     0.2292     2.8834     0.1122     7.0850     0.2459  -999.2500    56.6600     0.0315
  115.5000     8.0004     5.6246     7.0263   873.2165   588.7883   687.9466     8.2011     0.0241     0.2696     2.8946     0.0717     5.0445     0.2093  1985.0658    53.6096     0.0070
  116.0000     7.9995     4.2255     7.2824   842.1054   573.7253   680.0826     8.6200     0.0143     0.2996     2.9059     0.0274     3.3060     0.1726  2393.4082    50.1629    -0.0089
  116.5000     7.9986     2.8229     7.2217   892.0366   564.9052   684.1146     9.8022     0.0085     0.2937     2.9171    -0.0064     2.8652     0.7833  4172.8589    50.4038    -0.0113
  117.0000     7.9977     2.1508     6.9498   941.9654   553.0795   708.9411    10.8185     0.0044     0.2800     2.9284    -0.0224     2.4245     0.9185  5243.2808    50.4118    -0.0113
  117.5000     7.9968     1.5712     6.7257   947.9762   560.4497   728.4865    10.9492     0.0016     0.2704     2.9397    -0.0143     2.1323     0.2332  5105.6113    50.6080    -0.0097
  118.0000     7.9960     1.6323     6.0989   944.3882   567.8211   726.9134    10.9990    -0.0012     0.2684     2.9437    -0.0004     1.9609     0.9526  4396.3208    51.0112    -0.0082
  118.5000     7.9951     2.1045     4.9282   946.3316   568.3779   725.3404    10.9591    -0.0025     0.2665     2.9427     0.0143     1.7895     0.2160  3687.0310    51.1341    -0.0036
  119.0000     7.9942     2.4380     3.5370   918.0426   574.3144   723.7660    10.8706    -0.0031     0.2645     2.9317     0.0163     1.6181     0.4794  2977.7410    52.5353     0.0041
  119.5000     7.9933     2.6805     3.0110   904.6596   567.2419   722.1929    10.7799    -0.0038     0.2686     2.9079     0.0163     1.4467     0.7428  2268.4509    53.8429     0.0110
  120.0000     7.9915     2.5229     3.3550   862.6161   537.1807   723.4418    10.8093    -0.0044     0.2765     2.9124    -0.0062     1.2753     0.0062  2086.3091    54.0397     0.0149
  120.5000     7.9910     1.5080     3.6064   815.0828   519.6097   721.0280    10.2471    -0.0051     0.2833     2.9196    -0.0224     1.1039     0.2696  2087.9524    53.4467     0.0118
  121.0000     7.9897     1.6017     3.3302   778.6283   522.4460   721.2054     8.2063    -0.0030     0.2817     2.9268    -0.0256     1.0121     0.5329 14566.9082    52.7983     0.0052
  121.5000     7.9892     1.6443     2.8710   777.4286   525.2822   717.5966     8.1440     0.0001     0.2762     2.9339    -0.0284     1.2021     0.7963 27045.8633    51.7535    -0.0001
  122.0000     7.9887     2.0003     3.5591   793.5661   528.1185   713.9866     8.1449     0.0032     0.2718     2.9355    -0.0295     1.4825     0.0597 39524.8203    51.1554    -0.0053
  122.5000     7.9874     2.4011     5.0731   783.4083   530.9547   714.1652     8.1447     0.0064     0.2715     2.9345    -0.0246     1.7630     0.3231 52003.7734    50.7899    -0.0083
  123.0000     7.9861     2.6787     6.5859   788.5724   533.2230   714.3489     8.1472     0.0080     0.2712     2.9304    -0.0197     2.0434     0.5865 52036.3789    50.7850    -0.0085
  123.5000     7.9856     2.9295     7.1106   805.7565   533.2230   710.7401     8.1474     0.0085     0.2706     2.9249    -0.0184     2.2267     0.8499 49392.0078    50.7251    -0.0075
  124.0000     7.9852     3.2070     7.5084   814.7814   533.2230   707.1301     8.1499     0.0090     0.2743     2.9195    -0.0228     2.2267     0.1133 47954.1172    50.8709    -0.0066
  124.5000     7.9839     3.1917     7.7130   810.6045   533.2230   707.3161     8.1501     0.0092     0.2779     2.9268    -0.0277     1.8219     0.3767 48660.1953    51.0999    -0.0058
  125.0000     7.9826     3.1725     7.6128   799.4433   533.2230   707.5010     8.1502     0.0084     0.2800     2.9386    -0.0286     1.8219     0.6401 49803.6953    51.2526    -0.0043
  125.5000     7.9821     2.8530     7.4521   816.0231   533.2230   703.8934     8.1529     0.0077     0.2800     2.9505    -0.0171     1.8219     0.9034 50947.1914    51.8427    -0.0013
  126.0000     7.9808     2.4296     7.2939   842.0740   533.2230   704.0820     8.1531     0.0041     0.2704     2.9624    -0.0056     2.2267     0.1668 52090.6914    51.8899    -0.0005
  126.5000     7.9803     2.3615     7.2747   866.6584   533.2230   700.4770     8.1556     0.0010     0.2544     2.9743     0.0017     2.2267     0.4157 52341.2031    51.6284    -0.0033
  127.0000     7.9798     2.1555     7.2554   818.4843   533.2230   696.8695     8.1558    -0.0003     0.2505     2.9721     0.0036     2.2267     0.6429 44190.4961    51.1251    -0.0059
  127.5000     7.9785     1.8095     7.1394   750.3030   533.2230   697.0580     8.1583     0.0032     0.2466     2.9662     0.0016     2.2267  2036.4247 33974.8125    50.8284    -0.0078
  128.0000     7.9772     1.9168     6.8299   793.4377   533.2230   701.1134     8.1585     0.0061     0.2434     2.9604     0.0000     2.2267  1256.1212 23759.1289    50.7565    -0.0075
  128.5000     7.9767     2.1708     6.9155   863.4116   533.2230   703.9431     8.1610     0.0055     0.2481     2.9545    -0.0082     2.0416   685.2543 13543.4463    50.7474    -0.0076
  129.0000     7.9762     2.2997     7.1198   858.6958   533.2230   706.7728     8.1612     0.0039     0.2520     2.9487    -0.0149     1.6744   114.3875  5371.9775    50.6807    -0.0084
  129.5000     7.9749     2.3078     7.7100   790.5269   533.2230   713.3948     8.1638     0.0022     0.2559     2.9428    -0.0220     1.3071     0.2117  5312.4663    50.6310    -0.0095
  130.0000     7.9663     2.2891     7.7698   801.9332   534.5975   756.9811     8.1640     0.0006     0.2598     2.9362    -0.0291     0.9398   648.7783 12850.6064    50.4647    -0.0107
  130.5000     7.9662     2.2904     7.5078   797.8746   533.8131   758.3320     8.1632    -0.0010     0.2638     2.9427    -0.0347     0.5726  6523.5283 25412.4004    50.4333    -0.0109
  131.0000     7.9661     2.2916     7.2267   795.6864   532.7918   759.6916     8.1651    -0.0015     0.2670     2.9500    -0.0347     0.2024 19880.9316 30802.7441    50.4653    -0.0107
  131.5000     7.9644     2.2729     6.9244   807.7054   532.2947   768.6236     8.1653     0.0000     0.2591     2.9574    -0.0276     0.3482 19335.6875 30075.7988    50.5009    -0.0101
  132.0000     7.9643     2.2809     6.7580   821.1004   540.4911   769.9944     8.1678     0.0014     0.2509     2.9648    -0.0185     0.4951 13608.5020 22422.1973    50.5190    -0.0106
