~VERSION INFORMATION
 VERS.                2.0:   CWLS LOG ASCII STANDARD - VERSION 2.0
 WRAP.                 NO:   ONE LINE PER DEPTH STEP
~WELL INFORMATION
#MNEM.UNIT      DATA TYPE    INFORMATION
#----------   ------------   ------------------------------
 STRT.FT        8672.0000:   START DEPTH
 STOP.FT       14432.0000:   STOP DEPTH
 STEP.FT           0.5000:   STEP LENGTH
 NULL.          -999.2500:   NULL VALUE
 COMP. CAPITAN ENERGY, INCORPORATED:   COMPANY
 WELL.  MOTHER FEE 28 #1H:   WELL
 FLD . FORD, WEST (WOLFCAMP)	:   FIELD
 LOC .                   :   LOCATION
 CNTY.          CULBERSON:   COUNTY
 STAT.              TEXAS:   STATE
 CTRY. UNITED STATES OF AMERICA:   COUNTRY
 SRVC.        HALLIBURTON:   SERVICE COMPANY
 DATE.        16-Nov-2015:   LOGDATE
 API .     42109328880000:   API NUMBER
~CURVE INFORMATION
#MNEM.UNIT       API CODE    CURVE DESCRIPTION
#----------   ------------   ------------------------------
 DEPT.FT                 :   
 CALD_C.IN   45 280 60 00:   CALIPER FROM DENSITY COMPOSITE LOG
 DCOR.G/C3   45 356 01 00:   DENSITY CORRECTION
 DPHI_LS.DEC 45 890 10 00:   DENSITY POROSITY LIMESTONE
 DT_CH.US/F  60 501 00 00:   DELTA FROM THE FULL WAVE SONIC IN CASED HOLE
 GRD .GAPI   45 310 01 00:   GAMMA RAY FROM DENSITY LOG
 LLDC.OHMM   11 220 10 00:   CORRECTED LATEROLOG DEEP RESISTIVITY
 LLSC.OHMM   11 220 09 00:   CORRECTED LATEROLOG SHALLOW RESISTIVITY
 MSFLC.OHMM  11 270 04 00:   CORRECTED MICRO SPHERICALLY FOCUSED RESISTIVITY
 NPHI_LS.DEC 42 890 01 00:   NEUTRON POROSITY LIMESTONE
 PE  .B/E    45 358 01 00:   PHOTO ELECTRIC CROSS SECTION
 RHOB_CH.G/C3 45 350 01 00:   
~PARAMETER INFORMATION
#MNEM.UNIT          VALUE    DESCRIPTION
#----------   ------------   ------------------------------
 DATE.           11/16/15:   RUN DATE
 RUN .                  1:   RUN NUMBER
 BLI .FT            14432:   BOTTOM LOG INTERVAL
 TLI .FT             8672:   TOP LOG INTERVAL
 ORIG.     1" 2" 5" PRINT:   ORIGIN OF DATA
 UWI .     42109328880000:   UNIQUE WELL ID
~OTHER INFORMATION
~A   DEPT         CALD_C      DCOR       DPHI_LS      DT_CH       GRD        LLDC        LLSC        MSFLC       NPHI_LS         PE      RHOB_CH
# ...
 10212.0000   -999.2500   -999.2500      0.0954     73.6977    122.3848     24.3892     21.2575     12.8372      0.1669      3.0313      2.5537
 10212.5000   -999.2500   -999.2500      0.0933     73.6674    118.0055     22.3871     19.4641     11.6832      0.1670      3.0365      2.5542
 10213.0000   -999.2500   -999.2500      0.0966     73.6261    126.7142     25.4946     20.6513     13.1575      0.1684      3.0418      2.5547
 10213.5000   -999.2500   -999.2500      0.0965     73.5848    117.7052     22.0207     18.9294     11.8141      0.1681      3.0470      2.5544
 10214.0000   -999.2500   -999.2500      0.1000     73.5435    121.3552     23.2341     19.2842     12.8232      0.1693      3.0522      2.5513
 10214.5000   -999.2500   -999.2500      0.1011     73.3254    126.0171     26.8570     22.5115     14.1289      0.1690      3.0839      2.5482
 10215.0000   -999.2500   -999.2500      0.0995     72.8421    127.8153     29.1416     24.4734     15.3786      0.1668      3.1199      2.5468
 10215.5000   -999.2500   -999.2500      0.0938     72.3588    111.8611     26.4488     21.3426     13.5831      0.1593      3.1559      2.5535
 10216.0000   -999.2500   -999.2500      0.0911     72.0688    103.9915     23.7576     19.9588     12.1703      0.1569      3.1919      2.5609
 10216.5000   -999.2500   -999.2500      0.0919     72.0688    107.2763     26.7753     22.0217     13.7426      0.1551      3.2321      2.5624
 10217.0000   -999.2500   -999.2500      0.0904     72.0688    108.2958     27.8714     23.0759     14.1820      0.1537      3.2621      2.5613
 10217.5000   -999.2500   -999.2500      0.0911     72.0688    100.9884     27.6245     22.7215     14.0895      0.1547      3.3022      2.5601
 10218.0000   -999.2500   -999.2500      0.0932     72.2912    112.1446     30.4697     27.0437     15.4922      0.1576      3.3670      2.5594
 10218.5000   -999.2500   -999.2500      0.0918     72.3881    114.8023     37.6534     30.0195     18.3762      0.1573      3.4057      2.5590
 10219.0000   -999.2500   -999.2500      0.0884     72.4849    103.1363     34.1192     27.7991     16.6617      0.1542      3.4210      2.5643
 10219.5000   -999.2500   -999.2500      0.0873     72.1354     99.0690     32.6899     26.7362     16.0705      0.1519      3.4210      2.5695
 10220.0000   -999.2500   -999.2500      0.0896     71.7891    101.2989     33.6870     26.8545     16.6938      0.1497      3.4210      2.5706
 10220.5000   -999.2500   -999.2500      0.0914     71.7891    106.5422     35.0737     28.9552     17.4855      0.1484      3.4335      2.5681
 10221.0000   -999.2500   -999.2500      0.0922     71.7891    110.6982     37.7318     29.9194     18.7206      0.1481      3.4479      2.5617
 10221.5000   -999.2500   -999.2500      0.0897     71.8236    103.7794     35.3821     27.9919     17.4993      0.1472      3.4712      2.5580
 10222.0000   -999.2500   -999.2500      0.0885     71.8580    100.8855     32.7284     26.3604     16.5278      0.1481      3.4995      2.5610
 10222.5000   -999.2500   -999.2500      0.0871     71.8925    100.9120     33.6697     26.8545     16.7111      0.1495      3.5121      2.5660
 10223.0000   -999.2500   -999.2500      0.0829     71.9269     91.8216     30.3731     24.3177     15.3365      0.1504      3.5265      2.5710
 10223.5000   -999.2500   -999.2500      0.0810     71.9614     85.8733     27.0444     22.0291     13.8597      0.1527      3.5386      2.5761
 10224.0000   -999.2500   -999.2500      0.0851     71.9959     97.6318     33.2555     25.3994     15.4648      0.1544      3.5477      2.5737
 10224.5000   -999.2500   -999.2500      0.0868     72.0303    103.0528     35.8573     29.6503     17.7062      0.1546      3.5141      2.5706
 10225.0000   -999.2500   -999.2500      0.0863     72.0648     99.2492     33.1637     26.4227     16.6321      0.1541      3.4806      2.5705
 10225.5000   -999.2500   -999.2500      0.0844     72.0993     88.9389     28.3295     22.7307     14.2632      0.1530      3.4550      2.5724
 10226.0000   -999.2500   -999.2500      0.0843     72.1337     87.4975     24.8164     20.1380     12.3525      0.1544      3.4600      2.5749
 10226.5000   -999.2500   -999.2500      0.0887     72.1682     97.4474     25.0819     22.0748     13.3403      0.1579      3.4289      2.5692
 10227.0000   -999.2500   -999.2500      0.0927     72.2026    104.8056     29.0929     23.7276     15.6087      0.1616      3.4124      2.5649
 10227.5000   -999.2500   -999.2500      0.0915     72.2371    102.8871     27.6674     22.6513     14.4157      0.1635      3.3718      2.5613
 10228.0000   -999.2500   -999.2500      0.0894     72.2716     99.7172     25.0792     20.6970     13.0129      0.1631      3.3438      2.5640
 10228.5000   -999.2500   -999.2500      0.0880     72.3060     96.0836     23.0301     19.3439     12.0355      0.1633      3.3136      2.5681
 10229.0000   -999.2500   -999.2500      0.0894     72.3531    103.0238     24.5551     19.9519     12.9130      0.1638      3.2889      2.5659
 10229.5000   -999.2500   -999.2500      0.0893     72.3531     99.4669     23.4155     18.7051     12.2665      0.1639      3.2880      2.5639
 10230.0000   -999.2500   -999.2500      0.0902     72.9982     93.4809     19.9753     17.5744     10.7266      0.1636      3.2531      2.5610
 10230.5000   -999.2500   -999.2500      0.0954     73.6434    108.5706     23.2791     19.3191     12.2712      0.1675      3.2276      2.5549
 10231.0000   -999.2500   -999.2500      0.0999     73.9953    120.8392     25.1941     22.1076     14.3987      0.1721      3.2013      2.5483
 10231.5000   -999.2500   -999.2500      0.1050     73.9697    131.2345     33.2864     26.9379     16.4781      0.1761      3.1840      2.5450
 10232.0000   -999.2500   -999.2500      0.1007     73.9441    122.7598     28.6257     23.2136     14.7490      0.1729      3.1821      2.5471
 10232.5000   -999.2500   -999.2500      0.0993     74.0624    122.3785     26.6375     23.1026     14.8809      0.1732      3.1221      2.5479
 10233.0000   -999.2500   -999.2500      0.1025     74.1724    134.0809     32.0021     27.4428     16.7238      0.1758      3.1221      2.5469
 10233.5000   -999.2500   -999.2500      0.1029     74.4519    138.8301     33.6831     27.2734     16.7648      0.1762      3.0849      2.5463
 10234.0000   -999.2500   -999.2500      0.1011     74.8906    128.8321     26.5794     23.1984     14.0132      0.1738      3.0606      2.5479
 10234.5000   -999.2500   -999.2500      0.1012     75.2445    128.3439     23.0578     19.2076     12.0525      0.1743      3.0009      2.5458
 10235.0000   -999.2500   -999.2500      0.1050     75.8033    132.1181     20.0800     17.5673     11.3256      0.1775      2.9396      2.5435
 10235.5000   -999.2500   -999.2500      0.1080     76.3620    137.6644     19.2770     16.6736     11.0280      0.1805      2.8999      2.5375
 10236.0000   -999.2500   -999.2500      0.1073     76.9208    139.4564     18.7365     16.2936     10.7115      0.1820      2.8818      2.5362
 10236.5000   -999.2500   -999.2500      0.1095     77.1710    142.0150     20.0893     17.7702     11.7173      0.1856      2.8468      2.5330
 10237.0000   -999.2500   -999.2500      0.1117     76.8550    154.9988     22.9767     19.3439     13.1087      0.1907      2.8228      2.5330
 10237.5000   -999.2500   -999.2500      0.1072     76.6008    143.1566     19.1538     16.3500     10.8346      0.1829      2.7924      2.5361
 10238.0000   -999.2500   -999.2500      0.1071     76.5875    140.5682     19.4208     17.0711     11.0306      0.1826      2.7812      2.5367
 10238.5000   -999.2500   -999.2500      0.1071     76.7006    147.1889     19.7042     17.2510     11.1403      0.1825      2.7607      2.5373
 10239.0000   -999.2500   -999.2500      0.1064     76.8421    148.0049     19.0124     16.5706     10.6597      0.1826      2.7332      2.5390
 10239.5000   -999.2500   -999.2500      0.1049     76.8049    149.8385     18.0359     14.0972      9.5124      0.1816      2.7332      2.5449
