###############################################
##         ENVERUS                           ##
##         ESS - Open Hole                   ##
##         PERMIAN / DELAWARE                ##
##         Nov 02 2023  V4.0                 ##
##         42-109-00406-00-00                ##
###############################################
## Copyright 2017-2023  ENVERUS.  All Rights Reserved. 
## Confidential - Property of ENVERUS, use governed by terms and 
## conditions found within the existing Information Services Subscription Agreement 
## (as may be amended, the “ISSA”) between Customer and ENVERUS. 
## 
~VERSION INFORMATION
# MNEM.UNIT                               DATA : DESCRIPTION OF MNEMONIC
#-----.-----     ----------------------------- : -----------------------------
VERS.                                     2.00 : CWLS LOG ASCII STANDARD - VERSION 2.00
WRAP.                                       NO : MULTIPLE LINES PER DEPTH STEP
VEND.                                  ENVERUS : VENDOR
TYPE.                          ESS - OPEN HOLE : ENVERUS ESSENTIAL CURVES – ACCESSIBLE THROUGH ENVERUS PRISM(TM)
DOC.                                  31976272 : ENVERUS HEADER RAW DOCUMENT ID
#___________________________________________________________________________________________________ 
~WELL INFORMATION 
# f03iSNYnaQ7mQXX2RIaOYtiytuBBABKYYIB1smJtyZkBcGMChrfvYQpeE0DESEj4BN+caz3q2IoGlEPFhwFUwg== 
# MNEM.UNIT                                              DATA : DESCRIPTION OF MNEMONIC 
#-----.-----                    ----------------------------- : ----------------------------- 
CNTY.                                               CULBERSON : COUNTY 
STATE.                                                  TEXAS : STATE 
CNTRY.                                                    USA : COUNTRY 
API.                                             42-109-00406 : API (10 Digit) 
API_14.                                    42-109-00406-00-00 : API (14 Digits) 
API_14_std.                                 42-109-00406-0000 : API (14 Digits Standard) 
UWI.                                           42109004060000 : UNIQUE WELL ID 
WELL.                                                  DRD_55 : WELL NAME
STRT.FT                                                 100.5 : START DEPTH
STOP.FT                                               12629.5 : STOP DEPTH
STEP.FT                                                   0.5 : STEP BETWEEN DEPTHS
NULL.                                                 -999.25 : NULL VALUE
#___________________________________________________________________________________________________ 
~PARAMETER INFORMATION 
# MNEM.UNIT                                              DATA : DESCRIPTION OF MNEMONIC 
#-----.-----                    ----------------------------- : -----------------------------
#___________________________________________________________________________________________________ 
~CURVE INFORMATION 
# MNEM.UNIT           : CURVE DESCRIPTION 
#-----.-----          : ----------------------------- 
 DEPT.FT               : MEASURED DEPTH 
 GR__A.API             : GAMMA RAY (GAMMA RAY) 
 DT__A.US/FT           : SONIC DELTA TRANSIT TIME (SONIC) 
 #___________________________________________________________________________________________________ 
~A         DEPT          GR__A          DT__A
# ...
         4276.5         26.602         61.925
         4277.0         24.497         60.989
         4277.5         22.833         60.521
         4278.0         21.069         60.215
         4278.5         20.308         60.092
         4279.0         20.679         61.401
         4279.5         21.689         64.889
         4280.0         23.536         69.307
         4280.5         27.359         74.653
         4281.0         32.236         78.697
         4281.5         38.915         82.077
         4282.0         47.859         81.143
         4282.5         55.196         78.318
         4283.0         56.456         73.096
         4283.5         54.870         67.873
         4284.0         47.150         63.391
         4284.5         35.947         59.439
         4285.0         26.803         58.684
         4285.5         24.048         58.749
         4286.0         20.606         58.935
         4286.5         19.148         59.241
         4287.0         18.815         59.513
         4287.5         19.691         60.079
         4288.0         20.832         60.399
         4288.5         22.369         60.200
         4289.0         23.214         59.501
         4289.5         23.214         59.401
         4290.0         22.454         59.335
         4290.5         21.726         59.415
         4291.0         21.925         59.601
         4291.5         22.983         59.787
         4292.0         23.744         60.093
         4292.5         24.505         60.160
         4293.0         25.000         60.359
         4293.5         24.867         60.413
         4294.0         24.405         60.359
         4294.5         23.941         60.479
         4295.0         23.547         60.599
         4295.5         24.307         61.083
         4296.0         25.846         60.691
         4296.5         26.987         60.338
         4297.0         27.381         59.699
         4297.5         27.648         59.019
         4298.0         27.246         57.813
         4298.5         26.038         56.642
         4299.0         24.812         55.741
         4299.5         19.106         55.464
         4300.0         20.593         55.569
         4300.5         18.209         55.084
         4301.0         16.165         54.805
         4301.5         15.877         55.491
         4302.0         15.505         55.581
         4302.5         15.774         55.689
         4303.0         15.774         55.810
         4303.5         16.071         56.185
         4304.0         16.369         56.909
         4304.5         16.071         57.815
         4305.0         16.178         59.835
         4305.5         17.705         62.655
         4306.0         19.807         64.008
         4306.5         23.927         62.576
         4307.0         29.162         64.885
         4307.5         35.743         69.487
         4308.0         38.907         73.469
         4308.5         41.487         75.440
         4309.0         44.132         78.638
         4309.5         49.575         84.571
         4310.0         54.107         90.204
         4310.5         56.558         90.659
         4311.0         56.845         90.659
         4311.5         56.548         90.110
         4312.0         57.136         87.085
         4312.5         55.943         80.495
         4313.0         49.187         72.332
         4313.5         42.546         66.185
         4314.0         32.219         59.837
         4314.5         23.485         56.392
         4315.0         18.440         57.084
         4315.5         17.299         64.538
         4316.0         23.026         71.178
         4316.5         33.151         76.586
         4317.0         45.594         85.409
         4317.5         60.457         90.546
         4318.0         64.522         90.565
         4318.5         63.390         85.334
         4319.0         61.479         79.919
         4319.5         53.607         77.369
         4320.0         49.200         76.048
         4320.5         41.990         77.053
         4321.0         40.456         79.254
         4321.5         46.084         86.141
         4322.0         50.884         89.884
         4322.5         61.087         89.411
         4323.0         64.964         88.051
         4323.5         65.884         87.784
         4324.0         64.715         88.148
         4324.5         63.287         87.554
         4325.0         61.545         86.950
         4325.5         59.488         86.468
         4326.0         58.333         90.022
         4326.5         58.631         90.713
         4327.0         59.245         91.462
         4327.5         60.495         92.075
         4328.0         61.527         93.600
         4328.5         62.315         93.143
         4329.0         63.363         92.703
         4329.5         64.726         91.533
         4330.0         65.943         90.425
         4330.5         67.561         91.510
         4331.0         68.155         94.611
         4331.5         67.942         94.277
         4332.0         66.804         90.384
         4332.5         66.071         87.463
         4333.0         65.774         88.783
         4333.5         66.071         94.223
         4334.0         67.183         94.550
         4334.5         68.326         94.575
         4335.0         67.496         93.026
         4335.5         65.528         92.629
         4336.0         64.007         94.611
         4336.5         63.475         94.397
         4337.0         63.938         92.406
         4337.5         64.963         92.501
         4338.0         66.055         90.379
         4338.5         65.774         89.162
         4339.0         65.154         89.102
         4339.5         64.104         89.102
         4340.0         62.723         89.082
         4340.5         61.433         88.721
         4341.0         61.137         91.001
         4341.5         62.551         91.681
         4342.0         62.325         90.612
         4342.5         61.325         89.959
         4343.0         60.714         90.331
         4343.5         61.012         91.967
         4344.0         61.012         91.323
         4344.5         60.714         90.362
         4345.0         60.417         91.001
         4345.5         60.332         92.611
         4346.0         60.119        102.771
         4346.5         59.406        104.101
         4347.0         58.929         94.856
         4347.5         58.631         93.254
         4348.0         58.948         90.097
         4348.5         59.950         88.539
         4349.0         58.052         91.890
         4349.5         55.853         91.773
         4350.0         53.351         88.094
         4350.5         49.439         79.409
         4351.0         44.813         73.160
         4351.5         39.019         81.352
         4352.0         33.744         74.424
         4352.5         32.397         72.574
         4353.0         39.498         78.298
         4353.5         42.616         81.753
         4354.0         48.228         82.205
         4354.5         50.893         81.411
         4355.0         50.893         83.346
         4355.5         52.988         86.651
         4356.0         55.766         87.536
         4356.5         58.661         88.302
         4357.0         61.526         88.374
         4357.5         63.566         87.444
         4358.0         64.954         85.992
         4358.5         62.469         85.495
         4359.0         60.252         85.545
         4359.5         58.249         86.407
         4360.0         57.318         87.464
         4360.5         56.855         88.875
         4361.0         56.845         86.474
         4361.5         55.160         82.937
         4362.0         53.638         80.097
         4362.5         50.898         77.186
         4363.0         47.545         70.899
