###############################################
##         ENVERUS                           ##
##         ESS - Open Hole                   ##
##         PERMIAN / DELAWARE                ##
##         Nov 02 2023  V4.0                 ##
##         42-109-31408-00-00                ##
###############################################
## Copyright 2017-2023  ENVERUS.  All Rights Reserved. 
## Confidential - Property of ENVERUS, use governed by terms and 
## conditions found within the existing Information Services Subscription Agreement 
## (as may be amended, the “ISSA”) between Customer and ENVERUS. 
## 
~VERSION INFORMATION
# MNEM.UNIT                               DATA : DESCRIPTION OF MNEMONIC
#-----.-----     ----------------------------- : -----------------------------
VERS.                                     2.00 : CWLS LOG ASCII STANDARD - VERSION 2.00
WRAP.                                       NO : MULTIPLE LINES PER DEPTH STEP
VEND.                                  ENVERUS : VENDOR
TYPE.                          ESS - OPEN HOLE : ENVERUS ESSENTIAL CURVES – ACCESSIBLE THROUGH ENVERUS PRISM(TM)
DOC.                                  31850517 : ENVERUS HEADER RAW DOCUMENT ID
#___________________________________________________________________________________________________ 
~WELL INFORMATION 
# bqLd+XSZJOn45CI61XVoQu+UOVndmKoY6sdO6/bnbKn7IExcVbobTFa2ZjWyWmdO1mIol927X6bTh1nHm93KmQ== 
# MNEM.UNIT                                              DATA : DESCRIPTION OF MNEMONIC 
#-----.-----                    ----------------------------- : ----------------------------- 
CNTY.                                               CULBERSON : COUNTY 
STATE.                                                  TEXAS : STATE 
CNTRY.                                                    USA : COUNTRY 
API.                                             42-109-31408 : API (10 Digit) 
API_14.                                    42-109-31408-00-00 : API (14 Digits) 
API_14_std.                                 42-109-31408-0000 : API (14 Digits Standard) 
UWI.                                           42109314080000 : UNIQUE WELL ID 
WELL.                                           CASTILE 48  1 : WELL NAME
STRT.FT                                                2207.0 : START DEPTH
STOP.FT                                               11710.0 : STOP DEPTH
STEP.FT                                                   0.5 : STEP BETWEEN DEPTHS
NULL.                                                 -999.25 : NULL VALUE
COMP.                                         TENNECO OIL CO. : COMPANY 
DATE.                                             28-APR-1980 : LOG DATE
#___________________________________________________________________________________________________ 
~CURVE INFORMATION 
# MNEM.UNIT           : CURVE DESCRIPTION 
#-----.-----          : ----------------------------- 
 DEPT.FT               : MEASURED DEPTH 
 CALI.IN               : CALIPER (CAL - CAL) 
 GR.API                : GAMMA RAY (GR) 
 DT.US/FT              : SONIC DELTA TRANSIT TIME (DT) 
 RESS.OHMM             : SHALLOW INDUCTION RESISTIVITY (ILS - ILS) 
 RESD.OHMM             : DEEP INDUCTION RESISTIVITY (ILD - ILD) 
 #___________________________________________________________________________________________________ 
~A         DEPT           CALI             GR             DT           RESS           RESD
# ...
         2823.0         11.551         46.671         64.045        102.683        124.564
         2823.5         11.556         48.876         64.761         88.696        100.659
         2824.0         11.562         51.081         65.477         87.957         96.545
         2824.5         11.567         53.285         66.192         87.378        100.198
         2825.0         11.573         53.468         66.706         86.799        103.851
         2825.5         11.578         51.813         66.895         86.221        107.504
         2826.0         11.584         50.158         66.736         85.642        105.805
         2826.5         11.589         48.503         66.120         85.064         99.978
         2827.0         11.595         50.079         65.504         84.485        100.307
         2827.5         11.600         53.826         65.556         89.097        104.997
         2828.0         11.606         57.573         66.505         93.819        109.687
         2828.5         11.611         66.060         67.454         98.541        114.377
         2829.0         11.617         88.560         68.403        103.263        119.067
         2829.5         11.622         91.245         69.352        136.036        158.075
         2830.0         11.628         81.928         70.301        193.884        321.628
         2830.5         11.633         72.610         69.343        251.732        441.646
         2831.0         11.639         63.293         67.591        222.790        362.018
         2831.5         11.644         55.044         65.839        178.133        282.390
         2832.0         11.650         57.707         64.088        160.948        238.815
         2832.5         11.655         60.371         63.268        149.413        205.278
         2833.0         11.661         61.524         63.217        146.429        207.694
         2833.5         11.666         59.148         63.195        149.974        210.110
         2834.0         11.672         56.916         63.467        153.519        212.525
         2834.5         11.677         57.243         63.738        145.481        214.941
         2835.0         11.683         57.569         64.009        134.074        198.116
         2835.5         11.688         57.896         64.363        122.667        180.829
         2836.0         11.694         58.222         64.756        111.261        163.543
         2836.5         11.699         58.549         65.149         99.854        146.257
         2837.0         11.705         58.875         65.542         98.333        144.539
         2837.5         11.710         59.202         65.935        101.686        148.050
         2838.0         11.716         58.677         66.274        105.039        151.561
         2838.5         11.724         55.153         66.511        108.391        145.986
         2839.0         11.733         51.628         66.748        107.767        121.134
         2839.5         11.742         48.103         66.986         91.996         93.980
         2840.0         11.751         44.579         67.549         76.226         66.827
         2840.5         11.760         41.054         68.520         60.455         54.927
         2841.0         11.769         37.633         69.491         44.685         58.094
         2841.5         11.778         37.397         66.788         47.937         61.261
         2842.0         11.787         37.161         64.051         64.505         73.572
         2842.5         11.796         36.924         65.005         81.073         92.542
         2843.0         11.805         36.830         65.958         75.488        106.225
         2843.5         11.814         37.869         66.912         67.094         97.815
         2844.0         11.823         38.908         67.866         58.699         88.164
         2844.5         11.832         39.946         68.820         50.305         73.770
         2845.0         11.841         40.985         69.774         41.910         59.377
         2845.5         11.850         42.023         70.728         40.292         61.985
         2846.0         11.859         42.175         69.126         46.502         67.647
         2846.5         11.868         41.513         66.791         52.713         73.309
         2847.0         11.877         40.850         66.504         58.923         78.972
         2847.5         11.872         40.188         67.264         56.200         84.634
         2848.0         11.864         39.526         68.024         52.296         78.886
         2848.5         11.857         38.864         68.783         48.020         70.507
         2849.0         11.850         39.724         69.543         39.780         61.873
         2849.5         11.843         40.721         70.249         40.879         59.083
         2850.0         11.836         41.539         70.868         42.897         60.251
         2850.5         11.829         41.074         71.487         47.873         61.420
         2851.0         11.822         40.608         71.092         49.729         62.588
         2851.5         11.815         40.143         69.650         44.407         63.757
         2852.0         11.808         39.677         68.208         41.243         64.925
         2852.5         11.800         41.467         67.439         42.806         66.094
         2853.0         11.793         44.526         67.641         44.369         66.714
         2853.5         11.786         47.585         67.843         44.397         67.142
         2854.0         11.779         49.260         68.045         44.055         67.569
         2854.5         11.772         47.710         68.247         43.713         67.997
         2855.0         11.765         46.160         66.951         64.086         97.283
         2855.5         11.758         44.610         64.326         88.663        128.393
         2856.0         11.751         43.060         64.320         88.038        137.070
         2856.5         11.743         41.510         64.509         84.939        130.930
         2857.0         11.736         39.960         64.699         78.794        121.186
         2857.5         11.729         39.653         64.902         72.648        101.420
         2858.0         11.722         40.311         65.674         66.502         91.521
         2858.5         11.715         40.969         66.445         60.356         85.435
         2859.0         11.708         41.628         67.217         54.211         79.348
         2859.5         11.701         42.286         67.034         48.065         73.255
         2860.0         11.694         42.944         66.371         41.919         65.810
         2860.5         11.687         43.602         65.708         44.179         69.179
         2861.0         11.679         43.192         65.045         48.650         75.920
         2861.5         11.672         42.601         65.216         53.121         78.995
         2862.0         11.665         42.010         65.819         53.360         74.809
         2862.5         11.658         41.418         66.423         48.818         70.622
         2863.0         11.651         40.827         66.450         44.739         67.883
         2863.5         11.644         40.236         65.020         42.463         67.613
         2864.0         11.640         39.645         63.589         40.186         67.342
         2864.5         11.643         39.072         62.158         46.175         82.353
         2865.0         11.645         40.577         61.174         65.317         98.809
         2865.5         11.648         42.083         62.188         78.661        114.554
         2866.0         11.651         43.588         63.202         73.106        110.156
         2866.5         11.653         45.093         64.216         67.550        105.759
