#--------------------------------------------------#
#----------------DRILLING INFO, INC.---------------#
#---------------WWW.DRILLINGINFO.COM---------------#
#------------------COPYRIGHT 2018------------------#
#--------------------------------------------------#
#THIS FILE MAY BE USED ONLY IN ACCORDANCE WITH A CURRENT SUBSCRIPTION AGREEMENT BETWEEN
#THE USER AND DRILLING INFO, INC. NO PART OF THIS FILE MAY BE REPRODUCED, USED, COPIED,
#MODIFIED, PROPAGATED, OR DISTRIBUTED EXCEPT IN ACCORDANCE WITH THE SUBSCRIPTION
#AGREEMENT. UNAUTHORIZED USE OR DISTRIBUTION OF ALL OR ANY PART OF THIS FILE MAY VIOLATE
#COPYRIGHT, TRADEMARK, AND/OR OTHER LAWS AND IS SUBJECT TO CIVIL AS WELL AS CRIMINAL
#SANCTIONS.
#--------------------------------------------------#
#THIS FILE IS PROVIDED "AS-IS" AND ALL WARRANTIES ARE EXPRESSLY DISCLAIMED, WHETHER
#EXPRESS, ORAL, IMPLIED, STATUTORY OR OTHERWISE, INCLUDING ANY IMPLIED WARRANTY OF FITNESS
#FOR A PARTICULAR PURPOSE, MERCHANTABILITY, TITLE OR NON-INFRINGEMENT, AND ANY WARRANTIES
#ARISING BY VIRTUE OF CUSTOM OF TRADE OR COURSE OF DEALING.  FURTHER, DRILLING INFO,
#INC. AND ITS LICENSORS DO NOT REPRESENT OR WARRANT THAT THIS FILE WILL MEET USER'S
#REQUIREMENTS OR ARE SUITABLE FOR USER'S NEEDS OR THAT THE DATA OR RESULTS PROVIDED IN
#CONJUNCTION THEREWITH ARE CORRECT, ACCURATE, TIMELY OR RELIABLE. THESE DISCLAIMERS SHALL
#APPLY REGARDLESS OF ANY FAILURE OF ESSENTIAL PURPOSE OF ANY LIMITED REMEDY.  SOME
#JURISDICTIONS DO NOT ALLOW THE EXCLUSION OF CERTAIN WARRANTIES SO SOME OF THE ABOVE
#EXCLUSIONS MAY NOT APPLY. IN NO EVENT SHALL DRILLING INFO, INC. OR ANY OF ITS AFFILIATES
#BE LIABLE UNDER ANY LEGAL THEORY, WHETHER IN TORT (INCLUDING WITHOUT LIMITATION
#NEGLIGENCE), CONTRACT, STRICT LIABILITY, STATUTORY OR OTHERWISE, FOR ANY SPECIAL,
#INCIDENTAL, CONSEQUENTIAL, EXEMPLARY, PUNITIVE OR INDIRECT DAMAGE OF ANY KIND, INCLUDING
#WITHOUT LIMITATION LOSS OF REVENUE, PROFITS, GOODWILL, USE, AND/OR DATA OR THE COST OF
#PROCUREMENT OF SUBSTITUTE GOODS OR SERVICES, EVEN IF APPRISED OF THE POSSIBILITY OF SUCH
#DAMAGES IN ADVANCE.
#--------------------------------------------------#
# Exported from DI Transform
# DI Transform - A Product of Drillinginfo, Inc. - www.drillinginfo.com
#--------------------------------------------------#
#
~VERSION INFORMATION
 VERS.        2.0 : LAS ASCII STANDARD - VERSION 2.0
 WRAP.         NO : ONE LINE PER DEPTH STEP

~WELL INFORMATION
#MNEM.UNIT       DATA TYPE       INFORMATION
#---------       ---------       -----------
 STRT.ft          9043 : Start Depth
 STOP.ft         16870 : Stop Depth
 STEP.ft           0.5 : Step Length
 NULL.         -999.25 : Null Value
 COMP.                 : Company
 WELL.          DRD_55 : Well Name
 FLD.                  : Field Name
 LOC.                  : Well Location
 CNTY.                 : County
 STAT.                 : State or Province
 CTRY.                 : Country
 SRVC.                 : Service Company
 DATE.                 : Date
 API.   42109326310000 : Well Identifier

~CURVE INFORMATION
#MNEM.UNIT       API CODE       CURVE DESCRIPTION
#---------       --------       -----------------
 DEPT.ft          : <Measured Depth>
 CAL.in           : Caliper
 DPHI.%           : Density Porosity
 DT.us/ft         : Sonic
 GR.gAPI          : Gamma Ray
 ILD.ohmm         : Deep Resistivity
 ILS.ohmm         : Shallow Resistivity
 RHOB.g/cm3       : Density

~PARAMETER INFORMATION
#MNEM.UNIT       VALUE       DESCRIPTION
#---------       -----       -----------
 EKB.ft      3382 : Elevation above MSL

~A       DEPT         CAL        DPHI          DT          GR         ILD         ILS        RHOB
# ...
        13963      6.0325      8.0024     64.3673    515.7153     30.2941     10.1384      2.5716
      13963.5      6.0325      8.1148     64.3673     505.307     30.2941     10.3311      2.5736
        13964      6.0325      8.1687     64.3673    527.0981     30.8713     10.3358      2.5764
      13964.5      6.0325      8.1826     64.3673    560.8706     30.8713     10.5279      2.5808
        13965      6.0325      7.9766     64.2449    580.1887     30.8713     10.5279      2.5816
      13965.5      6.0325      7.6394     64.1354    593.6642     31.1987     10.5279      2.5761
        13966      6.0325      7.4005     64.1224    594.6631     32.8897      10.947      2.5717
      13966.5      6.0325      7.4647     64.1224    576.5487     33.4907     11.3535      2.5721
        13967      6.0325      7.9191     64.1224    538.4789     34.1584     11.3686      2.5772
      13967.5      6.0325      7.9298          64    493.9526     33.5048     11.2261      2.5803
        13968      6.0325      7.7238     63.8776    474.7771     32.8635     11.1412      2.5834
      13968.5      6.0325      7.5177     63.7551    491.4763     32.4126     11.1412      2.5861
        13969      6.0325      7.3936      63.755    531.1519      31.991     10.9329      2.5873
      13969.5      6.0325      7.2695      63.996     572.797      31.991     10.9329      2.5883
        13970      6.0325      7.0634          64    582.1295     31.8154     10.7397       2.587
      13970.5      6.0325      6.8119          64    580.1887     32.3452     10.9329      2.5818
        13971      6.0325      6.9903          64    580.1887     32.7667     10.9329      2.5787
      13971.5      6.0325      7.3813          64    580.1887     33.2475     11.0759      2.5761
        13972      6.0325      7.6133     64.0657    560.3115     34.0993     11.3338      2.5749
      13972.5      6.0325      7.7869     64.1224    535.7892     34.5533     11.1412       2.574
        13973      6.0325      7.7869     64.1224    513.2806       34.07     11.1412       2.572
      13973.5      6.0325      7.7869     64.1224    521.1865     35.0766     11.1412      2.5694
        13974      6.0325      7.7869     64.1224    538.8986     34.5533     11.1412      2.5663
      13974.5      6.0325      7.9351     64.2449    563.7726     34.3637     10.9846      2.5637
        13975      6.0325      8.3141     64.2449    579.8255     33.8898     11.0009      2.5656
      13975.5      6.0325        8.63     64.2449    602.9412     33.0361     10.7285      2.5713
        13976      6.0325      8.5251     64.2449    602.9412      32.652     10.7285      2.5764
      13976.5      6.0325      8.1752     64.3673     574.728     32.1675     10.7285      2.5811
        13977      6.0325      7.8661     64.3673    549.1071     32.1675     10.7285       2.584
      13977.5      6.0325       7.516     64.3673    549.1071     31.8799     10.7285      2.5813
        13978      6.0325      7.2951     64.4898    569.4444     31.6408     10.7285      2.5764
      13978.5      6.0325      7.3413     64.4898    569.4444     31.3223     10.7285      2.5743
        13979      6.0325      7.5916     64.4898    580.1887     30.1621     10.5279      2.5763
      13979.5      6.0325      7.7383     64.6122    591.3461     29.2015     10.3586      2.5778
        13980      6.0325      7.4893     64.6122    590.1596     28.5982     10.3311      2.5759
      13980.5      6.0325      7.5353     64.6256    580.1887     28.1873     10.3311      2.5738
        13981      6.0325      7.8799     64.6122    559.0909     28.1544      9.9484      2.5744
      13981.5      6.0396      8.0859     64.7347    559.0909     28.4993      9.9484      2.5725
        13982      6.0325      7.8555     64.8353     567.763     28.4993      9.9484      2.5675
      13982.5      6.0325      7.8498     64.8507    552.3377      28.199      9.9484      2.5634
        13983      6.0325       8.187     64.8854    537.7024     27.4314      9.9487      2.5651
      13983.5      6.0325      8.5004     64.9752    515.0673      28.584     10.3208      2.5701
        13984      6.0325      8.5748      65.007    504.0984     30.1184      10.822      2.5742
      13984.5      6.0325      8.1886      65.007    504.0984       32.04     11.3468      2.5778
        13985      6.0325      7.9306      65.007    514.6412     32.6697     11.6754      2.5806
      13985.5      6.0325      7.7245      65.007    521.1865     32.6697     12.0149      2.5801
        13986      6.0325       7.541     65.0517    523.6533     33.2921     12.0538      2.5778
      13986.5      6.0325       7.541     65.0517    521.1865     32.0589     12.0122      2.5782
        13987      6.0325      7.7049     64.9796       512.5      31.152     11.5698      2.5791
      13987.5      6.0325      7.7049     64.9796    528.5241     30.2941     11.3535      2.5778
        13988      6.0325       7.541     64.9796    539.4737     30.2941     11.2379      2.5762
      13988.5      6.0325      7.4718     64.9308    539.4737     29.1418     10.7174      2.5778
        13989      6.0325      7.5704     64.8571    521.1865     28.6265     10.3311      2.5804
      13989.5      6.0325      7.7764     64.8544    521.1865     29.5355     10.5433      2.5831
        13990      6.0325      7.7051     64.8571    539.4737     31.9904     11.0553      2.5862
      13990.5      6.0325      7.3524     64.8571    558.0991     33.9901     11.5915      2.5859
        13991      6.0325      7.0972     64.9796    559.0909     35.2315     12.1543      2.5839
      13991.5      6.0325      7.0433     64.9819    549.1071     35.2315     12.2711      2.5818
        13992      6.0325      7.2494     64.9796    549.1071     34.8159     12.0993      2.5797
      13992.5      6.0325       7.377     64.9796    539.8906     32.8061     11.5391      2.5782
        13993      6.0325       7.459     64.8571    530.1724     30.0242     10.5044      2.5807
      13993.5      6.0325      7.6217     64.7347    521.1865     28.5389      9.7495      2.5842
        13994      6.0325      7.5821     64.6099    544.2785     28.0912      9.7624      2.5873
      13994.5      6.0325       7.376     64.4898    569.5817     28.0912      9.7624      2.5907
        13995      6.0325      7.1699     64.4503    580.1887     28.0912      9.7624      2.5815
      13995.5      6.0325      6.9796     64.6122    580.1887     28.0912      9.7624      2.5705
        13996      6.0325      7.2631       64.62    580.1887     28.0912      9.7624      2.5641
      13996.5      6.0325      7.8476     64.7347    568.7317     28.0912      9.7624      2.5612
        13997      6.0325      8.4562     64.7347    559.0909     28.0479      9.7624       2.562
      13997.5      6.0325      8.6885     64.7347    559.0909     28.0326      9.7624      2.5649
        13998      6.0325      8.6885     64.7347    559.0909     28.0326      9.7624      2.5702
      13998.5      6.0325      8.5144     64.8571     557.844     27.8579      9.7624      2.5756
        13999      6.0325      8.3083     64.8571    549.1071     27.6067      9.7624      2.5785
      13999.5      6.0325      8.0077     64.8571    549.1071     27.2278      9.7624      2.5806
        14000      6.0325      7.6503     64.9796    539.4737     26.8541      9.7624      2.5827
      14000.5      6.0732      7.4442     65.0607    560.9645     26.8252      9.7624      2.5847
        14001      6.0732      7.2381     65.2245    587.9428     26.9732      9.7624      2.5868
      14001.5      6.0732      7.2131     65.3082         615     25.9058      9.7624      2.5888
        14002      6.0732      7.2131     65.3469     594.558     25.6099      9.7624      2.5909
      14002.5      6.0732      7.1117     65.3469    566.9905     27.1342      9.7624       2.593
        14003      6.0732      6.8749      65.476    541.8721     27.7059      9.7624      2.5934
      14003.5      6.0732      6.6176      65.476    539.4737     27.7258      9.7624      2.5934
