~Version Information
 VERS.                  2.0:   CWLS log ASCII Standard -VERSION 2.0
 WRAP.                   NO:   One line per depth step
~Well Information Block
#MNEM.UNIT     VALUE/NAME     DESCRIPTION
#---------     -----------    ---------------------------
 STRT.F              8830.0000: START DEPTH
 STOP.F             14230.0000: STOP DEPTH
 STEP.F                 0.5000: STEP DEPTH
 NULL.                 -999.25: NULL VALUE
 LOC .       API  42-109-33374Lat:  LOCATION
 FL1 .       API  42-109-33374Lat:  LOCATIONLINE1
 DMF .                      KB:  DRILL MEAS FROM
 PDAT.                      GL:  PERMANENT DATUM
 CTRY.                     USA:  COUNTRY NAME
 CNTY.               CULBERSON:  COUNTY NAME
 FLD .     FORD, WEST (WOLFCAMP):  FIELD NAME
 WELL.        MOTHER FEE 28 4H:  WELL NAME
 COMP.          CAPITAN ENERGY:  COMPANY
 DATE.             02-May-2019:  DATE
 SVCO.             Halliburton:  SERVICECONAME
 PROV.                   TEXAS:  PROVINCE
 STAT.                   TEXAS:  STATE NAME
 HIDE.                        :  WELLNAMEOPERAT
 BASI.                 PERMIAN:  BASIN
 UWI .            42-109-33374Lat:  UNIQUE WELL IDENTIFIER
 API .            42-109-33374Lat:  API NUMBER
 RANG.                     N/A:  RANGE
 TOWN.                     N/A:  TOWNSHIP
 SECT.                     N/A:  SECTION
 SON .               905631317:  JOB NUMBER
 SRVC.             Halliburton:  SERVICE COMPANY
 LMF .                      KB:  LOG MEASURED FROM
 BAP .ft                0.0000:  GL ELEV ONSHORE
 GVFD.g                 1.0000:  GRAVITY FIELD
~Curve Information Block
#MNEM.UNIT                 API CODE     Curve Description
#---------               -----------    ---------------------------
 DEPT.F                 00 000 000 000:  Depth
 CCL .V                 00 000 000 000:  Casing Collar Locator
 NPHI_OH.pu             00 000 000 000:  NPHI_OH
 NPHI_CHI.pu            00 000 000 000:  NPHI_CHI
 GR_OH.api              00 000 000 000:  GR_OH
 GR_CHI.api             00 000 000 000:  GR_CHI
 RHOB_OH.g/cc           00 000 000 000:  RHOB_OH
 RHOB_CHI.g/cc          00 000 000 000:  RHOB_CHI
 PE_OH.b/e              00 000 000 000:  PE_OH
 PE_CHI.b/e             00 000 000 000:  PE_CHI
 RT10_OH.ohmm           00 000 000 000:  RT10_OH
 RT10_CHI.ohmm          00 000 000 000:  RT10_CHI
 RT30_OH.ohmm           00 000 000 000:  RT30_OH
 RT30_CHI.ohmm          00 000 000 000:  RT30_CHI
 RT90_OH.ohmm           00 000 000 000:  RT90_OH
 RT90_CHI.ohmm          00 000 000 000:  RT90_CHI
 SPHI_CHI.pu            00 000 000 000:  SPHI_CHI
 DTC_CHI.uspf           00 000 000 000:  DTC_CHI
 DTC_OH.uspf            00 000 000 000:  DTC_OH
 SGF .cu                00 000 000 000:  Formation Sigma
 CRNF.NONE              00 000 000 000:  CM GrsCaptRatio
 RIN .NONE              00 000 000 000:  CM GrsInelRatio
#Other Information
#
#WARRANTY: Halliburton will use its best efforts to furnish customers with 
#accurate information and interpretations that are part of, and incident to, the services 
#provided.  However, Halliburton cannot and does not warrant the accuracy 
#or correctness of such information and interpretations.  Under no circumstances should any 
#such information or interpretation be relied upon as the sole basis for any drilling, 
#completion, production, or financial decision or any procedure involving any risk to the 
#safety of any drilling venture, drilling rig or its crew or any other third party.  The 
#Customer has full responsibility for all drilling, completion and production operation.  
#Halliburton makes no representations or warranties, either expressed or 
#implied, including, but not limited to, the implied warranties of merchantability or fitness 
#for a particular purpose, with respect to the services rendered.  In no event will 
#Halliburton be liable for failure to obtain any particular results or for 
#any damages, including, but not limited to, indirect, special or consequential damages, 
#resulting from the use of any information or interpretation provided by Halliburton.
#
~A    DEPT      CCL   NPHI_OH NPHI_CHI  GR_OH    GR_CHI  RHOB_OH RHOB_CHI  PE_OH  PE_CHI RT10_OH RT10_CHI RT30_OH RT30_CHI RT90_OH  RT90_CHI SPHI_CHI DTC_CHI DTC_OH    SGF    CRNF   RIN   
# ...
   11345.5000 17.4156 -999.25  11.9146  -999.25  68.7499 -999.25   2.5664 -999.25 3.5846 -999.25  55.2335 -999.25  56.7426  -999.25  60.3645  17.0000 71.6318 -999.25 25.9603 1.0675 1.0312
   11346.0000 17.4164 -999.25  12.1168  -999.25  70.4882 -999.25   2.5646 -999.25 3.5921 -999.25  55.4942 -999.25  57.0104  -999.25  60.6494  17.2300 71.9687 -999.25 26.1040 1.0616 1.0300
   11346.5000 17.4145 -999.25  12.3207  -999.25  72.5461 -999.25   2.5614 -999.25 3.5695 -999.25  55.2923 -999.25  56.8030  -999.25  60.4287  17.4900 72.3290 -999.25 26.2204 1.0599 1.0298
   11347.0000 17.4607 -999.25  12.5170  -999.25  74.7102 -999.25   2.5549 -999.25 3.4990 -999.25  55.1451 -999.25  56.6518  -999.25  60.2679  17.8000 72.7633 -999.25 25.8721 1.0586 1.0312
   11347.5000 17.4168 -999.25  12.5326  -999.25  76.2581 -999.25   2.5536 -999.25 3.4835 -999.25  55.4389 -999.25  56.9536  -999.25  60.5889  17.8400 72.8293 -999.25 25.3383 1.0488 1.0287
   11348.0000 17.4187 -999.25  12.6212  -999.25  76.8562 -999.25   2.5506 -999.25 3.4705 -999.25  56.4052 -999.25  57.9463  -999.25  61.6450  18.0000 73.0565 -999.25 25.0281 1.0366 1.0248
   11348.5000 17.4187 -999.25  12.5787  -999.25  75.7969 -999.25   2.5504 -999.25 3.4849 -999.25  57.6488 -999.25  59.2239  -999.25  63.0041  17.9900 73.0371 -999.25 24.8733 1.0219 1.0200
   11349.0000 17.3725 -999.25  12.2762  -999.25  73.4868 -999.25   2.5560 -999.25 3.5459 -999.25  58.9762 -999.25  60.5875  -999.25  64.4548  17.6200 72.5096 -999.25 24.8140 1.0185 1.0155
   11349.5000 17.4182 -999.25  11.9651  -999.25  71.2618 -999.25   2.5596 -999.25 3.5693 -999.25  60.0468 -999.25  61.6874  -999.25  65.6249  17.2600 72.0126 -999.25 24.6423 1.0123 1.0136
   11350.0000 17.4423 -999.25  11.5900  -999.25  70.0333 -999.25   2.5650 -999.25 3.6004 -999.25  60.9169 -999.25  62.5813  -999.25  66.5758  16.8100 71.3758 -999.25 24.3541 1.0066 1.0117
   11350.5000 17.3615 -999.25  11.4686  -999.25  69.0806 -999.25   2.5653 -999.25 3.6012 -999.25  61.8749 -999.25  63.5654  -999.25  67.6228  16.7000 71.2198 -999.25 24.0929 1.0053 1.0124
   11351.0000 17.4363 -999.25  11.3468  -999.25  67.5792 -999.25   2.5658 -999.25 3.6076 -999.25  62.9750 -999.25  64.6956  -999.25  68.8251  16.5900 71.0616 -999.25 23.9393 1.0106 1.0142
   11351.5000 17.4181 -999.25  11.1723  -999.25  65.4012 -999.25   2.5668 -999.25 3.6104 -999.25  64.0171 -999.25  65.7662  -999.25  69.9641  16.4200 70.8134 -999.25 23.8559 1.0192 1.0170
   11352.0000 17.4167 -999.25  11.1295  -999.25  62.9748 -999.25   2.5659 -999.25 3.6057 -999.25  64.7963 -999.25  66.5667  -999.25  70.8156  16.4000 70.7902 -999.25 23.8864 1.0218 1.0194
   11352.5000 17.4187 -999.25  11.1302  -999.25  60.8791 -999.25   2.5659 -999.25 3.6193 -999.25  65.2720 -999.25  67.0554  -999.25  71.3356  16.4100 70.8018 -999.25 23.8686 1.0171 1.0183
   11353.0000 17.4365 -999.25  11.2391  -999.25  59.2580 -999.25   2.5640 -999.25 3.6220 -999.25  65.5924 -999.25  67.3845  -999.25  71.6857  16.5500 71.0075 -999.25 23.7709 1.0038 1.0172
   11353.5000 17.4189 -999.25  11.2902  -999.25  58.4456 -999.25   2.5626 -999.25 3.6191 -999.25  65.9661 -999.25  67.7684  -999.25  72.0940  16.6300 71.1206 -999.25 23.5245 0.9877 1.0160
   11354.0000 17.4182 -999.25  11.3374  -999.25  58.3436 -999.25   2.5607 -999.25 3.6106 -999.25  66.8350 -999.25  68.6611  -999.25  73.0437  16.7300 71.2554 -999.25 23.0804 0.9762 1.0149
   11354.5000 17.4184 -999.25  11.2515  -999.25  58.2723 -999.25   2.5601 -999.25 3.6041 -999.25  68.3225 -999.25  70.1892  -999.25  74.6694  16.6800 71.1822 -999.25 22.4321 0.9624 1.0123
   11355.0000 17.4190 -999.25  11.0679  -999.25  58.2281 -999.25   2.5613 -999.25 3.6145 -999.25  70.6458 -999.25  72.5760  -999.25  77.2085  16.5100 70.9471 -999.25 21.7827 0.9512 1.0085
   11355.5000 17.4194 -999.25  10.8670  -999.25  58.1328 -999.25   2.5637 -999.25 3.6533 -999.25  73.6748 -999.25  75.6877  -999.25  80.5189  16.3200 70.6704 -999.25 21.3114 0.9408 1.0037
   11356.0000 17.4169 -999.25  10.5370  -999.25  58.1633 -999.25   2.5689 -999.25 3.7112 -999.25  76.8725 -999.25  78.9728  -999.25  84.0137  15.9400 70.1427 -999.25 21.0368 0.9410 1.0002
   11356.5000 17.4188 -999.25  10.0938  -999.25  57.8422 -999.25   2.5764 -999.25 3.7735 -999.25  79.5288 -999.25  81.7017  -999.25  86.9167  15.4000 69.3821 -999.25 21.0808 0.9468 0.9984
   11357.0000 17.4356 -999.25   9.7626  -999.25  57.3231 -999.25   2.5824 -999.25 3.8241 -999.25  81.2357 -999.25  83.4553  -999.25  88.7822  14.9900 68.7971 -999.25 21.0944 0.9479 0.9971
   11357.5000 17.4245 -999.25   9.6527  -999.25  56.8633 -999.25   2.5848 -999.25 3.8555 -999.25  82.0398 -999.25  84.2813  -999.25  89.6610  14.8500 68.5970 -999.25 21.0465 0.9444 0.9948
   11358.0000 17.4216 -999.25   9.7656  -999.25  56.8712 -999.25   2.5830 -999.25 3.8582 -999.25  82.5828 -999.25  84.8391  -999.25  90.2544  15.0000 68.8161 -999.25 20.9340 0.9339 0.9930
   11358.5000 17.4107 -999.25   9.9090  -999.25  57.2727 -999.25   2.5797 -999.25 3.8387 -999.25  83.1701 -999.25  85.4425  -999.25  90.8963  15.2100 69.1122 -999.25 20.5996 0.9177 0.9886
   11359.0000 17.3969 -999.25   9.9793  -999.25  57.6482 -999.25   2.5774 -999.25 3.8267 -999.25  84.4767 -999.25  86.7848  -999.25  92.3242  15.3400 69.2921 -999.25 20.1517 0.9063 0.9839
   11359.5000 17.4173 -999.25   9.9357  -999.25  57.4975 -999.25   2.5773 -999.25 3.8408 -999.25  86.7204 -999.25  89.0898  -999.25  94.7764  15.3300 69.2712 -999.25 19.3422 0.8972 0.9769
   11360.0000 17.4122 -999.25   9.4723  -999.25  56.7299 -999.25   2.5857 -999.25 3.9207 -999.25  90.1109 -999.25  92.5729  -999.25  98.4819  14.7600 68.4660 -999.25 18.5638 0.8956 0.9701
   11360.5000 17.4199 -999.25   8.9863  -999.25  55.6258 -999.25   2.5944 -999.25 4.0107 -999.25  94.5438 -999.25  97.1269  -999.25 103.3265  14.1700 67.6337 -999.25 18.1523 0.9033 0.9667
   11361.0000 17.4117 -999.25   8.6614  -999.25  54.0739 -999.25   2.5995 -999.25 4.0744 -999.25  99.0440 -999.25 101.7501  -999.25 108.2448  13.8000 67.1120 -999.25 18.0037 0.9082 0.9671
   11361.5000 17.4205 -999.25   8.5830  -999.25  52.2418 -999.25   2.5996 -999.25 4.0919 -999.25 102.2840 -999.25 105.0786  -999.25 111.7858  13.7500 67.0418 -999.25 18.1514 0.9071 0.9704
   11362.0000 17.4325 -999.25   8.8354  -999.25  50.6514 -999.25   2.5939 -999.25 4.0701 -999.25 103.8272 -999.25 106.6640  -999.25 113.4724  14.1200 67.5637 -999.25 18.3147 0.8996 0.9745
   11362.5000 17.4477 -999.25   9.1299  -999.25  49.8634 -999.25   2.5875 -999.25 4.0260 -999.25 103.9911 -999.25 106.8324  -999.25 113.6515  14.5200 68.1383 -999.25 18.4327 0.8942 0.9808
   11363.0000 17.4312 -999.25   9.2246  -999.25  49.7096 -999.25   2.5854 -999.25 4.0038 -999.25 103.7534 -999.25 106.5882  -999.25 113.3917  14.6500 68.3179 -999.25 18.2201 0.8940 0.9856
   11363.5000 17.4290 -999.25   9.2478  -999.25  49.6735 -999.25   2.5845 -999.25 3.9842 -999.25 103.9130 -999.25 106.7521  -999.25 113.5661  14.6900 68.3672 -999.25 17.7893 0.8913 0.9867
   11364.0000 17.4583 -999.25   9.2446  -999.25  49.5709 -999.25   2.5843 -999.25 3.9852 -999.25 105.2809 -999.25 108.1574  -999.25 115.0611  14.7000 68.3843 -999.25 17.3046 0.8875 0.9849
   11364.5000 17.4788 -999.25   9.3285  -999.25  49.5182 -999.25   2.5824 -999.25 3.9943 -999.25 108.1275 -999.25 111.0818  -999.25 118.1722  14.8400 68.5892 -999.25 16.8312 0.8751 0.9801
   11365.0000 17.4204 -999.25   9.4566  -999.25  49.2678 -999.25   2.5798 -999.25 4.0032 -999.25 111.6364 -999.25 114.6866  -999.25 122.0070  15.0500 68.8838 -999.25 16.5760 0.8699 0.9803
   11365.5000 17.4567 -999.25   9.8110  -999.25  48.3219 -999.25   2.5737 -999.25 3.9856 -999.25 115.2365 -999.25 118.3850  -999.25 125.9415  15.5400 69.5774 -999.25 16.3522 0.8705 0.9835
   11366.0000 17.4383 -999.25   9.8847  -999.25  46.6723 -999.25   2.5733 -999.25 3.9959 -999.25 118.2992 -999.25 121.5314  -999.25 129.2887  15.6400 69.7164 -999.25 16.1788 0.8802 0.9898
   11366.5000 17.3788 -999.25   9.8590  -999.25  45.1394 -999.25   2.5747 -999.25 4.0162 -999.25 120.7957 -999.25 124.0962  -999.25 132.0172  15.6000 69.6640 -999.25 16.0117 0.8885 0.9940
