~Version Information Block
 VERS.                2.00:     CWLS LOG ASCII STANDARD - VERSION 2.000000
 WRAP.                  NO:     One Line Per Depth Step
#
~Well Information Block
#MNEM.UNIT                     Data                         Information
#----------   ------------------------------------------   ----------------
 STRT.F                                        31.0000:     START DEPTH
 STOP.F                                     15936.0000:     STOP DEPTH
 STEP.F                                         0.5000:     STEP
 NULL.                                       -999.2500:     NULL VALUE
 COMP.                             AMERCN QUASAR PETRO:     COMPANY
 WELL.                                    SCOTT UNIT 1:     WELL
 FLD .                                         WILDCAT:     FIELD
 LOC .        Survey  PSL              - Abs  6331     - Blk  45   - Section  19:     LOCATION
 CNTY.                                              TX:     COUNTY
 STAT.                                              TX:     STATE
 CTRY.                        UNITED STATES OF AMERICA:     COUNTRY
 SRVC.                                      GEOGRAPHIX:     SERVICE COMPANY
 DATE.                                                :     DATE
 API .                                  42109313620000:     API NUMBER
 UWI .                                  42109313620000:     UWI NUMBER
 TVD .                                              NO:     TVD flag
 WSTA.                                             LOC:     Well status
#
~Curve Information Block
#MNEM.UNIT       API CODE      Curve Description
#----------    -------------   -------------------
 DEPT.F                    :   Depth in Feet
 LLD .OHMM                 :   LATEROLOG DEEP
 GRS .GAPI                 :   GAMMA RAY FROM SONIC LOG
 CALS.IN                   :   CALIPER FROM SONIC LOG
 MSFL.OHMM                 :   MICRO SPHERICALLY FOCUSED
 LLS .OHMM                 :   LATEROLOG SHALLOW
 DT  .US/F                 :   DELTA TIME
#
~Parameter Information Block
#MNEM.UNIT            Value               Description
#----------    --------------------    -------------------
 RUN .                         ONE:    Run Number
 PDAT.                          GL:    Permanent Datum
 EPD .FT                          :    Elevation Of Perm. Datum
 LMF .               KELLY BUSHING:    Log Measured From
 EKB .FT                          :    Elevation Of Kelly Bushing
 DF .FT                           :    Elevation Of Derrick Floor
 GL .FT                           :    Elevation Of Ground Level
 TD  .FT                          :    Total Depth
 CSGD.FT                          :    Casing Bottom (Driller) 1
 CSGL.FT                          :    Casing Bottom (Logger) 1
 MUD .                            :    Drilling Fluid Type
 MUDV .CP                         :    Drilling Fluid Viscosity
 MUDD .LB/USG                     :    Drilling Fluid Density
 FL .ML/30MIN                     :    Drilling Fluid Loss
 PH.                              :    Drilling Fluid Ph
 MUDS .                           :    Mud Sample Source
 RM .OHMM                         :    Resistivity Of Mud Sample
 RMT .DEGF                        :    Mud Sample Temperature
 RMF .OHMM                        :    Mud Filtrate Resistivity
 RMFT.DEGF                        :    Mud Filtrate Sample Temperature
 RMC .OHMM                        :    Mud Cake Resistivity
 RMCT.DEGF                        :    Mud Cake Sample Temperature
 RMB .OHMM                        :    Mud Resistivity At Bht
 TMAX .DEGF                       :    Bottom Hole Temperature
#
~Other Information Block
<DescLogPlotStart>   NEURALOG PLOT DEFINITION
PLOTDEFVERSION: 3
LASFILE: E:\Nair Innovations\42_TEXAS\109_Culberson\42109313620000_1.las
DEPTHSCALE: 239.999996
RESOLUTION: 200
DEPTHLABELFREQ: 100.000000
HEAVYGRIDFREQ: 50.000000
MEDIUMGRIDFREQ: 50.000000
LIGHTGRIDFREQ: 10.000000
#
#   TRACK 1
#
STARTTRACK: 
 LEFTX: 0.500000 inch
 RIGHTX: 3.000000 inch
 SCALETYPE: Linear
 NUMCHARTDIVISIONS: 10
CURVE: GRS   1.504600   250.000000 (0,0,255)      Solid             2     N    
CURVE: CALS  6.474400   14.873500  (0,131,131)    Solid             2     N    
ENDTRACK: 
#
#   TRACK 2
#
STARTTRACK: 
 LEFTX: 3.500000 inch
 RIGHTX: 6.000000 inch
 SCALETYPE: Log
 NUMCYCLES: 4
 STARTCYCLE: 2
CURVE: LLS   0.200000   2000.000000 (255,0,0)      Solid             4     Y   
BACKUP: 2000.000000 20000000.000000 (255,0,0)      Solid             4    
BACKUP: 0.000020   0.200000   (255,0,0)      Solid             4    
CURVE: MSFL  0.200000   2000.000000 (0,131,131)    Solid             2     N   
ENDTRACK: 
#
#   TRACK 3
#
STARTTRACK: 
 LEFTX: 6.500000 inch
 RIGHTX: 9.000000 inch
 SCALETYPE: Linear
 NUMCHARTDIVISIONS: 10
CURVE: LLD   0.200000   2000.000000 (255,0,255)    Solid             4     N   
CURVE: DT    190.000000 50.000000  (255,0,131)    Solid             2     N    
ENDTRACK: 
<DescLogPlotEnd>
<DepthTrack type='Reference' track='1' Label='0' color='0' hor='0' />
<Reference font='144,0,-900,0,500,0,16777216,Arial' />
~A DEPTH     LLD              GRS              CALS             MSFL             LLS              DT              
# ...
   14101.000 9.30710000       122.71840000     7.08340000       4.52360000       8.29390000       87.87150000     
   14101.500 10.24460000      122.12640000     7.08280000       2.73290000       8.52090000       86.95910000     
   14102.000 10.10050000      120.75900000     7.11250000       8.27590000       8.43000000       87.67050000     
   14102.500 8.79790000       120.42340000     7.16170000       4.10030000       7.70600000       91.80970000     
   14103.000 7.74540000       122.29500000     7.21360000       0.41250000       6.85560000       92.06420000     
   14103.500 7.23380000       123.41490000     7.23140000       0.41670000       6.87890000       91.46820000     
   14104.000 7.15140000       115.87250000     7.27670000       1.44350000       7.12860000       89.89680000     
   14104.500 7.41860000       112.09640000     7.30830000       2.21080000       7.62600000       88.48450000     
   14105.000 7.80680000       111.70900000     7.35040000       0.47480000       8.28000000       86.77350000     
   14105.500 8.14130000       112.07450000     7.34980000       0.54470000       9.24070000       84.58460000     
   14106.000 8.55780000       112.81660000     7.28880000       1.42750000       10.03320000      80.93670000     
   14106.500 8.89780000       109.95690000     7.25800000       1.46360000       9.75920000       77.10650000     
   14107.000 8.89490000       101.49760000     7.22720000       1.42160000       8.86210000       80.02400000     
   14107.500 9.01550000       99.98260000      7.25680000       1.46620000       8.73930000       82.21200000     
   14108.000 8.88900000       101.95560000     7.28640000       0.38510000       9.50690000       83.12340000     
   14108.500 8.76460000       104.01090000     7.35260000       1.38240000       10.18050000      87.54030000     
   14109.000 8.40340000       106.30540000     7.45670000       3.77810000       10.30050000      90.65830000     
   14109.500 7.93380000       108.03540000     7.69150000       2.80090000       9.67690000       91.61510000     
   14110.000 7.37240000       110.56670000     7.51080000       0.31460000       8.77580000       91.69310000     
   14110.500 6.88100000       113.46560000     7.36310000       0.22200000       7.75770000       91.46310000     
   14111.000 6.61490000       117.21970000     7.33030000       1.07740000       6.91490000       91.08690000     
   14111.500 6.46100000       120.59730000     7.34260000       1.74820000       6.62760000       90.96220000     
   14112.000 6.63410000       121.71590000     7.31180000       0.27650000       6.81070000       91.22460000     
   14112.500 7.02140000       120.95190000     7.28090000       0.99440000       7.19430000       91.50840000     
   14113.000 7.40650000       115.66980000     7.28030000       1.53490000       7.39330000       91.30350000     
   14113.500 7.30280000       112.27030000     7.24950000       0.43510000       7.39180000       90.41310000     
   14114.000 7.30040000       113.57070000     7.15830000       1.46100000       7.28950000       90.38350000     
   14114.500 7.29800000       118.31740000     7.09720000       3.93570000       7.38890000       91.05050000     
   14115.000 7.81540000       118.63810000     7.06650000       2.56770000       7.80500000       91.41480000     
   14115.500 8.14230000       116.18150000     7.06590000       3.98810000       8.59980000       89.49950000     
   14116.000 8.37470000       115.11050000     7.06770000       1.12350000       8.72480000       88.12430000     
   14116.500 8.59750000       114.84010000     7.12950000       3.79190000       8.82760000       92.05180000     
   14117.000 8.59440000       116.38880000     7.15470000       3.51780000       8.82560000       95.60760000     
   14117.500 8.44020000       126.17080000     7.18440000       3.05400000       8.70340000       95.59800000     
   14118.000 8.04750000       126.85360000     7.22410000       1.56170000       8.26720000       95.51550000     
   14118.500 7.74970000       123.63470000     7.29810000       0.78280000       7.43130000       95.47480000     
   14119.000 7.79780000       113.10400000     7.39200000       0.68020000       7.37520000       95.30680000     
   14119.500 8.34600000       106.40550000     7.48590000       0.27160000       7.89810000       94.56850000     
   14120.000 8.57620000       107.35640000     7.54380000       0.31590000       8.69410000       92.67260000     
   14120.500 8.57330000       110.82630000     7.48270000       1.37770000       8.93470000       88.94270000     
   14121.000 8.57050000       113.22820000     7.39150000       0.75160000       9.18190000       87.38520000     
   14121.500 8.56760000       115.47620000     7.33050000       1.30320000       9.18010000       85.53780000     
   14122.000 8.56480000       117.72430000     7.29970000       6.98790000       8.92930000       87.21390000     
   14122.500 8.55720000       117.71340000     7.26890000       3.46180000       8.68540000       94.41710000     
   14123.000 8.19950000       116.19640000     7.26830000       0.96160000       8.20460000       93.68720000     
   14123.500 7.96610000       116.14800000     7.29950000       0.53100000       7.97990000       87.03020000     
   14124.000 7.87490000       122.95160000     7.37180000       0.55780000       7.88390000       82.92640000     
   14124.500 8.01900000       122.94050000     7.64540000       2.35190000       8.13180000       88.21470000     
   14125.000 8.04310000       122.86570000     8.13440000       1.62290000       8.36430000       87.30240000     
   14125.500 7.76130000       121.30260000     10.16040000      0.33240000       8.55660000       85.47830000     
   14126.000 7.11800000       114.52480000     10.59210000      0.21900000       8.16520000       89.51720000     
   14126.500 4.92250000       103.40470000     10.67790000      0.20670000       7.14010000       99.70220000     
   14127.000 4.11450000       92.52060000      10.67730000      0.20530000       6.06380000       119.21550000    
   14127.500 3.43910000       83.97880000      10.64650000      0.20530000       4.73360000       124.23020000    
   14128.000 3.07940000       82.23060000      10.67600000      0.20520000       3.40270000       99.97440000     
   14128.500 2.68240000       89.40180000      10.37330000      0.20520000       2.65630000       99.81410000     
   14129.000 2.57300000       95.09280000      9.73830000       0.20800000       2.07360000       99.33520000     
   14129.500 3.09670000       98.35270000      8.65010000       0.21080000       2.16050000       97.14630000     
   14130.000 3.49710000       99.47290000      7.86400000       0.21370000       3.40000000       91.85710000     
   14130.500 3.75290000       98.70730000      7.84540000       0.54470000       5.28230000       88.02690000     
   14131.000 3.98970000       97.94330000      7.54440000       1.48780000       5.35940000       79.45500000     
   14131.500 4.44470000       97.17930000      7.29260000       1.20220000       5.45240000       86.02870000     
   14132.000 6.53330000       100.93340000     7.21230000       0.34710000       6.49040000       98.78540000     
   14132.500 7.52130000       106.20870000     7.37110000       0.46330000       7.96680000       89.81870000     
   14133.000 7.82630000       109.24590000     7.61860000       0.55920000       8.41370000       88.49150000     
   14133.500 6.81700000       110.68970000     7.73890000       0.31950000       7.91930000       89.55340000     
   14134.000 6.27440000       110.22830000     7.85910000       1574.80030000    6.78160000       93.69490000     
   14134.500 5.54140000       109.91340000     7.76790000       728.25210000     5.88110000       95.70700000     
   14135.000 5.10040000       109.90210000     7.79750000       2.33830000       5.26760000       97.93200000     
   14135.500 4.82550000       109.08620000     8.25010000       0.76050000       4.65370000       95.31710000     
