###############################################
##         ENVERUS                           ##
##         ESS - Open Hole                   ##
##         PERMIAN / DELAWARE                ##
##         Nov 03 2023  V4.0                 ##
##         42-109-33370-00-00                ##
###############################################
## Copyright 2017-2023  ENVERUS.  All Rights Reserved. 
## Confidential - Property of ENVERUS, use governed by terms and 
## conditions found within the existing Information Services Subscription Agreement 
## (as may be amended, the “ISSA”) between Customer and ENVERUS. 
## 
~VERSION INFORMATION
# MNEM.UNIT                               DATA : DESCRIPTION OF MNEMONIC
#-----.-----     ----------------------------- : -----------------------------
VERS.                                     2.00 : CWLS LOG ASCII STANDARD - VERSION 2.00
WRAP.                                       NO : MULTIPLE LINES PER DEPTH STEP
VEND.                                  ENVERUS : VENDOR
TYPE.                          ESS - OPEN HOLE : ENVERUS ESSENTIAL CURVES – ACCESSIBLE THROUGH ENVERUS PRISM(TM)
DOC.                                  52814434 : ENVERUS HEADER RAW DOCUMENT ID
#___________________________________________________________________________________________________ 
~WELL INFORMATION 
# 4wk/Fx8UuugU+iebl2dHJIcndKaYvWbTE+/Vf37HP7rynMiEVi3nAb6NYbehQO/VbM9PVY38flJCaeNisGRn4g== 
# MNEM.UNIT                                              DATA : DESCRIPTION OF MNEMONIC 
#-----.-----                    ----------------------------- : ----------------------------- 
CNTY.                                               CULBERSON : COUNTY 
STATE.                                                  TEXAS : STATE 
CNTRY.                                                    USA : COUNTRY 
API.                                             42-109-33370 : API (10 Digit) 
API_14.                                    42-109-33370-00-00 : API (14 Digits) 
API_14_std.                                 42-109-33370-0000 : API (14 Digits Standard) 
UWI.                                           42109333700000 : UNIQUE WELL ID 
WELL.                                       ROXANNE FEE 46 3H : WELL NAME
STRT.FT                                                8800.0 : START DEPTH
STOP.FT                                               14157.0 : STOP DEPTH
STEP.FT                                                   0.5 : STEP BETWEEN DEPTHS
NULL.                                                 -999.25 : NULL VALUE
LOC.                                        API  42-109-33370 : LOCATION 
FL1.                                        API  42-109-33370 : LOCATIONLINE1 
DMF.                                                       KB : DRILL MEAS FROM 
PDAT.                                                      GL : PERMANENT DATUM 
FLD.                                    FORD, WEST (WOLFCAMP) : FIELD NAME 
COMP.                                          CAPITAN ENERGY : COMPANY 
DATE.                                             29-APR-2019 : DATE 
SVCO.                                             HALLIBURTON : SERVICECONAME 
PROV.                                                   TEXAS : PROVINCE 
BASI.                                                 PERMIAN : BASIN 
RANG.                                                     N/A : RANGE 
TOWN.                                                     N/A : TOWNSHIP 
SECT.                                                     N/A : SECTION 
SON.                                                905631605 : JOB NUMBER 
SRVC.                                             HALLIBURTON : SERVICE COMPANY 
LMF.                                                       KB : LOG MEASURED FROM 
BAP.FT                                                 0.0000 : GL ELEV ONSHORE 
GVFD.G                                                 1.0000 : GRAVITY FIELD
#___________________________________________________________________________________________________ 
~CURVE INFORMATION 
# MNEM.UNIT           : CURVE DESCRIPTION 
#-----.-----          : ----------------------------- 
 DEPT.FT               : MEASURED DEPTH 
 GR.API                : GAMMA RAY (GR_CHI - GR_CHI) 
 GR__01.API            : GAMMA RAY (GR_OH - GR_OH) 
 DT.US/FT              : SONIC DELTA TRANSIT TIME (DTC_CHI - DTC_CHI) 
 DT__01.US/FT          : SONIC DELTA TRANSIT TIME (DTC_OH - DTC_OH) 
 PE.B/E                : PHOTOELECTRIC EFFECT/FACTOR (PE_CHI - PE_CHI) 
 PE__01.B/E            : PHOTOELECTRIC EFFECT/FACTOR (PE_OH - PE_OH) 
 RESS_10.OHMM          : 10 INCH SHALLOW INDUCTION RESISTIVITY (RT10_CHI - RT10_CHI) 
 RESS_10__01.OHMM      : 10 INCH SHALLOW INDUCTION RESISTIVITY (RT10_OH - RT10_OH) 
 RESM_30.OHMM          : 30 INCH MEDIUM INDUCTION RESISTIVITY (RT30_CHI - RT30_CHI) 
 RESM_30__01.OHMM      : 30 INCH MEDIUM INDUCTION RESISTIVITY (RT30_OH - RT30_OH) 
 RESD_90.OHMM          : 90 INCH DEEP INDUCTION RESISTIVITY (RT90_CHI - RT90_CHI) 
 RESD_90__01.OHMM      : 90 INCH DEEP INDUCTION RESISTIVITY (RT90_OH - RT90_OH) 
 NPHI.V/V              : NEUTRON POROSITY (NPHI_CHI - NPHI_CHI) 
 NPHI__01.V/V          : NEUTRON POROSITY (NPHI_OH - NPHI_OH) 
 SPHI.V/V              : SONIC POROSITY (SPHI_CHI - SPHI_CHI) 
 RHOB.G/CC             : BULK DENSITY (RHOB_CHI - RHOB_CHI) 
 RHOB__01.G/CC         : BULK DENSITY (RHOB_OH - RHOB_OH) 
 #___________________________________________________________________________________________________ 
~A         DEPT             GR         GR__01             DT         DT__01             PE         PE__01        RESS_10    RESS_10__01        RESM_30    RESM_30__01        RESD_90    RESD_90__01           NPHI       NPHI__01           SPHI           RHOB       RHOB__01
# ...
        11650.0         89.209       -999.250         73.668       -999.250         3.4601      -999.2500         36.168       -999.250         37.360       -999.250         39.745       -999.250        0.13650     -999.25000        0.18390         2.5811      -999.2500
        11650.5         91.620       -999.250         73.724       -999.250         3.4514      -999.2500         36.221       -999.250         37.415       -999.250         39.803       -999.250        0.13750     -999.25000        0.18420         2.5796      -999.2500
        11651.0         92.018       -999.250         73.661       -999.250         3.4447      -999.2500         36.263       -999.250         37.458       -999.250         39.849       -999.250        0.13680     -999.25000        0.18390         2.5794      -999.2500
        11651.5         91.624       -999.250         73.545       -999.250         3.4396      -999.2500         36.343       -999.250         37.541       -999.250         39.937       -999.250        0.13510     -999.25000        0.18350         2.5797      -999.2500
        11652.0         90.784       -999.250         73.432       -999.250         3.4390      -999.2500         36.445       -999.250         37.646       -999.250         40.049       -999.250        0.13350     -999.25000        0.18290         2.5804      -999.2500
        11652.5         89.877       -999.250         73.382       -999.250         3.4432      -999.2500         36.485       -999.250         37.688       -999.250         40.093       -999.250        0.13290     -999.25000        0.18250         2.5810      -999.2500
        11653.0         88.545       -999.250         73.346       -999.250         3.4500      -999.2500         36.352       -999.250         37.550       -999.250         39.947       -999.250        0.13270     -999.25000        0.18220         2.5820      -999.2500
        11653.5         87.084       -999.250         73.308       -999.250         3.4551      -999.2500         35.963       -999.250         37.149       -999.250         39.520       -999.250        0.13310     -999.25000        0.18210         2.5831      -999.2500
        11654.0         85.876       -999.250         73.298       -999.250         3.4566      -999.2500         35.328       -999.250         36.492       -999.250         38.822       -999.250        0.13390     -999.25000        0.18230         2.5840      -999.2500
        11654.5         86.022       -999.250         73.348       -999.250         3.4497      -999.2500         34.518       -999.250         35.656       -999.250         37.932       -999.250        0.13550     -999.25000        0.18290         2.5840      -999.2500
        11655.0         88.652       -999.250         73.523       -999.250         3.4347      -999.2500         33.687       -999.250         34.797       -999.250         37.019       -999.250        0.13840     -999.25000        0.18420         2.5822      -999.2500
        11655.5         94.817       -999.250         73.855       -999.250         3.4128      -999.2500         32.986       -999.250         34.074       -999.250         36.249       -999.250        0.14290     -999.25000        0.18620         2.5780      -999.2500
        11656.0        102.772       -999.250         74.256       -999.250         3.3884      -999.2500         32.418       -999.250         33.487       -999.250         35.624       -999.250        0.14770     -999.25000        0.18850         2.5726      -999.2500
        11656.5        110.914       -999.250         74.662       -999.250         3.3631      -999.2500         31.832       -999.250         32.881       -999.250         34.980       -999.250        0.15230     -999.25000        0.19090         2.5670      -999.2500
        11657.0        117.104       -999.250         74.980       -999.250         3.3394      -999.2500         31.059       -999.250         32.083       -999.250         34.131       -999.250        0.15610     -999.25000        0.19290         2.5627      -999.2500
        11657.5        121.213       -999.250         75.194       -999.250         3.3160      -999.2500         30.035       -999.250         31.025       -999.250         33.005       -999.250        0.15920     -999.25000        0.19450         2.5599      -999.2500
        11658.0        123.152       -999.250         75.316       -999.250         3.2944      -999.2500         28.817       -999.250         29.767       -999.250         31.667       -999.250        0.16130     -999.25000        0.19550         2.5585      -999.2500
        11658.5        123.547       -999.250         75.379       -999.250         3.2765      -999.2500         27.540       -999.250         28.448       -999.250         30.264       -999.250        0.16240     -999.25000        0.19610         2.5579      -999.2500
        11659.0        123.217       -999.250         75.396       -999.250         3.2628      -999.2500         26.318       -999.250         27.186       -999.250         28.921       -999.250        0.16230     -999.25000        0.19650         2.5576      -999.2500
        11659.5        122.242       -999.250         75.405       -999.250         3.2522      -999.2500         25.143       -999.250         25.972       -999.250         27.630       -999.250        0.16140     -999.25000        0.19680         2.5575      -999.2500
        11660.0        121.865       -999.250         75.444       -999.250         3.2433      -999.2500         24.053       -999.250         24.846       -999.250         26.432       -999.250        0.16080     -999.25000        0.19710         2.5570      -999.2500
        11660.5        122.487       -999.250         75.499       -999.250         3.2300      -999.2500         23.056       -999.250         23.817       -999.250         25.337       -999.250        0.16100     -999.25000        0.19760         2.5561      -999.2500
        11661.0        124.720       -999.250         75.635       -999.250         3.2142      -999.2500         22.186       -999.250         22.917       -999.250         24.380       -999.250        0.16310     -999.25000        0.19830         2.5545      -999.2500
        11661.5        128.019       -999.250         75.768       -999.250         3.1907      -999.2500         21.436       -999.250         22.143       -999.250         23.556       -999.250        0.16550     -999.25000        0.19900         2.5523      -999.2500
        11662.0        132.712       -999.250         75.895       -999.250         3.1637      -999.2500         20.895       -999.250         21.584       -999.250         22.962       -999.250        0.16790     -999.25000        0.19960         2.5495      -999.2500
        11662.5        136.287       -999.250         75.898       -999.250         3.1366      -999.2500         20.576       -999.250         21.255       -999.250         22.612       -999.250        0.16880     -999.25000        0.19980         2.5474      -999.2500
        11663.0        138.867       -999.250         75.879       -999.250         3.1196      -999.2500         20.502       -999.250         21.177       -999.250         22.529       -999.250        0.16910     -999.25000        0.19980         2.5459      -999.2500
        11663.5        140.084       -999.250         75.842       -999.250         3.1124      -999.2500         20.638       -999.250         21.319       -999.250         22.679       -999.250        0.16890     -999.25000        0.19960         2.5453      -999.2500
        11664.0        140.382       -999.250         75.814       -999.250         3.1136      -999.2500         20.966       -999.250         21.657       -999.250         23.040       -999.250        0.16870     -999.25000        0.19930         2.5453      -999.2500
        11664.5        140.126       -999.250         75.788       -999.250         3.1196      -999.2500         21.497       -999.250         22.206       -999.250         23.623       -999.250        0.16860     -999.25000        0.19890         2.5457      -999.2500
