###############################################
##         ENVERUS                           ##
##         ESS - Open Hole                   ##
##         PERMIAN / DELAWARE                ##
##         Nov 02 2023  V4.0                 ##
##         42-109-31383-00-00                ##
###############################################
## Copyright 2017-2023  ENVERUS.  All Rights Reserved. 
## Confidential - Property of ENVERUS, use governed by terms and 
## conditions found within the existing Information Services Subscription Agreement 
## (as may be amended, the “ISSA”) between Customer and ENVERUS. 
## 
~VERSION INFORMATION
# MNEM.UNIT                               DATA : DESCRIPTION OF MNEMONIC
#-----.-----     ----------------------------- : -----------------------------
VERS.                                     2.00 : CWLS LOG ASCII STANDARD - VERSION 2.00
WRAP.                                       NO : MULTIPLE LINES PER DEPTH STEP
VEND.                                  ENVERUS : VENDOR
TYPE.                          ESS - OPEN HOLE : ENVERUS ESSENTIAL CURVES – ACCESSIBLE THROUGH ENVERUS PRISM(TM)
DOC.                                  31887493 : ENVERUS HEADER RAW DOCUMENT ID
#___________________________________________________________________________________________________ 
~WELL INFORMATION 
# e8MMFGpko9nixUfuEkfb9P8cKS4olzuguLrtdgPIjARTX3oRymgI2EYtnk6GmA/F0PbYW2Z7xnLx5OgyGayifw== 
# MNEM.UNIT                                              DATA : DESCRIPTION OF MNEMONIC 
#-----.-----                    ----------------------------- : ----------------------------- 
CNTY.                                               CULBERSON : COUNTY 
STATE.                                                  TEXAS : STATE 
CNTRY.                                                    USA : COUNTRY 
API.                                             42-109-31383 : API (10 Digit) 
API_14.                                    42-109-31383-00-00 : API (14 Digits) 
API_14_std.                                 42-109-31383-0000 : API (14 Digits Standard) 
UWI.                                           42109313830000 : UNIQUE WELL ID 
WELL.                                          KIRK  T. A.  1 : WELL NAME
STRT.FT                                                  43.0 : START DEPTH
STOP.FT                                               16492.0 : STOP DEPTH
STEP.FT                                                   0.5 : STEP BETWEEN DEPTHS
NULL.                                                 -999.25 : NULL VALUE
COMP.                                             EXXON CORP. : COMPANY 
DATE.                                             05-AUG-1981 : LOG DATE
#___________________________________________________________________________________________________ 
~CURVE INFORMATION 
# MNEM.UNIT           : CURVE DESCRIPTION 
#-----.-----          : ----------------------------- 
 DEPT.FT               : MEASURED DEPTH 
 CALI.IN               : CALIPER (CAL - CAL) 
 GR.API                : GAMMA RAY (GR) 
 SP.MV                 : SPONTANEOUS POTENTIAL (SP) 
 DT.US/FT              : SONIC DELTA TRANSIT TIME (DT) 
 RESS.OHMM             : SHALLOW INDUCTION RESISTIVITY (ILS - ILS) 
 RESD.OHMM             : DEEP INDUCTION RESISTIVITY (ILD - ILD) 
 NPHI.V/V              : NEUTRON POROSITY (NPHI) 
 #___________________________________________________________________________________________________ 
~A         DEPT           CALI             GR             SP             DT           RESS           RESD           NPHI
# ...
         6475.0         12.792        106.810       -999.250         79.906        216.206        432.372     -999.25000
         6475.5         12.793        109.834       -999.250         81.954        221.862        444.009     -999.25000
         6476.0         12.793        112.859       -999.250         82.341        227.518        455.646     -999.25000
         6476.5         12.794        115.883       -999.250         81.847        233.175        467.283     -999.25000
         6477.0         12.794        118.907       -999.250         81.353        238.831        478.920     -999.25000
         6477.5         12.795        121.931       -999.250         80.859        236.925        490.557     -999.25000
         6478.0         12.795        126.162       -999.250         80.365        230.307        495.902     -999.25000
         6478.5         12.796        134.149       -999.250         80.797        223.690        493.252     -999.25000
         6479.0         12.796        142.135       -999.250         82.476        221.446        490.602     -999.25000
         6479.5         12.797        150.122       -999.250         84.156        222.226        487.952     -999.25000
         6480.0         12.797        146.338       -999.250         85.835        223.007        485.301     -999.25000
         6480.5         12.798        131.961       -999.250         75.608        223.787        482.651     -999.25000
         6481.0         12.798        116.662       -999.250         72.955        224.567        480.001     -999.25000
         6481.5         12.799        100.282       -999.250         70.302        217.823        469.346     -999.25000
         6482.0         12.800         83.903       -999.250         67.649        210.958        447.910     -999.25000
         6482.5         12.800         67.524       -999.250         65.071        204.093        426.473     -999.25000
         6483.0         12.801         51.144       -999.250         62.864        197.228        405.037     -999.25000
         6483.5         12.801         45.377       -999.250         60.656        190.363        383.600     -999.25000
         6484.0         12.802         39.955       -999.250         58.448        200.036        387.430     -999.25000
         6484.5         12.802         34.533       -999.250         56.241        214.509        403.121     -999.25000
         6485.0         12.803         29.111       -999.250         54.033        228.981        418.811     -999.25000
         6485.5         12.803         23.689       -999.250         53.813        243.454        436.922     -999.25000
         6486.0         12.804         18.267       -999.250         53.636        257.926        457.301     -999.25000
         6486.5         12.804         12.845       -999.250         53.458        257.914        477.681     -999.25000
         6487.0         12.805          9.616       -999.250         53.559        249.476        517.178     -999.25000
         6487.5         12.805         10.290       -999.250         54.727        241.039        562.707     -999.25000
         6488.0         12.806         10.964       -999.250         57.927        250.610        608.236     -999.25000
         6488.5         12.806         11.638       -999.250         61.127        272.608        653.765     -999.25000
         6489.0         12.807         37.106       -999.250         64.327        294.606        699.294     -999.25000
         6489.5         12.807         45.627       -999.250         67.318        316.604        745.926     -999.25000
         6490.0         12.808         43.572       -999.250         66.213        320.349        847.286     -999.25000
         6490.5         12.809         41.516       -999.250         65.109        315.832        948.645     -999.25000
         6491.0         12.809         39.461       -999.250         65.415        311.315       1050.004     -999.25000
         6491.5         12.810         40.491       -999.250         66.970        306.798       1151.363     -999.25000
         6492.0         12.810         44.899       -999.250         68.526        316.300       1252.722     -999.25000
         6492.5         12.811         49.307       -999.250         69.045        328.192       1354.081     -999.25000
         6493.0         12.811         53.715       -999.250         68.710        340.085       1455.440     -999.25000
         6493.5         12.812         57.720       -999.250         68.376        341.053       1404.573     -999.25000
         6494.0         12.812         60.732       -999.250         69.536        334.953       1331.459     -999.25000
         6494.5         12.813         63.743       -999.250         73.105        328.854       1258.345     -999.25000
         6495.0         12.813         66.754       -999.250         76.674        322.755       1185.231     -999.25000
         6495.5         12.814         74.571       -999.250         80.243        321.759       1234.607     -999.25000
         6496.0         12.814         82.958       -999.250         80.097        331.151       1287.455     -999.25000
         6496.5         12.815         91.344       -999.250         79.749        340.543       1340.304     -999.25000
         6497.0         12.815         99.731       -999.250         79.402        349.935       1381.759     -999.25000
         6497.5         12.816        108.117       -999.250         79.054        328.910       1050.249     -999.25000
         6498.0         12.816        113.439       -999.250         78.707        291.389        857.220     -999.25000
         6498.5         12.817        116.915       -999.250         78.360        264.934        664.191     -999.25000
         6499.0         12.818        120.392       -999.250         77.914        269.490        616.169     -999.25000
         6499.5         12.818        130.818       -999.250         76.489        274.045        606.634     -999.25000
         6500.0         12.819        167.353       -999.250         75.064        278.600        597.098     -999.25000
         6500.5         12.819        157.327       -999.250         73.639        272.754        587.563     -999.25000
         6501.0         12.820        114.268       -999.250         72.213        266.414        578.027     -999.25000
         6501.5         12.820         90.303       -999.250         73.754        260.074        568.492     -999.25000
         6502.0         12.821        102.158       -999.250         77.038        261.086        558.625     -999.25000
         6502.5         12.821        114.013       -999.250         80.321        262.533        546.307     -999.25000
         6503.0         12.822        122.368       -999.250         81.984        263.979        533.990     -999.25000
         6503.5         12.822        105.132       -999.250         79.486        265.425        521.672     -999.25000
         6504.0         12.823         87.897       -999.250         76.987        266.871        509.355     -999.25000
         6504.5         12.823         70.661       -999.250         74.489        268.185        497.037     -999.25000
         6505.0         12.824         71.800       -999.250         72.289        268.206        481.723     -999.25000
         6505.5         12.824         82.595       -999.250         74.410        268.227        456.765     -999.25000
         6506.0         12.825         93.389       -999.250         76.531        241.825        431.806     -999.25000
         6506.5         12.826        104.184       -999.250         78.851        215.228        406.848     -999.25000
         6507.0         12.826        114.979       -999.250         81.308        192.257        381.889     -999.25000
         6507.5         12.825        125.540       -999.250         83.764        190.492        356.931     -999.25000
         6508.0         12.822        134.465       -999.250         86.220        196.232        331.972     -999.25000
