~VERSION INFORMATION
VERS. 2.0 : CWLS Log ASCII Standard - version 2.0
WRAP.  NO : One line per depth step
#--------------------------------------------------#
#----------------DRILLING INFO, INC.---------------#
#---------------WWW.DRILLINGINFO.COM---------------#
#------------------COPYRIGHT 2015------------------#
#--------------------------------------------------#
#THIS FILE MAY BE USED ONLY IN ACCORDANCE WITH A CURRENT SUBSCRIPTION AGREEMENT BETWEEN
#THE USER AND DRILLING INFO, INC. NO PART OF THIS FILE MAY BE REPRODUCED, USED, COPIED,
#MODIFIED, PROPAGATED, OR DISTRIBUTED EXCEPT IN ACCORDANCE WITH THE SUBSCRIPTION
#AGREEMENT. UNAUTHORIZED USE OR DISTRIBUTION OF ALL OR ANY PART OF THIS FILE MAY VIOLATE
#COPYRIGHT, TRADEMARK, AND/OR OTHER LAWS AND IS SUBJECT TO CIVIL AS WELL AS CRIMINAL
#SANCTIONS.
#--------------------------------------------------#
#THIS FILE IS PROVIDED "AS-IS" AND ALL WARRANTIES ARE EXPRESSLY DISCLAIMED, WHETHER
#EXPRESS, ORAL, IMPLIED, STATUTORY OR OTHERWISE, INCLUDING ANY IMPLIED WARRANTY OF FITNESS
#FOR A PARTICULAR PURPOSE, MERCHANTABILITY, TITLE OR NON-INFRINGEMENT, AND ANY WARRANTIES
#ARISING BY VIRTUE OF CUSTOM OF TRADE OR COURSE OF DEALING.  FURTHER, DRILLING INFO,
#INC. AND ITS LICENSORS DO NOT REPRESENT OR WARRANT THAT THIS FILE WILL MEET USER'S
#REQUIREMENTS OR ARE SUITABLE FOR USER'S NEEDS OR THAT THE DATA OR RESULTS PROVIDED IN
#CONJUNCTION THEREWITH ARE CORRECT, ACCURATE, TIMELY OR RELIABLE. THESE DISCLAIMERS SHALL
#APPLY REGARDLESS OF ANY FAILURE OF ESSENTIAL PURPOSE OF ANY LIMITED REMEDY.  SOME
#JURISDICTIONS DO NOT ALLOW THE EXCLUSION OF CERTAIN WARRANTIES SO SOME OF THE ABOVE
#EXCLUSIONS MAY NOT APPLY. IN NO EVENT SHALL DRILLING INFO, INC. OR ANY OF ITS AFFILIATES
#BE LIABLE UNDER ANY LEGAL THEORY, WHETHER IN TORT (INCLUDING WITHOUT LIMITATION
#NEGLIGENCE), CONTRACT, STRICT LIABILITY, STATUTORY OR OTHERWISE, FOR ANY SPECIAL,
#INCIDENTAL, CONSEQUENTIAL, EXEMPLARY, PUNITIVE OR INDIRECT DAMAGE OF ANY KIND, INCLUDING
#WITHOUT LIMITATION LOSS OF REVENUE, PROFITS, GOODWILL, USE, AND/OR DATA OR THE COST OF
#PROCUREMENT OF SUBSTITUTE GOODS OR SERVICES, EVEN IF APPRISED OF THE POSSIBILITY OF SUCH
#DAMAGES IN ADVANCE.
#--------------------------------------------------#
~WELL INFORMATION
#MNEMONIC     .UNIT              VALUE :DESCRIPTION
#--------------------------------------------------#
STRT       .FT                0 :START DEPTH
STOP       .FT                10142 :STOP DEPTH
STEP       .FT                   0.500 :STEP
NULL       .                  -999.250 :NULL
API        .                421093138200 :API NUMBER
COMP       .         SHELL OIL COMPANY :COMPANY
WELL       .        SIBLEY  1 :WELL
DATE       .                08-Aug-1978 :LOG DATE
~CURVE INFORMATION
#MNEMONIC     .UNIT      API CODE :CURVE DESCRIPTION
#--------------------------------------------------#
DEPTH       .FT                      :Measured Depth
CAL.INCH        UNKNOWN   :CAL
DT.US/FT        UNKNOWN   :DT
GR.API        UNKNOWN   :GR
~A    DEPTH    CAL    DT    GR
# ...
 5306.5     12.482   63.472   44.67
 5307     12.487   61.058   51.455
 5307.5     12.492   59.648   58.24
 5308     12.487   61.733   65.025
 5308.5     12.482   63.818   71.81
 5309     12.478   65.903   78.595
 5309.5     12.473   67.989   85.38
 5310     12.468   70.074   80.878
 5310.5     12.463   71.684   66.922
 5311     12.459   70.108   52.766
 5311.5     12.454   68.533   38.609
 5312     12.449   66.067   38.054
 5312.5     12.445   62.665   50.801
 5313     12.44   59.262   63.547
 5313.5     12.435   59.047   67.105
 5314     12.43   61.806   69.113
 5314.5     12.426   64.565   71.12
 5315     12.421   67.324   67.413
 5315.5     12.416   68.427   62.092
 5316     12.411   68.989   63.109
 5316.5     12.409   69.552   64.125
 5317     12.407   70.115   65.142
 5317.5     12.404   70.075   66.159
 5318     12.402   69.83   67.176
 5318.5     12.4   69.584   68.193
 5319     12.398   68.972   69.209
 5319.5     12.395   68.349   70.226
 5320     12.393   67.725   71.243
 5320.5     12.391   69.442   69.012
 5321     12.389   69.949   57.692
 5321.5     12.386   67.501   46.372
 5322     12.384   65.054   38.091
 5322.5     12.382   62.606   46.045
 5323     12.38   60.158   54
 5323.5     12.377   57.71   61.954
 5324     12.375   61.358   69.908
 5324.5     12.373   66.517   71.439
 5325     12.371   71.634   70.39
 5325.5     12.368   71.593   72.339
 5326     12.366   71.553   74.289
 5326.5     12.364   71.513   76.238
 5327     12.361   70.995   77.456
 5327.5     12.359   70.222   77.916
 5328     12.357   69.449   78.841
 5328.5     12.355   68.994   79.998
 5329     12.352   69.043   77.22
 5329.5     12.35   69.093   68.616
 5330     12.359   67.477   55.16
 5330.5     12.37   64.655   41.704
 5331     12.381   61.832   36.346
 5331.5     12.393   59.01   35.315
 5332     12.404   56.187   34.285
 5332.5     12.415   54.519   33.255
 5333     12.427   53.896   35.244
 5333.5     12.438   53.272   41.452
 5334     12.449   53.015   47.66
 5334.5     12.461   54.057   52.437
 5335     12.472   56.88   50.411
 5335.5     12.482   59.704   48.386
 5336     12.477   60.321   47.789
 5336.5     12.473   59.25   51.216
 5337     12.469   58.18   54.643
 5337.5     12.464   57.109   58.071
 5338     12.46   56.038   61.498
 5338.5     12.455   57.797   63.657
 5339     12.451   60.638   65.159
 5339.5     12.446   63.479   66.831
 5340     12.442   66.319   70.75
 5340.5     12.437   69.16   74.387
 5341     12.433   68.774   68.98
 5341.5     12.428   67.393   63.574
 5342     12.424   68.816   59.818
 5342.5     12.441   69.253   59.507
 5343     12.458   67.842   59.196
 5343.5     12.475   66.431   58.885
 5344     12.492   65.02   57.634
 5344.5     12.509   63.609   56.302
 5345     12.526   63.589   54.969
 5345.5     12.543   64.661   54.712
 5346     12.56   65.734   54.8
 5346.5     12.578   66.718   53.39
 5347     12.595   66.24   49.799
 5347.5     12.612   65.762   46.208
 5348     12.629   65.284   42.618
 5348.5     12.646   64.589   39.027
 5349     12.648   63.052   43.698
 5349.5     12.622   61.514   48.769
 5350     12.596   59.977   52.152
 5350.5     12.571   58.439   55.535
 5351     12.545   56.902   58.917
 5351.5     12.519   55.364   62.3
 5352     12.493   55.02   65.683
 5352.5     12.467   57.146   69.065
 5353     12.441   59.273   72.448
 5353.5     12.415   60.229   71.606
 5354     12.395   61.033   69.707
 5354.5     12.388   61.838   67.953
 5355     12.381   63.826   66.199
 5355.5     12.374   65.819   64.445
 5356     12.367   67.812   59.233
 5356.5     12.36   69.504   53.682
 5357     12.353   70.671   48.13
 5357.5     12.346   70.259   50.72
 5358     12.338   68.826   53.885
 5358.5     12.331   67.392   57.05
 5359     12.332   65.959   56.659
 5359.5     12.34   64.526   49.53
 5360     12.347   63.093   43.682
 5360.5     12.355   63.605   44.534
 5361     12.362   66.334   45.387
 5361.5     12.37   63.927   55.084
 5362     12.377   61.519   66.721
 5362.5     12.385   59.112   70.779
 5363     12.392   58.295   73.68
 5363.5     12.4   60.412   76.58
 5364     12.407   62.529   79.48
 5364.5     12.415   64.646   82.38
 5365     12.423   66.519   85.28
 5365.5     12.425   66.023   85.958
 5366     12.421   65.528   85.7
 5366.5     12.417   65.032   85.443
 5367     12.413   65.215   74.886
 5367.5     12.409   65.576   64.207
 5368     12.405   65.938   68.096
 5368.5     12.4   65.395   71.985
 5369     12.396   64.809   75.874
 5369.5     12.392   64.223   79.763
 5370     12.388   63.988   81.432
 5370.5     12.384   66.428   81.118
 5371     12.38   68.868   81.088
 5371.5     12.376   71.176   82.439
 5372     12.372   70.109   83.79
 5372.5     12.368   69.042   79.082
 5373     12.364   67.975   73.204
 5373.5     12.36   67.15   67.325
 5374     12.357   66.998   61.446
 5374.5     12.359   66.788   61.437
 5375     12.361   65.106   67.167
 5375.5     12.363   63.424   72.896
 5376     12.365   63.305   77.65
 5376.5     12.367   65.528   78.938
 5377     12.369   67.751   80.227
 5377.5     12.371   69.973   83.017
 5378     12.374   71.918   88.415
 5378.5     12.376   71.999   93.813
 5379     12.378   72.081   98.801
 5379.5     12.38   72.163   98.57
 5380     12.382   73.806   75.177
 5380.5     12.384   75.942   54.162
 5381     12.386   75.916   59.436
 5381.5     12.388   71.51   64.71
 5382     12.39   67.104   69.984
 5382.5     12.392   62.698   75.258
 5383     12.395   62.416   80.531
 5383.5     12.397   63.421   80.322
 5384     12.399   67.247   79.269
 5384.5     12.401   71.073   80.207
 5385     12.403   72.196   82.172
 5385.5     12.405   72.004   85.698
 5386     12.407   71.812   89.225
 5386.5     12.409   71.62   92.751
 5387     12.41   71.766   96.277
 5387.5     12.41   72.008   91.298
 5388     12.411   72.251   84.876
 5388.5     12.412   70.935   96.171
 5389     12.413   69.546   107.042
 5389.5     12.414   68.157   106.35
 5390     12.415   68.105   104.74
 5390.5     12.416   72.738   98.024
 5391     12.417   76.182   94.64
 5391.5     12.418   74.965   93.325
 5392     12.419   73.747   89.208
 5392.5     12.42   72.53   81.234
 5393     12.42   71.313   73.26
 5393.5     12.421   70.096   66.279
 5394     12.422   68.879   65.662
 5394.5     12.423   67.661   65.045
 5395     12.424   67.561   64.428
 5395.5     12.425   67.956   64.325
 5396     12.426   68.352   66.262
 5396.5     12.427   68.747   68.199
 5397     12.423   68.595   70.136
 5397.5     12.419   68.225   72.072
 5398     12.415   67.855   69.275
 5398.5     12.411   69.038   65.336
 5399     12.408   70.299   61.397
 5399.5     12.404   71.559   56.298
 5400     12.4   71.991   48.865
 5400.5     12.396   71.326   41.431
 5401     12.392   69.407   34.653
 5401.5     12.388   67.155   37.764
 5402     12.384   64.903   40.875
 5402.5     12.381   62.651   43.986
 5403     12.377   60.399   46.052
 5403.5     12.373   58.147   44.167
 5404     12.369   57.982   42.283
 5404.5     12.365   59.339   40.912
 5405     12.361   60.696   40.72
 5405.5     12.358   62.053   40.528
 5406     12.357   62.26   40.335
 5406.5     12.36   61.071   40.143
 5407     12.362   59.883   37.86
 5407.5     12.364   58.694   31.419
 5408     12.366   57.505   24.977
 5408.5     12.368   56.317   19.946
 5409     12.371   55.128   30.313
 5409.5     12.373   53.939   40.681
 5410     12.375   52.75   51.048
 5410.5     12.377   51.562   59.254
 5411     12.379   50.373   52.654
 5411.5     12.382   51.777   46.054
 5412     12.384   54.182   38.315
 5412.5     12.386   56.586   28.988
 5413     12.388   58.862   19.66
 5413.5     12.39   57.089   22.852
 5414     12.393   55.315   32.351
 5414.5     12.395   53.541   41.85
 5415     12.397   51.767   51.349
 5415.5     12.403   50.331   60.848
 5416     12.41   49.683   56.733
 5416.5     12.418   49.034   46.607
 5417     12.426   51.31   36.481
 5417.5     12.433   55.82   26.355
 5418     12.441   60.33   16.229
 5418.5     12.449   63.405   20.786
