# Exported from Transform Software 5.2.0 on 21-Oct-2019 by user kathryn.gehrke
# DI Transform - A Product of Drillinginfo, Inc. - www.drillinginfo.com
#
~VERSION INFORMATION
 VERS.        2.0 : LAS ASCII STANDARD - VERSION 2.0
 WRAP.         NO : ONE LINE PER DEPTH STEP

~WELL INFORMATION
#MNEM.UNIT       DATA TYPE       INFORMATION
#---------       ---------       -----------
 STRT.ft                  30 : Start Depth
 STOP.ft                9000 : Stop Depth
 STEP.ft                 0.5 : Step Length
 NULL.               -999.25 : Null Value
 COMP.                       : Company
 WELL.  42109330470000_API14 : Well Name
 FLD.                        : Field Name
 LOC.                        : Well Location
 CNTY.                       : County
 STAT.                       : State or Province
 CTRY.                       : Country
 SRVC.                       : Service Company
 DATE.                       : Date
 API.         42109330470000 : Well Identifier

~CURVE INFORMATION
#MNEM.UNIT       API CODE       CURVE DESCRIPTION
#---------       --------       -----------------
 DEPT.ft        : <Measured Depth>
 DT.us/ft       : Sonic
 GR.gAPI        : Gamma Ray

~PARAMETER INFORMATION
#MNEM.UNIT       VALUE       DESCRIPTION
#---------       -----       -----------
 EKB.ft      3201 : Elevation above MSL

~A      DEPT          DT          GR
# ...
       572.5    340.5482     14.3678
         573    340.5482     15.0539
       573.5    340.5482      11.113
         574    340.5482      7.9206
       574.5    340.5482      9.9036
         575    340.5482     12.3468
       575.5    340.5482      11.296
         576    340.5482     11.0333
       576.5    340.5482     11.5587
         577    340.5482     11.8214
       577.5    340.5482     11.8214
         578    340.5482     10.2832
       578.5    340.5482      9.1944
         579    340.5482     10.9957
       579.5    340.5482     13.7542
         580    340.5482     18.0145
       580.5    340.5482     24.3568
         581    340.5482     25.0298
       581.5    340.5482     21.0889
         582    340.5482     17.6734
       582.5    340.5482     18.2213
         583    340.5482     20.9438
       583.5    340.5482     21.5412
         584    340.5482     19.7734
       584.5    340.5482     17.7674
         585    340.5482     16.3224
       585.5    340.5482     16.2872
         586    340.5482     18.6168
       586.5    340.5482     17.9325
         587    340.5482     10.8735
       587.5    340.5482       6.373
         588    340.5482       3.449
       588.5    340.5482      3.1524
         589    340.5482      6.7296
       589.5    340.5482      9.4571
         590    340.5482      8.4394
       590.5    340.5482      6.7317
         591    340.5482      6.3047
       591.5    340.5482      8.3413
         592    340.5482     14.6142
       592.5    340.5482     21.3136
         593    340.5482     23.6746
       593.5    340.4817     20.8164
         594    339.4974     16.8755
       594.5    340.4398     14.9737
         595    340.5482      14.711
       595.5    340.5482     12.0452
         596    340.5482     13.8004
       596.5    340.5482     22.7329
         597    340.5482      27.088
       597.5    340.5482      19.721
         598    340.5482     13.1945
       598.5    340.5482     14.7536
         599    340.5482     20.6649
       599.5    340.5482     20.9136
         600    340.5482     17.9214
       600.5    340.5482     15.5567
         601    340.5482     11.0904
       601.5    340.5482      9.1944
         602    340.5482     11.5023
       602.5    340.5482     15.0771
         603    340.5482     16.7848
       603.5    340.5482      17.338
         604    340.5482       16.84
       604.5    340.5482      13.556
         605    340.5482     12.8452
       605.5    340.5482     14.1856
         606    340.5482     11.8744
       606.5    340.5482     10.7706
         607    340.5482     11.5587
       607.5    340.5482     10.9278
         608    340.5482     12.2696
       608.5    340.5482     21.0196
         609    340.5482     27.8206
       609.5    340.5482     23.2177
         610    340.5482     16.3619
       610.5    340.5482     13.2909
         611    340.5482     14.1612
       611.5    340.5482     16.1316
         612    340.5482      18.102
       612.5    340.5482     20.3352
         613    340.5482     19.7496
       613.5    340.5482     15.0206
         614    340.5482     12.6327
       614.5    340.5482     12.3468
         615    340.5482     10.5307
       615.5    340.5482       8.669
         616    340.5482       9.172
       616.5    340.5482     10.3543
         617    340.5482     12.5654
       617.5    340.5482     13.6602
         618    340.5482     13.1565
       618.5    340.5482     13.5075
         619    340.5482     17.0117
       619.5    340.5482     22.1349
         620    340.5482     18.7347
       620.5    340.5482     12.1252
         621    340.5482      9.4775
       621.5    340.5482      9.4571
         622    340.5482     10.4879
       622.5    340.5482      10.659
         623    340.5482      8.9513
       623.5    340.5482       8.781
         624    340.5482     10.7514
       624.5    340.5482     11.8214
         625    340.5482      8.7065
       625.5    340.5482      7.6182
         626    340.5482     10.9783
       626.5    340.5482     17.8271
         627    340.5482     20.7531
       627.5    340.5482     20.4904
         628    340.5482     20.2452
       628.5    340.5482      20.079
         629    340.5482      22.295
       629.5    340.5482     27.4011
         630    340.5482     32.0323
       630.5    340.5482     29.8656
         631    340.5482     21.8853
       631.5    340.5482     16.8448
         632    340.5482     18.3412
       632.5    340.5482     24.1368
         633    340.5482      25.528
       633.5    340.5482     18.7125
         634    340.5482      13.165
       634.5    340.5482     15.7321
         635    340.5482      19.673
       635.5    340.4702     19.3227
         636     340.373     18.9142
       636.5     340.373     18.6515
         637     340.373     18.9004
       637.5     340.373     20.4904
         638     340.373     19.7157
       638.5     340.373     19.1769
         639     340.373     21.2525
       639.5     340.373     21.5412
         640     340.373      20.503
       640.5     340.373     17.4817
         641     340.373     16.0245
       641.5     340.373     19.2723
         642     340.373      26.748
       642.5     340.373     30.3531
         643     340.373     25.5271
       643.5     340.373     23.1173
         644     340.373       23.38
       644.5     340.373     21.4206
         645     340.373     18.9247
       645.5     340.373     17.6007
         646     340.373     17.6007
       646.5     340.373     18.6515
         647     340.373     19.9553
       647.5     340.373     17.8824
         648     340.373     13.6696
       648.5     340.373     13.1349
         649     340.373     14.4394
       649.5     340.373     16.7952
         650     340.373      22.558
       650.5     340.373     31.6301
         651     340.373     31.5479
       651.5     340.373     29.5455
         652     340.373     34.1276
       652.5     340.373     37.0403
         653     340.373     36.2522
       653.5     340.373     37.1646
         654     340.373     37.3167
       654.5     340.373     32.5877
         655     340.373     28.1215
       655.5     340.373     24.5684
         656     340.373       23.38
       656.5     340.373     30.0497
         657     340.373     39.9075
       657.5     340.373     39.5522
         658     340.373     27.8824
       658.5     340.373     18.9242
         659     340.373     18.3792
       659.5     340.373     22.1841
         660     340.373     28.0954
       660.5     340.373     30.2102
         661     340.373     27.8539
       661.5     340.373     26.4048
         662     340.373     23.3943
       662.5     340.373     18.7862
         663     340.373     18.9079
       663.5     340.373     22.9771
         664     340.373     21.2867
       664.5     340.373     18.6515
         665     340.373      20.223
       665.5     340.373     22.3292
         666     340.373     23.9035
       666.5     340.373     24.3012
         667     340.373     20.2322
       667.5     340.373     16.6826
         668     340.373     15.7618
       668.5     340.373     14.1875
         669     340.373     11.8221
       669.5     340.373     10.2452
         670     340.373      9.7198
       670.5     340.373      9.7198
         671     340.373      9.9825
       671.5     340.373      9.9825
         672     340.373      8.1431
       672.5     340.373      7.3555
         673     340.373     10.5107
       673.5     340.373     13.7927
         674     340.373     13.3935
       674.5     340.373      7.2195
         675     340.373      2.3608
       675.5     340.373      2.7642
         676     340.373      7.3642
       676.5     340.373     10.3742
         677     340.373      7.0851
       677.5     340.373      4.9912
         678     340.373      7.0988
       678.5     340.373      10.117
         679     340.373      9.1876
       679.5     340.373      7.0928
         680     340.373      7.8847
       680.5     340.373      9.4571
