~Version Information Block
 VERS.                2.00:     CWLS LOG ASCII STANDARD - VERSION 2.000000
 WRAP.                  NO:     One Line Per Depth Step
#
~Well Information Block
#MNEM.UNIT                     Data                         Information
#----------   ------------------------------------------   ----------------
 STRT.FT                                     4210.0000:     START DEPTH
 STOP.FT                                    10370.0000:     STOP DEPTH
 STEP.FT                                        0.5000:     STEP
 NULL.                                       -999.2500:     NULL VALUE
 COMP.                       CHESAPEAKE OPERATING INC.:     COMPANY
 WELL.                         UNIVERSITY_LANDS_4627-1:     WELL
 FLD .                                         WILDCAT:     FIELD
 LOC .   1200' FNL & 1995' FEL|Section: 27, Block: 46, Abstract: 2860|University Lands Survey:     LOCATION
 SEC .                                              27:     SECTION
 CNTY.                                       CULBERSON:     COUNTY
 STAT.                                           TEXAS:     STATE
 CTRY.                                             USA:     COUNTRY
 SRVC.                                    SCHLUMBERGER:     SERVICE COMPANY
 DATE.                                      11/15/2016:     DATE
 API .                                  42109322870000:     API NUMBER
 UWI .                                  42109322870000:     UWI NUMBER
 TVD .                                              NO:     TVD flag
 WSTA.                                             LOC:     Well status
#
~Curve Information Block
#MNEM.UNIT       API CODE      Curve Description
#----------    -------------   -------------------
 DEPT.FT                   :   Depth in Feet
 RM_HRLT.OHMM                 :   HRLTB Mud Resistivity
 RXOZ.OHMM                 :   Stan Res MicroCFL Resistivity
 RLA5.OHMM                 :   HRLTB Resistivity 5
 RLA4.OHMM                 :   HRLTB Resistivity 4
 RLA3.OHMM                 :   HRLTB Resistivity 3
 DTCO.US/F                 :   Delta-T Compressional
 DTSM.US/F                 :   Delta-T Shear Measurement
 SPHI.V/V                  :   Sonic Porosity [47.6]
 HSGR.GAPI                 :   HNGS Spectroscopy Gamma Ray
 HCGR.GAPI                 :   HNGS Computed Gamma Ray
 HCAL.IN                   :   HILT Caliper
 DPHI.V/V                  :   Density Porosity
 PEFZ.                     :   Std. Res. Formation PE
 HDRA.G/C3                 :   Density Correction
 RHOB.G/C3                 :   Std. Res. Formation Density
 APLC.V/V                  :   APS Near/Array Corrected Limestone Porosity
 PXND.V/V                  :   Crossplot Porosity For Neutron-Density
#
~Parameter Information Block
#MNEM.UNIT            Value               Description
#----------    --------------------    -------------------
 DATE.                 07-Jun-2007:    Date As Month-Day-Year
 RUN .                         ONE:    Run Number
 PDAT.                         UNK:    Permanent Datum
 EPD .FT                -9999.5000:    Elevation Of Perm. Datum
 LMF .                          KB:    Log Measured From
 FAPD.FT                   40.0000:    Feet Above Perm. Datum
 EKB .FT                 4323.0000:    Elevation Of Kelly Bushing
 TD  .FT                10370.0000:    Total Depth
 DFT .                   Fresh Mud:    Drilling Fluid Type
 DFD .LB/G                  8.6000:    Drilling Fluid Density
 RMS .OHMM                  0.4210:    Resistivity Of Mud Sample
 MST .DEGF                 97.0000:    Mud Sample Temperature
 RMF .OHMM                  0.4210:    Mud Filtrate Resistivity
 MFST.DEGF                 97.0000:    Mud Filtrate Sample Temperature
 MFSS.                        CALC:    Mud Filtrate Sample Source
 MCSS.                        CALC:    Mud Cake Sample Source
 RMB .OHMM                  0.2280:    Mud Resistivity At Bht
 BHT .DEGF                185.0000:    Bottom Hole Temperature
 MRT .DEGF                185.0000:    Maximum Recorded Temperature
 WSTA.                         LOC:    
 LATB.FT                    0.0000:    
 LONB.FT                    0.0000:    
#
~Other Information Block
<DescLogPlotStart>   NEURALOG PLOT DEFINITION
PLOTDEFVERSION: 3
LASFILE: E:\nds\projects\Texas Standard Oil LLC\pdf\42109322870000 D\42-109-322
DEPTHSCALE: 240.000000
RESOLUTION: 196
DEPTHLABELFREQ: 100.000000
HEAVYGRIDFREQ: 100.000000
MEDIUMGRIDFREQ: 50.000000
LIGHTGRIDFREQ: 10.000000
#
#   TRACK 1
#
STARTTRACK: 
 LEFTX: 0.500000 inch
 RIGHTX: 3.000000 inch
 SCALETYPE: Linear
 NUMCHARTDIVISIONS: 10
CURVE: RXOZ  0.200000   2000.000000 (0,0,255)      Solid             2     Y   
BACKUP: 2000.000000 20000000.000000 (0,0,255)      Solid             2    
CURVE: RLA5  0.200000   2000.000000 (0,131,131)    Dot               2     Y   
BACKUP: 2000.000000 20000000.000000 (0,131,131)    Dot               2    
CURVE: RLA4  0.200000   2000.000000 (255,0,255)    Short_Dash        2     Y   
BACKUP: 2000.000000 20000000.000000 (255,0,255)    Short_Dash        2    
CURVE: RLA3  0.200000   2000.000000 (255,0,0)      Medium_Dash       2     Y   
BACKUP: 2000.000000 20000000.000000 (255,0,0)      Medium_Dash       2    
CURVE: DTCO  240.000000 40.000000  (0,0,255)      Solid             2     N    
CURVE: DTSM  240.000000 40.000000  (0,131,131)    Dot               2     Y    
BACKUP: 440.000000 240.000000 (0,131,131)    Dot               2    
CURVE: SPHI  0.300000   -0.100000  (255,0,255)    Short_Dash        2     Y    
BACKUP: 0.700000   0.300000   (255,0,255)    Short_Dash        2    
CURVE: HSGR  0.000000   150.000000 (0,0,255)      Solid             2     Y    
BACKUP: 150.000000 300.000000 (0,0,255)      Solid             2    
CURVE: HCGR  0.000000   150.000000 (0,131,131)    Dot               2     N    
CURVE: HCAL  6.000000   16.000000  (255,0,255)    Short_Dash        2     Y    
BACKUP: -4.000000  6.000000   (255,0,255)    Short_Dash        2    
BACKUP: 16.000000  26.000000  (255,0,255)    Short_Dash        2    
ENDTRACK: 
#
#   TRACK 2
#
STARTTRACK: 
 LEFTX: 3.500000 inch
 RIGHTX: 8.500000 inch
 SCALETYPE: Linear
 NUMCHARTDIVISIONS: 10
CURVE: RM_HRLT 0.020000   200.000000 (255,131,0)    Solid             2     N  
CURVE: DPHI  0.300000   -0.100000  (255,0,0)      Solid             2     Y    
BACKUP: 0.700000   0.300000   (255,0,0)      Solid             2    
BACKUP: -0.100000  -0.500000  (255,0,0)      Solid             2    
CURVE: APLC  0.300000   -0.100000  (255,131,0)    Dot               2     Y    
BACKUP: 0.700000   0.300000   (255,131,0)    Dot               2    
BACKUP: 1.100000   0.700000   (255,131,0)    Dot               2    
CURVE: PXND  0.300000   -0.100000  (255,255,0)    Short_Dash        2     Y    
BACKUP: 0.700000   0.300000   (255,255,0)    Short_Dash        2    
ENDTRACK: 
#
#   TRACK 3
#
STARTTRACK: 
 LEFTX: 0.500000 inch
 RIGHTX: 5.500000 inch
 SCALETYPE: Linear
 NUMCHARTDIVISIONS: 10
ENDTRACK: 
#
#   TRACK 4
#
STARTTRACK: 
 LEFTX: 3.500000 inch
 RIGHTX: 6.000000 inch
 SCALETYPE: Linear
 NUMCHARTDIVISIONS: 10
CURVE: PEFZ  0.000000   10.000000  (0,0,255)      Solid             2     N    
ENDTRACK: 
#
#   TRACK 5
#
STARTTRACK: 
 LEFTX: 3.500000 inch
 RIGHTX: 4.750000 inch
 SCALETYPE: Linear
 NUMCHARTDIVISIONS: 10
CURVE: HDRA  -0.050000  0.200000   (0,131,131)    Solid             2     N    
ENDTRACK: 
#
#   TRACK 6
#
STARTTRACK: 
 LEFTX: 3.500000 inch
 RIGHTX: 8.500000 inch
 SCALETYPE: Linear
 NUMCHARTDIVISIONS: 10
CURVE: RHOB  2.000000   3.000000   (255,0,255)    Solid             2     Y    
BACKUP: 1.000000   2.000000   (255,0,255)    Solid             2    
ENDTRACK: 
<DescLogPlotEnd>
~A DEPTH     RM_HRLT             RXOZ             RLA5             RLA4             RLA3             DTCO             DTSM             SPHI             HSGR             HCGR             HCAL             DPHI             PEFZ             HDRA             RHOB             APLC             PXND            
# ...
    5843.500 0.98306460       6.89823722       140.36511400     148.17179737     177.46801978     52.85574092      108.92156863     0.04225289       70.54600503      35.48534053      14.24390035      0.43639420       3.15193847       0.10723077       1.96911765       0.17487962       0.34000704      
    5844.000 1.16744989       5.70776183       150.86934487     160.70341231     179.07618394     52.65947007      108.92156863     0.04145135       69.36004842      34.68008260      14.36463103      0.42016932       3.35000489       0.10495451       1.97794118       0.12057229       0.34014317      
    5844.500 1.16744989       6.96074706       113.04040830     113.04040830     145.52248209     52.85574092      108.33333333     0.04109064       60.47398289      31.83659947      12.41236243      0.30412615       3.59557225       0.07498859       1.99852941       0.04588878       0.30057772      
    5845.000 1.21047365       11.95967879      211.07049867     211.07049867     136.61739486     52.65947007      106.76470588     0.04029697       49.90847687      25.69422445      12.89141632      0.30328857       3.94210336       0.04002074       2.47794118       0.03194027       0.23273839      
    5845.500 1.36155720       19.46600419      505.93984385     505.93984385     562.66027556     53.24828263      106.96078431     0.04547596       41.37950087      21.56994669      13.18124837      0.21938995       4.29457557       0.01373305       2.39852941       0.01784314       0.11207380      
    5846.000 1.41173435       65.20071026      573.35645560     573.35645560     734.25351694     54.81844946      107.94117647     0.05250245       37.99107412      17.25278690      13.19289554      0.13134182       4.54042377       0.02423536       2.38382353       0.02615225       0.11263508      
    5846.500 1.46376067       29.21289245      594.42301694     594.42301694     800.05655813     57.36997056      111.27450980     0.07699706       39.64876988      16.72711619      13.24325288      0.20594655       4.61647092       0.04951934       2.34231373       0.03338639       0.13843639      
    5847.000 1.51770431       20.73485041      621.84802049     621.84802049     839.54638445     60.70657507      109.62745098     0.10007851       45.19957955      17.65479360      13.50036856      0.24887365       4.34005674       0.15444639       2.31068627       0.04062053       0.15886218      
    5847.500 1.55991912       13.56962056      325.16034559     325.16034559     852.71661720     63.06182532      104.41176471     0.11441831       53.66580511      19.76095336      14.25603104      0.23195829       4.10559961       0.20098299       2.29750370       0.04974814       0.17485265      
    5848.000 1.47710672       12.51146468      107.08468197     107.08468197     197.75744209     63.45436703      104.36819172     0.11371746       63.47305814      24.17137419      14.09095858      0.19051564       4.00485713       0.19830793       2.28993902       0.06175916       0.15102598      
    5848.500 1.37515394       14.71726986      100.53175338     90.21744522      101.44274322     62.47301276      103.30065359     0.10954715       70.79488136      27.21568172      14.10636277      0.14907300       3.89576003       0.19898216       2.52481478       0.07428894       0.13123772      
    5849.000 1.23257651       17.12075105      93.10121579      83.16868076      94.26829417      60.35064264      103.23529412     0.09388742       72.26792076      27.28975028      13.71969488      0.10509305       3.82439816       0.19939274       2.52679839       0.07433455       0.10216110      
    5849.500 1.09580515       21.11789362      142.74287178     125.87080094     88.04800202      58.96956582      103.53594771     0.08558431       62.17902674      22.95780062      11.12330811      0.12251388       3.87113326       0.19962957       2.45385416       0.06701961       0.11858546      
    5850.000 0.98306460       17.30457753      494.76776466     317.10657234     313.92692146     57.95527263      103.44362745     0.07759948       40.57169538      18.32363458      11.10348011      0.23565132       3.99377635       0.16276253       2.39561766       0.05709150       0.14953907      
    5850.500 1.05494639       17.33017193      518.41457583     473.65647676     577.33725910     56.58896776      103.08333333     0.06964988       41.69974091      13.78305122      11.18490048      0.26415279       4.11628731       0.12564631       2.26877331       0.04716340       0.18049267      
    5851.000 1.21047365       17.00242613      545.44584665     544.53446929     564.84396159     55.40726202      103.24188360     0.05984541       32.27231101      12.35726553      11.18844277      0.25446294       3.88797103       0.20377732       2.27613441       0.03784314       0.18428291      
    5851.500 1.24377882       15.96198149      545.57434026     545.08771560     553.03650063     55.40726202      103.23820982     0.05991315       33.08128932      12.23848554      11.18501104      0.18144172       3.99590265       0.20038333       2.28964706       0.04138529       0.15527058      
    5852.000 1.26648982       12.28775939      303.20864136     303.26815761     558.04795834     55.40726202      103.32493559     0.06022076       34.38996739      12.27306024      11.23098880      0.15719882       3.69714189       0.19939397       2.43186275       0.06438469       0.12848723      
    5852.500 1.28961552       10.63626270      174.03295857     174.03556568     228.46331784     55.60353288      103.42520792     0.06001219       34.65747761      12.79118791      11.28486853      0.16581783       3.66628415       0.19949812       2.42470588       0.07979879       0.13836655      
    5853.000 1.31316348       10.54074550      389.01147732     389.01147732     392.53658745     55.79980373      103.30392157     0.06031403       34.43354890      13.46273325      11.41174179      0.21253020       3.75468675       0.19871101       2.39660784       0.08174149       0.15902750      
    5853.500 1.32509822       13.69258456      316.12196829     316.12196829     355.45541748     55.79980373      103.23529412     0.06231600       33.66672438      13.78397981      11.58138749      0.25924257       3.94195838       0.19908355       2.23344221       0.06856863       0.19320236      
    5854.000 1.34929408       15.53579992      288.85334434     288.85334434     310.46969993     56.78115800      103.62745098     0.06781158       32.74549423      13.98354062      11.22718065      0.28060725       4.03381920       0.20012665       2.26709019       0.05559804       0.20124754      
    5854.500 1.21047365       18.60750627      296.77723433     296.77723433     310.46969993     68.59968295      117.64705882     0.21974828       32.31108232      14.23307147      11.16075932      0.22421156       4.15225404       0.09184968       2.24579680       0.04568627       0.18538310      
    5855.000 1.16744989       26.57286730      294.11207529     294.11207529     310.37262045     83.61742281      156.00217865     0.29826368       32.26267209      14.56614934      11.14460287      0.10626836       4.28071450       0.08999195       2.33741481       0.04568627       0.12691552      
    5855.500 1.20984800       49.74168526      294.11207529     294.11207529     310.44746602     97.40922473      199.13071895     0.38856621       32.95918219      15.38188951      11.14796512      0.07218413       4.40779281       0.09272204       2.44362745       0.05431373       0.09600894      
    5856.000 1.22139615       66.98931083      291.47085028     291.47085028     310.48819168     100.74582924     209.90196078     0.38340687       36.79659700      16.70051149      11.10460577      0.07714006       4.46828377       0.08342519       2.53284314       0.05784314       0.07392188      
    5856.500 1.23257651       71.35585329      291.47085028     291.47085028     310.61025817     101.92345437     209.70588235     0.38891040       40.10597400      17.81026653      11.06996517      0.09905975       4.47014840       0.08119434       2.56617647       0.06098039       0.08361603      
