~Version Information
 VERS.                  2.0:   CWLS log ASCII Standard -VERSION 2.0
 WRAP.                   NO:   One line per depth step
~Well Information Block
#MNEM.UNIT     VALUE/NAME     DESCRIPTION
#---------     -----------    ---------------------------
 STRT.F              8400.0000: START DEPTH
 STOP.F             14130.0000: STOP DEPTH
 STEP.F                 0.5000: STEP DEPTH
 NULL.                 -999.25: NULL VALUE
 LOC .            42-109-33596:  LOCATION
 FL1 .            42-109-33596:  LOCATIONLINE1
 PROV.                      TX:  PROVINCE
 STAT.                      TX:  STATE NAME
 CNTY.               CULBERSON:  COUNTY NAME
 FLD .              WOLFCAMP B:  FIELD NAME
 WELL.           DALE STATE 5H:  WELL NAME
 COMP.     CAPITAN ENERGY INC.:  COMPANY
 DMF .             Drill Floor:  DRILL MEAS FROM
 PDAT.                      GL:  PERMANENT DATUM
 DATE.             11-Feb-2020:  DATE
 SVCO.             Halliburton:  SERVICECONAME
 HIDE.                        :  WELLNAMEOPERAT
 BASI.                 PERMIAN:  BASIN
 UWI .            42-109-33596:  UNIQUE WELL IDENTIFIER
 API .            42-109-33596:  API NUMBER
 RANG.                     N/A:  RANGE
 TOWN.                     N/A:  TOWNSHIP
 SECT.                     N/A:  SECTION
 SON .               906289953:  JOB NUMBER
 CTRY.                        :  COUNTRY
 SRVC.             Halliburton:  SERVICE COMPANY
 LMF .             Drill Floor:  LOG MEASURED FROM
 TVDS.ft             3291.0000:  TVDSS CORRECTN
 EGL .ft             3266.0000:  GROUND ELEVATION
 APD .ft               25.0000:  DEPTH ABOVE PD
 EPD .ft             3266.0000:  ELEVATION
 BAP .ft                0.0000:  GL ELEV ONSHORE
 GVFD.g                 1.0000:  GRAVITY FIELD
 EKB .ft             3291.0000:  KB ELEVATION
 EDF .ft             3291.0000:  DF ELEVATION
~Curve Information Block
#MNEM.UNIT                 API CODE     Curve Description
#---------               -----------    ---------------------------
 DEPT.F                 00 000 000 000:  Depth
 CCL .V                 00 000 000 000:  Casing Collar Locator
 NPHI_OH.pu             00 000 000 000:  NPHI_OH
 NPHI_CHI.decp          00 000 000 000:  NPHI_CHI
 GR_OH.api              00 000 000 000:  GR_OH
 GR_CHI.api             00 000 000 000:  GR_CHI
 RHOB_OH.g/cc           00 000 000 000:  RHOB_OH
 RHOB_CHI.g/cc          00 000 000 000:  RHOB_CHI
 PE_OH.NONE             00 000 000 000:  PE_OH
 PE_CHI.NONE            00 000 000 000:  PE_CHI
 LLS_CHI.ohmm           00 000 000 000:  LLS_CHI
 LLS_OH.ohmm            00 000 000 000:  LLS_OH
 LLD_OH.ohmm            00 000 000 000:  LLD_OH
 LLD_CHI.ohmm           00 000 000 000:  LLD_CHI
 DTC_OH.uspf            00 000 000 000:  DTC_OH
 DTC_CHI.uspf           00 000 000 000:  DTC_CHI
 SPHW_CHI.decp          00 000 000 000:  SPHW_CHI
#Other Information
#
#WARRANTY: Halliburton will use its best efforts to furnish customers with 
#accurate information and interpretations that are part of, and incident to, the services 
#provided.  However, Halliburton cannot and does not warrant the accuracy 
#or correctness of such information and interpretations.  Under no circumstances should any 
#such information or interpretation be relied upon as the sole basis for any drilling, 
#completion, production, or financial decision or any procedure involving any risk to the 
#safety of any drilling venture, drilling rig or its crew or any other third party.  The 
#Customer has full responsibility for all drilling, completion and production operation.  
#Halliburton makes no representations or warranties, either expressed or 
#implied, including, but not limited to, the implied warranties of merchantability or fitness 
#for a particular purpose, with respect to the services rendered.  In no event will 
#Halliburton be liable for failure to obtain any particular results or for 
#any damages, including, but not limited to, indirect, special or consequential damages, 
#resulting from the use of any information or interpretation provided by Halliburton.
#
~A    DEPT      CCL   NPHI_OH NPHI_CHI  GR_OH    GR_CHI  RHOB_OH RHOB_CHI  PE_OH  PE_CHI LLS_CHI   LLS_OH    LLD_OH    LLD_CHI  DTC_OH  DTC_CHI SPHW_CHI 
# ...
    8771.0000  0.0155  7.3427   0.1018  61.2441  70.4442  2.5438   2.5857  2.3587 2.5825   7.4493   14.6910   16.7196   10.1325 -999.25 70.5274 0.1621
    8771.5000  0.0109  7.7700   0.1110  62.3155  75.7761  2.5598   2.5835  2.2412 2.6505   7.7924   14.6945   16.6888   10.2359 -999.25 71.7006 0.1704
    8772.0000  0.0380  7.5500   0.1180  69.4215  76.0603  2.5751   2.5859  2.2878 2.7434   8.1074    8.5243    9.5780   10.5845 -999.25 72.4532 0.1758
    8772.5000  0.0103  9.5942   0.1242  73.7887  75.6010  2.5742   2.5879  2.3648 2.8079   8.0016    6.3451    7.7383   10.5781 -999.25 72.9851 0.1795
    8773.0000 -0.0300 11.7918   0.1342  75.9374  85.0874  2.5705   2.5846  2.4210 2.8625   8.5199    6.0395    7.4794   11.1153 -999.25 73.6311 0.1841
    8773.5000 -0.0097 12.6866   0.1391  79.6196  88.2829  2.5685   2.5847  2.4756 2.8978   8.6427    6.0241    7.4754   11.3419 -999.25 73.8174 0.1854
    8774.0000 -0.0197 12.6384   0.1412  85.9854  89.0402  2.5686   2.5850  2.5468 2.9008   8.1769    6.0984    7.6049   10.8180 -999.25 73.8226 0.1854
    8774.5000 -0.0052 12.8200   0.1393  93.6983  84.4817  2.5722   2.5873  2.6372 2.8741   7.4720    6.6823    8.4196    9.9765 -999.25 73.5236 0.1833
    8775.0000 -0.0034 13.4200   0.1413  96.1067  93.8956  2.5798   2.5855  2.7499 2.8819   8.1601    6.9417    8.6860   10.4819 -999.25 73.7182 0.1847
    8775.5000 -0.0504 13.2709   0.1366  96.7414  87.5146  2.5811   2.5902  2.7949 2.8396   7.8981    6.9382    8.7197   10.1228 -999.25 73.0084 0.1797
    8776.0000  0.0060 13.1486   0.1324  98.4568  81.6528  2.5816   2.5949  2.7924 2.8140   7.9875    8.0428   10.7086   10.2343 -999.25 72.5320 0.1763
    8776.5000 -0.0283 13.2550   0.1371  98.7258  97.5003  2.5914   2.5902  2.8145 2.8698   9.8000   10.0916   13.2976   11.9859 -999.25 72.8489 0.1786
    8777.0000 -0.0011 13.7725   0.1351  94.7748  93.9665  2.6244   2.5886  2.9394 2.8536   9.3918   13.4031   16.2889   11.6462 -999.25 72.8285 0.1784
    8777.5000  0.0008 14.1900   0.1269  80.4717  77.0145  2.6879   2.5911  3.3415 2.7889   7.5162   13.4175   16.2870    9.8981 -999.25 72.4440 0.1757
    8778.0000 -0.0152 12.9000   0.1169  62.7786  61.1855  2.7367   2.5995  3.8788 2.7894   6.5658   12.8809   15.9570    9.2075 -999.25 72.0561 0.1730
    8778.5000  0.0079 11.5577   0.1156  63.3523  58.2721  2.7259   2.6021  3.9742 2.7945   6.2512   11.5669   15.5673    8.9553 -999.25 71.8861 0.1718
    8779.0000 -0.0203 11.0557   0.1216  69.6361  63.9432  2.6934   2.5977  3.8574 2.7916   6.1472   11.1215   15.3312    8.8028 -999.25 72.0061 0.1726
    8779.5000  0.0000 10.9487   0.1345  77.5469  85.3272  2.6526   2.5847  3.6406 2.8094   6.8107   11.0960   15.1816    9.2794 -999.25 72.9067 0.1790
    8780.0000  0.0113 10.8600   0.1349  81.2095  84.7676  2.6225   2.5833  3.4440 2.7890   6.1077   11.1185   15.0955    8.3384 -999.25 73.2098 0.1811
    8780.5000 -0.0074  9.9800   0.1297  75.2903  72.8745  2.6335   2.5886  3.4799 2.7556   5.2542   11.0870   12.7100    7.3377 -999.25 72.8813 0.1788
    8781.0000  0.0123  9.3018   0.1396  72.3127  93.2833  2.6368   2.5819  3.4581 2.8175   6.4310    9.8304   11.8593    8.3858 -999.25 73.9060 0.1860
    8781.5000 -0.0226  9.4718   0.1417  74.2719  95.2388  2.6209   2.5829  3.2968 2.8478   6.8026    8.9733   10.8833    8.7787 -999.25 74.0592 0.1871
    8782.0000 -0.0137 10.5490   0.1407  78.3697  89.3297  2.6085   2.5851  3.1474 2.8389   6.4525    7.6894    9.3598    8.4553 -999.25 73.8128 0.1854
    8782.5000  0.0007 12.3582   0.1374  84.5765  79.9884  2.6017   2.5881  3.0129 2.8021   5.6604    6.0028    7.4010    7.5935 -999.25 73.4457 0.1828
    8783.0000 -0.0395 13.1800   0.1342  90.9647  72.9937  2.6060   2.5905  2.9672 2.7817   5.2383    5.9496    7.3561    7.1759 -999.25 73.2025 0.1811
    8783.5000 -0.0049 13.4900   0.1368  90.9220  80.3780  2.6034   2.5872  2.9088 2.7997   5.6630    5.9932    7.4543    7.6421 -999.25 73.4081 0.1825
    8784.0000 -0.0018 13.7218   0.1396  89.4593  86.9725  2.5969   2.5833  2.8096 2.8304   6.1420    7.1448    9.0780    8.2217 -999.25 73.8842 0.1859
    8784.5000  0.0057 14.3293   0.1440  89.7443  98.1185  2.5953   2.5777  2.7631 2.8714   6.8357    7.6513    9.5926    8.9159 -999.25 74.9470 0.1934
    8785.0000 -0.0009 14.8763   0.1446  90.5137  98.5997  2.5989   2.5756  2.7648 2.8732   6.6879    7.8663    9.7623    8.7349 -999.25 75.3715 0.1964
    8785.5000  0.0348 15.0946   0.1444  91.4885  95.1500  2.6094   2.5767  2.8293 2.8760   6.5198    8.0339   10.0147    8.6021 -999.25 75.2701 0.1957
    8786.0000  0.0000 13.8600   0.1454  92.3449  93.5670  2.6140   2.5786  2.8960 2.9016   6.7700    9.3084   11.5231    9.0149 -999.25 75.0573 0.1942
    8786.5000  0.0015 14.1200   0.1495  96.8979 100.6288  2.6041   2.5784  2.8951 2.9582   7.8897    8.5900   10.6299   10.3891 -999.25 75.2957 0.1959
    8787.0000  0.0139 13.9078   0.1485 100.1762  96.0178  2.6008   2.5807  2.8790 2.9489   7.5927    8.5937   10.6210   10.1803 -999.25 74.7294 0.1919
    8787.5000  0.0166 14.5728   0.1465 101.4621  92.3741  2.5964   2.5824  2.8547 2.9172   6.9473    8.6004   10.5650    9.4218 -999.25 74.2301 0.1883
    8788.0000 -0.0483 15.3795   0.1444 101.2872  92.4399  2.5897   2.5824  2.8252 2.8798   6.4233    8.1711    9.9232    8.7146 -999.25 73.9147 0.1861
    8788.5000 -0.0280 15.2100   0.1455  99.4029 101.1093  2.5777   2.5792  2.7938 2.8794   6.5994    6.3488    7.4962    8.7966 -999.25 74.2829 0.1887
    8789.0000 -0.5002 14.8600   0.1394  94.4963  89.8961  2.5699   2.5817  2.8010 2.8076   5.7156    5.5966    6.7825    7.8960 -999.25 73.2607 0.1815
    8789.5000 -0.2832 14.8776   0.1377  90.4146  90.9559  2.5686   2.5818  2.7774 2.7818   5.7264    4.9142    5.9670    7.8656 -999.25 72.9810 0.1795
    8790.0000  0.0178 15.4233   0.1348  85.8429  90.0130  2.5676   2.5851  2.7090 2.7526   5.8750    4.5137    5.5116    7.9634 -999.25 72.2826 0.1746
    8790.5000  0.0057 15.7836   0.1319  81.5781  90.2607  2.5675   2.5895  2.6519 2.7273   6.1477    4.3651    5.3309    8.1119 -999.25 71.5834 0.1696
    8791.0000 -0.0118 16.0335   0.1298  77.0713  91.8575  2.5690   2.5918  2.6088 2.7231   6.6790    4.3675    5.3127    8.6108 -999.25 71.1768 0.1667
    8791.5000 -0.0263 16.5700   0.1277  74.2758  92.4078  2.5762   2.5911  2.6175 2.7103   6.9434    4.3526    5.3260    8.8728 -999.25 70.9987 0.1655
    8792.0000  0.0058 14.2200   0.1215  70.2168  82.1702  2.5865   2.5903  2.6349 2.6679   6.7096    7.0601    8.6731    8.8865 -999.25 70.7876 0.1640
    8792.5000  0.0059 11.8700   0.1082  62.3908  62.4673  2.5972   2.5986  2.6487 2.6740   6.3805    7.4570    8.9372    9.0586 -999.25 70.4492 0.1616
    8793.0000 -0.0006 11.5282   0.0994  57.5767  52.7246  2.6069   2.6070  2.6666 2.7480   6.6260    7.5403    8.9937    9.6945 -999.25 70.4474 0.1616
    8793.5000  0.0224 11.7097   0.1013  57.4321  53.5729  2.6106   2.6058  2.6636 2.7659   6.9780    7.4484    8.8782    9.9819 -999.25 70.8332 0.1643
    8794.0000 -0.0180 11.9772   0.1141  64.9006  67.6836  2.6036   2.5946  2.6161 2.7355   7.4652    7.0070    8.3656    9.9785 -999.25 71.5388 0.1693
    8794.5000  0.0011 12.7400   0.1267  77.8378  85.5638  2.5903   2.5872  2.5328 2.7636   8.0264    5.1331    6.4480   10.1316 -999.25 72.3647 0.1751
    8795.0000  0.0206 12.4800   0.1294  82.9546  83.7001  2.5868   2.5890  2.4915 2.7662   7.2030    5.1198    6.4431    9.2921 -999.25 72.4380 0.1757
    8795.5000  0.0186 13.7977   0.1281  82.4505  75.3789  2.5831   2.5925  2.4690 2.7567   6.3155    5.2707    6.7183    8.5310 -999.25 72.1888 0.1739
    8796.0000  0.0156 14.5303   0.1319  82.6023  81.2427  2.5791   2.5898  2.4533 2.7697   6.3266    6.0349    7.7102    8.5353 -999.25 72.2946 0.1746
    8796.5000  0.0114 14.8149   0.1361  82.8351  91.3012  2.5757   2.5856  2.4507 2.7963   6.7654    6.9136    8.7944    8.9532 -999.25 72.6919 0.1775
    8797.0000 -0.0226 14.5000   0.1347  82.2879  90.5216  2.5748   2.5855  2.4815 2.7690   6.3918    7.1187    8.9474    8.4695 -999.25 72.5495 0.1764
