###############################################
##         ENVERUS                           ##
##         ESS - Open Hole                   ##
##         PERMIAN / DELAWARE                ##
##         Nov 02 2023  V4.0                 ##
##         42-109-31375-00-00                ##
###############################################
## Copyright 2017-2023  ENVERUS.  All Rights Reserved. 
## Confidential - Property of ENVERUS, use governed by terms and 
## conditions found within the existing Information Services Subscription Agreement 
## (as may be amended, the “ISSA”) between Customer and ENVERUS. 
## 
~VERSION INFORMATION
# MNEM.UNIT                               DATA : DESCRIPTION OF MNEMONIC
#-----.-----     ----------------------------- : -----------------------------
VERS.                                     2.00 : CWLS LOG ASCII STANDARD - VERSION 2.00
WRAP.                                       NO : MULTIPLE LINES PER DEPTH STEP
VEND.                                  ENVERUS : VENDOR
TYPE.                          ESS - OPEN HOLE : ENVERUS ESSENTIAL CURVES – ACCESSIBLE THROUGH ENVERUS PRISM(TM)
DOC.                                  32006335 : ENVERUS HEADER RAW DOCUMENT ID
#___________________________________________________________________________________________________ 
~WELL INFORMATION 
# Eb7Zbut2Nwqt2ftj1i2q6V2Ye1Joym9Qrd6BFF0aHeZ6Mf1z+VAuEcbs4uVngcAWjTW62nvWGWatc34NWk2mnA== 
# MNEM.UNIT                                              DATA : DESCRIPTION OF MNEMONIC 
#-----.-----                    ----------------------------- : ----------------------------- 
CNTY.                                               CULBERSON : COUNTY 
STATE.                                                  TEXAS : STATE 
CNTRY.                                                    USA : COUNTRY 
API.                                             42-109-31375 : API (10 Digit) 
API_14.                                    42-109-31375-00-00 : API (14 Digits) 
API_14_std.                                 42-109-31375-0000 : API (14 Digits Standard) 
UWI.                                           42109313750000 : UNIQUE WELL ID 
WELL.                                      7806 JV-P DUVAL  1 : WELL NAME
STRT.FT                                                     0 : START DEPTH
STOP.FT                                               15739.0 : STOP DEPTH
STEP.FT                                                   0.5 : STEP BETWEEN DEPTHS
NULL.                                                 -999.25 : NULL VALUE
COMP.                                  BTA OIL PRODUCERS  LLC : COMPANY 
DATE.                                             26-MAY-1978 : LOG DATE
#___________________________________________________________________________________________________ 
~CURVE INFORMATION 
# MNEM.UNIT           : CURVE DESCRIPTION 
#-----.-----          : ----------------------------- 
 DEPT.FT               : MEASURED DEPTH 
 CALI.IN               : CALIPER (CAL - CAL) 
 GR.API                : GAMMA RAY (GR) 
 DT.US/FT              : SONIC DELTA TRANSIT TIME (DT) 
 #___________________________________________________________________________________________________ 
~A         DEPT           CALI             GR             DT
# ...
        12078.0          9.649         65.976         60.518
        12078.5          9.651         69.396         61.360
        12079.0          9.653         81.818         62.202
        12079.5          9.655         94.240         63.045
        12080.0          9.677         98.028         63.887
        12080.5          9.705         91.879         64.730
        12081.0          9.733         84.572         64.908
        12081.5          9.751         77.264         64.532
        12082.0          9.732         71.124         64.156
        12082.5          9.714         67.399         63.781
        12083.0          9.695         65.743         63.405
        12083.5          9.678         65.739         63.029
        12084.0          9.678         65.735         62.654
        12084.5          9.677         70.821         62.955
        12085.0          9.677         79.221         63.384
        12085.5          9.677         87.621         63.805
        12086.0          9.677         72.547         63.948
        12086.5          9.676         69.034         64.092
        12087.0          9.694         65.521         64.235
        12087.5          9.715         63.005         64.378
        12088.0          9.736         68.844         64.521
        12088.5          9.757         77.043         64.664
        12089.0          9.760         85.242         65.453
        12089.5          9.756         93.200         66.729
        12090.0          9.751         99.706         68.006
        12090.5          9.759         99.648         68.401
        12091.0          9.779         99.591         68.212
        12091.5          9.800         99.065         68.023
        12092.0          9.821         96.161         67.833
        12092.5          9.825         93.258         66.110
        12093.0          9.826         90.355         64.364
        12093.5          9.828         87.451         64.984
        12094.0          9.829         90.555         65.820
        12094.5          9.831         92.802         66.656
        12095.0          9.832         86.233         67.492
        12095.5          9.836         77.567         68.240
        12096.0          9.861         68.301         68.253
        12096.5          9.886         65.706         68.266
        12097.0          9.909         65.808         68.279
        12097.5          9.915         65.909         68.292
        12098.0          9.920         66.709         68.305
        12098.5          9.926         67.728         68.317
        12099.0          9.932         68.747         68.330
        12099.5          9.903         69.765         68.343
        12100.0          9.873         67.983         68.356
        12100.5          9.843         65.983         68.084
        12101.0          9.839         65.011         67.533
        12101.5          9.836         64.816         65.768
        12102.0          9.832         64.620         63.570
        12102.5          9.828         64.424         62.354
        12103.0          9.825         64.228         63.313
        12103.5          9.821         64.033         64.271
        12104.0          9.818         63.837         65.230
        12104.5          9.842         63.062         66.188
        12105.0          9.926         59.968         67.147
        12105.5         10.006         58.700         67.101
        12106.0         10.078         58.115         66.049
        12106.5         10.071         57.530         64.996
        12107.0         10.065         57.862         63.944
        12107.5         10.059         59.167         63.313
        12108.0         10.052         60.471         64.406
        12108.5         10.046         61.776         65.499
        12109.0         10.039         65.083         66.593
        12109.5         10.019         69.461         67.089
        12110.0          9.995         71.938         67.418
        12110.5          9.972         69.751         67.748
        12111.0          9.948         67.564         67.501
        12111.5          9.925         67.514         67.247
        12112.0          9.902         71.552         66.993
        12112.5          9.878         71.037         66.465
        12113.0          9.868         69.834         65.505
        12113.5          9.862         68.661         64.545
        12114.0          9.856         67.517         63.585
        12114.5          9.850         67.920         63.895
        12115.0          9.844         70.222         64.308
        12115.5          9.838         69.382         64.721
        12116.0          9.832         67.072         65.133
        12116.5          9.852         66.348         65.546
        12117.0          9.873         65.776         65.959
        12117.5          9.893         65.203         65.337
        12118.0          9.890         64.631         62.998
        12118.5          9.846         62.879         60.659
        12119.0          9.803         59.917         58.320
        12119.5          9.760         56.954         56.088
        12120.0          9.717         54.749         54.048
        12120.5          9.674         54.709         54.301
        12121.0          9.636         54.669         55.423
        12121.5          9.612         54.628         56.544
        12122.0          9.606         54.588         57.666
        12122.5          9.635         55.582         58.307
        12123.0          9.725         56.775         57.941
        12123.5          9.721         57.336         57.576
        12124.0          9.716         57.213         57.397
        12124.5          9.709         57.090         57.995
        12125.0          9.675         58.045         58.594
        12125.5          9.640         59.223         59.192
        12126.0          9.616         60.239         59.791
        12126.5          9.651         60.501         60.389
        12127.0          9.686         60.763         60.988
        12127.5          9.721         60.831         60.985
        12128.0          9.726         60.259         60.528
        12128.5          9.711         59.686         60.071
        12129.0          9.695         59.113         59.613
        12129.5          9.679         58.540         60.448
        12130.0          9.699         59.340         62.278
        12130.5          9.763         60.452         62.295
        12131.0          9.817         61.564         60.680
        12131.5          9.763         59.791         59.065
        12132.0          9.709         57.570         57.450
        12132.5          9.655         55.349         57.700
        12133.0          9.650         53.396         58.527
        12133.5          9.684         57.243         59.354
        12134.0          9.718         61.091         60.181
        12134.5          9.774         61.425         61.009
        12135.0          9.883         60.126         61.462
        12135.5          9.913         58.827         61.904
        12136.0          9.922         57.527         62.346
        12136.5          9.940         56.228         62.788
        12137.0         10.016         54.928         62.924
        12137.5          9.990         55.922         62.312
        12138.0          9.908         59.173         61.700
        12138.5          9.826         62.263         60.835
        12139.0          9.793         64.387         58.972
        12139.5          9.831         66.511         57.110
        12140.0          9.869         65.405         56.345
        12140.5          9.894         63.419         58.028
        12141.0          9.905         64.518         59.712
        12141.5          9.916         66.776         61.395
        12142.0          9.927         66.950         63.078
        12142.5          9.938         64.651         62.916
        12143.0          9.976         63.491         62.217
        12143.5         10.013         62.330         61.518
