~VERSION INFORMATION
VERS. 2.0 : CWLS Log ASCII Standard - version 2.0
WRAP.  NO : One line per depth step
#--------------------------------------------------#
#----------------DRILLING INFO, INC.---------------#
#---------------WWW.DRILLINGINFO.COM---------------#
#------------------COPYRIGHT 2015------------------#
#--------------------------------------------------#
#THIS FILE MAY BE USED ONLY IN ACCORDANCE WITH A CURRENT SUBSCRIPTION AGREEMENT BETWEEN
#THE USER AND DRILLING INFO, INC. NO PART OF THIS FILE MAY BE REPRODUCED, USED, COPIED,
#MODIFIED, PROPAGATED, OR DISTRIBUTED EXCEPT IN ACCORDANCE WITH THE SUBSCRIPTION
#AGREEMENT. UNAUTHORIZED USE OR DISTRIBUTION OF ALL OR ANY PART OF THIS FILE MAY VIOLATE
#COPYRIGHT, TRADEMARK, AND/OR OTHER LAWS AND IS SUBJECT TO CIVIL AS WELL AS CRIMINAL
#SANCTIONS.
#--------------------------------------------------#
#THIS FILE IS PROVIDED "AS-IS" AND ALL WARRANTIES ARE EXPRESSLY DISCLAIMED, WHETHER
#EXPRESS, ORAL, IMPLIED, STATUTORY OR OTHERWISE, INCLUDING ANY IMPLIED WARRANTY OF FITNESS
#FOR A PARTICULAR PURPOSE, MERCHANTABILITY, TITLE OR NON-INFRINGEMENT, AND ANY WARRANTIES
#ARISING BY VIRTUE OF CUSTOM OF TRADE OR COURSE OF DEALING.  FURTHER, DRILLING INFO,
#INC. AND ITS LICENSORS DO NOT REPRESENT OR WARRANT THAT THIS FILE WILL MEET USER'S
#REQUIREMENTS OR ARE SUITABLE FOR USER'S NEEDS OR THAT THE DATA OR RESULTS PROVIDED IN
#CONJUNCTION THEREWITH ARE CORRECT, ACCURATE, TIMELY OR RELIABLE. THESE DISCLAIMERS SHALL
#APPLY REGARDLESS OF ANY FAILURE OF ESSENTIAL PURPOSE OF ANY LIMITED REMEDY.  SOME
#JURISDICTIONS DO NOT ALLOW THE EXCLUSION OF CERTAIN WARRANTIES SO SOME OF THE ABOVE
#EXCLUSIONS MAY NOT APPLY. IN NO EVENT SHALL DRILLING INFO, INC. OR ANY OF ITS AFFILIATES
#BE LIABLE UNDER ANY LEGAL THEORY, WHETHER IN TORT (INCLUDING WITHOUT LIMITATION
#NEGLIGENCE), CONTRACT, STRICT LIABILITY, STATUTORY OR OTHERWISE, FOR ANY SPECIAL,
#INCIDENTAL, CONSEQUENTIAL, EXEMPLARY, PUNITIVE OR INDIRECT DAMAGE OF ANY KIND, INCLUDING
#WITHOUT LIMITATION LOSS OF REVENUE, PROFITS, GOODWILL, USE, AND/OR DATA OR THE COST OF
#PROCUREMENT OF SUBSTITUTE GOODS OR SERVICES, EVEN IF APPRISED OF THE POSSIBILITY OF SUCH
#DAMAGES IN ADVANCE.
#--------------------------------------------------#
~WELL INFORMATION
#MNEMONIC     .UNIT              VALUE :DESCRIPTION
#--------------------------------------------------#
STRT       .FT                181 :START DEPTH
STOP       .FT                12231 :STOP DEPTH
STEP       .FT                   0.500 :STEP
NULL       .                  -999.250 :NULL
API        .                421093228700 :API NUMBER
COMP       .         CHESAPEAKE OPERATING  INC. :COMPANY
WELL       .        UNIVERSITY LANDS 4627  1 :WELL
DATE       .                06-May-2007 :LOG DATE
~CURVE INFORMATION
#MNEMONIC     .UNIT      API CODE :CURVE DESCRIPTION
#--------------------------------------------------#
DEPTH       .FT                      :Measured Depth
ILS.OHM        UNKNOWN   :ILS
GR.API        UNKNOWN   :GR
ILD.OHM        UNKNOWN   :ILD
CAL.INCH        UNKNOWN   :CAL
DT.US/FT        UNKNOWN   :DT
~A    DEPTH    ILS    GR    ILD    CAL    DT
# ...
 6568.5     216.869   31.265   210.031   9.013   -999.250
 6569     135.503   34.86   147.066   9.026   -999.250
 6569.5     171.494   37.894   154.924   9.054   -999.250
 6570     191.158   36.653   178.299   9.09   -999.250
 6570.5     245.427   32.317   190.385   9.126   -999.250
 6571     325.053   27.98   314.573   9.162   -999.250
 6571.5     332.367   22.412   326.517   9.199   -999.250
 6572     380.793   20.961   368.732   9.248   -999.250
 6572.5     468.192   22.803   516.074   9.321   -999.250
 6573     277.844   28.104   346.207   9.393   -999.250
 6573.5     139.008   34.614   194.097   9.466   -999.250
 6574     106.617   41.124   100.022   9.538   -999.250
 6574.5     123.501   46.908   121.706   9.611   -999.250
 6575     114.846   48.033   111.782   9.683   -999.250
 6575.5     200.964   43.55   188.091   9.643   -999.250
 6576     294.528   36.874   269.74   9.584   -999.250
 6576.5     378.208   29.543   362.424   9.526   -999.250
 6577     455.362   26.744   441.658   9.467   -999.250
 6577.5     409.787   26.429   459.961   9.408   -999.250
 6578     278.636   27.941   316.496   9.373   -999.250
 6578.5     258.514   30.214   259.974   9.37   -999.250
 6579     260.431   33.465   249.051   9.368   -999.250
 6579.5     252.52   37.139   269.488   9.365   -999.250
 6580     114.377   40.879   150.138   9.362   -999.250
 6580.5     108.918   40.651   83.167   9.276   -999.250
 6581     295.385   39.754   272.553   9.189   -999.250
 6581.5     149.144   40.148   126.394   9.165   -999.250
 6582     110.019   42.609   102.384   9.141   -999.250
 6582.5     55.415   52.926   93.072   9.117   -999.250
 6583     38.386   63.697   49.427   9.094   -999.250
 6583.5     28.881   67.631   29.328   9.07   -999.250
 6584     36.848   61.458   32.865   9.046   -999.250
 6584.5     109.65   47.636   86.759   9.083   -999.250
 6585     176.81   26.81   169.514   9.131   -999.250
 6585.5     149.254   18.673   142.682   9.178   -999.250
 6586     150.876   18.6   136.532   9.226   -999.250
 6586.5     183.684   22.053   178.195   9.263   -999.250
 6587     116.265   27.352   147.37   9.292   -999.250
 6587.5     151.492   29.764   128.005   9.32   -999.250
 6588     311.538   28.117   234.359   9.349   -999.250
 6588.5     332.196   24.543   324.166   9.378   -999.250
 6589     287.111   22.225   290.998   9.352   -999.250
 6589.5     235.086   20.579   236.044   9.301   -999.250
 6590     225.752   20.241   222.262   9.25   -999.250
 6590.5     263.063   20.458   255.573   9.2   -999.250
 6591     248.226   20.815   252.08   9.149   -999.250
 6591.5     250.97   20.163   250.141   9.135   -999.250
 6592     201.194   17.505   248.201   9.176   -999.250
 6592.5     145.182   16.905   180.419   9.217   -999.250
 6593     96.652   19.984   106.725   9.258   -999.250
 6593.5     76.619   28.735   78.167   9.3   -999.250
 6594     92.498   33.995   117.896   9.322   -999.250
 6594.5     201.508   30.324   194.928   9.339   -999.250
 6595     301.798   26.41   320.259   9.356   -999.250
 6595.5     108.413   24.7   136.724   9.372   -999.250
 6596     49.419   31.526   57.354   9.389   -999.250
 6596.5     37.226   38.351   42.048   9.406   -999.250
 6597     121.745   42.107   117.024   9.422   -999.250
 6597.5     152.297   35.574   176.695   9.436   -999.250
 6598     148.441   29.04   161.03   9.42   -999.250
 6598.5     144.584   23.143   159.135   9.404   -999.250
 6599     170.054   18.851   168.378   9.388   -999.250
 6599.5     162.479   14.559   179.443   9.372   -999.250
 6600     157.472   13.665   173.022   9.356   -999.250
 6600.5     182.418   18.942   193.527   9.34   -999.250
 6601     145.643   24.22   155.976   9.325   -999.250
 6601.5     180.785   29.498   167.293   9.309   -999.250
 6602     215.926   31.576   216.06   9.293   -999.250
 6602.5     211.334   31.795   202.851   9.277   -999.250
 6603     210.629   33.756   222.776   9.278   -999.250
 6603.5     46.698   45.837   56.319   9.289   -999.250
 6604     32.41   57.888   26.064   9.3   -999.250
 6604.5     31.822   69.813   25.564   9.311   -999.250
 6605     36.074   77.152   35.039   9.321   -999.250
 6605.5     27.973   79.228   27.841   9.332   -999.250
 6606     30.729   77.937   22.829   9.343   -999.250
 6606.5     60.548   76.111   46.912   9.354   -999.250
 6607     56.94   76.376   55.628   9.364   -999.250
 6607.5     35.038   78.005   31.003   9.375   -999.250
 6608     21.821   79.635   21.516   9.386   -999.250
 6608.5     35.947   75.412   27.461   9.397   -999.250
 6609     57.21   64.736   61.741   9.408   -999.250
 6609.5     153.365   51.415   198.88   9.418   -999.250
 6610     303.184   36.015   377.417   9.429   -999.250
 6610.5     171.762   33.648   217.808   9.44   -999.250
 6611     172.299   31.508   203.045   9.451   -999.250
 6611.5     291.397   29.422   313.286   9.461   -999.250
 6612     257.106   27.605   348.591   9.506   -999.250
 6612.5     167.063   26.755   266.263   9.554   -999.250
 6613     119.749   29.248   157.943   9.601   -999.250
 6613.5     175.28   31.74   217.176   9.648   -999.250
 6614     230.812   30.013   305.835   9.696   -999.250
 6614.5     253.054   24.446   316.438   9.743   -999.250
 6615     260.376   21.663   317.318   9.79   -999.250
 6615.5     335.598   21.034   366.593   9.837   -999.250
 6616     233.778   30.862   339.971   9.885   -999.250
 6616.5     125.198   44.149   152.712   9.932   -999.250
 6617     34.168   60.742   47.582   9.979   -999.250
 6617.5     27.922   95.771   27.941   10.027   -999.250
 6618     35.939   103.804   33.768   10.046   -999.250
 6618.5     43.009   115.647   39.594   9.985   -999.250
 6619     47.227   119.034   42.612   9.923   -999.250
 6619.5     42.189   118.636   41.928   9.862   -999.250
 6620     34.191   117.603   35.563   9.813   -999.250
 6620.5     30.02   116.337   28.595   9.885   -999.250
 6621     35.72   114.524   32.381   9.957   -999.250
 6621.5     37.29   111.494   34.988   10.029   -999.250
 6622     75.354   105.828   56.423   9.99   -999.250
 6622.5     66.567   100.545   69.093   9.908   -999.250
 6623     48.341   100.781   42.245   9.826   -999.250
 6623.5     33.675   110.468   35.463   9.744   -999.250
 6624     32.48   120.248   33.202   9.765   -999.250
 6624.5     31.73   129.504   32.319   9.836   -999.250
 6625     36.062   130.725   33.387   9.907   -999.250
 6625.5     42.744   129.89   37.41   9.857   -999.250
 6626     46.961   127.35   43.434   11.097   -999.250
 6626.5     42.159   122.63   44.663   11.285   -999.250
 6627     48.048   103.299   44.01   11.473   -999.250
 6627.5     76.797   87.71   75.234   11.661   -999.250
 6628     113.206   74.578   106.458   10.975   -999.250
 6628.5     100.843   63.869   109.305   9.457   -999.250
 6629     57.534   66.335   62.186   9.48   -999.250
 6629.5     41.767   86.118   43.252   9.503   -999.250
 6630     39.691   91.156   44.53   9.526   -999.250
 6630.5     40.041   96.194   39.163   9.55   -999.250
 6631     40.391   96.333   41.864   9.541   -999.250
 6631.5     40.947   95.514   44.566   9.53   -999.250
 6632     44.603   91.066   43.564   9.52   -999.250
 6632.5     47.791   82.256   43.923   9.51   -999.250
 6633     48.272   69.137   52.291   9.5   -999.250
 6633.5     236.458   55.281   259.803   9.49   -999.250
 6634     381.895   42.636   400.366   9.48   -999.250
 6634.5     242.465   36.617   274.793   9.491   -999.250
 6635     130.642   39.69   91.655   9.531   -999.250
 6635.5     80.278   50.537   78.689   9.571   -999.250
 6636     79.99   62.256   77.214   9.612   -999.250
 6636.5     73.267   76.079   59.954   9.652   -999.250
 6637     38.778   88.9   45.217   9.692   -999.250
 6637.5     35.845   100.147   34.477   9.707   -999.250
 6638     43.327   107.723   44.802   9.684   -999.250
 6638.5     39.35   113.574   35.969   9.66   -999.250
 6639     27.769   120.324   25.579   9.659   -999.250
 6639.5     25.738   125.417   23.428   9.809   -999.250
 6640     30.785   112.187   25.143   9.959   -999.250
