# Exported from Transform Software 5.2.0 on 27-Jun-2019 by user brian.umlang
# DI Transform - A Product of Drillinginfo, Inc. - www.drillinginfo.com
#
~VERSION INFORMATION
 VERS.        2.0 : LAS ASCII STANDARD - VERSION 2.0
 WRAP.         NO : ONE LINE PER DEPTH STEP

~WELL INFORMATION
#MNEM.UNIT       DATA TYPE       INFORMATION
#---------       ---------       -----------
 STRT.ft                   0 : Start Depth
 STOP.ft               12430 : Stop Depth
 STEP.ft                 0.5 : Step Length
 NULL.               -999.25 : Null Value
 COMP.                       : Company
 WELL.  42109313590000_API14 : Well Name
 FLD.                        : Field Name
 LOC.                        : Well Location
 CNTY.                       : County
 STAT.                       : State or Province
 CTRY.                       : Country
 SRVC.                       : Service Company
 DATE.                       : Date
 API.         42109313590000 : Well Identifier

~CURVE INFORMATION
#MNEM.UNIT       API CODE       CURVE DESCRIPTION
#---------       --------       -----------------
 DEPT.ft          : <Measured Depth>
 CAL.in           : Caliper
 DPHI.%           : Density Porosity
 DT.us/ft         : Sonic
 GR.gAPI          : Gamma Ray
 ILD.ohmm         : Deep Resistivity
 ILM.ohmm         : Medium Resistivity
 ILS.ohmm         : Shallow Resistivity
 NPHI.%           : Neutron Porosity
 RHOB.g/cm3       : Density
 SP.mV            : Spontaneous Potential

~PARAMETER INFORMATION
#MNEM.UNIT       VALUE       DESCRIPTION
#---------       -----       -----------
 EKB.ft      3771 : Elevation above MSL

~A      DEPT         CAL        DPHI          DT          GR         ILD         ILM         ILS        NPHI        RHOB          SP
# ...
      3568.5     12.7071     29.9202     75.4541      70.027     19.0385     14.2354     30.9448     29.6547      2.5114    -77.2155
        3569     12.7071     29.9202     75.3036     66.6166     19.0385       14.24      31.205     29.6548       2.499    -77.2851
      3569.5     12.7071     29.9202     75.0555     63.5728     19.0385     14.2446     32.2681     29.6549      2.4912    -77.3547
        3570     12.7071     29.9202     74.1494     61.8939     19.0385     14.2491     32.8828      29.655      2.4899    -77.4244
      3570.5     12.7071     29.9202     72.1794      59.464     19.0385     14.2537     33.9309     29.6552      2.5223     -77.494
        3571     12.7071     29.9202     71.2482     57.1608     19.0385     14.2583     33.9309     29.6553      2.5282    -77.5636
      3571.5     12.7071     29.9202     70.0927     55.9036     18.5662     14.2629     34.5041     29.6554       2.535    -77.6333
        3572     12.7071     29.9202     69.2544     56.4596     18.5662     14.2674     34.5041     29.6555      2.5349    -77.7029
      3572.5     12.7071     29.9202     69.0616     55.2062     18.5662      14.272      33.648     29.6556      2.5307    -77.7726
        3573     12.7071     29.9202     68.8418     53.6116     18.5662     14.2766      33.648     29.6557      2.5251    -77.8422
      3573.5     12.7071     29.9202     68.0039     52.3545     18.5662     14.2812     33.3673     29.6558       2.521    -77.8698
        3574     12.7071     29.9202     67.3609     50.1112     18.5662     14.2858     33.3673     29.6559      2.5192    -77.8698
      3574.5     12.7071     29.9202     67.2094     48.2939     18.8798     14.2904     33.0891      29.656      2.5193    -77.8698
        3575     12.7071     29.9202     67.8011     48.0769     18.8798     14.2949     33.0891     29.6561      2.5225    -77.8698
      3575.5     12.7071     29.9202     69.2711     48.0769     18.7223     14.2995     33.3673     29.6562      2.5235    -77.8698
        3576     12.7071     29.9202     71.5553     53.9941     18.7223     14.3041     33.3673     29.6563      2.5169    -77.8698
      3576.5     12.7071     29.9202     73.2805      54.414     18.7223     14.3087     33.3673     29.6565      2.5087    -77.8698
        3577     12.7071     29.9202     73.3601     58.5163     18.7223     14.3133     33.3673     29.6566      2.5085    -77.8698
      3577.5     12.7071     29.9202     72.4867     59.7734     18.2578     14.3179     32.2561     29.6567      2.5085    -77.8698
        3578     12.7071     29.9202     71.1685     59.9112     18.2578     14.3225     30.8815     29.6568      2.5085    -77.3772
      3578.5     12.7071     29.9202     70.3355     59.9112     18.4113     14.3271     30.4308     29.6569      2.5088      -76.58
        3579     12.7071     29.6218      70.148     53.8122     18.0145     14.3317     30.0756      29.657      2.5125    -75.7828
      3579.5     12.7071     29.2945     69.6553     52.5551     17.8048     14.3363     29.9253     29.6571       2.522    -74.9856
        3580     12.7071     29.2814      69.039     50.6976     17.8048     14.3409     29.9253     29.6572      2.5352    -74.1885
      3580.5     12.7071     29.9202     68.0735     49.3013     17.9545     14.3455     29.9253     29.6573      2.5412    -73.3913
        3581     12.7071     29.9202     67.3328     43.8528     17.9545     14.3501     29.9253     29.6574      2.5345    -72.5941
      3581.5     12.7071     29.9202     67.2452     43.3354     17.8048     14.3547     29.6758     29.6575       2.528    -71.8904
        3582     12.7071     29.9202     67.4441     43.0624     17.8048     14.3593     29.6758     29.6577      2.5263    -71.5715
      3582.5     12.7071     29.9202     68.4886     44.1321     18.2945     14.3639     29.9253     29.6578      2.5198    -71.2526
        3583     12.7071     29.9202     70.1546     47.4675     18.4113     14.3685     29.9253     29.6579      2.5106    -70.9338
      3583.5     12.7071     29.9202     72.3104     54.9511     18.2578     14.3731       30.81      29.658       2.508    -70.7692
        3584     12.7071     29.9202     73.0977     60.2456     18.2578     14.3778     32.1597     29.6581      2.5049    -70.7692
      3584.5     12.7071     29.9202     73.6303     62.4352     18.5662     14.3824     33.0109     29.6582      2.4986    -70.7692
        3585     12.7071     29.9202     73.5263     64.8234     18.5662      14.387     33.8846     29.6583      2.4949    -70.7692
      3585.5     12.7071     29.9202     72.1119     65.0832     18.5662     14.3916     34.2163     29.6584      2.4824    -70.7692
        3586     12.7071     29.9202     70.5158      63.333     18.5662     14.3962     34.2163     29.6585      2.4805    -70.7692
      3586.5     12.7071     29.9202     70.2155     60.2207     18.5662     14.4008     33.3132     29.6586      2.4813    -70.7692
        3587     12.7071     29.9202      70.333     51.1168     18.0581     14.4055     32.8131     29.6587      2.4927    -70.7692
      3587.5     12.7071     29.9202     70.2302     45.5084     17.2182     14.4101     32.1514     29.6588      2.4926    -70.7692
        3588     12.7071     29.9202      69.605     44.6252     17.2182     14.4147     30.8021      29.659      2.4935    -70.7692
      3588.5     12.7071     29.9202      68.496      44.151     17.0746     14.4193     29.6758     29.6591      2.4885    -70.7692
        3589     12.7071     29.9202     67.7296     46.9854      17.363      14.424     29.6758     29.6592      2.4885    -70.7692
      3589.5     12.7071     29.9202     67.7901     48.9711      17.363     14.4286     29.6758     29.6593      2.4935    -70.7692
        3590     12.7071     29.7605     68.6389     50.0493      17.363     14.4332     29.6758     29.6594      2.4924    -70.1425
      3590.5     12.7071     29.7605     70.1558     55.5225     18.1284     14.4379     29.6758     29.6595      2.4919    -69.5048
        3591     12.7071     29.6806     72.0586     70.4831     18.5662     14.4425     29.4283     29.6596      2.5036    -68.8671
      3591.5     12.7071     29.6806     74.0181     83.3144     18.5662     14.4471     30.5304     29.6597      2.5025    -68.3505
        3592     12.7071     29.7052     74.4854     82.1006     18.5662     14.4518     31.8678     29.6598      2.4987    -68.1591
      3592.5     12.7071     29.7605     73.0352     77.5625     18.7223     14.4564      34.397     29.6599      2.4998    -67.9678
        3593     12.7071     29.7605     70.8644     73.3153     18.5662      14.461     35.3819       29.66      2.5033    -67.7765
      3593.5     12.7071     29.7605     68.4651     51.8727     18.4113     14.4657     35.3819     29.6602      2.5091    -67.5852
        3594     12.7071     29.7605     67.9717     51.4419     18.4113     14.4703     35.3819     29.6603      2.5099    -67.3938
      3594.5     12.7071     29.7605     68.8025     58.4389     18.7223      14.475     35.0869     29.6604       2.518    -67.2025
        3595     12.7071     29.7605     70.8703     66.9405     18.7223     14.4796     35.0869     29.6605       2.523    -67.0112
      3595.5     12.7071     29.7605     72.4337     75.3192     18.8798     14.4843     36.0839     29.6606       2.521    -66.8199
        3596     12.7071     29.6806     74.4571     89.2505     18.8798     14.4889     37.6646     29.6607      2.5094    -66.6286
      3596.5     12.7071     29.6806     74.2762     79.3399     19.1986     14.4936     39.7834     29.6608      2.5097    -66.4372
        3597     12.7071     29.4175     72.6317     71.1525     19.0385     14.4982     39.7834     29.6609      2.5108    -66.2459
      3597.5     12.7071     29.3613     70.5531     63.6613     18.8798     14.5029     39.7834      29.661      2.5085    -66.0546
        3598     12.7071     29.4411     68.8443     61.5153     18.8798     14.6426     39.7834     29.6611      2.5241    -65.8633
      3598.5     12.7071     29.4411     68.5166     53.1083     18.8798     14.7887     39.7834     29.6612      2.5545    -65.6719
