###############################################
##         ENVERUS                           ##
##         ESS - Open Hole                   ##
##         PERMIAN / DELAWARE                ##
##         Nov 02 2023  V4.0                 ##
##         42-109-31550-00-00                ##
###############################################
## Copyright 2017-2023  ENVERUS.  All Rights Reserved. 
## Confidential - Property of ENVERUS, use governed by terms and 
## conditions found within the existing Information Services Subscription Agreement 
## (as may be amended, the “ISSA”) between Customer and ENVERUS. 
## 
~VERSION INFORMATION
# MNEM.UNIT                               DATA : DESCRIPTION OF MNEMONIC
#-----.-----     ----------------------------- : -----------------------------
VERS.                                     2.00 : CWLS LOG ASCII STANDARD - VERSION 2.00
WRAP.                                       NO : MULTIPLE LINES PER DEPTH STEP
VEND.                                  ENVERUS : VENDOR
TYPE.                          ESS - OPEN HOLE : ENVERUS ESSENTIAL CURVES – ACCESSIBLE THROUGH ENVERUS PRISM(TM)
DOC.                                  22584426 : ENVERUS HEADER RAW DOCUMENT ID
#___________________________________________________________________________________________________ 
~WELL INFORMATION 
# ASdzl/zqz3tyMoI2i40d5lqA861uk+/GXWRvioHJ4uiq1sQ7a4yIDDt4z64Puw3+ifUTTkKIB4eyCaXtXAsvCw== 
# MNEM.UNIT                                              DATA : DESCRIPTION OF MNEMONIC 
#-----.-----                    ----------------------------- : ----------------------------- 
CNTY.                                               CULBERSON : COUNTY 
STATE.                                                  TEXAS : STATE 
CNTRY.                                                    USA : COUNTRY 
API.                                             42-109-31550 : API (10 Digit) 
API_14.                                    42-109-31550-00-00 : API (14 Digits) 
API_14_std.                                 42-109-31550-0000 : API (14 Digits Standard) 
UWI.                                           42109315500000 : UNIQUE WELL ID 
WELL.                                       UNIVERSITY_6-46-1 : WELL NAME
STRT.FT                                                 249.5 : START DEPTH
STOP.FT                                               10300.0 : STOP DEPTH
STEP.FT                                                   0.5 : STEP BETWEEN DEPTHS
NULL.                                                 -999.25 : NULL VALUE
COMP.                                    MONSANTO OIL COMPANY : COMPANY 
FLD.                                                  WILDCAT : FIELD 
DATE.                                              10/31/2016 : DATE 
TVD.                                                       NO : TVD FLAG 
WSTA.                                                     LOC : WELL STATUS
#___________________________________________________________________________________________________ 
~PARAMETER INFORMATION 
# MNEM.UNIT                                              DATA : DESCRIPTION OF MNEMONIC 
#-----.-----                    ----------------------------- : ----------------------------- 
RUN.                                                      ONE : RUN NUMBER 
PDAT.                                                      GL : PERMANENT DATUM 
LMF.                                            KELLY BUSHING : LOG MEASURED FROM
#___________________________________________________________________________________________________ 
~CURVE INFORMATION 
# MNEM.UNIT           : CURVE DESCRIPTION 
#-----.-----          : ----------------------------- 
 DEPT.FT               : MEASURED DEPTH 
 DT.US/FT              : SONIC DELTA TRANSIT TIME (DELTA-T) 
 RESS_LL.OHMM          : SHALLOW LATEROLOG (LLS - LATERO-LOG SHALLOW (RESISTIVITY)) 
 RESD_LL.OHMM          : DEEP LATEROLOG (LLD - LATERO-LOG DEEP (RESISTIVITY)) 
 #___________________________________________________________________________________________________ 
~A         DEPT             DT        RESS_LL        RESD_LL
# ...
          447.5         66.991       440.2948       575.7661
          448.0         67.232       416.5076       541.2299
          448.5         68.195       397.6254       513.3421
          449.0         68.736       397.7955       486.8913
          449.5         68.616       365.9822       461.1947
          450.0         68.161       350.4137       441.3149
          450.5         67.593       332.5752       427.0248
          451.0         67.412       315.5150       408.8677
          451.5         67.111       315.5150       424.6679
          452.0         66.705       353.2678       458.5982
          452.5         65.667       399.8414       541.9640
          453.0         64.283       428.2361       628.1048
          453.5         62.861       465.4405       624.3573
          454.0         61.943       465.4405       602.1969
          454.5         61.568       431.6108       560.1008
          455.0         61.803       412.6700       534.7683
          455.5         62.177       408.8677       515.3298
          456.0         62.477       412.6700       510.5816
          456.5         62.477       415.1028       529.6309
          457.0         62.417       440.2948       560.4534
          457.5         62.357       482.9972       619.4480
          458.0         62.177       520.1222       688.6186
          458.5         61.936       558.6510       735.3652
          459.0         61.755       586.6333       783.9696
          459.5         61.755       597.5949       849.5143
          460.0         61.815       655.5531       940.5715
          460.5         62.099       817.7694      1972.4220
          461.0         62.899      1142.3887      2104.4594
          461.5         64.162      1716.7155      6158.4612
          462.0         65.426      2009.2781     26585.6992
          462.5         65.848      2014.4512     32590.4455
          463.0         65.125      2025.0039     37099.8116
          463.5         63.260      2027.9636     32590.4455
          464.0         60.913      2009.2781     30585.2873
          464.5         59.123      1990.7648     26320.7010
          465.0         57.844      2009.2781     20775.2056
          465.5         57.182      2027.1897     21535.8612
          466.0         57.121      2027.4357      5934.6048
          466.5         58.400      2028.0023      3405.5383
          467.0         61.337      2027.9636      3566.8618
          467.5         64.579      2027.9636      3912.7967
          468.0         66.653      2027.9636      4841.1618
          468.5         66.501      2027.9636      6101.6582
          469.0         64.945      2028.1642      5003.8847
          469.5         64.644      2027.8774      3982.3694
          470.0         66.756      2029.6781      3213.7866
          470.5         69.519      1923.8077      2308.5621
          471.0         71.685      1655.0492      1901.9381
          471.5         73.190      1221.7867      1232.7050
          472.0         72.768       704.0490       849.5143
          472.5         71.264       405.7050       330.4612
          473.0         70.903       213.8827       298.4691
          473.5         71.324       226.0978       168.1331
          474.0         71.023       241.2332       165.0490
          474.5         69.639       753.1984       515.3298
          475.0         67.773      1557.7124      2085.0691
          475.5         66.148      1623.9690      2183.8407
          476.0         66.510      1349.5088      2046.8228
          476.5         67.352      1220.5558      1121.4340
          477.0         66.931      1080.6705      1012.8674
          477.5         66.209       985.1272       952.5460
          478.0         67.533       811.0921       718.2676
          478.5         69.097       539.2706       397.6697
          479.0         71.444       372.7192       339.7667
          479.5         71.204       330.4612       324.3996
          480.0         73.430       416.5076       315.5150
          480.5         72.949       726.3354       581.2281
          481.0         72.588      1136.2068      1564.9387
          481.5         71.805      1004.4352      1407.9755
          482.0         70.903       849.2182       958.3080
          482.5         68.298       631.7242       637.5989
          483.0         65.778       436.2380       452.6931
          483.5         64.223       416.5076       424.2904
          484.0         64.151       412.6700       416.5076
          484.5         65.547       412.6700       390.3752
          485.0         65.908       412.6700       386.7784
          485.5         65.065       401.3678       390.3752
          486.0         64.063       383.2146       386.6248
          486.5         63.282       372.7192       390.7114
          487.0         62.789       372.7192       409.1678
          487.5         62.892       387.1011       440.5697
          488.0         62.274       404.4646       440.2107
          488.5         60.431       417.0637       452.9199
          489.0         58.566       432.2185       453.9967
          489.5         57.242       436.2380       475.5775
          490.0         57.079       482.3270       575.1486
          490.5         57.362       559.3534       643.1265
          491.0         57.783       670.6856       721.1304
          491.5         57.302       707.3971       766.1967
          492.0         56.279       605.7260       467.9114
          492.5         56.339       435.8343       359.1711
          493.0         58.325       292.9943       239.0105
          493.5         61.093       215.8718       202.3276
          494.0         64.087       176.0977       179.3882
          494.5         66.172       186.1548       177.7353
          495.0         66.939       236.6700       222.2475
          495.5         66.504       349.4476       335.8130
          496.0         63.903       432.6943       465.4405
          496.5         61.553       448.5220       465.4405
          497.0         59.805       405.1004       386.7784
          497.5         58.902       362.5112       349.3342
          498.0         59.408       346.2483       369.2850
          498.5         60.672       333.3495       349.3342
          499.0         60.672       324.3591       330.4612
          499.5         60.251       304.0462       315.2124
          500.0         59.770       275.1120       296.1580
          500.5         59.198       229.3509       271.8350
          501.0         59.198       204.1306       255.1047
          501.5         60.552       191.3745       236.8083
          502.0         62.574       186.0240       236.8083
          502.5         64.403       200.6677       257.3817
          503.0         64.644       204.2092       267.0903
          503.5         64.794       196.7863       241.2332
          504.0         64.646       177.7353       221.9505
          504.5         65.092       159.1792       199.3392
          505.0         66.267       147.6970       188.5829
          505.5         67.478       142.3283       184.4396
          506.0         68.315       150.4568       202.4442
          506.5         68.435       171.6398       241.7150
          507.0         67.232       196.7863       291.4147
          507.5         65.456       217.8793       327.4163
          508.0         63.771       221.9505       330.4612
          508.5         62.357       208.0249       318.4078
          509.0         62.116       204.2092       306.8737
          509.5         62.451       198.6163       298.4691
          510.0         62.990       191.3967       287.6199
          510.5         63.461       175.8732       243.4765
          511.0         63.924       162.1161       236.8083
          511.5         64.646       151.6704       221.9556
          512.0         65.637       146.3361       213.2077
          512.5         66.599       142.7241       205.6737
          513.0         67.923       141.0169       202.1246
