~VERSION INFORMATION
VERS. 2.0 : CWLS Log ASCII Standard - version 2.0
WRAP.  NO : One line per depth step
#--------------------------------------------------#
#----------------DRILLING INFO, INC.---------------#
#---------------WWW.DRILLINGINFO.COM---------------#
#------------------COPYRIGHT 2015------------------#
#--------------------------------------------------#
#THIS FILE MAY BE USED ONLY IN ACCORDANCE WITH A CURRENT SUBSCRIPTION AGREEMENT BETWEEN
#THE USER AND DRILLING INFO, INC. NO PART OF THIS FILE MAY BE REPRODUCED, USED, COPIED,
#MODIFIED, PROPAGATED, OR DISTRIBUTED EXCEPT IN ACCORDANCE WITH THE SUBSCRIPTION
#AGREEMENT. UNAUTHORIZED USE OR DISTRIBUTION OF ALL OR ANY PART OF THIS FILE MAY VIOLATE
#COPYRIGHT, TRADEMARK, AND/OR OTHER LAWS AND IS SUBJECT TO CIVIL AS WELL AS CRIMINAL
#SANCTIONS.
#--------------------------------------------------#
#THIS FILE IS PROVIDED "AS-IS" AND ALL WARRANTIES ARE EXPRESSLY DISCLAIMED, WHETHER
#EXPRESS, ORAL, IMPLIED, STATUTORY OR OTHERWISE, INCLUDING ANY IMPLIED WARRANTY OF FITNESS
#FOR A PARTICULAR PURPOSE, MERCHANTABILITY, TITLE OR NON-INFRINGEMENT, AND ANY WARRANTIES
#ARISING BY VIRTUE OF CUSTOM OF TRADE OR COURSE OF DEALING.  FURTHER, DRILLING INFO,
#INC. AND ITS LICENSORS DO NOT REPRESENT OR WARRANT THAT THIS FILE WILL MEET USER'S
#REQUIREMENTS OR ARE SUITABLE FOR USER'S NEEDS OR THAT THE DATA OR RESULTS PROVIDED IN
#CONJUNCTION THEREWITH ARE CORRECT, ACCURATE, TIMELY OR RELIABLE. THESE DISCLAIMERS SHALL
#APPLY REGARDLESS OF ANY FAILURE OF ESSENTIAL PURPOSE OF ANY LIMITED REMEDY.  SOME
#JURISDICTIONS DO NOT ALLOW THE EXCLUSION OF CERTAIN WARRANTIES SO SOME OF THE ABOVE
#EXCLUSIONS MAY NOT APPLY. IN NO EVENT SHALL DRILLING INFO, INC. OR ANY OF ITS AFFILIATES
#BE LIABLE UNDER ANY LEGAL THEORY, WHETHER IN TORT (INCLUDING WITHOUT LIMITATION
#NEGLIGENCE), CONTRACT, STRICT LIABILITY, STATUTORY OR OTHERWISE, FOR ANY SPECIAL,
#INCIDENTAL, CONSEQUENTIAL, EXEMPLARY, PUNITIVE OR INDIRECT DAMAGE OF ANY KIND, INCLUDING
#WITHOUT LIMITATION LOSS OF REVENUE, PROFITS, GOODWILL, USE, AND/OR DATA OR THE COST OF
#PROCUREMENT OF SUBSTITUTE GOODS OR SERVICES, EVEN IF APPRISED OF THE POSSIBILITY OF SUCH
#DAMAGES IN ADVANCE.
#--------------------------------------------------#
~WELL INFORMATION
#MNEMONIC     .UNIT              VALUE :DESCRIPTION
#--------------------------------------------------#
STRT       .FT                181 :START DEPTH
STOP       .FT                12231 :STOP DEPTH
STEP       .FT                   0.500 :STEP
NULL       .                  -999.250 :NULL
API        .                421093228700 :API NUMBER
COMP       .         CHESAPEAKE OPERATING  INC. :COMPANY
WELL       .        UNIVERSITY LANDS 4627  1 :WELL
DATE       .                06-May-2007 :LOG DATE
~CURVE INFORMATION
#MNEMONIC     .UNIT      API CODE :CURVE DESCRIPTION
#--------------------------------------------------#
DEPTH       .FT                      :Measured Depth
ILS.OHM        UNKNOWN   :ILS
GR.API        UNKNOWN   :GR
ILD.OHM        UNKNOWN   :ILD
CAL.INCH        UNKNOWN   :CAL
DT.US/FT        UNKNOWN   :DT
~A    DEPTH    ILS    GR    ILD    CAL    DT
# ...
 980.5     -999.250   51.085   195   13.076   76.061
 981     -999.250   48.975   157.806   13.114   77.689
 981.5     -999.250   48.421   127.68   13.149   79.317
 982     -999.250   49.446   130.573   13.139   79.758
 982.5     -999.250   52.657   133.467   13.13   79.574
 983     -999.250   57.535   136.361   13.12   79.391
 983.5     -999.250   62.413   120.569   13.111   79.207
 984     -999.250   67.29   113.218   13.101   77.97
 984.5     -999.250   71.237   144.856   13.092   75.393
 985     -999.250   66.581   195.901   13.083   72.815
 985.5     -999.250   59.76   219.168   13.073   70.238
 986     -999.250   52.94   194.075   13.064   69.316
 986.5     -999.250   49.509   168.983   13.054   69.316
 987     -999.250   47.591   163.614   13.045   73.739
 987.5     -999.250   48.633   158.37   13.035   74.714
 988     -999.250   50.416   153.126   13.026   74.665
 988.5     -999.250   52.2   181.923   13.008   74.616
 989     -999.250   53.983   229.406   12.964   69.567
 989.5     -999.250   59.577   248.222   12.92   65.967
 990     -999.250   70.687   239.768   12.877   65.99
 990.5     -999.250   84.882   234.702   12.833   67.247
 991     -999.250   99.997   248.912   12.789   68.505
 991.5     -999.250   113.152   357.833   12.746   69.257
 992     -999.250   124.484   534.743   12.702   69.094
 992.5     -999.250   127.265   768.831   12.658   67.662
 993     -999.250   121.682   1658.506   12.627   65.276
 993.5     -999.250   116.669   2660.723   12.624   62.891
 994     -999.250   119.761   3698.915   12.621   61.61
 994.5     -999.250   139.951   4635.693   12.619   62.343
 995     -999.250   160.517   3859.281   12.616   64.749
 995.5     -999.250   153.98   3082.868   12.613   66.465
 996     -999.250   131.409   2306.456   12.61   66.392
 996.5     -999.250   105.027   3453.619   12.607   63.955
 997     -999.250   79.198   5529.949   12.605   60.904
 997.5     -999.250   53.369   7107.539   12.602   57.854
 998     -999.250   47.378   9896.718   12.599   54.803
 998.5     -999.250   45.309   11475.142   12.596   53.769
 999     -999.250   46.894   9291.996   12.594   53.952
 999.5     -999.250   48.48   8991.162   12.591   54.01
 1000     -999.250   50.065   10006.281   12.588   53.706
 1000.5     -999.250   51.65   8718.983   12.585   53.402
 1001     -999.250   57.93   7431.686   12.582   53.54
 1001.5     -999.250   64.976   5149.052   12.58   54.87
 1002     -999.250   68.209   3055.17   12.577   55.983
 1002.5     -999.250   65.151   2322.131   12.574   56.458
 1003     -999.250   61.703   2814.664   12.571   56.435
 1003.5     -999.250   58.255   4598.082   12.568   55.907
 1004     -999.250   58.742   4527.72   12.566   55.38
 1004.5     -999.250   59.505   4457.358   12.563   54.852
 1005     -999.250   59.957   4921.762   12.563   54.324
 1005.5     -999.250   59.871   5720.661   12.564   54.103
 1006     -999.250   59.868   5544.196   12.565   54.021
 1006.5     -999.250   61.338   5213.189   12.566   54.471
 1007     -999.250   62.809   5464.726   12.567   54.976
 1007.5     -999.250   63.845   4939.123   12.568   55.481
 1008     -999.250   63.407   4532.051   12.568   55.841
 1008.5     -999.250   62.97   4956.486   12.569   56.133
 1009     -999.250   62.761   4989.096   12.57   56.424
 1009.5     -999.250   66.306   4355.089   12.571   58.198
 1010     -999.250   76.167   2996.817   12.572   61.848
 1010.5     -999.250   86.028   1124.298   12.573   65.499
 1011     -999.250   92.925   1248.165   12.574   68.534
 1011.5     -999.250   93.791   1618.786   12.575   68.443
 1012     -999.250   95.082   1479.189   12.575   66.758
 1012.5     -999.250   97.493   1437.613   12.577   65.036
 1013     -999.250   98.686   1529.674   12.578   63.313
 1013.5     -999.250   95.636   2016.9   12.58   61.591
 1014     -999.250   92.745   2565.981   12.582   61.547
 1014.5     -999.250   98.499   2001.769   12.583   65.967
 1015     -999.250   113.639   1466.109   12.585   70.387
 1015.5     -999.250   131.976   990.512   12.586   74.807
 1016     -999.250   150.02   514.915   12.588   76.692
 1016.5     -999.250   150.02   674.796   12.59   76.86
 1017     -999.250   148.766   543.878   12.591   76.157
 1017.5     -999.250   143.071   596.536   12.593   75.453
 1018     -999.250   142.459   804.747   12.595   73.743
 1018.5     -999.250   141.846   932.681   12.596   71.533
 1019     -999.250   135.409   1051.675   12.598   69.323
 1019.5     -999.250   122.087   1505.432   12.599   67.113
 1020     -999.250   108.766   1851.918   12.601   64.902
 1020.5     -999.250   97.997   1327.657   12.603   65.491
 1021     -999.250   95.847   803.396   12.604   66.146
 1021.5     -999.250   100.108   831.201   12.606   66.801
 1022     -999.250   104.369   1928.109   12.608   67.456
 1022.5     -999.250   107.314   2206.05   12.609   66.255
 1023     -999.250   104.163   2470.936   12.611   64.809
 1023.5     -999.250   102.954   2735.822   12.612   63.362
 1024     -999.250   108.179   3000.708   12.614   62.547
 1024.5     -999.250   132.358   2831.088   12.616   63.274
 1025     -999.250   153.825   1892.314   12.617   66.035
 1025.5     -999.250   164.102   1645.312   12.619   68.796
 1026     -999.250   164.94   1350.845   12.62   71.557
 1026.5     -999.250   162.652   705.917   12.622   74.318
 1027     -999.250   159.935   509.968   12.624   77.022
 1027.5     -999.250   154.98   509.636   12.625   74.353
 1028     -999.250   146.088   533.515   12.627   70.825
 1028.5     -999.250   132.726   239.344   12.634   67.298
 1029     -999.250   119.582   307.078   12.648   64.304
 1029.5     -999.250   111.655   477.899   12.662   64.298
 1030     -999.250   106.868   665.681   12.677   64.291
 1030.5     -999.250   106.663   577.956   12.691   64.284
 1031     -999.250   105.974   575.01   12.705   64.278
 1031.5     -999.250   101.692   622.765   12.719   64.271
 1032     -999.250   89.493   659.326   12.734   62.36
 1032.5     -999.250   77.294   567.262   12.748   60.675
 1033     -999.250   71.079   464.499   12.762   60.736
 1033.5     -999.250   68.746   350.805   12.776   61.786
 1034     -999.250   69.451   248.908   12.791   63.141
 1034.5     -999.250   70.156   256.929   12.805   64.495
 1035     -999.250   70.861   264.95   12.819   65.85
 1035.5     -999.250   71.847   259.984   12.834   67.011
 1036     -999.250   73.104   250.594   12.85   67.161
 1036.5     -999.250   75.575   241.204   12.865   67.312
 1037     -999.250   78.046   259.785   12.88   67.463
 1037.5     -999.250   80.517   285.854   12.895   67.721
 1038     -999.250   82.988   286.282   12.911   68.215
 1038.5     -999.250   85.276   272.208   12.926   68.708
 1039     -999.250   84.514   258.134   12.941   68.627
 1039.5     -999.250   79.016   272.137   12.957   68.263
 1040     -999.250   72.05   291.897   12.972   67.899
 1040.5     -999.250   65.526   253.023   12.987   67.618
 1041     -999.250   61.512   247.572   13.003   67.375
 1041.5     -999.250   60.394   271.254   13.018   67.132
 1042     -999.250   60.394   253.745   13.009   67.33
 1042.5     -999.250   60.394   234.939   12.998   68.204
 1043     -999.250   60.621   216.134   12.987   69.025
 1043.5     -999.250   60.711   197.328   12.975   69.159
 1044     -999.250   61.091   198.227   12.964   69.294
 1044.5     -999.250   62.773   210.782   12.953   69.067
 1045     -999.250   67.713   297.586   12.942   67.359
 1045.5     -999.250   77.042   267.918   12.931   67.306
 1046     -999.250   89.806   238.25   12.894   68.969
 1046.5     -999.250   102.57   257.579   12.848   70.708
 1047     -999.250   114.041   376.691   12.802   69.532
 1047.5     -999.250   123.566   508.936   12.756   67.854
 1048     -999.250   117.401   691.146   12.717   66.175
 1048.5     -999.250   105.251   660.652   12.681   64.497
 1049     -999.250   93.101   675.241   12.644   62.819
 1049.5     -999.250   81.243   780.336   12.608   61.97
 1050     -999.250   85.378   767.778   12.571   62.196
 1050.5     -999.250   101.42   830.46   12.534   64.677
