###############################################
##         ENVERUS                           ##
##         ESS - Open Hole                   ##
##         PERMIAN / DELAWARE                ##
##         Nov 02 2023  V4.0                 ##
##         42-109-32346-90-00                ##
###############################################
## Copyright 2017-2023  ENVERUS.  All Rights Reserved. 
## Confidential - Property of ENVERUS, use governed by terms and 
## conditions found within the existing Information Services Subscription Agreement 
## (as may be amended, the “ISSA”) between Customer and ENVERUS. 
## 
~VERSION INFORMATION
# MNEM.UNIT                               DATA : DESCRIPTION OF MNEMONIC
#-----.-----     ----------------------------- : -----------------------------
VERS.                                     2.00 : CWLS LOG ASCII STANDARD - VERSION 2.00
WRAP.                                       NO : MULTIPLE LINES PER DEPTH STEP
VEND.                                  ENVERUS : VENDOR
TYPE.                          ESS - OPEN HOLE : ENVERUS ESSENTIAL CURVES – ACCESSIBLE THROUGH ENVERUS PRISM(TM)
DOC.                                  51092887 : ENVERUS HEADER RAW DOCUMENT ID
#___________________________________________________________________________________________________ 
~WELL INFORMATION 
# XhrHiXkIrwGIJmPLTIo0+WseqdI1VWn+o0JF90EYfb9BJ/ikjsIPmHpj3yVLlwnYQ/npclNvflN3Ll99f4ZCqQ== 
# MNEM.UNIT                                              DATA : DESCRIPTION OF MNEMONIC 
#-----.-----                    ----------------------------- : ----------------------------- 
CNTY.                                               CULBERSON : COUNTY 
STATE.                                                  TEXAS : STATE 
CNTRY.                                                    USA : COUNTRY 
API.                                             42-109-32346 : API (10 Digit) 
API_14.                                    42-109-32346-90-00 : API (14 Digits) 
API_14_std.                                 42-109-32346-9000 : API (14 Digits Standard) 
UWI.                                           42109323469000 : UNIQUE WELL ID 
WELL.                                                  DRD_55 : WELL NAME
STRT.FT                                                 334.5 : START DEPTH
STOP.FT                                                4950.0 : STOP DEPTH
STEP.FT                                                   0.5 : STEP BETWEEN DEPTHS
NULL.                                                 -999.25 : NULL VALUE
PREV_APII.                                     42109323460000 : WELL IDENTIFIER
#___________________________________________________________________________________________________ 
~PARAMETER INFORMATION 
# MNEM.UNIT                                              DATA : DESCRIPTION OF MNEMONIC 
#-----.-----                    ----------------------------- : -----------------------------
#___________________________________________________________________________________________________ 
~CURVE INFORMATION 
# MNEM.UNIT           : CURVE DESCRIPTION 
#-----.-----          : ----------------------------- 
 DEPT.FT               : MEASURED DEPTH 
 CALI.IN               : CALIPER (CAL - CALIPER) 
 GR.API                : GAMMA RAY (GAMMA RAY) 
 DT.US/FT              : SONIC DELTA TRANSIT TIME (SONIC) 
 #___________________________________________________________________________________________________ 
~A         DEPT           CALI             GR             DT
# ...
         4558.5          8.203         59.082         66.460
         4559.0          8.203         56.414         65.126
         4559.5          8.198         51.820         64.141
         4560.0          8.178         59.081         64.309
         4560.5          8.171         63.931         64.807
         4561.0          8.171         69.781         65.927
         4561.5          8.171         62.745         64.734
         4562.0          8.171         58.021         64.178
         4562.5          8.171         59.241         63.929
         4563.0          8.164         63.942         64.238
         4563.5          8.164         67.924         64.720
         4564.0          8.164         72.926         64.794
         4564.5          8.164         73.927         64.723
         4565.0          8.164         75.049         64.781
         4565.5          8.164         73.372         64.410
         4566.0          8.164         60.465         63.006
         4566.5          8.183         50.733         62.289
         4567.0          8.183         33.511         61.254
         4567.5          8.222         29.017         60.517
         4568.0          8.222         29.237         61.076
         4568.5          8.222         34.880         62.039
         4569.0          8.222         46.518         63.647
         4569.5          8.183         75.822         65.464
         4570.0          8.164         91.056         65.586
         4570.5          8.164         91.529         65.078
         4571.0          8.144         77.017         63.336
         4571.5          8.144         71.626         62.411
         4572.0          8.144         77.990         63.269
         4572.5          8.144         82.639         64.226
         4573.0          8.144         91.437         64.852
         4573.5          8.144         83.870         64.000
         4574.0          8.144         62.752         60.942
         4574.5          8.144         52.981         59.350
         4575.0          8.144         41.535         56.927
         4575.5          8.144         38.787         56.675
         4576.0          8.144         55.075         58.553
         4576.5          8.144         61.726         59.738
         4577.0          8.144         93.112         64.874
         4577.5          8.144         95.536         65.423
         4578.0          8.144         94.668         65.131
         4578.5          8.144         93.370         65.131
         4579.0          8.164         90.894         64.596
         4579.5          8.164         82.877         63.511
         4580.0          8.164         69.309         62.015
         4580.5          8.164         65.939         61.382
         4581.0          8.164         54.296         60.864
         4581.5          8.164         42.942         60.422
         4582.0          8.164         34.739         58.892
         4582.5          8.164         34.446         59.256
         4583.0          8.164         47.876         60.842
         4583.5          8.164         60.313         62.399
         4584.0          8.164         65.484         63.382
         4584.5          8.164         63.086         62.535
         4585.0          8.164         52.070         62.270
         4585.5          8.164         49.321         63.269
         4586.0          8.203         52.047         64.685
         4586.5          8.205         51.578         65.313
         4587.0          8.242         44.605         65.423
         4587.5          8.246         48.980         65.656
         4588.0          8.261         55.556         65.348
         4588.5          8.268         48.811         64.471
         4589.0          8.281         40.820         63.048
         4589.5          8.281         33.316         62.178
         4590.0          8.261         32.206         62.214
         4590.5          8.251         37.856         62.813
         4591.0          8.242         62.840         63.822
         4591.5          8.222         71.687         64.886
         4592.0          8.222         73.227         65.288
         4592.5          8.222         68.699         65.263
         4593.0          8.222         55.830         64.455
         4593.5          8.222         44.925         62.077
         4594.0          8.222         34.132         60.122
         4594.5          8.222         29.296         58.589
         4595.0          8.222         29.046         60.177
         4595.5          8.222         34.378         62.005
         4596.0          8.222         49.730         63.596
         4596.5          8.219         56.112         64.591
         4597.0          8.203         64.886         65.467
         4597.5          8.203         70.407         64.934
         4598.0          8.183         73.489         65.198
         4598.5          8.183         69.756         64.793
         4599.0          8.183         64.328         64.290
         4599.5          8.183         71.876         64.168
         4600.0          8.183        110.435         64.929
         4600.5          8.183        122.687         65.333
         4601.0          8.183        116.945         65.693
         4601.5          8.183         94.365         65.773
         4602.0          8.203         75.787         65.088
         4602.5          8.203         73.278         64.898
         4603.0          8.203         76.915         64.781
         4603.5          8.203         83.871         64.898
         4604.0          8.203         80.776         64.291
         4604.5          8.203         75.350         63.382
         4605.0          8.203         64.708         62.505
         4605.5          8.203         66.279         64.709
         4606.0          8.203         71.488         66.015
         4606.5          8.203         74.144         66.134
         4607.0          8.203         77.243         65.493
         4607.5          8.222         74.686         64.404
         4608.0          8.242         70.300         63.239
         4608.5          8.242         68.195         63.756
         4609.0          8.242         65.068         63.992
         4609.5          8.242         64.717         64.051
         4610.0          8.242         67.321         64.436
         4610.5          8.242         67.958         65.007
         4611.0          8.261         67.183         65.656
         4611.5          8.261         64.274         64.569
         4612.0          8.261         56.807         62.814
         4612.5          8.261         53.041         61.832
         4613.0          8.261         49.997         62.065
         4613.5          8.261         58.411         63.935
         4614.0          8.261         62.572         65.248
         4614.5          8.261         60.273         65.033
         4615.0          8.261         51.435         64.490
         4615.5          8.261         51.546         64.848
         4616.0          8.261         56.681         65.609
         4616.5          8.261         58.989         66.239
         4617.0          8.261         63.217         67.102
         4617.5          8.261         61.725         66.284
         4618.0          8.261         51.592         64.756
         4618.5          8.261         47.378         63.699
         4619.0          8.261         38.184         62.887
         4619.5          8.261         35.392         63.422
         4620.0          8.261         38.791         64.328
         4620.5          8.261         43.173         64.820
         4621.0          8.261         59.948         65.598
         4621.5          8.276         64.543         64.602
         4622.0          8.281         53.359         63.625
         4622.5          8.281         48.686         63.324
         4623.0          8.281         55.056         63.580
         4623.5          8.281         70.981         65.040
         4624.0          8.281         83.827         65.425
