~Version Information
 VERS.                  2.0:   CWLS log ASCII Standard -VERSION 2.0
 WRAP.                   NO:   One line per depth step
~Well Information Block
#MNEM.UNIT       Data Type    Information
#---------     -----------    ---------------------------
 STRT.F              3503.5000:
 STOP.F             12186.0000:
 STEP.F                 0.5000:
 NULL.               -999.2500:
 UWI .            42-109-32278:  API WELLHOLE NUMBER
 COMP.     SAMSON LONE STAR LP:  COMPANY NAME
 COUN.               CULBERSON:  COUNTY
 DAT2.                   02000:  LOGGING DATE 2
 DAT3.                   02000:  LOGGING DATE 3
 DAT4.                   02000:  LOGGING DATE 4
 DATE.                   02000:  LOGGING DATE
 DMF .           KELLY BUSHING:  DRILLING MEASURED
 LOC .    1521' FWL AND 2040' FSL:  FIELD LOCATION
 FL1 .    1521' FWL AND 2040' FSL:  FIELD LOCATION LINE 1
 FL2 .        SEC. 14, BLK. 46:  FIELD LOCATION LINE 2
 FLD .                 WILDCAT:  FIELD NAME
 HDAT.                   02000:  DATUM
 LMF .                    K.B.:  LOG MEASURED FROM
 OS1 .                    XRMI:  OTHER SERVICES LINE 1
 OS2 .               LSS / FWS:  OTHER SERVICES LINE 2
 OS3 .                 SDL/DSN:  OTHER SERVICES LINE 3
 OS4 .                DLL/MGRD:  OTHER SERVICES LINE 4
 PDAT.            GROUND LEVEL:  PERMANENT DATUM
 R1  .    TOOLSTRING: RWCH/D4TS/NGRT/LFS_D2/XRMI/CENT:  REMARKS LINE 1
 R2  .    LOGGING INTERVALS AS PER CUSTOMER REQUEST.:  REMARKS LINE 2
 RDT2.                   02000:  CASING DATE 2
 RDT3.                   02000:  CASING DATE 3
 RDT4.                   02000:  CASING DATE 4
 RDT5.                   02000:  CASING DATE 5
 SON .                 4992511:  SERVICE/TICKET ORDER NUMBER
 PROV.                   TEXAS:  STATE
 WELL.    UNIVERSITY LANDS 46-14 No. 2:  WELL NAME
~Parameter Information Block
#MNEM.UNIT       Value        Description
#---------     -----------    ---------------------------
~Curve Information Block
#MNEM.UNIT                 API CODE     Curve Description
#---------               -----------    ---------------------------
 DEPT.F                 00 000 000 000:  
 LLD .ohmm              00 000 000 000:  LLD                                    
 LLS .ohmm              00 000 000 000:  LLS                                    
 NPHI.decp              00 000 000 000:  Neutron Porosity                       
 GR  .api               00 000 000 000:  Gamma API                              
 MGRD.ohmm              00 000 000 000:  MCGRD                                  
 DRHO.g/cc              00 000 000 000:  DensityCorr                            
 DPHI.decp              00 000 000 000:  DensityPorosity                        
 PE  .b/e               00 000 000 000:  Pe                                     
 RHOB.g/cc              00 000 000 000:  Density                                
 XPHI.decp              00 000 000 000:  CrossplotPhi                           
 CALI.in                00 000 000 000:  Caliper                                
 DTC .                  00 000 000 000:  DELTA-T COMPRESSIONAL - FWS
 GR2 .GAPI              00 000 000 000:  NATURAL GAMMA - FWS
 SPHI.DECP              00 000 000 000:  SONIC POROSITY MTX=47.6 (DTC)
~A  DEPT        LLD        LLS        NPHI       GR         MGRD       DRHO       DPHI       PE         RHOB       XPHI       CALI       DTC        GR2        SPHI   
# ...
 5390.0000    15.6520    15.8457     0.1747    69.4949    28.2421     0.0202     0.0859     2.9348     2.5632     0.1417    11.2733    65.1793    66.2603     0.1243 
 5390.5000    19.2529    19.2569     0.1649    61.7081    29.8139     0.0073     0.0929     3.1966     2.5512     0.1388    11.2198    63.6627    60.4145     0.1136 
 5391.0000    21.2399    20.4007     0.1746    75.6284    20.4437     0.0017     0.1176     3.1212     2.5088     0.1540    11.2198    63.3723    68.6939     0.1115 
 5391.5000    20.8213    19.5624     0.2031    91.2554    20.7606     0.0069     0.1351     2.8566     2.4790     0.1765    11.2427    64.5904    81.0320     0.1202 
 5392.0000    19.1144    17.5248     0.2310    91.6821    21.6204     0.0094     0.1365     2.7744     2.4766     0.1902    11.2885    65.1270    88.6562     0.1240 
 5392.5000    17.4583    15.8620     0.2315    91.3087    19.6362     0.0102     0.1183     2.8068     2.5078     0.1844    11.2885    66.8476    85.7290     0.1361 
 5393.0000    16.4412    14.9876     0.2112    83.4152    20.5714     0.0162     0.0893     2.8996     2.5573     0.1627    11.2885    67.6525    76.0287     0.1418 
 5393.5000    16.0250    14.4757     0.1863    67.2548    19.2119     0.0241     0.0656     3.0708     2.5978     0.1332    11.2885    65.7043    65.9965     0.1280 
 5394.0000    16.1873    14.5684     0.1663    57.6013    16.2933     0.0292     0.0577     3.0910     2.6113     0.1231    11.2809    63.7641    61.1888     0.1143 
 5394.5000    16.6695    14.8906     0.1550    60.5347    17.1418     0.0314     0.0588     2.9450     2.6094     0.1195    11.2733    64.0322    60.7208     0.1162 
 5395.0000    17.8567    15.9191     0.1551    69.8149    19.7283     0.0333     0.0602     2.9633     2.6071     0.1195    11.2809    64.6397    64.6520     0.1205 
 5395.5000    18.9754    16.8611     0.1625    73.8683    19.7282     0.0326     0.0672     3.0941     2.5951     0.1281    11.2733    65.6101    68.5152     0.1274 
 5396.0000    19.3982    16.9491     0.1706    78.1351    19.6971     0.0290     0.0732     3.0765     2.5848     0.1317    11.2733    66.1362    72.5655     0.1311 
 5396.5000    19.5312    16.7816     0.1728    81.7618    20.1063     0.0257     0.0738     2.9855     2.5838     0.1362    11.2733    65.5541    71.1785     0.1270 
 5397.0000    19.3439    16.1593     0.1799    77.1751    16.9998     0.0237     0.0774     2.9367     2.5777     0.1425    11.2580    65.7128    68.1748     0.1281 
 5397.5000    19.5642    16.0643     0.1750    70.4549    17.0298     0.0217     0.0839     2.9244     2.5665     0.1411    11.2427    65.7318    65.4604     0.1282 
 5398.0000    20.6239    16.7588     0.1797    70.6505    21.1990     0.0225     0.0907     2.9790     2.5548     0.1462    11.2198    64.2699    66.6772     0.1179 
 5398.5000    21.8230    17.6140     0.1880    70.7749    26.9393     0.0252     0.0854     3.0930     2.5639     0.1488    11.1817    63.5521    69.8511     0.1128 
 5399.0000    22.7062    18.3022     0.1798    65.5126    29.0011     0.0236     0.0710     3.1277     2.5886     0.1369    11.1511    63.6900    71.5444     0.1138 
 5399.5000    22.6706    18.2209     0.1773    67.2015    26.1973     0.0201     0.0700     3.0254     2.5903     0.1369    11.1282    64.3098    71.2466     0.1182 
 5400.0000    21.4305    17.2964     0.1751    74.8817    22.9719     0.0194     0.0852     2.9413     2.5643     0.1395    11.1206    65.6344    70.8467     0.1275 
 5400.5000    19.8164    15.9674     0.1750    77.9218    18.4726     0.0248     0.1005     2.9597     2.5381     0.1444    11.1206    66.0328    69.6214     0.1304 
 5401.0000    18.5991    14.8638     0.1782    70.5616    17.4399     0.0335     0.1002     3.0123     2.5387     0.1490    11.1206    66.1354    67.0005     0.1311 
 5401.5000    18.0048    14.3223     0.1778    64.5881    17.9648     0.0374     0.0869     3.0658     2.5615     0.1469    11.1206    66.2775    64.8648     0.1321 
 5402.0000    18.0050    14.2990     0.1746    70.5616    19.6191     0.0352     0.0778     3.1432     2.5769     0.1387    11.1359    67.1771    63.8437     0.1385 
 5402.5000    18.4932    14.7514     0.1718    76.6951    18.6788     0.0352     0.0723     3.1983     2.5863     0.1351    11.1206    66.9143    65.1456     0.1366 
 5403.0000    18.7281    14.9406     0.1721    75.4684    18.8855     0.0394     0.0729     3.1514     2.5854     0.1377    11.1206    66.4450    65.3753     0.1333 
 5403.5000    18.8347    14.9181     0.1741    69.2282    21.6551     0.0404     0.0819     3.1021     2.5700     0.1399    11.1206    66.0656    64.9414     0.1306 
 5404.0000    18.5114    14.6965     0.1756    69.1749    19.5226     0.0395     0.0798     3.0748     2.5735     0.1399    11.1435    65.8548    63.8352     0.1291 
 5404.5000    17.7260    13.9672     0.1754    71.2549    17.6291     0.0426     0.0742     3.0439     2.5832     0.1378    11.1740    65.9015    65.5540     0.1294 
 5405.0000    16.9470    13.4494     0.1846    73.8328    17.7090     0.0465     0.0759     3.1341     2.5802     0.1419    11.2046    66.0480    66.1837     0.1305 
 5405.5000    16.0012    12.6689     0.1735    81.8329    15.9773     0.0462     0.0791     3.1696     2.5748     0.1419    11.2198    66.7523    69.2129     0.1354 
 5406.0000    15.1320    11.9890     0.1749    81.8329    13.3502     0.0437     0.0806     3.0119     2.5721     0.1399    11.2351    67.0340    69.5107     0.1374 
 5406.5000    14.4140    11.4532     0.1829    79.2551    13.1417     0.0415     0.0826     2.9227     2.5688     0.1435    11.2809    67.5578    70.5659     0.1411 
 5407.0000    13.7542    10.9193     0.1844    83.5219    13.6596     0.0407     0.0848     2.9180     2.5650     0.1447    11.2809    68.1870    71.0509     0.1456 
 5407.5000    13.4016    10.6851     0.1929    86.4019    12.8692     0.0397     0.0832     2.8410     2.5678     0.1495    11.2733    68.0536    74.2673     0.1447 
 5408.0000    12.9562    10.3453     0.1813    77.7084    12.2970     0.0372     0.0820     2.7571     2.5698     0.1439    11.2656    67.2395    75.9606     0.1389 
 5408.5000    12.5366    10.0539     0.1770    67.1482    11.3974     0.0381     0.0797     2.7405     2.5737     0.1422    11.2427    66.5258    74.5821     0.1338 
 5409.0000    12.0218     9.6762     0.1733    71.5216    10.4486     0.0393     0.0771     2.7607     2.5781     0.1377    11.2580    66.3465    73.6376     0.1326 
 5409.5000    11.3889     9.1170     0.1711    80.0018     9.6590     0.0365     0.0815     2.7410     2.5706     0.1407    11.3038    66.5927    77.4497     0.1343 
 5410.0000    10.9415     8.7335     0.1744    82.3485     9.9183     0.0339     0.0885     2.6779     2.5586     0.1425    11.3267    66.8776    82.4275     0.1363 
 5410.5000    10.6889     8.4527     0.1819    84.1086    10.4641     0.0310     0.0898     2.6499     2.5564     0.1487    11.3267    67.4554    82.6147     0.1404 
 5411.0000    10.6330     8.3864     0.1881    79.7885    10.8321     0.0254     0.0888     2.6754     2.5581     0.1501    11.3344    68.0926    78.7601     0.1449 
 5411.5000    10.8254     8.4950     0.1842    73.6550    12.4712     0.0223     0.0844     2.7258     2.5657     0.1428    11.3344    68.0429    74.1312     0.1446 
 5412.0000    11.0650     8.6516     0.1802    67.5749    12.7809     0.0242     0.0681     2.7979     2.5936     0.1428    11.3267    67.8196    73.6972     0.1430 
 5412.5000    11.2350     8.7689     0.1763    60.1080    12.6976     0.0253     0.0599     2.8294     2.6075     0.1333    11.3191    67.4486    76.8881     0.1404 
 5413.0000    11.3448     8.8260     0.1750    67.0415    11.6818     0.0251     0.0727     2.7985     2.5856     0.1340    11.3191    67.0373    79.6621     0.1375 
 5413.5000    11.5027     8.9165     0.1818    75.2550    11.7187     0.0269     0.0785     2.8418     2.5758     0.1429    11.3344    66.2421    76.1989     0.1318 
 5414.0000    11.7015     9.0588     0.1774    77.5484    12.4216     0.0295     0.0655     2.9639     2.5979     0.1358    11.3496    65.6297    70.1234     0.1275 
