~Version Information
 VERS.                  2.0:   CWLS log ASCII Standard -VERSION 2.0
 WRAP.                   NO:   One line per depth step
~Well Information Block
#MNEM.UNIT     VALUE/NAME     DESCRIPTION
#---------     -----------    ---------------------------
 STRT.F              8400.0000: START DEPTH
 STOP.F             14130.0000: STOP DEPTH
 STEP.F                 0.5000: STEP DEPTH
 NULL.                 -999.25: NULL VALUE
 LOC .            42-109-33596:  LOCATION
 FL1 .            42-109-33596:  LOCATIONLINE1
 PROV.                      TX:  PROVINCE
 STAT.                      TX:  STATE NAME
 CNTY.               CULBERSON:  COUNTY NAME
 FLD .              WOLFCAMP B:  FIELD NAME
 WELL.           DALE STATE 5H:  WELL NAME
 COMP.     CAPITAN ENERGY INC.:  COMPANY
 DMF .             Drill Floor:  DRILL MEAS FROM
 PDAT.                      GL:  PERMANENT DATUM
 DATE.             11-Feb-2020:  DATE
 SVCO.             Halliburton:  SERVICECONAME
 HIDE.                        :  WELLNAMEOPERAT
 BASI.                 PERMIAN:  BASIN
 UWI .            42-109-33596:  UNIQUE WELL IDENTIFIER
 API .            42-109-33596:  API NUMBER
 RANG.                     N/A:  RANGE
 TOWN.                     N/A:  TOWNSHIP
 SECT.                     N/A:  SECTION
 SON .               906289953:  JOB NUMBER
 CTRY.                        :  COUNTRY
 SRVC.             Halliburton:  SERVICE COMPANY
 LMF .             Drill Floor:  LOG MEASURED FROM
 TVDS.ft             3291.0000:  TVDSS CORRECTN
 EGL .ft             3266.0000:  GROUND ELEVATION
 APD .ft               25.0000:  DEPTH ABOVE PD
 EPD .ft             3266.0000:  ELEVATION
 BAP .ft                0.0000:  GL ELEV ONSHORE
 GVFD.g                 1.0000:  GRAVITY FIELD
 EKB .ft             3291.0000:  KB ELEVATION
 EDF .ft             3291.0000:  DF ELEVATION
~Curve Information Block
#MNEM.UNIT                 API CODE     Curve Description
#---------               -----------    ---------------------------
 DEPT.F                 00 000 000 000:  Depth
 CCL .V                 00 000 000 000:  Casing Collar Locator
 NPHI_OH.pu             00 000 000 000:  NPHI_OH
 NPHI_CHI.decp          00 000 000 000:  NPHI_CHI
 GR_OH.api              00 000 000 000:  GR_OH
 GR_CHI.api             00 000 000 000:  GR_CHI
 RHOB_OH.g/cc           00 000 000 000:  RHOB_OH
 RHOB_CHI.g/cc          00 000 000 000:  RHOB_CHI
 PE_OH.NONE             00 000 000 000:  PE_OH
 PE_CHI.NONE            00 000 000 000:  PE_CHI
 LLS_CHI.ohmm           00 000 000 000:  LLS_CHI
 LLS_OH.ohmm            00 000 000 000:  LLS_OH
 LLD_OH.ohmm            00 000 000 000:  LLD_OH
 LLD_CHI.ohmm           00 000 000 000:  LLD_CHI
 DTC_OH.uspf            00 000 000 000:  DTC_OH
 DTC_CHI.uspf           00 000 000 000:  DTC_CHI
 SPHW_CHI.decp          00 000 000 000:  SPHW_CHI
#Other Information
#
#WARRANTY: Halliburton will use its best efforts to furnish customers with 
#accurate information and interpretations that are part of, and incident to, the services 
#provided.  However, Halliburton cannot and does not warrant the accuracy 
#or correctness of such information and interpretations.  Under no circumstances should any 
#such information or interpretation be relied upon as the sole basis for any drilling, 
#completion, production, or financial decision or any procedure involving any risk to the 
#safety of any drilling venture, drilling rig or its crew or any other third party.  The 
#Customer has full responsibility for all drilling, completion and production operation.  
#Halliburton makes no representations or warranties, either expressed or 
#implied, including, but not limited to, the implied warranties of merchantability or fitness 
#for a particular purpose, with respect to the services rendered.  In no event will 
#Halliburton be liable for failure to obtain any particular results or for 
#any damages, including, but not limited to, indirect, special or consequential damages, 
#resulting from the use of any information or interpretation provided by Halliburton.
#
~A    DEPT      CCL   NPHI_OH NPHI_CHI  GR_OH    GR_CHI  RHOB_OH RHOB_CHI  PE_OH  PE_CHI LLS_CHI   LLS_OH    LLD_OH    LLD_CHI  DTC_OH  DTC_CHI SPHW_CHI 
# ...
   13726.5000 -0.0014 -999.25   0.1199  -999.25  96.4581 -999.25   2.5733 -999.25 3.1741  37.5225   -999.25   -999.25   44.8207 -999.25 72.5310 0.1763
   13727.0000 -0.0079 -999.25   0.1202  -999.25  96.5550 -999.25   2.5740 -999.25 3.1965  39.7840   -999.25   -999.25   47.1067 -999.25 72.3875 0.1753
   13727.5000  0.0325 -999.25   0.1126  -999.25  86.1146 -999.25   2.5834 -999.25 3.2549  38.9492   -999.25   -999.25   47.6314 -999.25 71.5944 0.1697
   13728.0000  0.0132 -999.25   0.1217  -999.25  99.5395 -999.25   2.5733 -999.25 3.2104  43.3988   -999.25   -999.25   50.4042 -999.25 72.0923 0.1732
   13728.5000 -0.0059 -999.25   0.1217  -999.25 100.2381 -999.25   2.5722 -999.25 3.1921  42.0734   -999.25   -999.25   49.2313 -999.25 72.1357 0.1735
   13729.0000  0.0336 -999.25   0.1174  -999.25  94.6051 -999.25   2.5757 -999.25 3.1877  38.5660   -999.25   -999.25   46.6493 -999.25 71.8708 0.1716
   13729.5000 -0.0563 -999.25   0.1155  -999.25  92.6674 -999.25   2.5767 -999.25 3.1803  36.8236   -999.25   -999.25   45.0186 -999.25 71.8325 0.1714
   13730.0000 -0.0020 -999.25   0.1090  -999.25  84.1942 -999.25   2.5842 -999.25 3.2084  34.2491   -999.25   -999.25   42.9136 -999.25 71.2667 0.1674
   13730.5000 -0.0203 -999.25   0.1167  -999.25  94.5273 -999.25   2.5755 -999.25 3.1576  36.8318   -999.25   -999.25   43.1089 -999.25 71.5287 0.1692
   13731.0000  0.0060 -999.25   0.1140  -999.25  90.3419 -999.25   2.5794 -999.25 3.1545  34.8312   -999.25   -999.25   40.5322 -999.25 71.0549 0.1659
   13731.5000 -0.0239 -999.25   0.1084  -999.25  81.9799 -999.25   2.5856 -999.25 3.1508  31.3448   -999.25   -999.25   37.1749 -999.25 70.5314 0.1622
   13732.0000  0.0327 -999.25   0.1037  -999.25  75.4856 -999.25   2.5904 -999.25 3.1499  28.7418   -999.25   -999.25   34.9579 -999.25 70.2310 0.1600
   13732.5000 -0.0046 -999.25   0.1047  -999.25  77.5294 -999.25   2.5887 -999.25 3.1341  28.5531   -999.25   -999.25   34.8555 -999.25 70.1886 0.1597
   13733.0000 -0.0028 -999.25   0.1039  -999.25  77.4381 -999.25   2.5885 -999.25 3.1404  28.9777   -999.25   -999.25   35.6166 -999.25 70.1206 0.1593
   13733.5000  0.0094 -999.25   0.1029  -999.25  76.7712 -999.25   2.5891 -999.25 3.1573  29.7016   -999.25   -999.25   36.7920 -999.25 70.0796 0.1590
   13734.0000  0.0059 -999.25   0.1037  -999.25  78.3878 -999.25   2.5876 -999.25 3.1562  30.4460   -999.25   -999.25   37.5335 -999.25 70.1177 0.1592
   13734.5000  0.0086 -999.25   0.1087  -999.25  85.4790 -999.25   2.5820 -999.25 3.1338  32.2088   -999.25   -999.25   38.4897 -999.25 70.3669 0.1610
   13735.0000 -0.0064 -999.25   0.1118  -999.25  90.2518 -999.25   2.5786 -999.25 3.1300  33.8208   -999.25   -999.25   39.6567 -999.25 70.6088 0.1627
   13735.5000 -0.0234 -999.25   0.1060  -999.25  81.6073 -999.25   2.5850 -999.25 3.1685  33.0473   -999.25   -999.25   39.8134 -999.25 70.2516 0.1602
   13736.0000  0.0313 -999.25   0.1069  -999.25  83.0685 -999.25   2.5840 -999.25 3.1825  34.7937   -999.25   -999.25   41.7092 -999.25 70.3222 0.1607
   13736.5000 -0.0006 -999.25   0.1087  -999.25  85.4299 -999.25   2.5825 -999.25 3.1904  36.4526   -999.25   -999.25   43.5109 -999.25 70.4588 0.1617
   13737.0000 -0.4286 -999.25   0.1030  -999.25  77.6229 -999.25   2.5899 -999.25 3.2268  34.2661   -999.25   -999.25   42.7535 -999.25 70.1912 0.1598
   13737.5000  0.5009 -999.25   0.0926  -999.25  65.7616 -999.25   2.6039 -999.25 3.3139  31.1640   -999.25   -999.25   41.3615 -999.25 69.7994 0.1570
   13738.0000  0.0201 -999.25   0.0963  -999.25  70.0160 -999.25   2.5987 -999.25 3.2663  31.1919   -999.25   -999.25   40.8556 -999.25 69.8616 0.1574
   13738.5000 -0.0292 -999.25   0.0978  -999.25  72.2038 -999.25   2.5957 -999.25 3.2237  30.3342   -999.25   -999.25   39.4880 -999.25 69.7689 0.1568
   13739.0000  0.0055 -999.25   0.1042  -999.25  80.4290 -999.25   2.5873 -999.25 3.1596  31.0146   -999.25   -999.25   39.3302 -999.25 70.0174 0.1585
   13739.5000  0.0338 -999.25   0.1023  -999.25  78.4607 -999.25   2.5891 -999.25 3.1608  30.1261   -999.25   -999.25   38.6551 -999.25 69.8279 0.1572
   13740.0000  0.0423 -999.25   0.1000  -999.25  76.0846 -999.25   2.5916 -999.25 3.1731  29.5323   -999.25   -999.25   38.3942 -999.25 69.6826 0.1562
   13740.5000  0.0414 -999.25   0.1111  -999.25  90.9828 -999.25   2.5779 -999.25 3.1067  32.9274   -999.25   -999.25   40.1197 -999.25 70.3974 0.1612
   13741.0000  0.0417 -999.25   0.1073  -999.25  86.2911 -999.25   2.5814 -999.25 3.1245  32.0788   -999.25   -999.25   39.9617 -999.25 70.1575 0.1595
   13741.5000  0.0420 -999.25   0.1012  -999.25  79.3416 -999.25   2.5886 -999.25 3.1745  31.0839   -999.25   -999.25   40.4042 -999.25 69.8256 0.1572
   13742.0000  0.0414 -999.25   0.0916  -999.25  70.0031 -999.25   2.6015 -999.25 3.2851  30.6468   -999.25   -999.25   42.0593 -999.25 69.3040 0.1535
   13742.5000  0.0391 -999.25   0.0834  -999.25  63.4705 -999.25   2.6140 -999.25 3.4157  31.6148   -999.25   -999.25   45.4072 -999.25 68.8716 0.1504
   13743.0000 -0.0139 -999.25   0.0804  -999.25  61.9873 -999.25   2.6189 -999.25 3.4850  33.1794   -999.25   -999.25   48.5273 -999.25 68.7098 0.1493
   13743.5000  0.0099 -999.25   0.0955  -999.25  77.5924 -999.25   2.5961 -999.25 3.3234  37.4917   -999.25   -999.25   51.0446 -999.25 69.4344 0.1544
   13744.0000  0.0000 -999.25   0.0906  -999.25  73.2102 -999.25   2.6013 -999.25 3.3673  37.2873   -999.25   -999.25   51.5061 -999.25 69.0388 0.1516
   13744.5000  0.0000 -999.25   0.0787  -999.25  61.9847 -999.25   2.6158 -999.25 3.4737  34.8785   -999.25   -999.25   50.2974 -999.25 68.2760 0.1462
   13745.0000  0.0000 -999.25   0.0843  -999.25  67.5441 -999.25   2.6049 -999.25 3.3776  35.1436   -999.25   -999.25   48.8765 -999.25 68.5471 0.1481
   13745.5000  0.0000 -999.25   0.0789  -999.25  62.7082 -999.25   2.6111 -999.25 3.4450  35.3331   -999.25   -999.25   49.8939 -999.25 68.3313 0.1466
   13746.0000  0.0000 -999.25   0.0761  -999.25  60.5620 -999.25   2.6137 -999.25 3.5122  38.1923   -999.25   -999.25   53.7328 -999.25 68.3122 0.1465
   13746.5000  0.0000 -999.25   0.0756  -999.25  60.4549 -999.25   2.6135 -999.25 3.5594  42.6129   -999.25   -999.25   58.9942 -999.25 68.3290 0.1466
   13747.0000  0.0000 -999.25   0.0717  -999.25  56.8340 -999.25   2.6189 -999.25 3.6314  45.0039   -999.25   -999.25   62.6783 -999.25 68.1260 0.1452
   13747.5000  0.0000 -999.25   0.0666  -999.25  52.1209 -999.25   2.6271 -999.25 3.7157  45.8943   -999.25   -999.25   65.2475 -999.25 67.9166 0.1437
   13748.0000  0.0000 -999.25   0.0652  -999.25  50.9745 -999.25   2.6301 -999.25 3.7351  45.0124   -999.25   -999.25   64.8850 -999.25 67.8378 0.1431
   13748.5000  0.0000 -999.25   0.0634  -999.25  49.4051 -999.25   2.6336 -999.25 3.7562  43.8619   -999.25   -999.25   64.2033 -999.25 67.7382 0.1424
   13749.0000  0.0000 -999.25   0.0653  -999.25  51.4319 -999.25   2.6315 -999.25 3.7434  44.5779   -999.25   -999.25   64.9675 -999.25 67.8121 0.1429
   13749.5000  0.0000 -999.25   0.0796  -999.25  64.8696 -999.25   2.6100 -999.25 3.5660  47.8354   -999.25   -999.25   65.2281 -999.25 68.3901 0.1470
   13750.0000  0.0000 -999.25   0.0748  -999.25  60.4700 -999.25   2.6160 -999.25 3.6335  49.3382   -999.25   -999.25   68.0305 -999.25 68.0713 0.1448
   13750.5000  0.0000 -999.25   0.0660  -999.25  52.3181 -999.25   2.6280 -999.25 3.7452  49.3305   -999.25   -999.25   70.1409 -999.25 67.6510 0.1418
   13751.0000  0.0000 -999.25   0.0649  -999.25  50.6765 -999.25   2.6276 -999.25 3.7253  48.0276   -999.25   -999.25   67.9941 -999.25 67.5143 0.1408
   13751.5000 -0.0326 -999.25   0.0708  -999.25  55.5224 -999.25   2.6178 -999.25 3.6237  47.2848   -999.25   -999.25   64.9178 -999.25 67.6747 0.1420
   13752.0000 -0.0139 -999.25   0.0688  -999.25  53.1600 -999.25   2.6206 -999.25 3.6293  44.8185   -999.25   -999.25   62.1822 -999.25 67.6734 0.1420
   13752.5000 -0.0521 -999.25   0.0704  -999.25  54.6686 -999.25   2.6187 -999.25 3.6130  44.5389   -999.25   -999.25   61.5468 -999.25 67.8162 0.1430
