~Version Information
 VERS.                  2.0:   CWLS log ASCII Standard -VERSION 2.0
 WRAP.                   NO:   One line per depth step
~Well Information Block
#MNEM.UNIT     VALUE/NAME     DESCRIPTION
#---------     -----------    ---------------------------
 STRT.F              8432.0000: START DEPTH
 STOP.F             13842.0000: STOP DEPTH
 STEP.F                 0.5000: STEP DEPTH
 NULL.                 -999.25: NULL VALUE
 LOC .     100' FNL & 990' FEL:  LOCATION
 FL6 .       API  42-109-33163:  LOCATIONLINE6
 FL4 .           ABSTRACT 1006:  LOCATIONLINE4
 FL3 .        T&P RR CO SURVEY:  LOCATIONLINE3
 FL2 .     SECTION 36, BLOCK 59 T2:  LOCATIONLINE2
 FL1 .     100' FNL & 990' FEL:  LOCATIONLINE1
 DMF .                      KB:  DRILL MEAS FROM
 PDAT.                      GL:  PERMANENT DATUM
 CNTY.               CULBERSON:  COUNTY NAME
 FLD .     FORD, WEST (WOLFCAMP):  FIELD NAME
 WELL.         SCOTT FEE 36 2H:  WELL NAME
 COMP.     CAPITAN ENERGY INC.:  COMPANY
 DATE.             11-Oct-2017:  DATE
 SVCO.             Halliburton:  SERVICECONAME
 PROV.                   TEXAS:  PROVINCE
 STAT.                   TEXAS:  STATE NAME
 CTRY.           UNITED STATES:  COUNTRY NAME
 HIDE.                        :  WELLNAMEOPERAT
 BASI.                 PERMIAN:  BASIN
 UWI .            42-109-33163Lat:  UNIQUE WELL IDENTIFIER
 API .            42-109-33163Lat:  API NUMBER
 RANG.                     N/A:  RANGE
 TOWN.                     N/A:  TOWNSHIP
 SECT.                     N/A:  SECTION
 SON .               904352259:  JOB NUMBER
 SRVC.             Halliburton:  SERVICE COMPANY
 LMF .                      KB:  LOG MEASURED FROM
 EGL .ft             3174.0000:  GROUND ELEVATION
 BAP .ft                0.0000:  GL ELEV ONSHORE
 GVFD.g                 1.0000:  GRAVITY FIELD
 EKB .ft             3200.0000:  KB ELEVATION
 EDF .ft             3199.0000:  DF ELEVATION
~Curve Information Block
#MNEM.UNIT                 API CODE     Curve Description
#---------               -----------    ---------------------------
 DEPT.F                 00 000 000 000:  Depth
 CCL .V                 00 000 000 000:  Casing Collar Locator
 NPHI_OH.pu             00 000 000 000:  NPHI_OH
 NPHI_CHI.pu            00 000 000 000:  NPHI_CHI
 GR_CHI.api             00 000 000 000:  GR_CHI
 GR_OH.api              00 000 000 000:  GR_OH
 RHOB_OH.g/cc           00 000 000 000:  RHOB_OH
 RHOB_CHI.g/cc          00 000 000 000:  RHOB_CHI
 PE_CHI.b/e             00 000 000 000:  PE_CHI
 PE_OH.b/e              00 000 000 000:  PE_OH
 MSFL_OH.ohmm           00 000 000 000:  MSFL_OH
 MSFL_CHI.ohmm          00 000 000 000:  MSFL_CHI
 LLS_OH.ohmm            00 000 000 000:  LLS_OH
 LLS_CHI.ohmm           00 000 000 000:  LLS_CHI
 LLD_OH.ohmm            00 000 000 000:  LLD_OH
 LLD_CHI.ohmm           00 000 000 000:  LLD_CHI
 DTC_OH.uspf            00 000 000 000:  DTC_OH
 DTC_CHI.uspf           00 000 000 000:  DTC_CHI
 SPHI_CHI.pu            00 000 000 000:  SPHI_CHI
 SGF .cu                00 000 000 000:  Formation Sigma
 CRNF.NONE              00 000 000 000:  CM GrsCaptRatio
 RIN .NONE              00 000 000 000:  CM GrsInelRatio
~A    DEPT      CCL   NPHI_OH NPHI_CHI  GR_CHI   GR_OH   RHOB_OH RHOB_CHI PE_CHI  PE_OH   MSFL_OH  MSFL_CHI  LLS_OH   LLS_CHI   LLD_OH  LLD_CHI  DTC_OH  DTC_CHI SPHI_CHI   SGF    CRNF   RIN   
# ...
   13829.0000  0.0000 -999.25  15.5927 207.8446  -999.25 -999.25   2.5111 3.1219 -999.25   -999.25  75.8501   -999.25 100.4407  -999.25 102.0067 -999.25 69.7142  15.8100 15.4252 0.8051 0.9375
   13829.5000  0.0000 -999.25  15.4445 207.7663  -999.25 -999.25   2.5111 3.1219 -999.25   -999.25  77.3543   -999.25 102.7118  -999.25 104.3289 -999.25 69.4752  15.5200 15.4173 0.8070 0.9341
   13830.0000  0.0000 -999.25  15.9414 224.7953  -999.25 -999.25   2.5163 3.0097 -999.25   -999.25  78.2321   -999.25 104.0399  -999.25 105.6870 -999.25 69.8345  15.6500 15.4755 0.8080 0.9311
   13830.5000  0.0000 -999.25  15.6122 217.0004  -999.25 -999.25   2.5140 3.0531 -999.25   -999.25  78.2839   -999.25 104.1183  -999.25 105.7672 -999.25 69.4723  15.5500 15.5801 0.8073 0.9287
   13831.0000  0.0000 -999.25  15.3770 210.1320  -999.25 -999.25   2.5121 3.0905 -999.25   -999.25  77.9034   -999.25 103.5424  -999.25 105.1782 -999.25 69.2534  15.3600 15.7563 0.8077 0.9270
   13831.5000  0.0000 -999.25  15.2606 206.6414  -999.25 -999.25   2.5113 3.1034 -999.25   -999.25  77.2243   -999.25 102.5152  -999.25 104.1279 -999.25 69.1358  15.2600 15.8439 0.8084 0.9253
   13832.0000  0.0000 -999.25  15.1027 202.4944  -999.25 -999.25   2.5105 3.1117 -999.25   -999.25  76.0937   -999.25 100.8081  -999.25 102.3823 -999.25 68.9496  15.1400 15.7319 0.8061 0.9222
   13832.5000  0.0000 -999.25  15.3829 210.7034  -999.25 -999.25   2.5129 3.0534 -999.25   -999.25  75.5377   -999.25  99.9699  -999.25 101.5254 -999.25 69.1533  15.2000 15.4370 0.8022 0.9185
   13833.0000  0.0000 -999.25  15.1794 205.6687  -999.25 -999.25   2.5118 3.0807 -999.25   -999.25  76.2492   -999.25 101.0427  -999.25 102.6222 -999.25 68.9297  15.1300 15.1140 0.7955 0.9132
   13833.5000  0.0000 -999.25  14.9667 200.8777  -999.25 -999.25   2.5107 3.1141 -999.25   -999.25  78.1549   -999.25 103.9230  -999.25 105.5674 -999.25 68.7148  14.9800 14.9777 0.7941 0.9105
   13834.0000  0.0000 -999.25  14.7777 196.6350  -999.25 -999.25   2.5101 3.1447 -999.25   -999.25  80.2968   -999.25 107.1720  -999.25 108.8903 -999.25 68.5315  14.8400 14.9448 0.7980 0.9095
   13834.5000  0.0000 -999.25  14.6804 195.6079  -999.25 -999.25   2.5100 3.1499 -999.25   -999.25  81.2182   -999.25 108.5733  -999.25 110.3237 -999.25 68.4140  14.7400 15.0546 0.8036 0.9102
   13835.0000  0.0000 -999.25  14.9996 206.1818  -999.25 -999.25   2.5115 3.0967 -999.25   -999.25  81.4422   -999.25 108.9142  -999.25 110.6725 -999.25 68.6971  14.8600 15.1097 0.8046 0.9109
   13835.5000  0.0000 -999.25  15.1701 209.8416  -999.25 -999.25   2.5125 3.0755 -999.25   -999.25  80.6971   -999.25 107.7804  -999.25 109.5127 -999.25 68.8750  15.0100 15.1036 0.8045 0.9104
   13836.0000  0.0000 -999.25  15.0888 205.6797  -999.25 -999.25   2.5115 3.1015 -999.25   -999.25  80.3257   -999.25 107.2159  -999.25 108.9353 -999.25 68.8342  15.0300 15.1639 0.8047 0.9106
   13836.5000  0.0000 -999.25  15.4702 215.8919  -999.25 -999.25   2.5141 3.0502 -999.25   -999.25  80.3668   -999.25 107.2782  -999.25 108.9990 -999.25 69.2288  15.2100 15.2034 0.8046 0.9118
   13837.0000  0.0000 -999.25  15.5563 218.3333  -999.25 -999.25   2.5149 3.0313 -999.25   -999.25  79.9622   -999.25 106.6634  -999.25 108.3702 -999.25 69.3076  15.3400 15.2358 0.8046 0.9104
   13837.5000  0.0000 -999.25  15.6572 221.2315  -999.25 -999.25   2.5158 3.0094 -999.25   -999.25  79.6982   -999.25 106.2627  -999.25 107.9603 -999.25 69.4065  15.4000 15.2826 0.8036 0.9078
   13838.0000  0.0000 -999.25  15.2266 209.8185  -999.25 -999.25   2.5128 3.0653 -999.25   -999.25  79.4824   -999.25 105.9351  -999.25 107.6251 -999.25 68.9278  15.1800 15.3083 0.8044 0.9057
   13838.5000  0.0000 -999.25  15.0934 205.9626  -999.25 -999.25   2.5119 3.0836 -999.25   -999.25  79.1716   -999.25 105.4636  -999.25 107.1430 -999.25 68.7913  15.0200 15.4501 0.8057 0.9058
   13839.0000  0.0000 -999.25  15.3135 212.2461  -999.25 -999.25   2.5135 3.0504 -999.25   -999.25  79.0014   -999.25 105.2056  -999.25 106.8791 -999.25 69.0142  15.1000 15.5353 0.8075 0.9071
   13839.5000  0.0000 -999.25  15.0929 205.4387  -999.25 -999.25   2.5118 3.0832 -999.25   -999.25  78.0693   -999.25 103.7933  -999.25 105.4348 -999.25 68.7979  15.0400 15.5440 0.8109 0.9084
   13840.0000  0.0000 -999.25  15.1983 208.1527  -999.25 -999.25   2.5126 3.0630 -999.25   -999.25  77.5144   -999.25 102.9539  -999.25 104.5764 -999.25 68.8908  15.0400 15.4915 0.8100 0.9068
   13840.5000  0.0000 -999.25  15.2481 209.1197  -999.25 -999.25   2.5129 3.0575 -999.25   -999.25  77.4580   -999.25 102.8685  -999.25 104.4892 -999.25 68.9455  15.0800 15.3744 0.8118 0.9058
   13841.0000  0.0000 -999.25  15.1561 205.6345  -999.25 -999.25   2.5120 3.0813 -999.25   -999.25  77.7992   -999.25 103.3846  -999.25 105.0168 -999.25 68.8768  15.0600 15.2320 0.8151 0.9053
   13841.5000 -999.25 -999.25  15.0020 201.5666  -999.25 -999.25   2.5111 3.1070 -999.25   -999.25  78.5655   -999.25 104.5449  -999.25 106.2034 -999.25 68.7291  14.9700 15.1342 0.8199 0.9052
   13842.0000 -999.25 -999.25  15.4488 213.8167  -999.25 -999.25   2.5139 3.0511 -999.25   -999.25  79.5076   -999.25 105.9734  -999.25 107.6644 -999.25 69.2051  -999.25 15.0643 0.8222 0.9053
