~Version Information
 VERS.                  2.0:   CWLS log ASCII Standard -VERSION 2.0
 WRAP.                   NO:   One line per depth step
~Well Information Block
#MNEM.UNIT     VALUE/NAME     DESCRIPTION
#---------     -----------    ---------------------------
 STRT.F              8564.0000: START DEPTH
 STOP.F             14132.0000: STOP DEPTH
 STEP.F                 0.5000: STEP DEPTH
 NULL.                 -999.25: NULL VALUE
 FL6 .       API  42-109-33219:  LOCATIONLINE6
 LOC .     253' FEL & 408' FNL:  LOCATION
 FL4 .           ABSTRACT 1760:  LOCATIONLINE4
 FL3 .        T&P RR CO SURVEY:  LOCATIONLINE3
 FL2 .     SECTION 32, BLOCK 58 T2:  LOCATIONLINE2
 FL1 .     253' FEL & 408' FNL:  LOCATIONLINE1
 DMF .                      KB:  DRILL MEAS FROM
 PDAT.                      GL:  PERMANENT DATUM
 CTRY.                     USA:  COUNTRY NAME
 PROV.                   TEXAS:  PROVINCE
 STAT.                   TEXAS:  STATE NAME
 CNTY.               CULBERSON:  COUNTY NAME
 FLD .     FORD, WEST (WOLFCAMP):  FIELD NAME
 WELL.        MOTHER FEE 28 2H:  WELL NAME
 COMP.     CAPITAN ENERGY INC.:  COMPANY
 DATE.             24-Jan-2018:  DATE
 SVCO.             Halliburton:  SERVICECONAME
 HIDE.                        :  WELLNAMEOPERAT
 BASI.                 PERMIAN:  BASIN
 UWI .            42-109-33219LAT:  UNIQUE WELL IDENTIFIER
 API .            42-109-33219LAT:  API NUMBER
 RANG.                     N/A:  RANGE
 TOWN.                     N/A:  TOWNSHIP
 SECT.                     N/A:  SECTION
 SON .               904563795:  JOB NUMBER
 SRVC.             Halliburton:  SERVICE COMPANY
 LMF .                      KB:  LOG MEASURED FROM
 EGL .ft             3142.0000:  GROUND ELEVATION
 BAP .ft                0.0000:  GL ELEV ONSHORE
 GVFD.g                 1.0000:  GRAVITY FIELD
 EKB .ft             3167.0000:  KB ELEVATION
 EDF .ft             3166.0000:  DF ELEVATION
~Curve Information Block
#MNEM.UNIT                 API CODE     Curve Description
#---------               -----------    ---------------------------
 DEPT.F                 00 000 000 000:  Depth
 CCL .V                 00 000 000 000:  Casing Collar Locator
 NPHI_OH.pu             00 000 000 000:  NPHI_OH
 NPHI_CHI.pu            00 000 000 000:  NPHI_CHI
 GR_OH.api              00 000 000 000:  GR_OH
 GR_CHI.api             00 000 000 000:  GR_CHI
 RHOB_OH.g/cc           00 000 000 000:  RHOB_OH
 RHOB_CHI.g/cc          00 000 000 000:  RHOB_CHI
 PE_OH.b/e              00 000 000 000:  PE_OH
 PE_CHI.b/e             00 000 000 000:  PE_CHI
 DTC_OH.uspf            00 000 000 000:  DTC_OH
 DTC_CHI.uspf           00 000 000 000:  DTC_CHI
 SPHI_CHI.pu            00 000 000 000:  SPHI_CHI
 RT10_OH.ohmm           00 000 000 000:  RT10_OH
 RT10_CHI.ohmm          00 000 000 000:  RT10_CHI
 RT30_OH.ohmm           00 000 000 000:  RT30_OH
 RT30_CHI.ohmm          00 000 000 000:  RT30_CHI
 RT90_OH.ohmm           00 000 000 000:  RT90_OH
 RT90_CHI.ohmm          00 000 000 000:  RT90_CHI
 SGF .cu                00 000 000 000:  Formation Sigma
 CRNF.NONE              00 000 000 000:  CaptMode Capt Ratio
 RIN .NONE              00 000 000 000:  CaptMode Gross Inel Ratio
#Other Information
#
#WARRANTY: Halliburton will use its best efforts to furnish customers with 
#accurate information and interpretations that are part of, and incident to, the services 
#provided.  However, Halliburton cannot and does not warrant the accuracy 
#or correctness of such information and interpretations.  Under no circumstances should any 
#such information or interpretation be relied upon as the sole basis for any drilling, 
#completion, production, or financial decision or any procedure involving any risk to the 
#safety of any drilling venture, drilling rig or its crew or any other third party.  The 
#Customer has full responsibility for all drilling, completion and production operation.  
#Halliburton makes no representations or warranties, either expressed or 
#implied, including, but not limited to, the implied warranties of merchantability or fitness 
#for a particular purpose, with respect to the services rendered.  In no event will 
#Halliburton be liable for failure to obtain any particular results or for 
#any damages, including, but not limited to, indirect, special or consequential damages, 
#resulting from the use of any information or interpretation provided by Halliburton.
#
~A    DEPT       CCL    NPHI_OH NPHI_CHI  GR_OH    GR_CHI  RHOB_OH RHOB_CHI  PE_OH   PE_CHI   DTC_OH  DTC_CHI SPHI_CHI RT10_OH  RT10_CHI RT30_OH  RT30_CHI RT90_OH  RT90_CHI   SGF    CRNF   RIN   
# ...
   13373.0000   -3.7903 -999.25  10.1689  -999.25 111.5817 -999.25   2.6034 -999.25    3.3536 -999.25 67.8809  14.3400  -999.25  38.4803  -999.25  36.8989  -999.25  41.2231 25.0489 0.9437 1.0763
   13373.5000   -3.8254 -999.25  10.2169  -999.25 112.2873 -999.25   2.6025 -999.25    3.3214 -999.25 67.8928  14.3500  -999.25  37.8444  -999.25  36.1100  -999.25  40.2393 25.5944 0.9571 1.0811
   13374.0000   -3.8604 -999.25  10.4831  -999.25 114.6084 -999.25   2.5990 -999.25    3.2498 -999.25 68.3122  14.6500  -999.25  34.8044  -999.25  32.8108  -999.25  36.2699 26.0516 0.9730 1.0855
   13374.5000   -3.8955 -999.25  10.6148  -999.25 114.9803 -999.25   2.5969 -999.25    3.1834 -999.25 68.5460  14.8100  -999.25  33.1929  -999.25  31.0019  -999.25  34.0487 26.2787 0.9812 1.0867
   13375.0000   -3.9305 -999.25  10.2360  -999.25 102.1209 -999.25   2.5984 -999.25    3.1203 -999.25 68.7219  14.9400  -999.25  36.3634  -999.25  34.3405  -999.25  37.6847 26.3551 0.9794 1.0872
   13375.5000   -3.9656 -999.25  10.8080  -999.25 110.8953 -999.25   2.5921 -999.25    3.0470 -999.25 69.3078  15.3500  -999.25  32.4826  -999.25  30.1924  -999.25  32.8843 26.4382 0.9763 1.0866
   13376.0000   -4.0007 -999.25  11.1609  -999.25 114.0302 -999.25   2.5879 -999.25    2.9922 -999.25 69.8841  15.7600  -999.25  30.6122  -999.25  28.2609  -999.25  30.6174 26.6746 0.9822 1.0876
   13376.5000   -4.0357 -999.25  11.0962  -999.25 111.2976 -999.25   2.5883 -999.25    2.9851 -999.25 69.9943  15.8400  -999.25  30.8041  -999.25  28.4867  -999.25  30.8387 26.8764 0.9951 1.0886
   13377.0000   -4.0708 -999.25  11.6893  -999.25 124.2899 -999.25   2.5838 -999.25    2.9790 -999.25 70.2085  15.9900  -999.25  27.2925  -999.25  24.8316  -999.25  26.7280 26.9479 0.9975 1.0872
   13377.5000   -4.1058 -999.25  11.0311  -999.25 110.8882 -999.25   2.5888 -999.25    2.9530 -999.25 69.7486  15.6600  -999.25  30.9042  -999.25  28.4251  -999.25  30.7012 26.5708 0.9829 1.0829
   13378.0000   -4.1409 -999.25  10.9177  -999.25 102.8336 -999.25   2.5882 -999.25    2.8946 -999.25 70.1514  15.9500  -999.25  32.5463  -999.25  30.1618  -999.25  32.5470 26.1478 0.9622 1.0788
   13378.5000   -4.1759 -999.25  10.8219  -999.25 100.5642 -999.25   2.5886 -999.25    2.9106 -999.25 70.1709  15.9600  -999.25  34.1127  -999.25  31.8880  -999.25  34.5567 25.8991 0.9503 1.0769
   13379.0000   -4.2110 -999.25  10.6846  -999.25 103.0239 -999.25   2.5911 -999.25    2.9877 -999.25 69.6860  15.6200  -999.25  34.8283  -999.25  32.6961  -999.25  35.6372 25.7760 0.9620 1.0787
   13379.5000   -4.2461 -999.25  10.5686  -999.25 107.8724 -999.25   2.5944 -999.25    3.0798 -999.25 68.9911  15.1300  -999.25  34.8054  -999.25  32.6483  -999.25  35.7569 25.6941 0.9816 1.0797
   13380.0000   -4.2811 -999.25   9.3718  -999.25  86.8636 -999.25   2.6062 -999.25    3.1526 -999.25 67.6903  14.2100  -999.25  45.3729  -999.25  43.8807  -999.25  48.6023 25.3571 0.9916 1.0768
   13380.5000   -4.3162 -999.25   9.3196  -999.25  81.7311 -999.25   2.6052 -999.25    3.1114 -999.25 67.9978  14.4300  -999.25  46.8770  -999.25  45.6191  -999.25  50.5018 25.0295 0.9853 1.0718
   13381.0000   -4.3512 -999.25   9.7456  -999.25  88.0871 -999.25   2.5999 -999.25    3.0706 -999.25 68.5940  14.8500  -999.25  44.6373  -999.25  43.2528  -999.25  47.8687 24.8396 0.9774 1.0696
   13381.5000   -4.3863 -999.25  10.2168  -999.25  93.7180 -999.25   2.5937 -999.25    3.0202 -999.25 69.2573  15.3200  -999.25  43.2154  -999.25  41.8360  -999.25  46.3232 24.8429 0.9768 1.0699
   13382.0000   -4.4214 -999.25   9.8896  -999.25  87.6420 -999.25   2.5956 -999.25    3.0225 -999.25 68.8090  15.0000  -999.25  49.0484  -999.25  48.2030  -999.25  53.7692 24.9639 0.9858 1.0729
   13382.5000   -4.4564 -999.25   9.6650  -999.25  86.1189 -999.25   2.5980 -999.25    3.0468 -999.25 68.2783  14.6200  -999.25  51.9081  -999.25  51.2522  -999.25  57.3824 25.1195 0.9923 1.0727
   13383.0000   -4.4915 -999.25   9.1477  -999.25  76.5840 -999.25   2.6031 -999.25    3.0660 -999.25 67.7206  14.2300  -999.25  56.7602  -999.25  56.5875  -999.25  63.4504 25.0882 0.9954 1.0721
   13383.5000   -4.5265 -999.25   9.6668  -999.25  84.1687 -999.25   2.5977 -999.25    3.0180 -999.25 68.4822  14.7700  -999.25  50.9056  -999.25  50.1154  -999.25  55.9091 25.1424 0.9914 1.0732
   13384.0000   -4.5616 -999.25  10.5158  -999.25  99.3136 -999.25   2.5903 -999.25    2.9981 -999.25 69.3895  15.4100  -999.25  41.9433  -999.25  40.4383  -999.25  44.7696 25.3187 0.9947 1.0762
   13384.5000   -4.5966 -999.25  10.7619  -999.25 102.2559 -999.25   2.5888 -999.25    3.0025 -999.25 69.8968  15.7700  -999.25  38.0958  -999.25  36.4216  -999.25  40.0887 25.5440 1.0048 1.0808
   13385.0000   -4.6317 -999.25  10.6970  -999.25 101.3961 -999.25   2.5903 -999.25    3.0170 -999.25 69.9253  15.7900  -999.25  36.9505  -999.25  35.2009  -999.25  38.6414 25.7475 1.0104 1.0837
   13385.5000   -4.6668 -999.25  10.3050  -999.25  91.6278 -999.25   2.5935 -999.25    3.0137 -999.25 69.8635  15.7500  -999.25  39.8946  -999.25  38.3976  -999.25  42.2174 25.7834 1.0102 1.0842
   13386.0000   -4.7018 -999.25  10.7968  -999.25  99.1978 -999.25   2.5892 -999.25    2.9767 -999.25 70.4346  16.1500  -999.25  34.9780  -999.25  33.1202  -999.25  36.1094 25.7313 0.9993 1.0847
   13386.5000   -4.7369 -999.25  11.1192  -999.25 103.5574 -999.25   2.5858 -999.25    2.9433 -999.25 70.7982  16.4100  -999.25  33.1050  -999.25  31.1247  -999.25  33.8048 25.6101 0.9874 1.0846
   13387.0000   -4.7719 -999.25  10.6475  -999.25  92.0472 -999.25   2.5893 -999.25    2.9342 -999.25 70.6471  16.3000  -999.25  37.1154  -999.25  35.4111  -999.25  38.6245 25.5952 0.9836 1.0860
   13387.5000   -2.3529 -999.25  10.8592  -999.25  98.1792 -999.25   2.5886 -999.25    2.9684 -999.25 70.7217  16.3500  -999.25  34.2249  -999.25  32.3878  -999.25  35.2377 25.6308 0.9911 1.0893
   13388.0000    0.0000 -999.25  10.9055  -999.25 102.4376 -999.25   2.5902 -999.25    3.0332 -999.25 70.5650  16.2400  -999.25  31.7539  -999.25  29.8532  -999.25  32.4206 25.6470 1.0013 1.0931
   13388.5000    0.0000 -999.25  10.6282  -999.25  98.9364 -999.25   2.5943 -999.25    3.0843 -999.25 70.2370  16.0100  -999.25  31.8081  -999.25  29.9530  -999.25  32.5356 25.6108 1.0138 1.1011
   13389.0000    0.0000 -999.25  11.2971  -999.25 109.5894 -999.25   2.5886 -999.25    3.0640 -999.25 70.9328  16.5000  -999.25  27.1372  -999.25  25.1479  -999.25  27.0897 25.7001 1.0278 1.1070
   13389.5000    0.0000 -999.25  11.3286  -999.25 106.0923 -999.25   2.5880 -999.25    3.0476 -999.25 71.3556  16.8000  -999.25  26.7267  -999.25  24.8122  -999.25  26.6635 26.0750 1.0489 1.1131
   13390.0000    0.0000 -999.25  11.2011  -999.25  99.7790 -999.25   2.5875 -999.25    2.9950 -999.25 71.5793  16.9600  -999.25  28.7004  -999.25  26.8378  -999.25  28.8769 26.8634 1.0834 1.1156
   13390.5000 -118.5362 -999.25  11.6233  -999.25 103.9635 -999.25   2.5829 -999.25    2.9394 -999.25 72.1560  17.3700  -999.25  27.1021  -999.25  25.1427  -999.25  26.9033 27.8210 1.1061 1.1147
   13391.0000    0.0000 -999.25  12.1296  -999.25 111.7260 -999.25   2.5776 -999.25    2.8631 -999.25 72.5097  17.6200  -999.25  25.7076  -999.25  23.5244  -999.25  24.9960 28.4281 1.0966 1.1138
   13391.5000    0.0000 -999.25  12.5538  -999.25 111.7286 -999.25   2.5730 -999.25    2.7393 -999.25 73.2484  18.1400  -999.25  25.7012  -999.25  23.2815  -999.25  24.5109 28.8191 1.0796 1.1146
   13392.0000    0.0000 -999.25  13.2625  -999.25 114.9678 -999.25   2.5686 -999.25    2.6684 -999.25 74.3054  18.8900  -999.25  24.1144  -999.25  21.5479  -999.25  22.3861 29.0062 1.0634 1.1153
   13392.5000    0.0000 -999.25  13.5631  -999.25 117.8680 -999.25   2.5678 -999.25    2.6660 -999.25 74.6031  19.1000  -999.25  22.7531  -999.25  20.1602  -999.25  20.7925 29.1319 1.0668 1.1160
   13393.0000    0.0000 -999.25  13.5692  -999.25 121.1275 -999.25   2.5691 -999.25    2.6931 -999.25 74.2428  18.8400  -999.25  21.3975  -999.25  18.8245  -999.25  19.3424 29.4586 1.0797 1.1148
   13393.5000    0.0000 -999.25  13.3727  -999.25 125.8512 -999.25   2.5703 -999.25    2.7063 -999.25 73.4987  18.3200  -999.25  21.7486  -999.25  19.0988  -999.25  19.7153 29.7099 1.0922 1.1144
