###############################################
##         ENVERUS                           ##
##         ESS - Open Hole                   ##
##         PERMIAN / DELAWARE                ##
##         Nov 03 2023  V4.0                 ##
##         42-109-32709-00-00                ##
###############################################
## Copyright 2017-2023  ENVERUS.  All Rights Reserved. 
## Confidential - Property of ENVERUS, use governed by terms and 
## conditions found within the existing Information Services Subscription Agreement 
## (as may be amended, the “ISSA”) between Customer and ENVERUS. 
## 
~VERSION INFORMATION
# MNEM.UNIT                               DATA : DESCRIPTION OF MNEMONIC
#-----.-----     ----------------------------- : -----------------------------
VERS.                                     2.00 : CWLS LOG ASCII STANDARD - VERSION 2.00
WRAP.                                       NO : MULTIPLE LINES PER DEPTH STEP
VEND.                                  ENVERUS : VENDOR
TYPE.                          ESS - OPEN HOLE : ENVERUS ESSENTIAL CURVES – ACCESSIBLE THROUGH ENVERUS PRISM(TM)
DOC.                                  32116645 : ENVERUS HEADER RAW DOCUMENT ID
#___________________________________________________________________________________________________ 
~WELL INFORMATION 
# 8SOIrMNgLSTosdYTMQVb7KPebVRgGb4NQOaGG3/cpRvPeoxWQd7So5pZ7XPWbXIrV4d26no2f3ffGwkTWQV8GA== 
# MNEM.UNIT                                              DATA : DESCRIPTION OF MNEMONIC 
#-----.-----                    ----------------------------- : ----------------------------- 
CNTY.                                               CULBERSON : COUNTY 
STATE.                                                  TEXAS : STATE 
CNTRY.                                                    USA : COUNTRY 
API.                                             42-109-32709 : API (10 Digit) 
API_14.                                    42-109-32709-00-00 : API (14 Digits) 
API_14_std.                                 42-109-32709-0000 : API (14 Digits Standard) 
UWI.                                           42109327090000 : UNIQUE WELL ID 
WELL.                                    42109327090000_API14 : WELL NAME
STRT.FT                                                  26.5 : START DEPTH
STOP.FT                                                5244.0 : STOP DEPTH
STEP.FT                                                   0.5 : STEP BETWEEN DEPTHS
NULL.                                                 -999.25 : NULL VALUE
#___________________________________________________________________________________________________ 
~PARAMETER INFORMATION 
# MNEM.UNIT                                              DATA : DESCRIPTION OF MNEMONIC 
#-----.-----                    ----------------------------- : ----------------------------- 
EKB.FT                                                   3124 : ELEVATION ABOVE MSL
#___________________________________________________________________________________________________ 
~CURVE INFORMATION 
# MNEM.UNIT           : CURVE DESCRIPTION 
#-----.-----          : ----------------------------- 
 DEPT.FT               : MEASURED DEPTH 
 CALI.IN               : CALIPER (CAL - CALIPER) 
 GR.API                : GAMMA RAY (GAMMA RAY) 
 DT.US/FT              : SONIC DELTA TRANSIT TIME (SONIC) 
 PE.B/E                : PHOTOELECTRIC EFFECT/FACTOR (PHOTOELECTRIC FACTOR) 
 RESS.OHMM             : SHALLOW INDUCTION RESISTIVITY (ILS - SHALLOW RESISTIVITY) 
 RESS_LL.OHMM          : SHALLOW LATEROLOG (LLS - SHALLOW RESISTIVITY) 
 RESD_LL.OHMM          : DEEP LATEROLOG (LLD - DEEP RESISTIVITY) 
 DPHI.V/V              : DENSITY POROSITY (DENSITY POROSITY) 
 NPHI.V/V              : NEUTRON POROSITY (NEUTRON POROSITY) 
 RHOB.G/CC             : BULK DENSITY (DENSITY) 
 #___________________________________________________________________________________________________ 
~A         DEPT           CALI             GR             DT             PE           RESS        RESS_LL        RESD_LL           DPHI           NPHI           RHOB
# ...
         4314.0          7.838         86.365        342.991         2.5523         24.461        27.4291        23.9726        0.09794        0.10587         2.5610
         4314.5          7.838         77.088        342.989         2.7798         27.322        31.7970        35.8343        0.06973        0.08187         2.6006
         4315.0          7.818         69.999        342.988         2.8797         20.459        33.1101        38.1158        0.05679        0.05956         2.6234
         4315.5          7.818         69.848        342.987         2.8086         18.780        28.3379        35.7904        0.05681        0.05420         2.6230
         4316.0          7.818         72.000        342.986         2.7416         20.325        30.7055        38.6580        0.07030        0.05885         2.5908
         4316.5          7.818         76.952        342.984         2.7613         24.267        43.1173        52.4380        0.08288        0.05087         2.5791
         4317.0          7.818         85.879        342.983         2.7970         40.450        53.3646        64.4483        0.08018        0.04504         2.5898
         4317.5          7.818         94.752        342.982         2.9167         47.541        63.6944        75.8272        0.06430        0.04472         2.6095
         4318.0          7.798        101.889        342.981         3.0363         41.889        70.6893        85.0866        0.05781        0.05044         2.6122
         4318.5          7.798        117.078        342.979         2.9779         41.256        67.2603        85.5448        0.07517        0.05760         2.5855
         4319.0          7.779        137.500        342.978         2.7674         45.016        69.9961        91.0903        0.08741        0.07503         2.5687
         4319.5          7.779        139.514        342.977         2.6204         52.511        83.4950       116.1203        0.08811        0.09539         2.5672
         4320.0          7.779        128.032        342.976         2.5444         69.923        90.8959       152.6155        0.08980        0.10559         2.5616
         4320.5          7.779        126.293        342.975         2.6640        191.899        95.1777       176.9194        0.09752        0.12061         2.5514
         4321.0          7.783        137.797        342.973         2.9102        355.363        99.6611       273.1652        0.10211        0.13449         2.5489
         4321.5          7.803        142.072        342.972         3.2183        347.388        99.8286       386.6619        0.09527        0.12865         2.5636
         4322.0          7.798        140.601        342.971         3.4810        180.245       103.4756       216.5848        0.08196        0.09988         2.5755
         4322.5          7.798        147.860        342.970         3.4211         39.349       106.3562       119.6769        0.08599        0.09081         2.5703
         4323.0          7.818        164.782        342.968         3.1365         30.154        86.2585       105.7771        0.09172        0.09854         2.5646
         4323.5          7.818        157.632        342.967         2.9253         33.315        82.3780        97.4178        0.08814        0.10106         2.5702
         4324.0          7.818        117.839        342.966         2.8994         61.811        68.6513        84.1344        0.08353        0.10426         2.5701
         4324.5          7.852         85.920        342.965         2.8356         38.394        58.8105        11.5225        0.09543        0.12445         2.5457
         4325.0          7.858         73.119        342.963         2.6287          7.988        16.8711         4.2649        0.12122        0.14660         2.4990
         4325.5          7.878         69.321        342.962         2.3977          2.374        14.1077         3.6347        0.15257        0.16068         2.4515
         4326.0          7.878         71.574        342.961         2.2480          1.942        13.4731         3.2117        0.17502        0.16227         2.4322
         4326.5          7.937         73.626        342.960         2.2513          7.773        12.8669         4.2253        0.17278        0.14489         2.4456
         4327.0          7.937         72.767        342.959         2.4553         15.904        12.4291         8.9233        0.13414        0.10658         2.5206
         4327.5          7.937         65.966        342.957         2.7385         11.580        11.9504        14.1188        0.09693        0.06215         2.5617
         4328.0          7.976         61.488        342.956         2.8205          6.351         9.9590        15.2044        0.08801        0.05564         2.5644
         4328.5          7.996         64.017        342.955         2.7174          3.557         7.7022         8.9740        0.09782        0.06364         2.5481
         4329.0          8.016         73.315        342.954         2.5316          2.302         6.2080         6.6105        0.11100        0.08362         2.5248
         4329.5          8.016         78.502        342.952         2.4063          1.851         5.9232         5.5853        0.13028        0.09586         2.4939
         4330.0          8.036         78.910        342.951         2.4260          2.048         4.9108         5.4549        0.14758        0.10914         2.4711
         4330.5          8.055         79.112        342.950         2.4260          2.305         4.4238         5.1835        0.15587        0.12288         2.4594
         4331.0          8.055         81.331        342.949         2.4399          2.094         4.1267         4.8856        0.15534        0.11808         2.4606
         4331.5          8.075         83.319        342.947         2.5004          2.055         4.5027         4.9937        0.15374        0.11359         2.4665
         4332.0          8.075         82.462        342.946         2.5412          2.700         4.6630         5.2585        0.15042        0.10677         2.4688
         4332.5          8.075         75.759        342.945         2.5444          3.748         4.7347         5.7431        0.14587        0.11287         2.4759
         4333.0          8.054         70.510        342.944         2.4761          3.504         5.3180         6.1406        0.14010        0.10987         2.4866
         4333.5          8.134         72.909        342.943         2.3361          2.551         4.4472         5.2395        0.13273        0.10450         2.4956
         4334.0          8.134         77.982        342.941         2.2288          1.625         3.8120         4.2974        0.13353        0.11929         2.4907
         4334.5          8.134         75.141        342.940         2.2288          1.488         3.1142         3.7955        0.15259        0.13511         2.4587
         4335.0          8.134         69.505        342.939         2.2288          1.722         3.1273         3.5103        0.16321        0.12649         2.4477
         4335.5          8.154         69.979        342.938         2.2941          1.805         3.1417         3.4649        0.16198        0.12907         2.4534
         4336.0          8.174         73.008        342.936         2.3077          1.533         3.0682         3.4649        0.15678        0.13867         2.4564
         4336.5          8.174         72.654        342.935         2.2594          1.267         2.7778         3.3136        0.15778        0.14627         2.4499
         4337.0          8.174         68.709        342.934         2.2288          1.219         2.5213         3.1354        0.16510        0.15632         2.4412
         4337.5          8.184         69.822        342.933         2.3192          1.775         2.7698         3.5701        0.17158        0.14340         2.4344
         4338.0          8.194         72.454        342.932         2.3994          3.964         3.1015         4.1656        0.17057        0.12896         2.4428
