###############################################
##         ENVERUS                           ##
##         ESS - Open Hole                   ##
##         PERMIAN / DELAWARE                ##
##         Nov 03 2023  V4.0                 ##
##         42-109-32507-90-00                ##
###############################################
## Copyright 2017-2023  ENVERUS.  All Rights Reserved. 
## Confidential - Property of ENVERUS, use governed by terms and 
## conditions found within the existing Information Services Subscription Agreement 
## (as may be amended, the “ISSA”) between Customer and ENVERUS. 
## 
~VERSION INFORMATION
# MNEM.UNIT                               DATA : DESCRIPTION OF MNEMONIC
#-----.-----     ----------------------------- : -----------------------------
VERS.                                     2.00 : CWLS LOG ASCII STANDARD - VERSION 2.00
WRAP.                                       NO : MULTIPLE LINES PER DEPTH STEP
VEND.                                  ENVERUS : VENDOR
TYPE.                          ESS - OPEN HOLE : ENVERUS ESSENTIAL CURVES – ACCESSIBLE THROUGH ENVERUS PRISM(TM)
DOC.                                  51094130 : ENVERUS HEADER RAW DOCUMENT ID
#___________________________________________________________________________________________________ 
~WELL INFORMATION 
# OeTAuI96vYP/1gAnXdiC+b2e5mg9bdq0rVS4GA6NX+ctg1PKQ5RhcqUsdOd2aOUDNf5EtC5635oDT1THDUi6iw== 
# MNEM.UNIT                                              DATA : DESCRIPTION OF MNEMONIC 
#-----.-----                    ----------------------------- : ----------------------------- 
CNTY.                                               CULBERSON : COUNTY 
STATE.                                                  TEXAS : STATE 
CNTRY.                                                    USA : COUNTRY 
API.                                             42-109-32507 : API (10 Digit) 
API_14.                                    42-109-32507-90-00 : API (14 Digits) 
API_14_std.                                 42-109-32507-9000 : API (14 Digits Standard) 
UWI.                                           42109325079000 : UNIQUE WELL ID 
WELL.                               42109325070000_PREV_API14 : WELL NAME
STRT.FT                                                2104.5 : START DEPTH
STOP.FT                                                9085.0 : STOP DEPTH
STEP.FT                                                   0.5 : STEP BETWEEN DEPTHS
NULL.                                                 -999.25 : NULL VALUE
PREV_APII.                                     42109325070000 : WELL IDENTIFIER
#___________________________________________________________________________________________________ 
~PARAMETER INFORMATION 
# MNEM.UNIT                                              DATA : DESCRIPTION OF MNEMONIC 
#-----.-----                    ----------------------------- : ----------------------------- 
EKB.FT                                                 3578.5 : ELEVATION ABOVE MSL
#___________________________________________________________________________________________________ 
~CURVE INFORMATION 
# MNEM.UNIT           : CURVE DESCRIPTION 
#-----.-----          : ----------------------------- 
 DEPT.FT               : MEASURED DEPTH 
 GR__A.API             : GAMMA RAY (GAMMA RAY) 
 DT__A.US/FT           : SONIC DELTA TRANSIT TIME (SONIC) 
 #___________________________________________________________________________________________________ 
~A         DEPT          GR__A          DT__A
# ...
         8020.5        180.232        111.568
         8021.0        136.487        126.036
         8021.5        109.709        133.398
         8022.0        104.891        129.494
         8022.5        116.535        120.022
         8023.0        141.822        117.635
         8023.5        144.774        120.469
         8024.0         89.476        139.386
         8024.5         73.566        152.655
         8025.0         68.880        145.060
         8025.5         98.243        121.006
         8026.0        159.566        102.963
         8026.5        205.299         92.615
         8027.0        227.688         86.069
         8027.5        227.534         85.272
         8028.0        227.333         79.570
         8028.5        236.902         79.507
         8029.0        237.783         89.969
         8029.5        195.553        107.588
         8030.0        153.915        113.432
         8030.5        147.603        101.816
         8031.0        188.477         90.948
         8031.5        225.717         88.533
         8032.0        212.224         93.797
         8032.5        190.273         94.381
         8033.0        195.391         91.781
         8033.5        222.988         92.999
         8034.0        222.886        101.415
         8034.5        184.753        110.139
         8035.0        158.938        114.068
         8035.5        144.502        114.898
         8036.0        136.541        115.460
         8036.5        134.536        117.656
         8037.0        127.991        123.290
         8037.5        111.581        134.812
         8038.0         97.464        133.981
         8038.5         99.647        119.445
         8039.0        141.410        105.013
         8039.5        182.796         94.014
         8040.0        203.168         92.478
         8040.5        213.815         91.137
         8041.0        225.060         86.235
         8041.5        227.765         87.065
         8042.0        220.867         95.277
         8042.5        188.781        112.619
         8043.0        145.515        119.605
         8043.5        133.157        103.980
         8044.0        165.321         87.757
         8044.5        224.562         77.842
         8045.0        270.504         76.534
         8045.5        264.732         81.397
         8046.0        245.736         91.234
         8046.5        241.124         95.329
         8047.0        239.516         95.734
         8047.5        209.550         98.723
         8048.0        178.387        102.827
         8048.5        168.706        104.523
         8049.0        166.862        105.226
         8049.5        170.600        104.966
         8050.0        174.162        104.966
         8050.5        176.218        104.550
         8051.0        176.966        103.603
         8051.5        173.474        108.541
         8052.0        166.067        121.100
         8052.5        156.160        133.816
         8053.0        126.648        138.833
         8053.5        103.339        132.496
         8054.0        117.412        117.826
         8054.5        134.651        103.524
         8055.0        213.691        101.858
         8055.5        208.955        108.780
         8056.0        180.635        121.146
         8056.5        160.189        124.991
         8057.0        131.879        118.086
         8057.5        133.642        113.535
         8058.0        155.871        113.495
         8058.5        167.895        107.033
         8059.0        171.644        103.746
         8059.5        177.660         93.384
         8060.0        216.997         80.817
         8060.5        241.715         88.614
         8061.0        247.844        102.806
         8061.5        201.598        125.045
         8062.0        116.806        144.001
         8062.5         89.879        151.161
         8063.0         68.419        144.201
         8063.5         73.065        141.226
         8064.0         84.313        140.604
         8064.5         87.562        138.540
         8065.0         91.401        138.462
         8065.5        109.185        138.334
         8066.0        116.527        138.954
         8066.5        103.157        147.647
         8067.0         69.065        147.352
         8067.5         67.272        144.888
         8068.0         76.425        144.499
         8068.5         82.980        142.941
         8069.0         81.755        147.160
         8069.5         74.854        144.523
         8070.0         78.608        137.560
         8070.5         88.189        126.847
         8071.0        112.036        122.989
         8071.5        121.644        116.624
         8072.0        122.435        105.563
         8072.5        130.687         94.702
         8073.0        163.008         92.657
         8073.5        176.351        101.052
         8074.0        145.127        122.750
         8074.5        114.515        138.746
         8075.0         85.053        141.533
         8075.5         84.111        136.242
         8076.0         84.044        133.927
         8076.5        105.366        130.815
         8077.0        137.170        117.247
         8077.5        156.433        108.993
         8078.0        161.404        102.702
         8078.5        157.335        102.854
         8079.0        150.151        106.516
         8079.5        142.400        115.619
         8080.0        138.197        127.540
         8080.5        132.704        136.569
         8081.0        103.860        143.145
         8081.5         90.943        146.199
         8082.0         86.310        147.511
         8082.5         76.308        150.609
         8083.0         63.732        151.120
         8083.5         58.090        151.899
         8084.0         62.643        149.400
         8084.5         70.394        143.962
         8085.0         90.082        134.335
         8085.5        118.983        111.206
         8086.0        149.686         99.441
         8086.5        160.636         90.670
         8087.0        179.668         89.397
         8087.5        196.472         89.187
         8088.0        197.070         95.619
         8088.5        189.543        101.655
         8089.0        176.444         97.612
         8089.5        167.185         92.359
         8090.0        201.268         88.204
         8090.5        208.810        104.473
         8091.0        178.920        125.479
         8091.5        129.679        126.088
         8092.0        122.829        119.795
         8092.5        146.350        104.783
         8093.0        193.876         92.726
         8093.5        201.551         98.087
         8094.0        170.618        118.280
         8094.5        148.816        134.154
         8095.0        103.932        133.444
         8095.5        114.859        125.482
         8096.0        175.550        111.982
         8096.5        197.231        102.600
         8097.0        183.041         98.062
         8097.5        163.674         98.345
         8098.0        180.210         95.108
         8098.5        185.734         93.815
         8099.0        181.937        104.639
         8099.5        172.871        112.006
         8100.0        161.052        115.324
         8100.5        163.908        106.032
         8101.0        207.922         94.088
         8101.5        250.749         82.771
         8102.0        272.859         67.561
         8102.5        267.468         72.362
         8103.0        225.735         88.525
         8103.5        185.083         96.407
         8104.0        157.962        100.158
         8104.5        149.527        107.191
         8105.0        128.370        127.441
         8105.5        103.271        138.786
         8106.0         73.306        148.410
         8106.5         61.013        149.861
         8107.0         69.241        142.043
