~VERSION INFORMATION
 VERS.                2.0:   CWLS LOG ASCII STANDARD - VERSION 2.0
 WRAP.                 NO:   ONE LINE PER DEPTH STEP
~WELL INFORMATION
#MNEM.UNIT      DATA TYPE    INFORMATION
#----------   ------------   ------------------------------
 STRT.FT          68.0000:   START DEPTH
 STOP.FT        1517.0000:   STOP DEPTH
 STEP.FT           0.5000:   STEP LENGTH
 NULL.          -999.2500:   NULL VALUE
 COMP. LINCOLN ROCK CORPORATION:   COMPANY
 WELL.        HOLLER #602:   WELL
 FLD .            UNNAMED:   FIELD
 LOC .                   :   LOCATION
 CNTY.          CULBERSON:   COUNTY
 STAT.              TEXAS:   STATE
 CTRY. UNITED STATES OF AMERICA:   COUNTRY
 SRVC.           Gearhart:   SERVICE COMPANY
 DATE.        24-Jun-1984:   LOGDATE
 API .     42109317410000:   API NUMBER
~CURVE INFORMATION
#MNEM.UNIT       API CODE    CURVE DESCRIPTION
#----------   ------------   ------------------------------
 DEPT.F                  :   
 CALXS.IN    60 280 13 00:   CALIPER FROM X AXIS OF X-Y CALIPER(S) FROM SONIC LOG
 GRD .GAPI   45 310 01 00:   GAMMA RAY FROM DENSITY LOG
 GRS .GAPI   60 310 01 00:   GAMMA RAY FROM SONIC LOG
 TEND.LB     45 635 00 00:   TENSION FROM DENSITY LOG
 TENR.LB     11 635 00 00:   TENSION FROM RESISTIVITY LOG
 TENS.LB     60 635 00 00:   TENSION FROM SONIC LOG
 CALYD.IN    45 280 24 00:   CALIPER FROM X AXIS OF X-Y CALIPER(S) FROM DENSITY LOG
 CNS_LS.DEC  42 890 01 00:   COMPENSATED NEUTRON POROSITY
 CDL_LS.DEC  45 890 10 00:   COMPENSATED DENSITY POROSITY LIMESTONE
 RHOB.G/C3   45 350 01 00:   BULK DENSITY
 DRHO.G/C3   45 356 01 00:   BULK DENSITY CORRECTION
 GRR .GAPI   11 310 01 00:   GAMMA RAY FROM RESISTIVITY LOG
 RLLD.OHMM   11 220 10 00:   RAW LATEROLOG DEEP RESISTIVITY
 RLLS.OHMM   11 220 09 00:   RAW LATEROLOG SHALLOW RESISTIVITY
 DT  .US/F   60 500 00 00:   DELTA-T (INTERVAL TRANSIT TIME)
 SPHI.DEC    60 890 00 00:   SONIC POROSITY
~PARAMETER INFORMATION
#MNEM.UNIT          VALUE    DESCRIPTION
#----------   ------------   ------------------------------
 PD  .                 GL:   PERMANENT DATUM
 EPD .FT             3532:   ELEVATION PERMANENT DATUM
 LMF .                 GL:   LOG MEASURED FROM
 DMF .                RKB:   DRILLING MEASURED FROM
 EKB .FT             3544:   KELLY BUSHING
 EDF .FT             3543:   DRILLING FLOOR
 EGL .FT             3532:   GROUND LEVEL
 DATE.           06/24/84:   RUN DATE
 RUN .                  1:   RUN NUMBER
 DD  .FT             1502:   DEPTH DRILLER
 DL  .FT             1506:   DEPTH LOGGER
 BLI .FT             1505:   BOTTOM LOG INTERVAL
 TLI .FT               90:   TOP LOG INTERVAL
 CS  .IN              4.5:   CASING SIZE
 CBD .FT              101:   CASING BOTTOM DRILLER
 CBL .FT             1502:   CASING BOTTOM LOGGER
 BS  .IN            7.875:   BIT SIZE
 BSD .FT             1502:   BIT SIZE AT DEPTH
 DFT .          FRESH H2O:   DRILLING FLUID TYPE
 DFD .                8.4:   DRILLING FLUID DENSITY
 DFV .                 27:   DRILLING FLUID VISCOSITY
 DFPH.                 12:   DRILLING FLUID PH
 MSS .                PIT:   MUD SAMPLE SOURCE
 RMS .OHMM           2.32:   RESISTIVITY MUD SAMPLE
 MST .DEGF             77:   MUD SAMPLE TEMPERATURE
 RMF .OHMM           2.32:   RESISTIVITY MUD FILTRATE SAMPLE
 MFST.DEGF             77:   MUD FILTRATE SAMPLE TEMPERATURE
 MFSS.               MEAS:   MUD FILTRATE SAMPLE SOURCE
 TCS .HRS            0940:   TIME CIRCULATED STOPPED
 TLAB.HRS            1319:   TIME LOGGER AT BOTTOM
 MRT .DEGF            770:   MAXIMUM RECORDED TEMPERATURE
 LUN .               7583:   LOGGING UNIT NUMBER
 LUL .              HOBBS:   LOGGING UNIT LOCATION
 ENGI.             BRYANT:   RECORDING ENGINEER
 WITN.             BURROW:   WITNESSED BY
 CLNT.            :   CLIENT CODE
 ORIG.      1" 2.5" PRINT:   ORIGIN OF DATA
 UWI .     42109317410000:   UNIQUE WELL ID
 
~OTHER INFORMATION
~A   DEPT    CALXS        GRD        GRS       TEND       TENR       TENS      CALYD      CNS_LS     CDL_LS      RHOB       DRHO          GRR     RLLD       RLLS         DT       SPHI   
# ...
 1401.0000     7.8895    65.4902    56.1391  1132.1851   902.6421   945.5978     7.9787     0.1055     0.5350     2.4795     0.0278    54.4197   217.0844    36.4001    79.0644     0.1994
 1401.5000     7.8909    65.4821    55.5389  1131.0659   906.3930   939.8994     7.9727     0.1072     0.5344     2.4820     0.0286    55.6005   212.5256    34.1761    78.6941     0.1955
 1402.0000     7.8922    63.9829    55.1801  1133.9926   910.1449   951.0724     7.9626     0.1081     0.5342     2.4845     0.0242    55.5668   203.5935    31.8713    78.3238     0.1913
 1402.5000     7.8935    63.7131    55.6902  1132.8719   906.9523   966.4626     7.9601     0.1090     0.5345     2.4871     0.0197    54.7233   198.1742    33.6154    77.9969     0.1906
 1403.0000     7.8949    64.2584    56.2003  1131.7515   903.7581   969.7118     7.9630     0.1093     0.5348     2.4896     0.0152    53.9676   192.7549    35.0194    77.8431     0.1892
 1403.5000     7.8962    64.8556    55.8219  1134.6805   898.3378   954.7488     7.9619     0.1037     0.5334     2.4921     0.0114    53.5628   187.0765    35.0484    77.6569     0.1871
 1404.0000     7.8976    65.2153    54.8768  1133.5601   892.9176   957.5522     7.9649     0.1021     0.5314     2.4946     0.0088    53.4413   181.3334    35.2309    77.3475     0.1843
 1404.5000     7.8989    64.8264    55.2807  1136.4854   893.1816   964.7979     7.9638     0.1004     0.5276     2.4971     0.0055    54.4534   184.2059    36.0279    77.0746     0.1826
 1405.0000     7.9003    65.3265    56.8458  1139.4132   895.7546   972.0431     7.9627     0.0987     0.5288     2.4752     0.0018    55.8393   187.9779    36.9721    76.9473     0.1825
 1405.5000     7.9016    66.6662    58.9813  1138.2915   896.1039   976.1457     7.9656     0.0970     0.5316     2.4851    -0.0019    57.4743   184.5284    38.5058    76.8201     0.1818
 1406.0000     7.9029    68.0882    61.1169  1141.2219   898.6766   975.5354     7.9646     0.0955     0.5336     2.4949    -0.0056    59.1093   183.4474    39.2319    76.5367     0.1808
 1406.5000     7.9043    69.2624    62.2061  1140.1001   899.0266   974.9251     7.9675     0.0975     0.5310     2.5048     0.0047    60.7443   184.7192    39.7458    76.5278     0.1786
 1407.0000     7.9056    69.2542    62.3687  1143.0269   899.3766   974.3148     7.9664     0.1066     0.5207     2.5274     0.0477    62.3793   187.3875    39.0861    76.1877     0.1762
 1407.5000     7.9070    66.4102    62.1481  1141.9075   901.9514   973.7045     7.9694     0.1158     0.5104     2.4970     0.0907    63.4615   185.9170    36.2012    75.8354     0.1732
 1408.0000     7.9084    63.9298    61.8840  1140.7858   908.2340   973.0937     7.9723     0.1249     0.5008     2.5034     0.1327    63.7146   176.5988    31.6021    75.8360     0.1719
 1408.5000     7.9098    65.3855    63.4503  1143.7148   906.1165   972.4834     7.9712     0.1354     0.5164     2.5090     0.1209    71.5025   122.8216    27.0029    75.9978     0.1749
 1409.0000     7.9111    73.5705    69.4592  1142.5944   903.9991   971.8731     7.9742     0.1142     0.5300     2.5147     0.0768    81.1741   111.7998    22.4038    76.1596     0.1760
 1409.5000     7.9124    86.7272    80.1337  1145.5210   904.1068   972.6373     7.9731     0.1112     0.5280     2.5204     0.0327    90.8457    99.9129    19.9079    76.2204     0.1766
 1410.0000     7.9137    96.8650    96.5852  1144.6006   902.1893   973.9364     7.9758     0.1083     0.5208     2.5261     0.0029    99.1903    82.4222    18.4379    76.2561     0.1774
 1410.5000     7.9147   113.2237    99.3917  1147.3478   883.7178   976.6720     7.9749     0.1054     0.5146     2.5317    -0.0055   113.1579    73.4243    20.2245    76.2917     0.1772
 1411.0000     7.9157   120.8506   107.1524  1148.2521   883.6437   979.8158     7.9759     0.1025     0.5083     2.5374    -0.0030   109.0587    96.8503    22.5281    76.2703     0.1770
 1411.5000     7.9174   118.9403   104.9354  1149.1552   880.5086   979.0951     7.9768     0.0997     0.5021     2.5435    -0.0034   102.2267   125.2695    26.1039    76.0209     0.1726
 1412.0000     7.9184   109.3884   100.0735  1150.0582   881.4546   982.0338     7.9777     0.0993     0.4959     2.5435    -0.0057    93.7063   153.6888    33.2436    75.0683     0.1664
 1412.5000     7.9201   102.6152    91.9534  1150.9625   878.3189   981.3118     7.9786     0.1026     0.5020     2.4767    -0.0079    86.2532   176.7551    37.7467    74.4184     0.1649
 1413.0000     7.9211   100.0101    86.0983  1151.8656   879.2661   984.2484     7.9795     0.1059     0.5081     2.4767    -0.0102    78.8001   170.4944    36.8959    74.8814     0.1702
 1413.5000     7.9229    84.7625    76.6187  1144.9475   876.1304   966.9021     7.9804     0.1085     0.5150     2.4808    -0.0062    71.3471   159.0677    34.6714    76.1052     0.1791
 1414.0000     7.9238    74.5919    67.1078  1127.1990   877.0758   944.3395     7.9814     0.1003     0.5227     2.4916    -0.0020    65.3846   154.8740    35.4344    77.0749     0.1854
 1414.5000     7.9256    71.8629    60.6948  1113.2281   873.9407   924.4993     7.9823     0.0934     0.5267     2.5047    -0.0063    66.1943   152.8588    39.1098    77.3779     0.1886
 1415.0000     7.9265    69.1338    61.8197  1114.3647   874.8867   933.8823     7.9832     0.0893     0.5279     2.5179    -0.0106    67.2065   156.5592    42.7852    77.2952     0.1851
 1415.5000     7.9283    71.8885    64.1680  1115.5013   871.7504   932.8821     7.9841     0.0900     0.5250     2.5213    -0.0143    66.0208   163.7192    41.8380    76.7411     0.1804
 1416.0000     7.9293    68.8354    63.0360  1116.6378   872.6976   931.0933     7.9851     0.0908     0.5190     2.5213    -0.0033    61.5385   176.0943    37.9352    76.0446     0.1754
 1416.5000     7.9174    64.9787    59.3389  1117.7744   869.5613   925.6274     7.9860     0.0915     0.5122     2.5093     0.0061    57.0561   159.7912    33.9291    75.8427     0.1738
 1417.0000     7.8962    61.1219    55.6439  1118.9109   870.5073   923.8419     7.9869     0.0923     0.5187     2.4920     0.0163    55.8704   145.8880    31.8808    75.9616     0.1752
 1417.5000     7.8760    58.5372    51.9507  1120.0474   867.3722   918.3772     7.9879     0.0951     0.5254     2.4748     0.0182    57.2874   143.8159    30.9812    76.2120     0.1771
 1418.0000     7.8548    58.5372    48.1161  1121.1840   868.3194   916.5979     7.9888     0.0981     0.5328     2.4575     0.0204    54.3725   156.9487    32.6006    76.7683     0.1819
 1418.5000     7.8345    57.7202    44.1301  1122.3193   865.1831   932.2420     7.9897     0.0937     0.5401     2.4376     0.0224    49.5142   172.0826    36.2653    77.6553     0.1886
 1419.0000     7.8302    53.6355    41.2890  1123.4558   866.1291   943.0378     7.9906     0.0822     0.5474     2.4159     0.0246    45.8357   187.2166    39.0987    79.8272     0.2026
 1419.5000     7.8306    50.6371    40.0114  1124.5923   862.9927   948.4149     7.9916     0.0707     0.5589     2.3942     0.0265    42.9439   187.2166    37.2344    88.2583     0.2458
 1420.0000     7.8222    49.9183    38.7181  1127.3676   861.0337   987.0734     7.9920     0.0679     0.5748     2.3725     0.0252    40.0521   143.8219    32.3994    96.0063     0.2890
 1420.5000     7.8055    49.7125    38.9062  1127.5938   857.1779   990.5794     7.9933     0.0741     0.5907     2.3391     0.0193    40.5533   137.6097    31.5262    97.7297     0.3366
 1421.0000     7.7751    50.0819    39.7180  1129.6222   852.6793   994.2839     7.9942     0.0811     0.6066     2.3512     0.0083    41.9028   131.9222    32.9142    94.3142     0.3350
 1421.5000     7.7574    51.0733    40.4562  1129.8470   851.2420   996.7748     7.9954     0.0882     0.6152     2.3775    -0.0020    42.9555   127.1551    34.2165    89.0504     0.3146
 1422.0000     7.7558    51.2731    41.7489  1131.8755   845.7239  1001.4977     7.9962     0.0953     0.6049     2.4200    -0.0020    43.5628   122.9216    30.2919    85.8996     0.2955
