~Version Information
 VERS.                  2.0:   CWLS log ASCII Standard -VERSION 2.0
 WRAP.                   NO:   One line per depth step
~Well Information Block
#MNEM.UNIT     VALUE/NAME     DESCRIPTION
#---------     -----------    ---------------------------
 STRT.F              8683.0000: START DEPTH
 STOP.F             14089.5000: STOP DEPTH
 STEP.F                 0.5000: STEP DEPTH
 NULL.                 -999.25: NULL VALUE
 LOC .       API  42-109-32906:  LOCATION
 FL1 .       API  42-109-32906:  LOCATIONLINE1
 DMF .                      KB:  DRILL MEAS FROM
 PDAT.                      GL:  PERMANENT DATUM
 PROV.                   TEXAS:  PROVINCE
 STAT.                   TEXAS:  STATE NAME
 CNTY.               CULBERSON:  COUNTY NAME
 LUL .                  ODESSA:  LOGGINGUNITLOC
 FLD .     FORD, WEST (WOLFCAMP):  FIELD NAME
 WELL.     SHELLY FEE 40 No. 2H:  WELL NAME
 COMP.     CAPITAN ENERGY, INC.:  COMPANY
 DATE.             08-Jun-2018:  DATE
 SVCO.             Halliburton:  SERVICECONAME
 HIDE.                        :  WELLNAMEOPERAT
 BASI.                   BACIA:  BASIN
 UWI .            42-109-32906Lat:  UNIQUE WELL IDENTIFIER
 API .            42-109-32906Lat:  API NUMBER
 RANG.                     N/A:  RANGE
 TOWN.                     N/A:  TOWNSHIP
 SECT.                     N/A:  SECTION
 SON .               902848974:  JOB NUMBER
 CTRY.                        :  COUNTRY
 SRVC.             Halliburton:  SERVICE COMPANY
 LMF .                      KB:  LOG MEASURED FROM
 BAP .ft                0.0000:  GL ELEV ONSHORE
 GVFD.g                 1.0000:  GRAVITY FIELD
~Curve Information Block
#MNEM.UNIT                 API CODE     Curve Description
#---------               -----------    ---------------------------
 DEPT.F                 00 000 000 000:  Depth
 CCL .mV                00 000 000 000:  Casing Collar Locator
 DTC_CHI.uspf           00 000 000 000:  DTC_CHI
 DTC_OH.uspf            00 000 000 000:  DTC_OH
 GR_CHI.api             00 000 000 000:  GR_CHI
 GR_OH.api              00 000 000 000:  GR_OH
 LLD_CHI.ohmm           00 000 000 000:  LLD_CHI
 LLD_OH.ohmm            00 000 000 000:  LLD_OH
 LLS_CHI.ohmm           00 000 000 000:  LLS_CHI
 LLS_OH.ohmm            00 000 000 000:  LLS_OH
 MSFL_CHI.ohmm          00 000 000 000:  MSFL_CHI
 MSFL_OH.ohmm           00 000 000 000:  MSFL_OH
 NPHI_CHI.pu            00 000 000 000:  NPHI_CHI
 NPHI_OH.pu             00 000 000 000:  NPHI_OH
 PE_CHI.b/e             00 000 000 000:  PE_CHI
 PE_OH.NONE             00 000 000 000:  Pe_OH
 RHOB_CHI.g/cc          00 000 000 000:  RHOB_CHI
 RHOB_OH.g/cc           00 000 000 000:  RHOB_OH
 SPHI_CHI.pu            00 000 000 000:  SPHI_CHI
#Other Information
#
#WARRANTY: Halliburton will use its best efforts to furnish customers with 
#accurate information and interpretations that are part of, and incident to, the services 
#provided.  However, Halliburton cannot and does not warrant the accuracy 
#or correctness of such information and interpretations.  Under no circumstances should any 
#such information or interpretation be relied upon as the sole basis for any drilling, 
#completion, production, or financial decision or any procedure involving any risk to the 
#safety of any drilling venture, drilling rig or its crew or any other third party.  The 
#Customer has full responsibility for all drilling, completion and production operation.  
#Halliburton makes no representations or warranties, either expressed or 
#implied, including, but not limited to, the implied warranties of merchantability or fitness 
#for a particular purpose, with respect to the services rendered.  In no event will 
#Halliburton be liable for failure to obtain any particular results or for 
#any damages, including, but not limited to, indirect, special or consequential damages, 
#resulting from the use of any information or interpretation provided by Halliburton.
#
~A    DEPT       CCL    DTC_CHI DTC_OH   GR_CHI   GR_OH   LLD_CHI   LLD_OH   LLS_CHI   LLS_OH   MSFL_CHI  MSFL_OH     NPHI_CHI   NPHI_OH   PE_CHI    PE_OH   RHOB_CHI  RHOB_OH SPHI_CHI 
# ...
   12621.0000   -1.3622 68.1568 -999.25 111.5304  -999.25  65.7335   -999.25  60.7946   -999.25  30.7917    -999.25      13.5558 -999.25     3.4040 -999.25     2.5450 -999.25 14.5400
   12621.5000   -1.3622 68.9468 -999.25 122.7378  -999.25  65.4920   -999.25  60.8420   -999.25  30.3887    -999.25      14.2970 -999.25     3.3710 -999.25     2.5276 -999.25 15.1000
   12622.0000   -1.3622 69.0871 -999.25 120.5989  -999.25  65.3246   -999.25  60.9303   -999.25  30.1914    -999.25      14.3161 -999.25     3.3581 -999.25     2.5258 -999.25 15.2000
   12622.5000   -1.3622 69.3139 -999.25 124.1021  -999.25  64.6482   -999.25  60.2847   -999.25  29.7564    -999.25      14.4863 -999.25     3.3347 -999.25     2.5204 -999.25 15.3600
   12623.0000   -1.3622 69.6733 -999.25 131.1962  -999.25  64.0368   -999.25  59.6441   -999.25  29.3621    -999.25      14.8640 -999.25     3.3114 -999.25     2.5117 -999.25 15.6100
   12623.5000   -1.3622 69.2040 -999.25 121.9658  -999.25  64.0446   -999.25  59.6376   -999.25  29.6086    -999.25      14.4597 -999.25     3.3282 -999.25     2.5225 -999.25 15.2800
   12624.0000   -1.3622 69.2006 -999.25 126.2112  -999.25  63.7914   -999.25  59.1228   -999.25  29.6323    -999.25      14.6547 -999.25     3.3284 -999.25     2.5209 -999.25 15.2800
   12624.5000   -1.3622 68.9866 -999.25 127.0459  -999.25  63.4555   -999.25  58.4742   -999.25  29.7654    -999.25      14.7114 -999.25     3.3371 -999.25     2.5239 -999.25 15.1200
   12625.0000   -1.3622 68.8813 -999.25 132.3782  -999.25  62.5801   -999.25  57.1256   -999.25  29.5561    -999.25      14.8704 -999.25     3.3296 -999.25     2.5232 -999.25 15.0500
   12625.5000   -1.3622 69.1035 -999.25 139.3005  -999.25  62.1185   -999.25  56.4197   -999.25  29.3803    -999.25      15.2824 -999.25     3.3164 -999.25     2.5167 -999.25 15.2100
   12626.0000   -1.3622 69.8951 -999.25 159.4475  -999.25  60.6729   -999.25  54.2701   -999.25  28.4405    -999.25      16.3481 -999.25     3.2543 -999.25     2.4953 -999.25 15.7700
   12626.5000   -1.3622 69.6266 -999.25 147.1779  -999.25  60.5023   -999.25  54.5958   -999.25  28.5871    -999.25      16.0476 -999.25     3.2560 -999.25     2.5034 -999.25 15.5800
   12627.0000   -1.3622 69.7240 -999.25 140.6246  -999.25  60.1353   -999.25  54.6995   -999.25  28.4108    -999.25      16.0337 -999.25     3.2410 -999.25     2.5037 -999.25 15.6500
   12627.5000   -1.3622 70.5937 -999.25 145.7312  -999.25  59.8572   -999.25  54.8555   -999.25  27.9779    -999.25      16.7617 -999.25     3.2013 -999.25     2.4876 -999.25 16.2600
   12628.0000   -1.3622 71.4067 -999.25 154.5899  -999.25  60.3038   -999.25  55.4145   -999.25  27.9040    -999.25      17.5103 -999.25     3.1818 -999.25     2.4720 -999.25 16.8400
   12628.5000   -1.3622 71.1182 -999.25 149.2026  -999.25  60.2618   -999.25  55.5157   -999.25  27.9883    -999.25      17.1948 -999.25     3.1928 -999.25     2.4785 -999.25 16.6300
   12629.0000   -1.3622 70.5562 -999.25 145.2062  -999.25  60.0892   -999.25  55.0807   -999.25  28.1253    -999.25      16.7545 -999.25     3.2085 -999.25     2.4885 -999.25 16.2300
   12629.5000   -1.3622 70.5887 -999.25 151.4915  -999.25  59.3162   -999.25  53.8607   -999.25  27.7263    -999.25      16.9006 -999.25     3.1858 -999.25     2.4851 -999.25 16.2600
   12630.0000   -1.3622 70.3522 -999.25 151.0597  -999.25  58.3180   -999.25  52.5869   -999.25  27.4014    -999.25      16.8176 -999.25     3.1696 -999.25     2.4882 -999.25 16.0900
   12630.5000   -1.3622 70.0482 -999.25 146.0994  -999.25  57.9002   -999.25  52.2799   -999.25  27.2649    -999.25      16.4294 -999.25     3.1723 -999.25     2.4947 -999.25 15.8800
   12631.0000   -1.3622 70.1793 -999.25 149.4773  -999.25  57.5993   -999.25  51.9023   -999.25  27.0168    -999.25      16.5218 -999.25     3.1588 -999.25     2.4912 -999.25 15.9700
   12631.5000   -1.3622 69.9541 -999.25 147.2400  -999.25  57.4663   -999.25  51.7872   -999.25  26.9458    -999.25      16.1980 -999.25     3.1642 -999.25     2.4958 -999.25 15.8100
   12632.0000   -1.3622 69.3100 -999.25 132.7856  -999.25  57.2498   -999.25  51.8757   -999.25  27.1212    -999.25      15.4883 -999.25     3.1887 -999.25     2.5116 -999.25 15.3500
   12632.5000   -1.3622 69.2643 -999.25 134.4155  -999.25  55.8025   -999.25  50.2414   -999.25  26.4974    -999.25      15.5405 -999.25     3.1564 -999.25     2.5107 -999.25 15.3200
   12633.0000   -1.3622 68.6186 -999.25 124.2614  -999.25  54.9555   -999.25  49.4051   -999.25  26.3141    -999.25      14.8573 -999.25     3.1669 -999.25     2.5248 -999.25 14.8600
   12633.5000   -1.3622 68.9155 -999.25 129.1618  -999.25  55.0164   -999.25  49.4865   -999.25  26.1869    -999.25      15.0909 -999.25     3.1538 -999.25     2.5182 -999.25 15.0700
   12634.0000   -1.3622 69.0316 -999.25 130.3885  -999.25  56.4811   -999.25  51.0547   -999.25  26.7115    -999.25      15.0477 -999.25     3.1802 -999.25     2.5169 -999.25 15.1600
   12634.5000   -1.3622 69.3898 -999.25 135.4304  -999.25  57.6591   -999.25  52.3170   -999.25  27.0787    -999.25      15.3366 -999.25     3.1914 -999.25     2.5099 -999.25 15.4100
   12635.0000   -1.3622 68.6533 -999.25 116.6760  -999.25  58.9489   -999.25  53.9738   -999.25  27.9976    -999.25      14.5349 -999.25     3.2557 -999.25     2.5299 -999.25 14.8900
   12635.5000   -1.3622 68.7333 -999.25 116.1248  -999.25  60.6933   -999.25  55.8634   -999.25  28.8802    -999.25      14.6971 -999.25     3.2943 -999.25     2.5297 -999.25 14.9500
   12636.0000   -1.3622 69.3471 -999.25 124.8338  -999.25  61.7746   -999.25  57.0780   -999.25  29.2844    -999.25      15.4134 -999.25     3.2971 -999.25     2.5168 -999.25 15.3800
   12636.5000   -1.3622 69.4687 -999.25 126.7990  -999.25  62.1096   -999.25  57.3972   -999.25  29.5109    -999.25      15.6505 -999.25     3.3034 -999.25     2.5142 -999.25 15.4700
   12637.0000   -1.3622 69.0772 -999.25 120.9613  -999.25  61.8799   -999.25  57.1139   -999.25  29.5824    -999.25      15.3045 -999.25     3.3158 -999.25     2.5227 -999.25 15.1900
   12637.5000   -1.3622 68.5883 -999.25 117.7045  -999.25  59.5729   -999.25  54.3740   -999.25  28.7573    -999.25      15.0103 -999.25     3.2840 -999.25     2.5304 -999.25 14.8400
   12638.0000   -1.3622 67.9151 -999.25 113.6450  -999.25  57.6162   -999.25  51.9285   -999.25  28.1240    -999.25      14.5349 -999.25     3.2680 -999.25     2.5418 -999.25 14.3700
   12638.5000   -1.3622 67.3080 -999.25 111.3976  -999.25  56.0285   -999.25  49.8726   -999.25  27.5970    -999.25      14.1016 -999.25     3.2570 -999.25     2.5519 -999.25 13.9400
   12639.0000   -1.3622 67.4933 -999.25 113.2549  -999.25  57.0752   -999.25  51.0394   -999.25  27.8953    -999.25      14.0854 -999.25     3.2691 -999.25     2.5490 -999.25 14.0700
   12639.5000   -1.3622 67.3202 -999.25 103.5939  -999.25  60.0993   -999.25  54.4860   -999.25  29.2707    -999.25      13.6263 -999.25     3.3481 -999.25     2.5578 -999.25 13.9500
   12640.0000   -1.3622 67.7992 -999.25 106.0061  -999.25  62.1204   -999.25  56.9431   -999.25  29.9406    -999.25      13.8904 -999.25     3.3687 -999.25     2.5501 -999.25 14.2900
   12640.5000   -1.3622 68.5537 -999.25 116.7034  -999.25  61.6203   -999.25  56.5770   -999.25  29.6588    -999.25      14.8510 -999.25     3.3322 -999.25     2.5328 -999.25 14.8200
   12641.0000   -1.3622 68.5591 -999.25 113.4275  -999.25  60.5074   -999.25  55.5325   -999.25  29.3709    -999.25      15.0764 -999.25     3.3155 -999.25     2.5330 -999.25 14.8200
   12641.5000    0.0000 68.1438 -999.25 114.4946  -999.25  57.2580   -999.25  51.5692   -999.25  28.2922    -999.25      15.2224 -999.25     3.2618 -999.25     2.5369 -999.25 14.5300
   12642.0000    0.0000 67.7594 -999.25 123.7168  -999.25  54.3801   -999.25  47.5427   -999.25  27.3186    -999.25      15.6295 -999.25     3.1977 -999.25     2.5365 -999.25 14.2600
   12642.5000    0.0000 65.5407 -999.25  98.2834  -999.25  50.7642   -999.25  43.5492   -999.25  26.4382    -999.25      13.9065 -999.25     3.2367 -999.25     2.5813 -999.25 12.6900
