###############################################
##         ENVERUS                           ##
##         ESS - Open Hole                   ##
##         PERMIAN / DELAWARE                ##
##         Nov 02 2023  V4.0                 ##
##         42-109-32255-00-00                ##
###############################################
## Copyright 2017-2023  ENVERUS.  All Rights Reserved. 
## Confidential - Property of ENVERUS, use governed by terms and 
## conditions found within the existing Information Services Subscription Agreement 
## (as may be amended, the “ISSA”) between Customer and ENVERUS. 
## 
~VERSION INFORMATION
# MNEM.UNIT                               DATA : DESCRIPTION OF MNEMONIC
#-----.-----     ----------------------------- : -----------------------------
VERS.                                     2.00 : CWLS LOG ASCII STANDARD - VERSION 2.00
WRAP.                                       NO : MULTIPLE LINES PER DEPTH STEP
VEND.                                  ENVERUS : VENDOR
TYPE.                          ESS - OPEN HOLE : ENVERUS ESSENTIAL CURVES – ACCESSIBLE THROUGH ENVERUS PRISM(TM)
DOC.                                  31869427 : ENVERUS HEADER RAW DOCUMENT ID
#___________________________________________________________________________________________________ 
~WELL INFORMATION 
# Kns/CyAZPDgS4fEM5w0azv9tYcXlBSx1nHSqICrpKgQv6F2hlFUFpw+R1SAxYfM92i4ks6BDNpB+WhJDZXFO5Q== 
# MNEM.UNIT                                              DATA : DESCRIPTION OF MNEMONIC 
#-----.-----                    ----------------------------- : ----------------------------- 
CNTY.                                               CULBERSON : COUNTY 
STATE.                                                  TEXAS : STATE 
CNTRY.                                                    USA : COUNTRY 
API.                                             42-109-32255 : API (10 Digit) 
API_14.                                    42-109-32255-00-00 : API (14 Digits) 
API_14_std.                                 42-109-32255-0000 : API (14 Digits Standard) 
UWI.                                           42109322550000 : UNIQUE WELL ID 
WELL.                             MELISSA TAYLOR STATE 27  1H : WELL NAME
STRT.FT                                                  94.0 : START DEPTH
STOP.FT                                               13828.0 : STOP DEPTH
STEP.FT                                                   0.5 : STEP BETWEEN DEPTHS
NULL.                                                 -999.25 : NULL VALUE
COMP.                              CHESAPEAKE OPERATING  INC. : COMPANY 
DATE.                                             29-NOV-2005 : LOG DATE
#___________________________________________________________________________________________________ 
~CURVE INFORMATION 
# MNEM.UNIT           : CURVE DESCRIPTION 
#-----.-----          : ----------------------------- 
 DEPT.FT               : MEASURED DEPTH 
 CALI__B.IN            : CALIPER (CAL - CAL) 
 GR__B.API             : GAMMA RAY (GR) 
 DT__B.US/FT           : SONIC DELTA TRANSIT TIME (DT) 
 DPHI__B.V/V           : DENSITY POROSITY (DPHI) 
 NPHI__B.V/V           : NEUTRON POROSITY (NPHI) 
 RHOB__B.G/CC          : BULK DENSITY (RHOB) 
 #___________________________________________________________________________________________________ 
~A         DEPT        CALI__B          GR__B          DT__B        DPHI__B        NPHI__B        RHOB__B
# ...
        12558.0         14.328         73.771        105.026        0.49913        0.62590         1.8780
        12558.5         13.424         72.120        106.613        0.54520        0.60073         1.8940
        12559.0         14.981         71.264        107.911        0.55038        0.55199         1.9100
        12559.5         16.183         73.319        107.760        0.52293        0.49381         1.8220
        12560.0         16.710         78.921        109.246        0.50165        0.42690         1.8470
        12560.5         16.735         85.701        111.813        0.48563        0.36739         1.9060
        12561.0         16.759         92.440        113.747        0.47307        0.34215         1.9620
        12561.5         16.784        104.334        115.920        0.46983        0.35326         1.9490
        12562.0         16.808        117.702        118.212        0.47592        0.36438         1.9350
        12562.5         17.245        114.900        120.504        0.52573        0.34498         1.9220
        12563.0         17.693        107.880        121.991        0.64836        0.32553         1.9080
        12563.5         18.141         95.000        122.009        0.69245        0.31616         1.8760
        12564.0         18.468         81.994        122.027        0.70083        0.42918         1.5020
        12564.5         18.508         78.908        120.386        0.70110        0.56783         1.4890
        12565.0         18.548         75.822        116.865        0.70138        0.69632         1.4760
        12565.5         19.001         72.736        112.485        0.70166        0.69651         1.4620
        12566.0         21.054         67.455        108.106        0.70195        0.69670         1.5390
        12566.5         22.403         61.801        103.727        0.66822        0.69689         1.6440
        12567.0         21.040         60.188         95.944        0.52292        0.69708         1.7900
        12567.5         19.192         64.761         83.822        0.42016        0.69727         1.9460
        12568.0         17.343         70.882         80.984        0.41757        0.69746         2.0630
        12568.5         18.194         73.919         81.643        0.44834        0.66702         2.0100
        12569.0         19.606         76.232         82.966        0.47910        0.64357         1.9560
        12569.5         21.018         77.099         84.765        0.46691        0.66144         1.9650
        12570.0         22.430         77.040         86.565        0.44746        0.62719         2.0070
        12570.5         23.070         75.842         88.364        0.40840        0.57334         2.0490
        12571.0         23.008         74.644         89.084        0.38858        0.57850         2.0830
        12571.5         22.947         73.364         89.003        0.39264        0.63574         2.0520
        12572.0         22.885         70.001         88.404        0.55522        0.69297         2.0210
        12572.5         23.091         66.639         88.432        0.66476        0.69684         1.7900
        12573.0         23.520         64.075         88.767        0.70162        0.69707         1.7140
        12573.5         21.870         63.220         90.607        0.70175        0.69730         1.6390
        12574.0         19.359         62.366         92.858        0.68687        0.69753         1.5640
        12574.5         16.849         63.485         94.112        0.62007        0.69775         1.4890
        12575.0         16.952         65.140         93.771        0.53915        0.61342         1.6950
        12575.5         17.726         66.255         94.755        0.49473        0.50209         1.7870
        12576.0         18.500         67.192         95.739        0.40885        0.49433         1.9990
        12576.5         18.486         68.129         98.649        0.39696        0.51802         2.0660
        12577.0         18.587         66.664        101.602        0.40544        0.52303         2.0530
        12577.5         18.708         65.360        101.630        0.41583        0.51679         2.0410
        12578.0         18.727         65.630        100.313        0.42547        0.46738         2.0280
        12578.5         18.746         65.900         98.888        0.44430        0.41861         2.0150
        12579.0         18.765         65.103         97.370        0.48571        0.57397         2.0030
        12579.5         18.783         63.265         99.133        0.54175        0.64941         1.9290
        12580.0         20.620         62.005        103.353        0.61487        0.69628         1.8520
        12580.5         23.530         62.235        107.954        0.67733        0.69628         1.5430
        12581.0         21.126         62.464        112.555        0.70141        0.69628         1.5500
        12581.5         18.170         62.202        114.536        0.70155        0.69628         1.5580
        12582.0         15.213         58.700        114.187        0.70170        0.69628         1.5650
        12582.5         13.269         55.879        113.452        0.70185        0.69628         1.5730
        12583.0         14.613         53.957        117.367        0.70200        0.69628         1.4460
        12583.5         15.628         53.776        122.171        0.70214        0.69628         1.4190
        12584.0         15.948         53.595        126.974        0.70229        0.69628         1.4250
        12584.5         15.937         54.621        131.777        0.70244        0.69627         1.4320
        12585.0         15.926         57.663        136.580        0.70258        0.69627         1.4380
        12585.5         15.977         63.047        136.009        0.70273        0.69627         1.4440
        12586.0         16.912         75.981        127.611        0.70288        0.55329         1.4550
        12586.5         17.848         81.225        119.214        0.70303        0.42460         1.4670
        12587.0         18.784         82.152        110.816        0.56051        0.49171         1.6790
        12587.5         19.720         79.776        102.418        0.50480        0.56914         1.8810
        12588.0         20.655         74.925         97.114        0.44909        0.64656         1.9410
        12588.5         21.485         69.409         96.930        0.42235        0.66407         2.0000
        12589.0         21.976         71.049         98.289        0.40477        0.66738         2.0600
        12589.5         22.565         72.871         99.871        0.43092        0.66684         2.0560
        12590.0         23.188         72.443         92.903        0.50968        0.68714         1.9710
        12590.5         23.371         68.524         78.444        0.53342        0.62064         1.8760
        12591.0         22.175         66.040         74.913        0.47985        0.59478         1.9460
        12591.5         20.174         63.556         73.293        0.40077        0.64366         2.0910
        12592.0         18.172         60.454         71.673        0.39403        0.69253         2.0440
        12592.5         18.400         57.005         74.741        0.44965        0.69701         1.9980
        12593.0         19.719         53.557         79.080        0.49952        0.69712         1.9510
        12593.5         21.039         52.718         81.916        0.51332        0.69723         1.9050
        12594.0         22.359         52.833         84.082        0.51949        0.69734         1.8970
        12594.5         23.504         54.372         83.184        0.62445        0.69744         1.8900
        12595.0         23.703         55.839         72.674        0.66680        0.69755         1.8820
        12595.5         23.903         57.221         60.558        0.70047        0.57555         1.8130
