# Exported from Transform Software 5.2.0 on 30-Oct-2019 by user kathryn.gehrke
# DI Transform - A Product of Drillinginfo, Inc. - www.drillinginfo.com
#
~VERSION INFORMATION
 VERS.        2.0 : LAS ASCII STANDARD - VERSION 2.0
 WRAP.         NO : ONE LINE PER DEPTH STEP

~WELL INFORMATION
#MNEM.UNIT       DATA TYPE       INFORMATION
#---------       ---------       -----------
 STRT.ft                  40 : Start Depth
 STOP.ft                9358 : Stop Depth
 STEP.ft                 0.5 : Step Length
 NULL.               -999.25 : Null Value
 COMP.                       : Company
 WELL.  42109330610000_API14 : Well Name
 FLD.                        : Field Name
 LOC.                        : Well Location
 CNTY.                       : County
 STAT.                       : State or Province
 CTRY.                       : Country
 SRVC.                       : Service Company
 DATE.                       : Date
 API.         42109330610000 : Well Identifier

~CURVE INFORMATION
#MNEM.UNIT       API CODE       CURVE DESCRIPTION
#---------       --------       -----------------
 DEPT.ft        : <Measured Depth>
 DT.us/ft       : Sonic
 GR.gAPI        : Gamma Ray

~PARAMETER INFORMATION
#MNEM.UNIT       VALUE       DESCRIPTION
#---------       -----       -----------
 EKB.ft      3200.5 : Elevation above MSL

~A      DEPT          DT          GR
# ...
      6224.5    266.4622     39.3597
        6225    260.4441     41.9258
      6225.5    257.3855     45.2925
        6226    261.3934     50.1021
      6226.5    263.5271     52.0245
        6227    265.1303     51.1418
      6227.5    261.6528     52.4274
        6228    257.6448     62.6899
      6228.5    253.5014     77.5178
        6229    241.7427     86.4144
      6229.5    237.0741     87.7756
        6230    237.0741     82.8843
      6230.5    237.3449     76.7124
        6231    237.8758     67.1696
      6231.5     237.605     48.5694
        6232    239.7496     34.7088
      6232.5    249.1085     30.7011
        6233    265.8067     27.9762
      6233.5    278.8978     31.3446
        6234    283.5671      44.973
      6234.5    283.5671     61.8058
        6235    282.7655     74.3897
      6235.5    279.9552     81.9243
        6236    269.9259     85.1309
      6236.5    253.0924     82.8844
        6237    239.8707     71.1786
      6237.5    235.4709      52.343
        6238    237.0741       40.32
      6238.5    238.6774     37.1144
        6239    240.5506     45.7728
      6239.5    242.1538     59.9614
        6240    241.8838     75.4317
      6240.5    241.0822     78.3163
        6241    242.9553     68.6969
      6241.5     249.372      58.196
        6242     260.999      60.842
      6242.5    274.2177     68.6175
        6243    279.0272      73.427
      6243.5    283.0352      75.511
        6244    283.5671     76.1523
      6244.5    283.5671     77.5951
        6245    282.7655      84.569
      6245.5    282.7655     85.2906
        6246    282.7655     77.5954
      6246.5    282.7655     70.7016
        6247    282.7655     69.4992
      6247.5    282.4962     61.7252
        6248    281.9639     43.2071
      6248.5    281.1623     32.9462
        6249    281.1623     30.7816
      6249.5    281.1623     35.4303
        6250    281.1623     46.2514
      6250.5    281.1623     57.3939
        6251    281.9639     59.7198
      6251.5    281.1623     57.9559
        6252    281.1623     60.1196
      6252.5    281.1623     61.0822
        6253    281.9639     60.1202
      6253.5    281.9639     62.5243
        6254    281.9639     60.6028
      6254.5    281.9639     48.5005
        6255    281.9639     37.6773
      6255.5    281.9639     34.5494
        6256    280.2259     37.8344
      6256.5    281.9639     40.0795
        6257    281.9639     46.6513
      6257.5    281.9639     51.1416
        6258    281.1623     45.3733
      6258.5    281.1623     33.9101
        6259    281.9639     30.0601
      6259.5    281.9639     30.8613
        6260    281.9639     33.1054
      6260.5    281.9639     39.1161
        6261    281.9639     46.8127
      6261.5    281.9639      46.575
        6262    281.9639     37.7597
      6262.5    281.9639     31.1843
        6263    282.7655     29.2605
      6263.5    282.7655     25.8126
        6264    282.7655     23.0862
      6264.5    280.8945      23.005
        6265    273.0115     25.6502
      6265.5    257.2464     27.4148
        6266    242.0161     26.9339
      6266.5    235.7386     27.6553
        6267    244.1567     28.2158
      6267.5    261.3916     27.1762
        6268    275.9529     25.3319
      6268.5    282.2314     23.7281
        6269    281.9639     23.5671
      6269.5    281.9639     24.4476
        6270    281.9639     27.8918
      6270.5    281.9639     32.4629
        6271    281.9639     36.4716
      6271.5    281.9639     36.9546
        6272    281.9639     35.3529
      6272.5    281.9639     29.9057
        6273    281.9639     25.8925
      6273.5    281.9639     24.5291
        6274    281.9639     23.4877
      6274.5    282.7655     20.0417
        6275    281.9639     19.2361
      6275.5    282.7655     23.5647
        6276    282.7655     27.7346
      6276.5    283.5671      28.057
        6277    282.4988     26.2943
      6277.5    276.2208     25.2505
        6278    266.7342     27.0924
      6278.5    265.3969     28.6172
        6279    271.8088     27.3356
      6279.5    279.8257     23.8076
        6280    281.6974     22.7665
      6280.5    272.7477     22.2035
        6281    257.5185     23.6463
      6281.5    243.6226     24.7666
        6282    236.5389     27.6524
      6282.5    241.8824     28.7786
        6283     246.158     27.2565
      6283.5    245.6256     24.3738
        6284    240.2821     21.7255
      6284.5    239.7451     19.1594
        6285    247.0908      18.998
      6285.5    262.0534     19.7985
        6286    275.9483     22.2824
      6286.5    283.0315     22.2857
        6287    284.3687     21.5642
      6287.5    284.3687     21.3238
        6288    284.3687     20.6814
      6288.5    282.3669      19.479
        6289    272.3513     20.3584
      6289.5    254.5788     22.6842
        6290    249.6342     24.0481
      6290.5    252.8334     24.2886
        6291    270.7341     24.8485
      6291.5    281.9614      25.491
        6292    284.3687     25.6525
      6292.5    283.5671     24.2886
        6293    280.8969     22.0454
      6293.5    272.0821     22.2782
        6294    257.6591     24.6079
      6294.5    242.2904      25.491
        6295    238.9426     26.0508
      6295.5    248.5587      26.851
        6296     265.124     27.8129
      6296.5    279.4202     31.9799
        6297    283.5671     34.6334
      6297.5    283.5671     30.1472
        6298    282.7655     25.2505
      6298.5    282.7655     26.6892
        6299    282.7655     29.7366
      6299.5    282.7655     31.2625
        6300    282.7655     30.7816
      6300.5    282.7655      31.022
        6301    282.7655     32.2244
      6301.5    281.9639     32.1458
        6302    281.9639     30.7816
      6302.5    281.9639     31.1007
        6303    281.9639     31.1053
      6303.5    281.9639     29.0196
        6304    281.9639     29.2508
      6304.5    281.1623     32.1412
        6305    281.1623     33.8245
      6305.5    281.1623     36.4698
        6306    281.9639     37.0341
      6306.5    281.9639     33.5151
        6307    281.9639     29.0982
      6307.5    281.6998     29.6577
        6308    281.1623     31.4195
      6308.5    281.1623     31.4245
        6309    281.1623     29.3387
      6309.5    281.9639     31.0068
        6310    282.7655     36.2239
      6310.5    283.5671     38.5554
        6311    284.3687     38.7174
      6311.5    284.3687     41.6816
        6312    284.3687     41.6085
      6312.5    283.5671     36.3179
        6313    284.3687     31.2679
      6313.5    284.3687      31.022
        6314    284.3687     30.6194
      6314.5    284.3687     30.3006
        6315    284.3687     28.7794
      6315.5    286.2354     24.0536
        6316    294.6465     20.4409
      6316.5    299.8625     21.8725
        6317    301.4657     27.1687
      6317.5     302.004     29.0982
        6318     302.004     27.5771
      6318.5     303.344     23.8974
        6319    300.1377     21.1623
      6319.5    296.1297     24.1987
        6320    291.4579     29.0141
      6320.5    285.9719     28.1422
        6321    285.9719       25.01
      6321.5    283.3106     25.1663
        6322    272.2262      28.533
      6322.5    256.0629     30.3787
        6323    243.4936     30.7816
      6323.5     239.479     30.0601
        6324    239.7417     33.2583
      6324.5    244.2818     40.7069
        6325    249.3608     43.7738
      6325.5    251.2404     39.8418
        6326    247.2325     37.8336
      6326.5    241.6213     38.8799
        6327    241.0822     37.7619
      6327.5    241.8838     36.9496
        6328    241.0822     38.6329
      6328.5    239.2166      38.477
        6329    237.8758     38.3144
      6329.5    237.0741     40.7972
        6330    237.8758     41.9996
      6330.5    237.8758     44.1505
        6331    237.8758     51.4562
      6331.5    237.8758     54.8297
        6332    237.8758     50.0337
      6332.5    237.0741     42.8903
