# Exported from Transform Software 5.2.0 on 30-Oct-2019 by user kathryn.gehrke
# DI Transform - A Product of Drillinginfo, Inc. - www.drillinginfo.com
#
~VERSION INFORMATION
 VERS.        2.0 : LAS ASCII STANDARD - VERSION 2.0
 WRAP.         NO : ONE LINE PER DEPTH STEP

~WELL INFORMATION
#MNEM.UNIT       DATA TYPE       INFORMATION
#---------       ---------       -----------
 STRT.ft                  40 : Start Depth
 STOP.ft                9358 : Stop Depth
 STEP.ft                 0.5 : Step Length
 NULL.               -999.25 : Null Value
 COMP.                       : Company
 WELL.  42109330610000_API14 : Well Name
 FLD.                        : Field Name
 LOC.                        : Well Location
 CNTY.                       : County
 STAT.                       : State or Province
 CTRY.                       : Country
 SRVC.                       : Service Company
 DATE.                       : Date
 API.         42109330610000 : Well Identifier

~CURVE INFORMATION
#MNEM.UNIT       API CODE       CURVE DESCRIPTION
#---------       --------       -----------------
 DEPT.ft        : <Measured Depth>
 DT.us/ft       : Sonic
 GR.gAPI        : Gamma Ray

~PARAMETER INFORMATION
#MNEM.UNIT       VALUE       DESCRIPTION
#---------       -----       -----------
 EKB.ft      3200.5 : Elevation above MSL

~A      DEPT          DT          GR
          40     -999.25     -999.25
        40.5     -999.25       0.859
          41     -999.25       1.186
        41.5     -999.25       1.513
          42     -999.25        1.84
        42.5     -999.25      2.1643
          43     -999.25      2.6453
        43.5     -999.25      2.1644
          44     -999.25      1.6834
        44.5     -999.25      1.6834
          45     -999.25      1.6835
        45.5     -999.25      1.2025
          46     -999.25      1.9235
        46.5     -999.25      3.8474
          47     -999.25      5.7714
        47.5     -999.25       6.493
          48     -999.25      8.1757
        48.5     -999.25     11.3017
          49     -999.25      13.226
        49.5     -999.25     13.4669
          50     -999.25      12.505
        50.5     -999.25     12.2645
          51     -999.25     12.5047
        51.5     -999.25      12.986
          52     -999.25     16.3518
        52.5     -999.25     22.1236
          53     -999.25     28.1349
        53.5     -999.25     30.2999
          54     -999.25     29.8196
        54.5     -999.25     32.9444
          55     -999.25     35.5912
        55.5     -999.25     33.4281
          56     -999.25      29.099
        56.5     -999.25     28.3763
          57     -999.25     28.1367
        57.5     -999.25     25.9728
          58     -999.25     24.7691
        58.5     -999.25     27.4134
          59     -999.25     30.7806
        59.5     -999.25     32.4644
          60     -999.25     33.6663
        60.5     -999.25     33.6679
          61     -999.25     29.8213
        61.5     -999.25     25.0117
          62     -999.25     24.2886
        62.5     -999.25     27.1732
          63     -999.25     28.1357
        63.5     -999.25     28.6166
          64     -999.25     28.6172
        64.5     -999.25     26.9345
          65     -999.25     25.9719
        65.5     -999.25      27.173
          66     -999.25     29.0975
        66.5     -999.25     29.3387
          67     -999.25     28.8577
        67.5     -999.25     30.7801
          68     -999.25     33.9064
        68.5     -999.25     35.8302
          69     -999.25     37.2731
        69.5     -999.25     36.3134
          70     -999.25     32.9482
        70.5     -999.25     30.3022
          71     -999.25      29.099
        71.5     -999.25     29.0982
          72     -999.25     29.8196
        72.5     -999.25     30.0601
          73     -999.25     30.7816
        73.5     -999.25      31.984
          74     -999.25     30.7833
        74.5     -999.25     27.8967
          75     -999.25     26.9339
        75.5     -999.25     27.1734
          76     -999.25     27.4148
        76.5     -999.25     28.3768
          77     -999.25     27.6572
        77.5     -999.25      25.492
          78     -999.25       25.49
        78.5     -999.25     25.9719
          79     -999.25     25.9719
        79.5     -999.25     25.9719
          80     -999.25     26.4529
        80.5     -999.25     26.9339
          81     -999.25     28.6151
        81.5     -999.25     29.3387
          82     -999.25     27.8969
        82.5     -999.25     28.1352
          83     -999.25     30.0579
        83.5     -999.25     30.7816
          84     -999.25     30.0624
        84.5     -999.25     29.0993
          85     -999.25     27.8958
        85.5     -999.25     28.1363
          86     -999.25     29.0982
        86.5     -999.25     29.0982
          87     -999.25     29.0982
        87.5     -999.25     26.6971
          88     -999.25     24.7695
        88.5     -999.25     25.9694
          89     -999.25     27.6553
        89.5     -999.25     26.4542
          90     -999.25     26.2098
        90.5     -999.25     31.2534
          91     -999.25      35.829
        91.5     -999.25     34.6333
          92     -999.25     30.5451
        92.5     -999.25     26.9366
          93     -999.25     25.7328
        93.5     -999.25      26.211
          94     -999.25     28.8549
        94.5     -999.25     29.0982
          95     -999.25     28.6187
        95.5     -999.25     27.1772
          96     -999.25     23.3339
        96.5     -999.25     21.4028
          97     -999.25     24.7666
        97.5     -999.25     28.1348
          98     -999.25     28.1363
        98.5     -999.25     29.0952
          99     -999.25     30.2991
        99.5     -999.25     25.5017
         100     -999.25     20.6891
       100.5         500     21.3981
         101         500     24.5228
       101.5     407.028      25.491
         102    276.3565     27.4132
       102.5    250.7016     29.0982
         103     247.495     27.8974
       103.5     247.495     25.7331
         104     247.495     25.2522
       104.5     247.495     24.2902
         105     247.495     24.5274
       105.5     247.495      25.491
         106     247.495       25.01
       106.5     247.495      25.728
         107     247.495     27.4148
       107.5     247.495     26.4564
         108     247.495     24.0499
       108.5    246.6934     22.8475
         109    246.6934     23.0844
       109.5    246.6934     25.0082
         110    246.6934     25.0136
       110.5    246.6934     23.8076
         111    246.6934     24.2849
       111.5    246.6934     24.5291
         112    246.6934     21.6489
       112.5    246.6934     21.3991
         113    246.6934     23.3248
       113.5    246.6934     24.5291
         114    246.6934     22.6071
       114.5    246.6934     21.8838
         115    246.6934     21.8838
       115.5    246.6934     21.8838
         116    246.6934     20.9238
       116.5    246.6934     20.4409
         117    246.6934     19.9619
       117.5    246.6934     20.2004
         118    246.6934     20.9178
       118.5    246.6934     23.5631
         119    246.6934     25.4889
       119.5    246.6934      25.491
         120    246.6934      25.491
       120.5    246.6934     26.9339
         121    246.6934     27.4148
       121.5    246.6934     27.6553
         122    246.6934     27.6511
       122.5    246.6934     28.3768
         123    246.6934     27.8979
       123.5    246.6934      26.936
         124    246.6934     24.2886
       124.5    246.6934     25.9698
         125    246.6934     27.6531
       125.5     247.495     29.0982
         126     247.495      29.096
       126.5     247.495       28.86
         127     247.495     26.6979
       127.5     247.495     26.2147
         128     247.495     25.0123
       128.5     247.495     24.7695
         129     247.495     25.4864
       129.5     247.495     26.2124
         130     247.495     25.4933
       130.5     247.495     24.5314
         131     247.495     23.3267
       131.5     247.495     24.2862
         132     247.495     25.9696
       132.5     247.495     26.9339
         133     247.495     28.6124
       133.5     247.495     29.3387
         134     247.495     26.4602
       134.5     247.495      24.053
         135    248.2966     25.0076
       135.5    248.2966     25.7315
         136    248.2966     24.5291
       136.5    248.2966     25.2455
         137    248.2966     27.8908
       137.5    248.2966     28.6172
         138     247.495     28.8577
       138.5     247.495     27.1794
         139     247.495     27.1718
       139.5     247.495     28.1337
         140     247.495      26.215
       140.5     247.495     23.5723
         141     247.495     24.2834
       141.5     247.495     24.7695
         142     247.495     23.3293
       142.5     247.495     22.6026
         143    248.2966     24.9914
       143.5    248.2966     26.6907
         144    249.0944     26.4529
       144.5    249.0982     25.2505
         145    249.8998     23.3294
       145.5    249.8998     20.4436
         146    249.8998     18.7603
       146.5    249.8998      18.517
         147    249.8998      18.517
       147.5    249.0982     20.9107
         148    249.0982      24.283
