###############################################
##         ENVERUS                           ##
##         ESS - Open Hole                   ##
##         PERMIAN / DELAWARE                ##
##         Nov 03 2023  V4.0                 ##
##         42-109-32507-90-00                ##
###############################################
## Copyright 2017-2023  ENVERUS.  All Rights Reserved. 
## Confidential - Property of ENVERUS, use governed by terms and 
## conditions found within the existing Information Services Subscription Agreement 
## (as may be amended, the “ISSA”) between Customer and ENVERUS. 
## 
~VERSION INFORMATION
# MNEM.UNIT                               DATA : DESCRIPTION OF MNEMONIC
#-----.-----     ----------------------------- : -----------------------------
VERS.                                     2.00 : CWLS LOG ASCII STANDARD - VERSION 2.00
WRAP.                                       NO : MULTIPLE LINES PER DEPTH STEP
VEND.                                  ENVERUS : VENDOR
TYPE.                          ESS - OPEN HOLE : ENVERUS ESSENTIAL CURVES – ACCESSIBLE THROUGH ENVERUS PRISM(TM)
DOC.                                  51094130 : ENVERUS HEADER RAW DOCUMENT ID
#___________________________________________________________________________________________________ 
~WELL INFORMATION 
# OeTAuI96vYP/1gAnXdiC+b2e5mg9bdq0rVS4GA6NX+ctg1PKQ5RhcqUsdOd2aOUDNf5EtC5635oDT1THDUi6iw== 
# MNEM.UNIT                                              DATA : DESCRIPTION OF MNEMONIC 
#-----.-----                    ----------------------------- : ----------------------------- 
CNTY.                                               CULBERSON : COUNTY 
STATE.                                                  TEXAS : STATE 
CNTRY.                                                    USA : COUNTRY 
API.                                             42-109-32507 : API (10 Digit) 
API_14.                                    42-109-32507-90-00 : API (14 Digits) 
API_14_std.                                 42-109-32507-9000 : API (14 Digits Standard) 
UWI.                                           42109325079000 : UNIQUE WELL ID 
WELL.                               42109325070000_PREV_API14 : WELL NAME
STRT.FT                                                2104.5 : START DEPTH
STOP.FT                                                9085.0 : STOP DEPTH
STEP.FT                                                   0.5 : STEP BETWEEN DEPTHS
NULL.                                                 -999.25 : NULL VALUE
PREV_APII.                                     42109325070000 : WELL IDENTIFIER
#___________________________________________________________________________________________________ 
~PARAMETER INFORMATION 
# MNEM.UNIT                                              DATA : DESCRIPTION OF MNEMONIC 
#-----.-----                    ----------------------------- : ----------------------------- 
EKB.FT                                                 3578.5 : ELEVATION ABOVE MSL
#___________________________________________________________________________________________________ 
~CURVE INFORMATION 
# MNEM.UNIT           : CURVE DESCRIPTION 
#-----.-----          : ----------------------------- 
 DEPT.FT               : MEASURED DEPTH 
 GR__A.API             : GAMMA RAY (GAMMA RAY) 
 DT__A.US/FT           : SONIC DELTA TRANSIT TIME (SONIC) 
 #___________________________________________________________________________________________________ 
~A         DEPT          GR__A          DT__A
# ...
         7150.5        162.276         92.354
         7151.0        156.076         97.938
         7151.5        142.579        110.390
         7152.0        125.594        118.735
         7152.5        115.446        125.150
         7153.0        113.485        126.654
         7153.5        105.183        126.983
         7154.0        101.376        128.713
         7154.5        103.121        128.236
         7155.0        111.958        118.878
         7155.5        128.924        111.297
         7156.0        147.812        107.875
         7156.5        156.998        114.009
         7157.0        129.526        127.349
         7157.5        111.130        129.383
         7158.0        115.750        118.044
         7158.5        154.856        104.637
         7159.0        174.444         99.348
         7159.5        189.264         91.391
         7160.0        201.102         86.790
         7160.5        208.983         85.156
         7161.0        210.298         84.205
         7161.5        201.867         88.059
         7162.0        188.908         93.369
         7162.5        171.895         95.268
         7163.0        160.680         96.692
         7163.5        151.625         96.787
         7164.0        161.626         96.481
         7164.5        195.012         95.501
         7165.0        207.438         95.618
         7165.5        204.031         93.417
         7166.0        195.442         89.957
         7166.5        210.100         86.515
         7167.0        216.667         81.767
         7167.5        233.302         77.377
         7168.0        244.761         77.099
         7168.5        250.075         78.840
         7169.0        239.728         83.189
         7169.5        232.864         86.632
         7170.0        222.370        100.077
         7170.5        198.882        103.362
         7171.0        187.115        103.024
         7171.5        204.895         92.870
         7172.0        225.051         87.624
         7172.5        218.736         93.010
         7173.0        192.052         98.561
         7173.5        175.914        103.575
         7174.0        171.473        101.233
         7174.5        166.510         98.734
         7175.0        163.653        104.060
         7175.5        164.921        104.720
         7176.0        169.371        103.936
         7176.5        176.406        102.925
         7177.0        187.887         98.683
         7177.5        196.250         91.084
         7178.0        205.228         88.333
         7178.5        218.483         83.399
         7179.0        243.369         78.676
         7179.5        268.717         80.893
         7180.0        272.726         78.209
         7180.5        247.545         82.616
         7181.0        229.302         91.998
         7181.5        223.150         89.064
         7182.0        225.713         84.976
         7182.5        230.028         73.274
         7183.0        235.863         75.724
         7183.5        245.073         76.779
         7184.0        245.703         76.728
         7184.5        249.242         76.183
         7185.0        264.553         75.527
         7185.5        262.432         78.622
         7186.0        230.062         83.718
         7186.5        194.779         89.863
         7187.0        183.118         91.918
         7187.5        180.514         90.754
         7188.0        176.985         88.604
         7188.5        165.628         86.940
         7189.0        161.376         85.867
         7189.5        163.432         84.693
         7190.0        164.133         83.908
         7190.5        160.794         83.350
         7191.0        157.895         84.449
         7191.5        158.675         91.891
         7192.0        157.797        105.453
         7192.5        140.822        119.001
         7193.0        121.058        130.881
         7193.5        112.600        131.511
         7194.0        111.501        123.509
         7194.5        121.408        105.821
         7195.0        137.964         98.297
         7195.5        150.247         93.057
         7196.0        155.357         92.113
         7196.5        155.641         91.427
         7197.0        152.202         89.737
         7197.5        149.173         88.033
         7198.0        147.130         86.152
         7198.5        147.228         83.420
         7199.0        152.116         82.440
         7199.5        155.439         81.655
         7200.0        154.776         80.870
         7200.5        154.441         77.277
         7201.0        158.811         75.949
         7201.5        163.638         77.890
         7202.0        170.635         81.636
         7202.5        185.885         85.060
         7203.0        196.457         86.643
         7203.5        210.664         86.855
         7204.0        211.707         87.439
         7204.5        204.288         87.829
         7205.0        188.373         91.878
         7205.5        170.157         98.457
         7206.0        154.067        106.542
         7206.5        139.195        107.864
         7207.0        132.885        105.764
         7207.5        136.913        101.391
         7208.0        151.145         93.317
         7208.5        167.212         91.361
         7209.0        193.421         90.539
         7209.5        203.334         85.413
         7210.0        214.941         83.285
         7210.5        224.645         82.182
         7211.0        217.318         85.017
         7211.5        201.038         91.164
         7212.0        180.301         95.458
         7212.5        174.183         96.538
         7213.0        174.858         98.591
         7213.5        181.324         98.840
         7214.0        202.197         97.469
         7214.5        214.584         95.501
         7215.0        218.830         90.413
         7215.5        215.407         85.753
         7216.0        231.366         85.492
         7216.5        236.530         84.962
         7217.0        223.293         86.101
         7217.5        216.892         88.565
         7218.0        214.889         88.839
         7218.5        212.866         82.164
         7219.0        223.931         77.193
         7219.5        236.784         77.810
         7220.0        228.858         81.583
         7220.5        210.481         82.563
         7221.0        208.763         88.599
         7221.5        213.218         98.568
         7222.0        204.269        100.467
         7222.5        202.691         99.295
         7223.0        213.839         92.481
         7223.5        218.823         86.076
         7224.0        217.477         86.271
         7224.5        215.283         86.894
         7225.0        217.544         83.934
         7225.5        209.857         79.734
         7226.0        200.635         85.869
         7226.5        197.473         94.143
         7227.0        186.031         97.513
         7227.5        160.867        104.252
         7228.0        145.356         99.560
         7228.5        156.005         91.747
         7229.0        187.926         89.696
         7229.5        217.351         87.877
         7230.0        232.383         83.624
         7230.5        244.173         85.451
         7231.0        243.603         94.011
         7231.5        212.832         99.929
         7232.0        164.919        116.808
         7232.5        134.494        121.480
         7233.0        117.303        112.023
         7233.5        127.297        105.676
         7234.0        156.022         99.369
         7234.5        170.878         95.736
         7235.0        173.004        117.562
         7235.5        148.169        139.802
         7236.0        102.245        144.867
         7236.5         68.771        159.951
         7237.0         65.497        156.249
