###############################################
##         ENVERUS                           ##
##         ESS - Open Hole                   ##
##         PERMIAN / DELAWARE                ##
##         Nov 02 2023  V4.0                 ##
##         42-109-31391-00-00                ##
###############################################
## Copyright 2017-2023  ENVERUS.  All Rights Reserved. 
## Confidential - Property of ENVERUS, use governed by terms and 
## conditions found within the existing Information Services Subscription Agreement 
## (as may be amended, the “ISSA”) between Customer and ENVERUS. 
## 
~VERSION INFORMATION
# MNEM.UNIT                               DATA : DESCRIPTION OF MNEMONIC
#-----.-----     ----------------------------- : -----------------------------
VERS.                                     2.00 : CWLS LOG ASCII STANDARD - VERSION 2.00
WRAP.                                       NO : MULTIPLE LINES PER DEPTH STEP
VEND.                                  ENVERUS : VENDOR
TYPE.                          ESS - OPEN HOLE : ENVERUS ESSENTIAL CURVES – ACCESSIBLE THROUGH ENVERUS PRISM(TM)
DOC.                                  31999167 : ENVERUS HEADER RAW DOCUMENT ID
#___________________________________________________________________________________________________ 
~WELL INFORMATION 
# BOC9FSWoKCUsCFcWObZ1iTDYvHtSUwfaSl9bEava01AYiR20s/sWwY1hBaxvFz+VJj0aOQNxXrzxY9t5EPBGbg== 
# MNEM.UNIT                                              DATA : DESCRIPTION OF MNEMONIC 
#-----.-----                    ----------------------------- : ----------------------------- 
CNTY.                                               CULBERSON : COUNTY 
STATE.                                                  TEXAS : STATE 
CNTRY.                                                    USA : COUNTRY 
API.                                             42-109-31391 : API (10 Digit) 
API_14.                                    42-109-31391-00-00 : API (14 Digits) 
API_14_std.                                 42-109-31391-0000 : API (14 Digits Standard) 
UWI.                                           42109313910000 : UNIQUE WELL ID 
WELL.                                            TRES ALAS  1 : WELL NAME
STRT.FT                                                     0 : START DEPTH
STOP.FT                                               15494.0 : STOP DEPTH
STEP.FT                                                   0.5 : STEP BETWEEN DEPTHS
NULL.                                                 -999.25 : NULL VALUE
COMP.                           AMERICAN QUASAR PETROLEUM CO. : COMPANY
#___________________________________________________________________________________________________ 
~CURVE INFORMATION 
# MNEM.UNIT           : CURVE DESCRIPTION 
#-----.-----          : ----------------------------- 
 DEPT.FT               : MEASURED DEPTH 
 CALI.IN               : CALIPER (CAL - CAL) 
 GR.API                : GAMMA RAY (GR) 
 DT.US/FT              : SONIC DELTA TRANSIT TIME (DT) 
 #___________________________________________________________________________________________________ 
~A         DEPT           CALI             GR             DT
# ...
         2442.0       -999.250         10.643       -999.250
         2442.5       -999.250         11.023       -999.250
         2443.0       -999.250         10.405       -999.250
         2443.5       -999.250          9.787       -999.250
         2444.0       -999.250          9.169       -999.250
         2444.5       -999.250          8.552       -999.250
         2445.0       -999.250          7.934       -999.250
         2445.5       -999.250          7.316       -999.250
         2446.0       -999.250          7.966       -999.250
         2446.5       -999.250          8.730       -999.250
         2447.0       -999.250          9.494       -999.250
         2447.5       -999.250         10.259       -999.250
         2448.0       -999.250         11.023       -999.250
         2448.5       -999.250         11.071       -999.250
         2449.0       -999.250         10.393       -999.250
         2449.5       -999.250          9.714       -999.250
         2450.0       -999.250          9.035       -999.250
         2450.5       -999.250          9.986       -999.250
         2451.0       -999.250         11.443       -999.250
         2451.5       -999.250         12.901       -999.250
         2452.0       -999.250         14.358       -999.250
         2452.5       -999.250         15.816       -999.250
         2453.0       -999.250         17.274       -999.250
         2453.5       -999.250         18.139       -999.250
         2454.0       -999.250         17.804       -999.250
         2454.5       -999.250         17.469       -999.250
         2455.0       -999.250         18.604       -999.250
         2455.5       -999.250         20.640       -999.250
         2456.0       -999.250         22.675       -999.250
         2456.5       -999.250         24.710       -999.250
         2457.0       -999.250         26.745       -999.250
         2457.5       -999.250         24.710       -999.250
         2458.0       -999.250       -999.250       -999.250
         2458.5       -999.250       -999.250       -999.250
         2459.0       -999.250       -999.250       -999.250
         2459.5       -999.250       -999.250       -999.250
         2460.0       -999.250       -999.250       -999.250
         2460.5       -999.250       -999.250       -999.250
         2461.0       -999.250       -999.250       -999.250
         2461.5       -999.250       -999.250       -999.250
         2462.0       -999.250       -999.250       -999.250
         2462.5         12.548         37.877         57.826
         2463.0         12.553         37.917         57.266
         2463.5         12.557         37.957         56.592
         2464.0         12.562         37.809         56.378
         2464.5         12.568         36.973         56.164
         2465.0         12.575         35.147         55.951
         2465.5         12.581         32.441         55.737
         2466.0         12.588         28.883         56.594
         2466.5         12.594         25.324         56.560
         2467.0         12.589         25.782         56.527
         2467.5         12.584         27.490         56.493
         2468.0         12.580         29.416         56.365
         2468.5         12.575         31.341         55.975
         2469.0         12.571         33.267         55.586
         2469.5         12.566         35.193         55.247
         2470.0         12.561         37.119         55.569
         2470.5         12.557         38.114         55.549
         2471.0         12.552         38.061         55.530
         2471.5         12.556         34.814         55.511
         2472.0         12.559         31.150         55.491
         2472.5         12.562         31.503         55.539
         2473.0         12.565         34.736         55.719
         2473.5         12.569         37.752         56.127
         2474.0         12.572         37.276         56.535
         2474.5         12.571         36.800         55.384
         2475.0         12.570         37.377         54.737
         2475.5         12.569         40.507         56.610
         2476.0         12.568         43.637         60.366
         2476.5         12.567         46.391         66.732
         2477.0         12.566         45.951         68.002
         2477.5         12.614         45.510         69.523
         2478.0         12.722         48.314         72.864
         2478.5         12.830         55.702         76.205
         2479.0         12.892         63.732         79.546
         2479.5         12.887         71.872         80.241
         2480.0         12.883         72.972         75.668
         2480.5         12.878         64.206         68.370
         2481.0         12.874         55.440         67.656
         2481.5         12.869         50.084         67.959
         2482.0         12.864         49.785         68.971
         2482.5         12.860         78.476         72.281
         2483.0         12.855         94.805         75.444
         2483.5         12.851        105.323         75.144
         2484.0         12.846        102.822         72.581
         2484.5         12.841         78.340         68.650
         2485.0         12.837         61.069         66.920
         2485.5         12.832         55.751         66.618
         2486.0         12.840         52.567         67.013
         2486.5         12.853         52.805         67.773
         2487.0         12.878         53.194         68.081
         2487.5         12.910         52.900         68.388
         2488.0         12.942         52.651         69.215
         2488.5         12.974         53.912         70.126
         2489.0         13.006         58.833         70.535
         2489.5         13.038         63.281         70.943
         2490.0         13.070         65.904         71.092
         2490.5         13.102         64.219         71.054
         2491.0         13.144         61.942         71.015
         2491.5         13.172         59.665         71.028
         2492.0         13.199         59.501         71.255
         2492.5         13.226         59.052         71.482
         2493.0         13.253         56.801         71.498
         2493.5         13.279         54.550         71.449
         2494.0         13.306         52.300         71.358
         2494.5         13.333         50.049         70.982
         2495.0         13.359         50.366         70.606
         2495.5         13.386         50.820         70.229
         2496.0         13.407         50.950         70.400
         2496.5         13.402         49.897         70.611
         2497.0         13.397         49.140         70.901
         2497.5         13.393         49.318         71.201
         2498.0         13.388         48.785         71.501
         2498.5         13.383         47.239         71.801
         2499.0         13.378         47.553         72.100
         2499.5         13.373         48.416         72.139
         2500.0         13.369         49.280         72.146
         2500.5         13.356         49.258         72.153
         2501.0         13.339         49.181         72.160
         2501.5         13.322         49.104         72.274
         2502.0         13.305         52.315         72.405
         2502.5         13.288         54.771         72.537
         2503.0         13.272         53.652         72.600
         2503.5         13.269         52.534         72.510
         2504.0         13.266         51.415         72.420
         2504.5         13.263         53.060         72.473
         2505.0         13.260         55.798         72.640
         2505.5         13.257         58.505         72.807
         2506.0         13.254         61.069         72.974
         2506.5         13.251         63.633         73.197
         2507.0         13.248         70.440         73.901
         2507.5         13.245         80.134         74.606
