###############################################
##         ENVERUS                           ##
##         ESS - Open Hole                   ##
##         PERMIAN / DELAWARE                ##
##         Nov 03 2023  V4.0                 ##
##         42-109-32620-90-00                ##
###############################################
## Copyright 2017-2023  ENVERUS.  All Rights Reserved. 
## Confidential - Property of ENVERUS, use governed by terms and 
## conditions found within the existing Information Services Subscription Agreement 
## (as may be amended, the “ISSA”) between Customer and ENVERUS. 
## 
~VERSION INFORMATION
# MNEM.UNIT                               DATA : DESCRIPTION OF MNEMONIC
#-----.-----     ----------------------------- : -----------------------------
VERS.                                     2.00 : CWLS LOG ASCII STANDARD - VERSION 2.00
WRAP.                                       NO : MULTIPLE LINES PER DEPTH STEP
VEND.                                  ENVERUS : VENDOR
TYPE.                          ESS - OPEN HOLE : ENVERUS ESSENTIAL CURVES – ACCESSIBLE THROUGH ENVERUS PRISM(TM)
DOC.                                  51092952 : ENVERUS HEADER RAW DOCUMENT ID
#___________________________________________________________________________________________________ 
~WELL INFORMATION 
# LYPeWtxrle9FodilXqet+3VuPRh8A73lGXm1Q3+VPjdIM+tEhu367IfA47DlYFnVF+yDwY76OrXOyADpoj01xA== 
# MNEM.UNIT                                              DATA : DESCRIPTION OF MNEMONIC 
#-----.-----                    ----------------------------- : ----------------------------- 
CNTY.                                               CULBERSON : COUNTY 
STATE.                                                  TEXAS : STATE 
CNTRY.                                                    USA : COUNTRY 
API.                                             42-109-32620 : API (10 Digit) 
API_14.                                    42-109-32620-90-00 : API (14 Digits) 
API_14_std.                                 42-109-32620-9000 : API (14 Digits Standard) 
UWI.                                           42109326209000 : UNIQUE WELL ID 
WELL.                               42109326200000_PREV_API14 : WELL NAME
STRT.FT                                                2339.0 : START DEPTH
STOP.FT                                               10866.0 : STOP DEPTH
STEP.FT                                                   0.5 : STEP BETWEEN DEPTHS
NULL.                                                 -999.25 : NULL VALUE
PREV_APII.                                     42109326200000 : WELL IDENTIFIER
#___________________________________________________________________________________________________ 
~PARAMETER INFORMATION 
# MNEM.UNIT                                              DATA : DESCRIPTION OF MNEMONIC 
#-----.-----                    ----------------------------- : ----------------------------- 
EKB.FT                                                   3330 : ELEVATION ABOVE MSL
#___________________________________________________________________________________________________ 
~CURVE INFORMATION 
# MNEM.UNIT           : CURVE DESCRIPTION 
#-----.-----          : ----------------------------- 
 DEPT.FT               : MEASURED DEPTH 
 GR__A.API             : GAMMA RAY (GAMMA RAY) 
 DT__A.US/FT           : SONIC DELTA TRANSIT TIME (SONIC) 
 #___________________________________________________________________________________________________ 
~A         DEPT          GR__A          DT__A
# ...
        10778.0        168.556         91.628
        10778.5        125.307        116.985
        10779.0        110.676        117.991
        10779.5        132.074        101.150
        10780.0        179.584         65.595
        10780.5        219.496         66.600
        10781.0        225.509         68.182
        10781.5        223.491         70.082
        10782.0        219.779         84.900
        10782.5        176.690        113.378
        10783.0        114.745        140.511
        10783.5         72.921        160.325
        10784.0         58.110        162.410
        10784.5         64.733        153.720
        10785.0         95.810        146.703
        10785.5        143.325        123.202
        10786.0        176.641        106.789
        10786.5        187.053         92.796
        10787.0        187.931         88.111
        10787.5        198.967         86.589
        10788.0        212.775         78.058
        10788.5        209.286         75.788
        10789.0        194.424         80.432
        10789.5        193.558         76.907
        10790.0        200.839         80.812
        10790.5        199.455         77.491
        10791.0        191.706         78.432
        10791.5        181.193         88.542
        10792.0        173.529         90.672
        10792.5        170.459         92.367
        10793.0        173.089         93.062
        10793.5        177.442         90.611
        10794.0        173.796         96.927
        10794.5        168.506         96.411
        10795.0        184.316         97.035
        10795.5        196.578         94.742
        10796.0        206.740         91.336
        10796.5        203.698         81.803
        10797.0        186.985         87.559
        10797.5        179.543         91.694
        10798.0        176.850         91.675
        10798.5        176.048         92.697
        10799.0        177.471         93.537
        10799.5        192.504         81.009
        10800.0        214.428         72.002
        10800.5        227.040         64.914
        10801.0        236.727         61.928
        10801.5        214.097         60.954
        10802.0        185.672         74.310
        10802.5        126.994        146.779
        10803.0         94.558        150.762
        10803.5         76.795        151.375
        10804.0         76.238        156.463
        10804.5        115.313        155.948
        10805.0        141.781        139.618
        10805.5        126.697        136.021
        10806.0        106.543        137.766
        10806.5         88.299        141.850
        10807.0        113.697        151.927
        10807.5        179.023        100.913
        10808.0        212.976         87.684
        10808.5        229.205         86.095
        10809.0        224.650         81.673
        10809.5        216.912         72.508
        10810.0        216.098         80.132
        10810.5        225.876         75.722
        10811.0        238.716         73.220
        10811.5        241.392         73.420
        10812.0        206.429         69.436
        10812.5        169.652         83.377
        10813.0        166.008        112.301
        10813.5        197.072        112.738
        10814.0        210.801        112.784
        10814.5        221.887        103.241
        10815.0        211.119         81.314
        10815.5        194.897         87.851
        10816.0        194.808         82.248
        10816.5        214.650         81.865
        10817.0        219.204         84.548
        10817.5        219.497         86.962
        10818.0        216.993         80.723
        10818.5        210.943         90.471
        10819.0        204.794         90.873
        10819.5        206.277         90.395
        10820.0        210.905         88.177
        10820.5       -999.250         81.700
        10821.0       -999.250         77.503
        10821.5       -999.250         80.724
        10822.0       -999.250         84.586
        10822.5       -999.250        102.879
        10823.0       -999.250        136.515
        10823.5       -999.250        151.953
        10824.0       -999.250        152.257
        10824.5       -999.250        152.257
        10825.0       -999.250        137.895
        10825.5       -999.250         85.237
        10826.0       -999.250         75.126
        10826.5       -999.250         84.903
        10827.0       -999.250         88.308
        10827.5       -999.250        104.724
        10828.0       -999.250        132.918
        10828.5       -999.250        147.903
        10829.0       -999.250        135.820
        10829.5       -999.250        119.538
        10830.0       -999.250        102.196
        10830.5       -999.250         72.526
        10831.0       -999.250         81.833
        10831.5       -999.250         92.753
        10832.0       -999.250        103.511
        10832.5       -999.250        113.356
        10833.0       -999.250        111.157
        10833.5       -999.250        124.419
        10834.0       -999.250        105.718
        10834.5       -999.250         96.423
        10835.0       -999.250         90.683
        10835.5       -999.250         78.404
        10836.0       -999.250         78.191
        10836.5       -999.250         71.002
        10837.0       -999.250         75.421
        10837.5       -999.250         78.999
        10838.0       -999.250         83.627
        10838.5       -999.250         90.972
        10839.0       -999.250         78.808
        10839.5       -999.250         70.691
        10840.0       -999.250         69.527
        10840.5       -999.250         72.508
        10841.0       -999.250         80.736
        10841.5       -999.250         85.422
        10842.0       -999.250         86.703
        10842.5       -999.250         88.454
        10843.0       -999.250         88.867
        10843.5       -999.250         90.081
        10844.0       -999.250         88.845
        10844.5       -999.250         88.232
        10845.0       -999.250         87.864
        10845.5       -999.250         87.746
        10846.0       -999.250         91.405
        10846.5       -999.250         98.746
        10847.0       -999.250        117.091
        10847.5       -999.250        138.653
        10848.0       -999.250        127.132
        10848.5       -999.250         79.474
        10849.0       -999.250         99.755
        10849.5       -999.250        114.593
        10850.0       -999.250         88.535
        10850.5       -999.250         73.190
        10851.0       -999.250         68.275
        10851.5       -999.250         63.024
        10852.0       -999.250         68.207
        10852.5       -999.250         66.980
        10853.0       -999.250         71.713
        10853.5       -999.250         75.675
        10854.0       -999.250         83.739
        10854.5       -999.250         86.148
        10855.0       -999.250         84.955
        10855.5       -999.250         90.259
        10856.0       -999.250         87.597
        10856.5       -999.250         85.757
        10857.0       -999.250         84.283
        10857.5       -999.250         89.065
        10858.0       -999.250         94.216
        10858.5       -999.250         91.726
        10859.0       -999.250         86.672
        10859.5       -999.250         76.333
        10860.0       -999.250         67.024
        10860.5       -999.250         66.199
        10861.0       -999.250         65.397
        10861.5       -999.250         67.886
        10862.0       -999.250         82.090
        10862.5       -999.250        103.456
        10863.0       -999.250        140.976
        10863.5       -999.250        143.977
        10864.0       -999.250        140.956
        10864.5       -999.250        132.571
