###############################################
##         ENVERUS                           ##
##         ESS - Open Hole                   ##
##         PERMIAN / DELAWARE                ##
##         Nov 02 2023  V4.0                 ##
##         42-109-10071-00-00                ##
###############################################
## Copyright 2017-2023  ENVERUS.  All Rights Reserved. 
## Confidential - Property of ENVERUS, use governed by terms and 
## conditions found within the existing Information Services Subscription Agreement 
## (as may be amended, the “ISSA”) between Customer and ENVERUS. 
## 
~VERSION INFORMATION
# MNEM.UNIT                               DATA : DESCRIPTION OF MNEMONIC
#-----.-----     ----------------------------- : -----------------------------
VERS.                                     2.00 : CWLS LOG ASCII STANDARD - VERSION 2.00
WRAP.                                       NO : MULTIPLE LINES PER DEPTH STEP
VEND.                                  ENVERUS : VENDOR
TYPE.                          ESS - OPEN HOLE : ENVERUS ESSENTIAL CURVES – ACCESSIBLE THROUGH ENVERUS PRISM(TM)
DOC.                                  31950413 : ENVERUS HEADER RAW DOCUMENT ID
#___________________________________________________________________________________________________ 
~WELL INFORMATION 
# OfUh2+mdeFjroaXzMJDg/lRWUsinBwpBr+LWp9Jgnw936lSgPWOOCrYxw0Bz1A8ekYSC2IJg55FhS+cGr4hs3w== 
# MNEM.UNIT                                              DATA : DESCRIPTION OF MNEMONIC 
#-----.-----                    ----------------------------- : ----------------------------- 
CNTY.                                               CULBERSON : COUNTY 
STATE.                                                  TEXAS : STATE 
CNTRY.                                                    USA : COUNTRY 
API.                                             42-109-10071 : API (10 Digit) 
API_14.                                    42-109-10071-00-00 : API (14 Digits) 
API_14_std.                                 42-109-10071-0000 : API (14 Digits Standard) 
UWI.                                           42109100710000 : UNIQUE WELL ID 
WELL.                                                  DRD_55 : WELL NAME
STRT.FT                                                 320.5 : START DEPTH
STOP.FT                                               12359.5 : STOP DEPTH
STEP.FT                                                   0.5 : STEP BETWEEN DEPTHS
NULL.                                                 -999.25 : NULL VALUE
#___________________________________________________________________________________________________ 
~PARAMETER INFORMATION 
# MNEM.UNIT                                              DATA : DESCRIPTION OF MNEMONIC 
#-----.-----                    ----------------------------- : -----------------------------
#___________________________________________________________________________________________________ 
~CURVE INFORMATION 
# MNEM.UNIT           : CURVE DESCRIPTION 
#-----.-----          : ----------------------------- 
 DEPT.FT               : MEASURED DEPTH 
 GR.API                : GAMMA RAY (GAMMA RAY) 
 DT.US/FT              : SONIC DELTA TRANSIT TIME (SONIC) 
 #___________________________________________________________________________________________________ 
~A         DEPT             GR             DT
# ...
         3539.5         80.147         64.517
         3540.0         87.532         64.536
         3540.5         90.497         63.320
         3541.0         90.679         63.443
         3541.5         89.806         64.277
         3542.0         89.290         64.723
         3542.5         85.893         63.642
         3543.0         76.544         62.701
         3543.5         67.196         62.580
         3544.0         57.848         64.493
         3544.5         59.308         63.796
         3545.0         60.020         63.525
         3545.5         59.359         63.621
         3546.0         57.720         65.094
         3546.5         58.590         65.193
         3547.0         64.611         64.300
         3547.5         71.577         63.999
         3548.0         71.253         63.986
         3548.5         65.409         63.754
         3549.0         61.737         63.420
         3549.5         63.676         63.343
         3550.0         81.521         65.081
         3550.5         93.466         68.699
         3551.0        106.568         72.852
         3551.5        153.756         74.664
         3552.0        161.717         74.292
         3552.5        160.102         72.215
         3553.0        130.053         69.585
         3553.5         98.827         66.848
         3554.0         67.601         62.208
         3554.5         52.427         59.973
         3555.0         51.954         59.888
         3555.5         58.759         62.122
         3556.0         66.500         63.657
         3556.5         70.038         62.870
         3557.0         74.726         61.449
         3557.5         73.623         60.028
         3558.0         67.029         58.606
         3558.5         62.762         57.264
         3559.0         62.513         56.896
         3559.5         66.585         58.321
         3560.0         72.773         61.085
         3560.5         73.935         61.927
         3561.0         71.852         62.728
         3561.5         68.993         62.436
         3562.0         70.128         62.563
         3562.5         76.481         63.143
         3563.0         83.875         63.846
         3563.5         90.687         64.123
         3564.0         99.951         64.468
         3564.5        113.967         64.523
         3565.0        125.236         63.092
         3565.5        137.459         64.915
         3566.0        144.662         64.551
         3566.5        146.014         62.265
         3567.0        130.964         61.633
         3567.5        109.185         60.998
         3568.0         87.406         60.944
         3568.5         76.485         61.723
         3569.0         85.215         61.273
         3569.5         96.735         61.787
         3570.0        108.281         62.942
         3570.5        110.121         63.751
         3571.0        103.619         63.140
         3571.5        102.860         62.352
         3572.0         97.433         63.029
         3572.5         91.427         63.553
         3573.0         91.565         63.041
         3573.5         96.910         63.841
         3574.0        103.675         64.263
         3574.5        119.021         64.830
         3575.0        129.105         63.664
         3575.5        122.418         62.626
         3576.0        111.604         64.131
         3576.5        106.353         64.366
         3577.0        110.168         63.547
         3577.5        115.872         63.091
         3578.0        119.338         63.883
         3578.5        117.815         63.771
         3579.0         92.934         62.558
         3579.5         89.752         61.649
         3580.0         81.904         61.591
         3580.5         81.169         62.831
         3581.0         81.807         62.807
         3581.5         77.687         61.790
         3582.0         70.980         62.177
         3582.5         63.602         63.620
         3583.0         63.227         63.638
         3583.5         72.654         63.597
         3584.0         78.238         65.252
         3584.5         83.700         73.221
         3585.0         81.303         65.211
         3585.5         65.619         64.031
         3586.0         52.766         62.124
         3586.5         47.407         60.319
         3587.0         43.582         58.514
         3587.5         41.206         56.710
         3588.0         38.433         55.113
         3588.5         37.902         55.478
         3589.0         40.700         56.262
         3589.5         45.928         57.878
         3590.0         48.585         59.823
         3590.5         54.567         61.768
         3591.0         56.296         63.713
         3591.5         56.136         64.167
         3592.0         56.789         66.104
         3592.5         59.987         66.972
         3593.0         65.843         67.734
         3593.5         69.720         66.746
         3594.0         71.924         64.219
         3594.5         71.678         65.541
         3595.0         68.534         64.971
         3595.5         66.861         63.977
         3596.0         60.396         64.019
         3596.5         56.678         65.111
         3597.0         55.157         64.482
         3597.5         55.507         64.797
         3598.0         56.099         65.366
         3598.5         57.035         65.447
         3599.0         57.656         65.761
         3599.5         62.177         66.294
         3600.0         67.578         67.273
         3600.5         75.256         66.767
         3601.0         82.935         66.149
         3601.5         90.310         65.970
         3602.0         85.044         65.981
         3602.5         74.252         64.546
         3603.0         65.525         63.078
         3603.5         66.724         63.097
         3604.0         77.737         63.341
         3604.5         91.364         63.466
         3605.0        104.990         63.330
         3605.5        113.136         62.829
         3606.0        107.618         65.344
         3606.5         87.790         65.566
         3607.0         75.601         63.273
         3607.5         64.193         63.834
         3608.0         53.037         63.414
         3608.5         46.818         62.240
         3609.0         44.948         63.078
         3609.5         47.322         61.652
         3610.0         57.509         61.775
         3610.5         68.312         62.827
         3611.0         79.150         63.370
         3611.5         84.000         64.586
         3612.0         81.615         63.671
         3612.5         79.462         64.856
         3613.0         78.431         70.809
         3613.5         75.040         64.629
         3614.0         69.336         64.549
         3614.5         67.165         65.037
         3615.0         66.252         65.324
         3615.5         66.939         65.135
         3616.0         76.519         65.072
         3616.5         77.472         65.681
         3617.0         76.208         65.463
         3617.5         74.002         64.835
         3618.0         73.107         64.405
         3618.5         74.234         65.173
         3619.0         79.561         65.942
         3619.5         82.537         66.711
         3620.0         83.781         67.288
         3620.5         83.381         67.350
         3621.0         82.789         67.188
         3621.5         81.593         66.837
         3622.0         78.347         66.303
         3622.5         72.695         65.786
         3623.0         67.047         65.896
         3623.5         59.719         66.234
         3624.0         56.376         67.196
         3624.5         54.504         67.818
         3625.0         56.174         68.585
         3625.5         59.775         69.194
         3626.0         65.274         69.713
