###############################################
##         ENVERUS                           ##
##         ESS - Open Hole                   ##
##         PERMIAN / DELAWARE                ##
##         Nov 03 2023  V4.0                 ##
##         42-109-32978-00-00                ##
###############################################
## Copyright 2017-2023  ENVERUS.  All Rights Reserved. 
## Confidential - Property of ENVERUS, use governed by terms and 
## conditions found within the existing Information Services Subscription Agreement 
## (as may be amended, the “ISSA”) between Customer and ENVERUS. 
## 
~VERSION INFORMATION
# MNEM.UNIT                               DATA : DESCRIPTION OF MNEMONIC
#-----.-----     ----------------------------- : -----------------------------
VERS.                                     2.00 : CWLS LOG ASCII STANDARD - VERSION 2.00
WRAP.                                       NO : MULTIPLE LINES PER DEPTH STEP
VEND.                                  ENVERUS : VENDOR
TYPE.                          ESS - OPEN HOLE : ENVERUS ESSENTIAL CURVES – ACCESSIBLE THROUGH ENVERUS PRISM(TM)
DOC.                                  43644371 : ENVERUS HEADER RAW DOCUMENT ID
#___________________________________________________________________________________________________ 
~WELL INFORMATION 
# sF+t5dzO8TjfhJXm5BhYJSGKqyGjnVcKAr1GJS+XHP+EILfiOmlFF7qBSMjafOrEHsreRpz+nmfYFwcq0MlVOA== 
# MNEM.UNIT                                              DATA : DESCRIPTION OF MNEMONIC 
#-----.-----                    ----------------------------- : ----------------------------- 
CNTY.                                               CULBERSON : COUNTY 
STATE.                                                  TEXAS : STATE 
CNTRY.                                                    USA : COUNTRY 
API.                                             42-109-32978 : API (10 Digit) 
API_14.                                    42-109-32978-00-00 : API (14 Digits) 
API_14_std.                                 42-109-32978-0000 : API (14 Digits Standard) 
UWI.                                           42109329780000 : UNIQUE WELL ID 
WELL.                                    42109329780000_API14 : WELL NAME
STRT.FT                                                 179.0 : START DEPTH
STOP.FT                                                9893.5 : STOP DEPTH
STEP.FT                                                   0.5 : STEP BETWEEN DEPTHS
NULL.                                                 -999.25 : NULL VALUE
#___________________________________________________________________________________________________ 
~PARAMETER INFORMATION 
# MNEM.UNIT                                              DATA : DESCRIPTION OF MNEMONIC 
#-----.-----                    ----------------------------- : ----------------------------- 
EKB.FT                                                   3282 : ELEVATION ABOVE MSL
#___________________________________________________________________________________________________ 
~CURVE INFORMATION 
# MNEM.UNIT           : CURVE DESCRIPTION 
#-----.-----          : ----------------------------- 
 DEPT.FT               : MEASURED DEPTH 
 GR.API                : GAMMA RAY (GAMMA RAY) 
 DT.US/FT              : SONIC DELTA TRANSIT TIME (SONIC) 
 #___________________________________________________________________________________________________ 
~A         DEPT             GR             DT
# ...
         1484.0          9.192        281.337
         1484.5          9.628        281.337
         1485.0         10.446        281.337
         1485.5         10.446        281.337
         1486.0         10.798        281.337
         1486.5         11.884        281.337
         1487.0         13.388        281.337
         1487.5         14.257        281.337
         1488.0         12.433        281.337
         1488.5         10.929        281.337
         1489.0         10.028        281.337
         1489.5         10.046        281.337
         1490.0         11.132        281.337
         1490.5         11.699        281.337
         1491.0         11.699        281.337
         1491.5         11.699        281.337
         1492.0         11.263        281.337
         1492.5         10.177        281.337
         1493.0          9.712        281.337
         1493.5         10.446        281.337
         1494.0         11.467        281.337
         1494.5         12.535        281.337
         1495.0         13.640        280.780
         1495.5         15.042        280.780
         1496.0         15.107        280.780
         1496.5         13.603        280.780
         1497.0         12.099        280.780
         1497.5         10.594        280.780
         1498.0         10.130        280.780
         1498.5         11.811        280.780
         1499.0         13.371        280.780
         1499.5         12.934        280.780
         1500.0         11.699        279.666
         1500.5         12.949        279.666
         1501.0         15.395        279.666
         1501.5         15.274        279.666
         1502.0         13.352        280.223
         1502.5         11.086        280.223
         1503.0         10.548        280.223
         1503.5         10.928        280.223
         1504.0         10.864        280.223
         1504.5         10.864        280.223
         1505.0         10.864        280.223
         1505.5         10.966        280.223
         1506.0         11.281        280.223
         1506.5         11.281        280.223
         1507.0         11.281        280.223
         1507.5         12.387        280.223
         1508.0         13.473        280.223
         1508.5         13.435        280.223
         1509.0         12.535        280.223
         1509.5         12.117        280.223
         1510.0         11.011        280.780
         1510.5         10.028        280.780
         1511.0         10.028        280.780
         1511.5         10.633        280.780
         1512.0         11.699        280.780
         1512.5         11.699        280.780
         1513.0         10.342        280.780
         1513.5          8.838        280.780
         1514.0          8.544        280.780
         1514.5         10.923        280.780
         1515.0         13.578        280.780
         1515.5         12.849        280.780
         1516.0         11.168        280.780
         1516.5          9.797        280.780
         1517.0         11.301        281.921
         1517.5         12.388        283.566
         1518.0         11.595        283.566
         1518.5         10.091        283.008
         1519.0          9.005        283.008
         1519.5          9.213        283.008
         1520.0         10.028        283.370
         1520.5         10.446        282.870
         1521.0         10.864        280.864
         1521.5         10.676        280.223
         1522.0         10.446        279.666
         1522.5         10.446        279.666
         1523.0         10.968        279.666
         1523.5         12.117        279.717
         1524.0         11.699        279.666
         1524.5         10.425        279.666
         1525.0          9.192        279.666
         1525.5          9.610        279.666
         1526.0         10.383        279.666
         1526.5         11.469        281.031
         1527.0         11.678        283.036
         1527.5         10.174        283.566
         1528.0          9.088        283.008
         1528.5          9.130        283.008
         1529.0         10.446        283.008
         1529.5         10.885        284.123
         1530.0         11.281        284.123
         1530.5         11.281        282.520
         1531.0         10.864        281.337
         1531.5         10.446        281.337
         1532.0         10.885        281.337
         1532.5         12.389        281.337
         1533.0         12.430        281.337
         1533.5         11.281        281.337
         1534.0          9.536        281.337
         1534.5          8.796        281.337
         1535.0          9.192        281.337
         1535.5          9.715        281.337
         1536.0         10.802        281.337
         1536.5         11.982        281.337
         1537.0         13.788        281.337
         1537.5         13.098        281.337
         1538.0         11.018        281.337
         1538.5          9.192        281.337
         1539.0         10.217        281.337
         1539.5         11.699        281.337
         1540.0         11.844        281.337
         1540.5         10.758        281.337
         1541.0         10.028        281.337
         1541.5         10.028        281.337
         1542.0         10.050        281.337
         1542.5         11.136        281.337
         1543.0         11.699        281.337
         1543.5         12.117        281.337
         1544.0         12.117        281.337
         1544.5         12.953        281.337
         1545.0         12.953        281.337
         1545.5         12.011        281.337
         1546.0         11.699        281.337
         1546.5         12.724        281.337
         1547.0         13.371        281.337
         1547.5         13.097        281.337
         1548.0         12.535        281.337
         1548.5         11.760        281.337
         1549.0         10.446        281.337
         1549.5         10.468        281.337
         1550.0         11.973        281.337
         1550.5         12.846        281.337
         1551.0         11.760        281.337
         1551.5         11.281        281.337
         1552.0         12.140        281.337
         1552.5         13.371        281.337
         1553.0         12.846        281.337
         1553.5         11.342        281.337
         1554.0         10.446        281.337
         1554.5         10.028        281.337
         1555.0          8.919        281.337
         1555.5          8.774        281.337
         1556.0          9.550        281.337
         1556.5         10.218        281.337
         1557.0         10.005        281.337
         1557.5          8.918        281.337
         1558.0          7.939        281.337
         1558.5          7.521        281.337
         1559.0          8.129        281.337
         1559.5          9.610        281.337
         1560.0         10.720        281.337
         1560.5         12.802        281.337
         1561.0         15.400        281.337
         1561.5         16.522        281.337
         1562.0         15.204        281.337
         1562.5         12.195        281.337
         1563.0         10.339        281.337
         1563.5          9.968        281.337
         1564.0         11.150        281.337
         1564.5         13.627        281.337
         1565.0         15.460        281.337
         1565.5         15.352        281.337
         1566.0         14.266        281.337
         1566.5         13.371        281.337
         1567.0         12.929        281.337
         1567.5         11.425        281.337
         1568.0         10.028        281.337
         1568.5         10.386        281.337
         1569.0         12.308        281.337
         1569.5         12.511        281.337
         1570.0         11.281        281.337
         1570.5         11.807        282.595
