~VERSION INFORMATION
VERS.           1.2   :CWLS Log ASCII Standard - VERSION 1.2
WRAP.           NO    :One Line per depth step
PROD.  Schlumberger   :LAS Producer
PROG.  DLIS to ASCII 10C0-306                          :LAS Program name and version
CREA.        2007/06/08 22:43                          :LAS Creation date {YYYY/MM/DD hh:mm}
SOURCE.     294b92a6-1e54-4f75-8d20-4493e48002f1       :DLIS File Name
#--------------------------------------------------
~WELL INFORMATION
#MNEM.UNIT      DATA             DESCRIPTION
#---- ------ --------------   -----------------------------
STRT .F      4145.5000       :START DEPTH     
STOP .F      10380.0000      :STOP DEPTH     
STEP .F       0.5000         :STEP       
NULL .          -999.25      :NULL VALUE
COMP .                 COMPANY:  Chesapeake Operating Inc.          
WELL .                    WELL:  University Lands 4627-1            
FLD  .                   FIELD:  Wildcat                            
LOC  .                LOCATION:  1200' FNL & 1995; FEL              
CNTY .                  COUNTY:  Culberson                          
STAT .                   STATE:  Texas                              
CTRY .                 COUNTRY:                                     
SRVC .         SERVICE COMPANY:  Schlumberger                       
API  .              API NUMBER:  42-109-32287                       
DATE .                LOG DATE:  7-Jun-2007
UWI  .          UNIQUE WELL ID:  42-109-32287-0000                  
#-----------------------------------------------------------------------------
~PARAMETER INFORMATION
#MNEM.UNIT    VALUE                      DESCRIPTION
#---- -----   --------------------       ------------------------
CN   .        Chesapeake Operating Inc.  :Company Name
WN   .        University Lands 4627-1    :Well Name
FN   .        Wildcat                    :Field Name
FL   .        1200' FNL & 1995  FEL      :Field Location
FL1  .        Secion  27  Block  46  Abstract  2860 :Field Location Line 1
COUN .        Culberson                  :County or Rig Name
STAT .        Texas                      :State or Province
NATI .                                   :Nation
DATE .        7-Jun-2007                 :Date as Month-Day-Year
APIN .        42-109-32287               :API Serial Number
SECT .        27                         :Section
TOWN .        46                         :Township
RANG .        2860                       :Range
DMF  .        Kelly Bushing              :Drilling Measured From
LMF  .        Kelly Bushing              :Log Measured From
PDAT .        Ground Level               :Permanent Datum
ENGI .        Tarek Sheira               :Engineer's Name
WITN .        Wiley Tisdale /Jud Walker  :Witness's Name
LATI .                                   :Latitude
LONG .                                   :Longitude
LUL  .        Midland  TX                :Logging Unit Location
LUN  .              2365                 :Logging Unit Number
RUN  .        2                          :Run Number
SON  .        11592406                   :Service Order Number
BHT  .DEGF     185.00000                 :Bottom Hole Temperature (used in calculations)
BS   .IN         8.75000                 :Bit Size
DFD  .LB/G       8.60000                 :Drilling Fluid Density
DFV  .S         39.00000                 :Drilling Fluid Viscosity
DFL  .C3         8.00000                 :Drilling Fluid Loss
RMFS .OHMM       0.42100                 :Resistivity of Mud Filtrate Sample
EKB  .F       4323.00000                 :Elevation of Kelly Bushing
EGL  .F       4283.00000                 :Elevation of Ground Level
BLI  .F       10360.70020                :Bottom Log Interval
BSAL .PPM      500.00000                 :Borehole Salinity
FLEV .                                   :Fluid Level
MCST .                                   :Mud Cake Sample Temperature
MFST .DEGF      96.90000                 :Mud Filtrate Sample Temperature
MRT  .DEGF     185.00000                 :Maximum Recorded Temperature
MST  .DEGF      96.90000                 :Mud Sample Temperature
RMCS .                                   :Resistivity of Mud Cake Sample
RMS  .OHMM       0.42100                 :Resistivity of Mud Sample
RW   .OHMM       1.00000                 :Resistivity of Connate Water
TDD  .F       10350.00000                :Total Depth - Driller
TDL  .F       10362.00000                :Total Depth - Logger
TLI  .F       4200.00000                 :Top Log Interval
HIDE .        Formation Micro Imager     :Header Identifier
MATR .        LIME                       :Rock Matrix for Neutron Porosity Corrections
FNUM .           1.00000                 :Form Factor Numerator
FEXP .           2.00000                 :Form Factor Exponent
DFT  .        Fresh Mud                  :Drilling Fluid Type
DFPH .           9.00000                 :Drilling Fluid PH
MCSS .        Calculated                 :Mud Cake Sample Source
MFSS .        Calculated                 :Mud Filtrate Sample Source
MSS  .        Circulation Tank           :Mud Sample Source
OS1  .        TLD-APS-HNGS               :Other Services Line 1
OS2  .        HRLA-HNGS                  :Other Services Line 2
OS3  .        FMI-GR                     :Other Services Line 3
OS4  .        DSI-GR                     :Other Services Line 4
OS5  .        HNGS                       :Other Services Line 5
R1   .        -Tool ran as per tool sketch. :Remark Line 1
R2   .        -Hole size & standoff corrections applied to APS porosity. :Remark Line 2
R3   .        -Log performed on a limestone matrix (MDEN = 2.71 g/cc  DTM = 47.6 us/ft) :Remark Line 3
R4   .        -Hole & cement volumes computed using FCD = 7 . :Remark Line 4
R5   .        -Source of max. hole temperature is CTEM = 185 DegF. :Remark Line 5
R6   .        -Source of max. hole deviation is company man = 3 Deg. :Remark Line 6
R7   .        -Repeat performed off bottom for 300' as per client request. :Remark Line 7
R8   .        -Density measurment is affected by washouts. :Remark Line 8
TCS  .        9 00                       :Time Circulation Stopped
TLAB .        22 15                      :Time Logger At Bottom
EPD  .F         4283.000000              :Elevation of Permanent Datum above Mean Sea Level
APD  .F          40.000000               :Elevation of Depth Reference (LMF) above Permanent Datum
#-----------------------------------------------------------------------------
~CURVE INFORMATION
#MNEM.UNIT   API CODE                                  DESCRIPTION
#---- -----  --------                                  -----------------------
DEPT .F                                                :DEPTH (BOREHOLE) {F12.4}
C1   .IN                                               :Caliper 1 {F11.4}
C2   .IN                                               :Caliper 2 {F11.4}
CHRP .                                                 :Label Peak Coherence, Receiver Array, Compressional - Monopole P&S {F11.4}
CHR1 .                                                 :Label Peak Coherence, Receiver Array - Lower Dipole {F11.4}
CHR2 .                                                 :Label Peak Coherence, Receiver Array - Upper Dipole {F11.4}
DCAL .IN                                               :Differential Caliper {F11.4}
DEVI .DEG                                              :Hole Deviation {F11.4}
DT1R .US/F                                             :Delta-T Shear, Receiver Array - Lower Dipole {F11.4}
DT2  .US/F                                             :Delta-T Shear - Upper Dipole {F11.4}
DT2R .US/F                                             :Delta-T Shear, Receiver Array - Upper Dipole {F11.4}
DT4P .US/F                                             :Delta-T Compressional - Monopole P&S {F11.4}
DT4S .US/F                                             :Delta-T Shear - Monopole P&S {F11.4}
DTCO .US/F                                             :Delta-T Compressional {F11.4}
DTRP .US/F                                             :Delta-T Compressional, Receiver Array - Monopole P&S {F11.4}
DTRS .US/F                                             :Delta-T Shear, Receiver Array - Monopole P&S {F11.4}
DTSM .US/F                                             :Delta-T Shear {F11.4}
ED   .F                                                :East Departure {F11.4}
GR_EDTC.GAPI                                           :Gamma Ray {F11.4}
GTEM .DEGF                                             :Generalized Borehole Temperature {F11.4}
HAZI .DEG                                              :Hole Azimuth {F11.4}
ITT  .S                                                :Integrated Transit Time {F11.4}
ND   .F                                                :North Departure {F11.4}
P1AZ .DEG                                              :Pad 1 Azimuth {F11.4}
PR   .                                                 :Poisson's Ratio {F11.4}
RB   .DEG                                              :Relative Bearing {F11.4}
SDEV .DEG                                              :Sonde Deviation {F11.4}
SPHI .CFCF                                             :Sonic Porosity {F11.4}
STIT .F                                                :Stuck Tool Indicator, Total {F11.4}
TENS .LBF                                              :Cable Tension {F11.4}
#-----------------------------------------------------------------------------
# 
#      DEPT         C1         C2        CHRP       CHR1       CHR2       DCAL       DEVI       DT1R       DT2        DT2R       DT4P       DT4S       DTCO       DTRP       DTRS       DTSM        ED      GR_EDTC      GTEM       HAZI       ITT         ND        P1AZ        PR         RB        SDEV       SPHI       STIT       TENS
#
~A  
# ...
   6633.0000     9.2759     9.0056     0.5387     0.9222     0.9885     0.3897     3.3822   104.5056   117.4411   117.0063    62.3266   111.2908    62.3266    62.3266   111.2908   117.4411   186.0489    49.0595   152.9714   270.7393     0.2499    -5.5992    94.2241     0.3040   183.4788     3.3822     0.1041     0.0000  3453.0000
   6633.5000     9.2759     9.0056     0.7203     0.9202     0.9886     0.3897     3.3709    98.0417   115.1114   116.2861    58.3477   108.9580    58.3477    58.3477   108.9580   115.1114   186.0202    27.0344   152.9757   270.6730     0.2498    -5.5989    94.9546     0.3271   184.2742     3.3709     0.0760     0.0000  3396.0000
   6634.0000     9.3766     9.1405     0.5794     0.9155     0.9817     0.5078     3.3681   102.3364   115.3158   116.6654    62.7211   105.8947    62.7211    62.7211   105.8947   115.3158   185.9915    26.0051   152.9800   270.7366     0.2498    -5.5986    95.9122     0.2899   185.1666     3.3681     0.1069     0.0000  3357.0000
   6634.5000     9.2759     9.0056     0.4896     0.9181     0.9876     0.3897     3.3682   104.7516   116.5491   119.6314    59.8666   106.7136    59.8666    59.8666   106.7136   116.5491   185.9628    37.6161   152.9843   270.7405     0.2498    -5.5983    96.3445     0.3208   185.5943     3.3682     0.0868     0.0000  3331.0000
   6635.0000     9.2759     9.0056     0.5999     0.9665     0.9892     0.3897     3.3681   109.3784   116.9529   119.9879    63.0990   113.2770    63.0990    63.0990   113.2770   116.9529   185.9341    49.6841   152.9886   270.6546     0.2497    -5.5980    97.4039     0.2947   186.7376     3.3681     0.1096     0.0000  3389.0000
   6635.5000     9.3011     8.9904     0.5856     0.9740     0.9709     0.3944     3.3584   119.4047   122.1639   123.8059    72.7818   116.0462    72.7818    72.7818   116.0462   122.1639   185.9054    54.8854   152.9929   270.6300     0.2497    -5.5976    97.9891     0.2249   187.3465     3.3584     0.1781     0.0000  3364.0000
   6636.0000     9.4521     9.0056     0.6757     0.9650     0.9691     0.4762     3.3561   122.9786   123.9056   127.5634    70.0422   119.8878    70.0422    70.0422   119.8878   123.9056   185.8768    64.9180   152.9972   270.6505     0.2497    -5.5973    97.7304     0.2652   187.0677     3.3561     0.1587     0.0000  3407.0000
   6636.5000    10.1195     8.9167     0.4689     0.9420     0.9680     0.7491     3.3596   130.8918   124.2625   127.9995    71.6602   119.7460    71.6602    71.6602   119.7460   124.2625   185.8483    83.0237   153.0015   270.6846     0.2496    -5.5970   100.0960     0.2509   189.3955     3.3596     0.1702     0.0000  3338.0000
   6637.0000    10.1446     8.9933     0.5270     0.9452     0.9678     0.8016     3.3584   132.9743   128.5356   135.5492    74.9114   124.8836    74.9114    74.9114   124.8836   128.5356   185.8198   100.0145   153.0058   270.6722     0.2496    -5.5967   105.2261     0.2428   194.5299     3.3584     0.1931     0.0000  3313.0000
   6637.5000    10.1321     9.0056     0.5186     0.9530     0.9841     0.8022     3.3529   135.7429   129.8723   137.1340    76.8396   128.9936    76.8396    76.8396   128.9936   129.8723   185.7913   106.9438   153.0101   270.6171     0.2496    -5.5963   108.0660     0.2307   197.4209     3.3529     0.2068     0.0000  3465.0000
   6638.0000     9.6032     9.0056     0.4185     0.9528     0.9898     0.5496     3.3522   142.7894   130.6352   138.7665    80.8189   133.1037    80.8189    80.8189   133.1037   130.6352   185.7629   107.2457   153.0144   270.6619     0.2495    -5.5960   111.4614     0.1900   200.7672     3.3522     0.2349     0.0000  3456.0000
   6638.5000     9.3766     9.0056     0.4776     0.9297     0.9900     0.4392     3.3457   141.9498   128.9035   139.5086    79.7549   125.4621    79.7549    79.7549   125.4621   128.9035   185.7344   116.5717   153.0187   270.6121     0.2495    -5.5957   114.2153     0.1899   203.5675     3.3457     0.2274     0.0000  3407.0000
   6639.0000     9.9306     8.9075     0.5435     0.9331     0.9907     0.6552     3.3393   130.5253   126.4230   138.9044    75.1782   126.5884    75.1782    75.1782   126.5884   126.4230   185.7060   127.5234   153.0229   270.6157     0.2494    -5.5954   114.1366     0.2265   203.4852     3.3393     0.1950     0.0000  3324.0000
   6639.5000     9.9306     8.9075     0.4596     0.9803     0.9822     0.6552     3.3429   116.7060   129.4691   137.2674    73.9002   124.2969    73.9002    73.9002   124.2969   129.4691   185.6776   126.7013   153.0272   270.6071     0.2494    -5.5951   107.2840     0.2584   196.6501     3.3429     0.1860     0.0000  3298.0000
   6640.0000    10.1321     8.9596     0.6501     0.9854     0.9732     0.7778     3.3339   115.8940   133.3151   134.2166    72.6562   119.4320    72.6562    72.6562   119.4320   133.3151   185.6492   106.7797   153.0315   270.5970     0.2494    -5.5947   101.2620     0.2887   190.6473     3.3339     0.1772     0.0000  3404.0000
   6640.5000     9.6536     8.9811     0.5652     0.9892     0.9770     0.5613     3.3290   115.4887   129.7172   132.2948    66.4704   116.0576    66.4704    66.4704   116.0576   129.7172   185.6209    87.8593   153.0358   270.5978     0.2493    -5.5944    99.0123     0.3220   188.4004     3.3290     0.1335     0.0000  3431.0000
   6641.0000     9.7291     9.0056     0.6323     0.9861     0.9780     0.6104     3.3294   116.3540   128.0303   133.6635    64.3421   119.3165    64.3421    64.3421   119.3165   128.0303   185.5926    73.6425   153.0401   270.5950     0.2493    -5.5940    94.8112     0.3310   184.2090     3.3294     0.1184     0.0000  3300.0000
   6641.5000     9.7291     9.0792     0.5706     0.9830     0.9697     0.6485     3.3233   122.9814   132.2442   131.1631    68.3155   119.9106    68.3155    68.3155   119.9106   132.2442   185.5643    70.1947   153.0444   270.4952     0.2493    -5.5937    92.5178     0.3180   182.0191     3.3233     0.1465     0.0000  3401.0000
   6642.0000     9.6032     8.9904     0.5418     0.9703     0.9810     0.5418     3.3169   127.4567   133.7094   130.9496    71.4611   123.0397    71.4611    71.4611   123.0397   133.7094   185.5360    66.3836   153.0487   270.5942     0.2492    -5.5933    91.9998     0.3001   181.4032     3.3169     0.1687     0.0000  3423.0000
   6642.5000     9.4521     8.9904     0.5993     0.9641     0.9761     0.4684     3.3105   129.8366   128.9681   128.5656    66.7936   125.4151    66.7936    66.7936   125.4151   128.9681   185.5077    66.7304   153.0530   270.5353     0.2492    -5.5929    95.0814     0.3167   184.5384     3.3105     0.1357     0.0000  3334.0000
   6643.0000     9.4521     9.0056     0.3842     0.9594     0.9828     0.4762     3.3087   128.0794   126.3145   129.6794    65.4295   123.9636    65.4295    65.4295   123.9636   126.3145   185.4796    67.0772   153.0573   270.5609     0.2492    -5.5925    94.6799     0.3166   184.1124     3.3087     0.1261     0.0000  3256.0000
   6643.5000     9.4521     9.0056     0.5001     0.9732     0.9816     0.4762     3.3028   123.2684   126.6326   130.0897    64.4709   119.2085    64.4709    64.4709   119.2085   126.6326   185.4514    75.3530   153.0616   270.6090     0.2491    -5.5921    91.8539     0.3251   181.2428     3.3028     0.1193     0.0000  3378.0000
   6644.0000     9.5529     9.0085     0.0000     0.9744     0.9720     0.5267     3.3021   118.8975   127.4089   128.2196    67.3777   119.7760    67.3777    67.3777   119.7760   127.4089   185.4233    79.0164   153.0659   270.6152     0.2491    -5.5917    89.1450     0.3059   178.5323     3.3021     0.1399     0.0000  3415.0000
   6644.5000     9.8425     9.0056     0.0000     0.9864     0.9711     0.6647     3.3019   116.0380   121.6825   125.7074    69.1175   116.5134    69.1175    69.1175   116.5134   121.6825   185.3951    85.2356   153.0702   270.6207     0.2491    -5.5913    88.8754     0.2618   178.2576     3.3019     0.1522     0.0000  3300.0000
   6645.0000     9.9810     8.9963     0.4618     0.9922     0.9756     0.7258     3.2942   115.5865   117.4979   121.8730    70.8574   116.0181    70.8574    70.8574   116.0181   117.4979   185.3669    73.6848   153.0745   270.5745     0.2490    -5.5908    89.5070     0.2142   178.9341     3.2942     0.1645     0.0000  3302.0000
