# Exported from Transform Software 5.2.0 on 21-Oct-2019 by user kathryn.gehrke
# DI Transform - A Product of Drillinginfo, Inc. - www.drillinginfo.com
#
~VERSION INFORMATION
 VERS.        2.0 : LAS ASCII STANDARD - VERSION 2.0
 WRAP.         NO : ONE LINE PER DEPTH STEP

~WELL INFORMATION
#MNEM.UNIT       DATA TYPE       INFORMATION
#---------       ---------       -----------
 STRT.ft                  30 : Start Depth
 STOP.ft                9000 : Stop Depth
 STEP.ft                 0.5 : Step Length
 NULL.               -999.25 : Null Value
 COMP.                       : Company
 WELL.  42109330470000_API14 : Well Name
 FLD.                        : Field Name
 LOC.                        : Well Location
 CNTY.                       : County
 STAT.                       : State or Province
 CTRY.                       : Country
 SRVC.                       : Service Company
 DATE.                       : Date
 API.         42109330470000 : Well Identifier

~CURVE INFORMATION
#MNEM.UNIT       API CODE       CURVE DESCRIPTION
#---------       --------       -----------------
 DEPT.ft        : <Measured Depth>
 DT.us/ft       : Sonic
 GR.gAPI        : Gamma Ray

~PARAMETER INFORMATION
#MNEM.UNIT       VALUE       DESCRIPTION
#---------       -----       -----------
 EKB.ft      3201 : Elevation above MSL

~A      DEPT          DT          GR
# ...
      7733.5    324.7863     46.6226
        7734    324.7863     47.0417
      7734.5    324.7863     54.2665
        7735    324.7863     58.5814
      7735.5    324.7863     57.1297
        7736    324.7863      52.518
      7736.5    324.7863     47.1321
        7737    324.7863     38.8489
      7737.5    324.7863      34.676
        7738    324.7863     38.3856
      7738.5    324.7863     46.1442
        7739    324.7863      57.606
      7739.5    324.7863        75.2
        7740    324.7863     89.1334
      7740.5    324.7863     83.4657
        7741    324.7863     62.7202
      7741.5    324.7863     53.5714
        7742    324.7863     52.2863
      7742.5    324.7863      53.994
        7743    324.7863     55.6918
      7743.5    324.7863     54.4994
        7744    324.7863     52.5603
      7744.5    324.7863     59.0074
        7745    324.7863     63.3208
      7745.5    324.7863     65.4336
        7746    324.7863     69.1118
      7746.5    324.7863     64.2921
        7747    324.7863     51.1793
      7747.5    324.7863     48.7659
        7748    324.7863     57.0776
      7748.5    324.7863     65.4606
        7749    324.7863     72.3041
      7749.5    324.7863     79.0972
        7750    324.7863     81.1734
      7750.5    324.7863     80.2408
        7751    324.7863     79.0319
      7751.5    324.7863     68.6008
        7752    324.7863     49.0421
      7752.5    324.7863     41.7966
        7753    324.7863     58.1972
      7753.5    324.7863     72.6787
        7754    324.7863     71.6291
      7754.5    324.6112     60.7407
        7755    324.6112     56.4799
      7755.5    324.6112     56.0707
        7756    324.6112     53.0341
      7756.5    324.6112      54.819
        7757    324.6112     60.7145
      7757.5    324.6112     62.6692
        7758    324.6112     66.2481
      7758.5    324.6112     68.4162
        7759    324.6112     54.4918
      7759.5    324.4361     42.1125
        7760    324.4361     42.0655
      7760.5    324.4361     46.5318
        7761    324.4361     44.6237
      7761.5    324.4361     40.1574
        7762    324.4361     36.4793
      7762.5    324.4361     34.4133
        7763    324.4361     36.2886
      7763.5    324.4361     39.0289
        7764    324.4361     40.4926
      7764.5    324.4361     47.2483
        7765    324.4361     56.8377
      7765.5    324.4361     62.5604
        7766    324.4361     64.6235
      7766.5    324.4361     61.9572
        7767    324.4361     58.5814
      7767.5    324.4361     70.6034
        7768    324.4361     91.3383
      7768.5    324.4361     92.3465
        7769    324.4361     70.4587
      7769.5    324.4361     59.8532
        7770    324.4361     58.5604
      7770.5    324.4361     57.9034
        7771    324.4361     55.6488
      7771.5    324.4361     52.6491
        7772    324.4361     52.5394
      7772.5    324.4361     50.2401
        7773    324.4361     40.6065
      7773.5    324.4361     38.0911
        7774    324.6112     46.0856
      7774.5    324.6112     51.2259
        7775    324.6112     50.1751
      7775.5    324.6112     52.3234
        7776    324.6112     57.8404
      7776.5    324.6112      57.328
        7777    324.6112     51.9661
      7777.5    324.6112     51.9068
        7778    324.6112     56.8157
      7778.5    324.6112     58.9509
        7779    324.6112     50.5519
      7779.5    324.6112     42.7697
        7780    324.6112     45.2846
      7780.5    324.6112     53.4291
        7781    324.6112     56.4799
      7781.5    324.6112     51.1227
        7782    324.7863     43.5297
      7782.5    325.5919     40.8232
        7783    325.8195     38.7735
      7783.5    324.5059     31.3124
        7784    324.4361     31.8936
      7784.5    324.4361     40.1965
        7785    324.4361     46.3164
      7785.5    324.5419     47.3894
        7786    324.6112     39.8194
      7786.5    324.6112     34.4133
        7787    324.6112     40.0702
      7787.5    324.6112     48.4493
        7788    324.6112     54.4637
      7788.5    324.6112     58.6388
        7789    324.6112     62.3458
      7789.5    324.6112     67.9944
        7790    324.6112      72.271
      7790.5    324.6112     72.0808
        7791    324.6112     68.1824
      7791.5    324.6112     57.3512
        7792    324.6112     47.4578
      7792.5    324.6112     44.4968
        7793    324.6112     43.3145
      7793.5    324.6112     43.5071
        7794    324.6112     48.7227
      7794.5    324.6112     55.6538
        7795    324.6112     63.1413
      7795.5    324.6112     65.3485
        7796    324.6112     53.7981
      7796.5    324.2609     44.5946
        7797    324.2609     48.7597
      7797.5    324.2609     59.2363
        7798    324.2609     60.5853
      7798.5    324.2609     56.8411
        7799    324.2609     56.5458
      7799.5    324.2609     62.3919
        7800    324.2609     68.6975
      7800.5    324.2609     71.8812
        7801    324.2609     68.0984
      7801.5    324.2609     55.5851
        7802    324.2609     47.4797
      7802.5    324.3715     50.2158
        7803    324.6112     62.2734
      7803.5    324.6112     72.9332
        7804    324.6112      67.986
      7804.5    324.6112      57.127
        7805    324.6112     53.6256
      7805.5    324.6112     56.8138
        7806    324.6112     61.3159
      7806.5    324.6112     69.6636
        7807    324.6112     80.3401
      7807.5    324.6112      84.085
        7808    324.6112     75.6261
      7808.5    324.6112      65.695
        7809    324.6112     62.5219
      7809.5    324.6112     63.0473
        7810    324.6112     64.3983
      7810.5    324.6112      68.283
        7811    324.6112     68.4502
      7811.5    324.6112     58.0901
        7812    324.6112     50.8866
      7812.5    324.6112      49.387
        7813    324.6112     54.7958
      7813.5    324.6112     63.8208
        7814    324.6112     66.4623
      7814.5    324.6112      66.725
        7815    324.6112     67.5131
      7815.5    324.6112     66.4623
        7816    324.6112     67.0277
      7816.5    324.6112     68.0385
        7817    324.6112     68.3012
      7817.5    324.6112     68.9174
        7818    324.6112     61.1857
      7818.5    324.6112     50.5366
        7819    324.6112     47.4502
      7819.5    324.6112     58.7398
        7820    324.4361     69.6147
      7820.5    324.4361     64.8921
        7821    324.2609     61.4711
      7821.5    324.2609     67.0674
        7822    324.2609     74.3433
      7822.5    324.2609     67.9568
        7823    324.2609     61.3855
      7823.5    324.2609     54.6455
        7824    324.2609     39.6706
      7824.5    324.2609     34.3254
        7825    324.2609      34.326
      7825.5    324.2609     31.8738
        7826    324.2609      33.276
      7826.5    324.2609     39.6687
        7827    324.2609     44.4847
      7827.5    324.2609     43.9571
        7828    324.2609     40.6283
      7828.5    324.2609     40.3691
        7829    324.2609     47.7293
      7829.5    324.2609     56.9245
        7830    324.2609     63.9724
      7830.5    324.2609     67.2504
        7831    324.2609     67.1582
      7831.5    324.2609      62.692
        7832    324.2609     61.5641
      7832.5    324.2609     66.7338
        7833    324.2609     73.2174
      7833.5    324.2609     80.2168
        7834    324.2609     78.9394
      7834.5    324.2609       69.95
        7835    324.2609     65.8415
      7835.5    324.2609     61.7213
        7836    324.2609     56.1209
      7836.5    324.2609     53.6732
        7837    324.2609     52.8021
      7837.5    324.2609     53.6877
        7838    324.2609     57.3169
      7838.5    324.2609     56.6442
        7839    324.2609     51.6526
      7839.5    324.2609     48.6807
        7840    324.4361     44.8216
      7840.5    324.4361     44.2331
        7841    324.4361      50.063
      7841.5    324.4361     54.0346
