###############################################
##         ENVERUS                           ##
##         ESS - Open Hole                   ##
##         PERMIAN / DELAWARE                ##
##         Nov 03 2023  V4.0                 ##
##         42-109-32508-00-00                ##
###############################################
## Copyright 2017-2023  ENVERUS.  All Rights Reserved. 
## Confidential - Property of ENVERUS, use governed by terms and 
## conditions found within the existing Information Services Subscription Agreement 
## (as may be amended, the “ISSA”) between Customer and ENVERUS. 
## 
~VERSION INFORMATION
# MNEM.UNIT                               DATA : DESCRIPTION OF MNEMONIC
#-----.-----     ----------------------------- : -----------------------------
VERS.                                     2.00 : CWLS LOG ASCII STANDARD - VERSION 2.00
WRAP.                                       NO : MULTIPLE LINES PER DEPTH STEP
VEND.                                  ENVERUS : VENDOR
TYPE.                          ESS - OPEN HOLE : ENVERUS ESSENTIAL CURVES – ACCESSIBLE THROUGH ENVERUS PRISM(TM)
DOC.                                  51093165 : ENVERUS HEADER RAW DOCUMENT ID
#___________________________________________________________________________________________________ 
~WELL INFORMATION 
# 1l9uGBxUQQhBCtjIwzslcirW42fLV8cokTOAxV7sfA093x4JFuWG6+twQwU/7oNL7vvW02EVanlAmdL+peO2nw== 
# MNEM.UNIT                                              DATA : DESCRIPTION OF MNEMONIC 
#-----.-----                    ----------------------------- : ----------------------------- 
CNTY.                                               CULBERSON : COUNTY 
STATE.                                                  TEXAS : STATE 
CNTRY.                                                    USA : COUNTRY 
API.                                             42-109-32508 : API (10 Digit) 
API_14.                                    42-109-32508-00-00 : API (14 Digits) 
API_14_std.                                 42-109-32508-0000 : API (14 Digits Standard) 
UWI.                                           42109325080000 : UNIQUE WELL ID 
WELL.                                  LT. GIBSON 12 STATE 1H : WELL NAME
STRT.FT                                                1970.5 : START DEPTH
STOP.FT                                                8727.0 : STOP DEPTH
STEP.FT                                                   0.5 : STEP BETWEEN DEPTHS
NULL.                                                 -999.25 : NULL VALUE
PREV_APII.                                     42109325080000 : WELL IDENTIFIER
#___________________________________________________________________________________________________ 
~PARAMETER INFORMATION 
# MNEM.UNIT                                              DATA : DESCRIPTION OF MNEMONIC 
#-----.-----                    ----------------------------- : ----------------------------- 
EKB.FT                                                   3552 : ELEVATION ABOVE MSL
#___________________________________________________________________________________________________ 
~CURVE INFORMATION 
# MNEM.UNIT           : CURVE DESCRIPTION 
#-----.-----          : ----------------------------- 
 DEPT.FT               : MEASURED DEPTH 
 GR__A.API             : GAMMA RAY (GAMMA RAY) 
 DT__A.US/FT           : SONIC DELTA TRANSIT TIME (SONIC) 
 #___________________________________________________________________________________________________ 
~A         DEPT          GR__A          DT__A
# ...
         7799.5        400.676         93.976
         7800.0        396.458        109.045
         7800.5        391.353        116.282
         7801.0        360.472        118.908
         7801.5        352.734        116.569
         7802.0        355.078        109.814
         7802.5        355.469        106.204
         7803.0        355.544        105.263
         7803.5        365.286        100.671
         7804.0        387.791         86.073
         7804.5        406.848         73.145
         7805.0        414.884         72.125
         7805.5        421.918         74.031
         7806.0        413.175         94.176
         7806.5        395.269        114.887
         7807.0        365.080        116.374
         7807.5        348.382        115.836
         7808.0        344.451        118.871
         7808.5        338.177        134.222
         7809.0        314.159        142.863
         7809.5        275.042        151.142
         7810.0        255.279        157.399
         7810.5        247.261        158.968
         7811.0        242.948        159.454
         7811.5        238.206        160.271
         7812.0        234.988        152.386
         7812.5        240.855        137.811
         7813.0        268.140        123.814
         7813.5        323.316        121.483
         7814.0        377.385        105.415
         7814.5        397.003        106.509
         7815.0        390.440        115.026
         7815.5        368.632        116.514
         7816.0        350.763        117.493
         7816.5        336.992        124.579
         7817.0        318.616        131.125
         7817.5        306.016        134.035
         7818.0        283.234        136.827
         7818.5        264.559        143.346
         7819.0        257.368        144.411
         7819.5        261.951        142.518
         7820.0        283.534        140.973
         7820.5        287.891        135.322
         7821.0        279.140        146.809
         7821.5        268.021        152.788
         7822.0        257.861        151.277
         7822.5        258.203        147.745
         7823.0        264.913        138.350
         7823.5        284.729        131.930
         7824.0        311.942        129.393
         7824.5        317.861        125.377
         7825.0        303.943        130.954
         7825.5        285.571        137.363
         7826.0        266.945        138.986
         7826.5        266.359        133.907
         7827.0        282.564        122.237
         7827.5        320.282        111.026
         7828.0        338.672        110.768
         7828.5        344.790        114.225
         7829.0        333.265        123.860
         7829.5        315.625        127.331
         7830.0        306.511        126.838
         7830.5        311.218        121.754
         7831.0        331.750        119.493
         7831.5        340.743        123.063
         7832.0        311.316        139.985
         7832.5        274.841        138.572
         7833.0        260.450        126.888
         7833.5        272.670        116.435
         7834.0        341.113        103.162
         7834.5        390.120         84.649
         7835.0        410.314         83.364
         7835.5        400.442         85.662
         7836.0        409.490         78.104
         7836.5        426.676         73.815
         7837.0        420.913        102.070
         7837.5        392.613        108.010
         7838.0        358.514        114.358
         7838.5        359.331         94.843
         7839.0        385.230         74.093
         7839.5        410.782         73.684
         7840.0        411.820         77.980
         7840.5        406.622         77.778
         7841.0        405.469         83.109
         7841.5        407.031         85.109
         7842.0        390.919         93.678
         7842.5        350.665        115.669
         7843.0        321.328        116.400
         7843.5        315.669        116.179
         7844.0        315.234        115.790
         7844.5        316.951        121.917
         7845.0        323.836        132.729
         7845.5        322.211        133.934
         7846.0        319.981        130.805
         7846.5        318.353        111.844
         7847.0        363.118         92.163
         7847.5        379.752         89.842
         7848.0        383.352         87.914
         7848.5        396.473         85.725
         7849.0        414.385         82.572
         7849.5        417.915         88.607
         7850.0        412.313        112.029
         7850.5        386.978        117.159
         7851.0        344.371        115.945
         7851.5        347.397        115.010
         7852.0        365.014        109.170
         7852.5        393.324         83.500
         7853.0        413.895         78.891
         7853.5        404.512         81.151
         7854.0        394.915         84.246
         7854.5        404.569         94.737
         7855.0        406.208         99.046
         7855.5        397.285        103.856
         7856.0        390.213        104.483
         7856.5        374.067        105.600
         7857.0        342.409        109.364
         7857.5        332.813        107.890
         7858.0        333.787        107.020
         7858.5        336.945        103.332
         7859.0        357.441        108.663
         7859.5        367.430        116.592
         7860.0        356.725        119.472
         7860.5        329.539        130.440
         7861.0        297.374        123.111
         7861.5        288.200        113.855
         7862.0        298.680        112.607
         7862.5        328.328        104.550
         7863.0        375.594        111.467
         7863.5        371.885        120.361
         7864.0        354.601        121.588
         7864.5        342.499        124.360
         7865.0        328.149        115.489
         7865.5        326.895        105.450
         7866.0        344.381        103.347
         7866.5        358.243        101.374
         7867.0        360.156        102.810
         7867.5        363.504         82.090
         7868.0        381.914         75.439
         7868.5        404.955         79.183
         7869.0        399.802        101.568
         7869.5        349.741        147.294
         7870.0        291.813        151.851
         7870.5        272.167        150.275
         7871.0        267.172        140.394
         7871.5        278.335        126.016
         7872.0        294.330        122.807
         7872.5        302.814        125.011
         7873.0        305.325        131.695
         7873.5        293.356        143.695
         7874.0        272.207        148.343
         7874.5        263.382        146.516
         7875.0        263.443        140.970
         7875.5        270.188        138.579
         7876.0        272.753        141.374
         7876.5        273.438        142.495
         7877.0        272.934        142.326
         7877.5        271.606        133.654
         7878.0        278.378        127.290
         7878.5        289.085        127.096
         7879.0        292.870        126.755
         7879.5        297.728        113.358
         7880.0        316.178         92.089
         7880.5        323.410         92.118
         7881.0        345.670         90.059
         7881.5        340.352        118.580
         7882.0        298.245        142.300
         7882.5        273.984        143.571
         7883.0        269.743        144.233
         7883.5        274.487        137.087
         7884.0        285.090        121.784
         7884.5        300.407        112.435
         7885.0        324.609        110.039
         7885.5        352.890        100.187
         7886.0        358.203        101.170
