~VERSION INFORMATION
VERS. 2.0 : CWLS Log ASCII Standard - version 2.0
WRAP.  NO : One line per depth step
#--------------------------------------------------#
#----------------DRILLING INFO, INC.---------------#
#---------------WWW.DRILLINGINFO.COM---------------#
#------------------COPYRIGHT 2015------------------#
#--------------------------------------------------#
#THIS FILE MAY BE USED ONLY IN ACCORDANCE WITH A CURRENT SUBSCRIPTION AGREEMENT BETWEEN
#THE USER AND DRILLING INFO, INC. NO PART OF THIS FILE MAY BE REPRODUCED, USED, COPIED,
#MODIFIED, PROPAGATED, OR DISTRIBUTED EXCEPT IN ACCORDANCE WITH THE SUBSCRIPTION
#AGREEMENT. UNAUTHORIZED USE OR DISTRIBUTION OF ALL OR ANY PART OF THIS FILE MAY VIOLATE
#COPYRIGHT, TRADEMARK, AND/OR OTHER LAWS AND IS SUBJECT TO CIVIL AS WELL AS CRIMINAL
#SANCTIONS.
#--------------------------------------------------#
#THIS FILE IS PROVIDED "AS-IS" AND ALL WARRANTIES ARE EXPRESSLY DISCLAIMED, WHETHER
#EXPRESS, ORAL, IMPLIED, STATUTORY OR OTHERWISE, INCLUDING ANY IMPLIED WARRANTY OF FITNESS
#FOR A PARTICULAR PURPOSE, MERCHANTABILITY, TITLE OR NON-INFRINGEMENT, AND ANY WARRANTIES
#ARISING BY VIRTUE OF CUSTOM OF TRADE OR COURSE OF DEALING.  FURTHER, DRILLING INFO,
#INC. AND ITS LICENSORS DO NOT REPRESENT OR WARRANT THAT THIS FILE WILL MEET USER'S
#REQUIREMENTS OR ARE SUITABLE FOR USER'S NEEDS OR THAT THE DATA OR RESULTS PROVIDED IN
#CONJUNCTION THEREWITH ARE CORRECT, ACCURATE, TIMELY OR RELIABLE. THESE DISCLAIMERS SHALL
#APPLY REGARDLESS OF ANY FAILURE OF ESSENTIAL PURPOSE OF ANY LIMITED REMEDY.  SOME
#JURISDICTIONS DO NOT ALLOW THE EXCLUSION OF CERTAIN WARRANTIES SO SOME OF THE ABOVE
#EXCLUSIONS MAY NOT APPLY. IN NO EVENT SHALL DRILLING INFO, INC. OR ANY OF ITS AFFILIATES
#BE LIABLE UNDER ANY LEGAL THEORY, WHETHER IN TORT (INCLUDING WITHOUT LIMITATION
#NEGLIGENCE), CONTRACT, STRICT LIABILITY, STATUTORY OR OTHERWISE, FOR ANY SPECIAL,
#INCIDENTAL, CONSEQUENTIAL, EXEMPLARY, PUNITIVE OR INDIRECT DAMAGE OF ANY KIND, INCLUDING
#WITHOUT LIMITATION LOSS OF REVENUE, PROFITS, GOODWILL, USE, AND/OR DATA OR THE COST OF
#PROCUREMENT OF SUBSTITUTE GOODS OR SERVICES, EVEN IF APPRISED OF THE POSSIBILITY OF SUCH
#DAMAGES IN ADVANCE.
#--------------------------------------------------#
~WELL INFORMATION
#MNEMONIC     .UNIT              VALUE :DESCRIPTION
#--------------------------------------------------#
STRT       .FT                181 :START DEPTH
STOP       .FT                12231 :STOP DEPTH
STEP       .FT                   0.500 :STEP
NULL       .                  -999.250 :NULL
API        .                421093228700 :API NUMBER
COMP       .         CHESAPEAKE OPERATING  INC. :COMPANY
WELL       .        UNIVERSITY LANDS 4627  1 :WELL
DATE       .                06-May-2007 :LOG DATE
~CURVE INFORMATION
#MNEMONIC     .UNIT      API CODE :CURVE DESCRIPTION
#--------------------------------------------------#
DEPTH       .FT                      :Measured Depth
ILS.OHM        UNKNOWN   :ILS
GR.API        UNKNOWN   :GR
ILD.OHM        UNKNOWN   :ILD
CAL.INCH        UNKNOWN   :CAL
DT.US/FT        UNKNOWN   :DT
~A    DEPTH    ILS    GR    ILD    CAL    DT
# ...
 7358.5     123.31   102.677   104.103   9.734   -999.250
 7359     129.21   102.677   108.071   9.722   -999.250
 7359.5     135.11   102.677   112.038   9.711   -999.250
 7360     137.633   99.66   115.537   9.699   -999.250
 7360.5     137.378   96.615   116.676   9.688   -999.250
 7361     137.124   93.662   117.815   9.676   -999.250
 7361.5     136.869   91.777   118.954   9.664   -999.250
 7362     141.875   89.892   120.092   9.653   -999.250
 7362.5     148.629   87.962   127.719   9.641   -999.250
 7363     151.379   86.003   136.899   9.63   -999.250
 7363.5     149.881   82.558   143.192   9.618   -999.250
 7364     262.17   78   141.536   9.618   -999.250
 7364.5     568.621   68.641   371.921   9.622   -999.250
 7365     759.997   54.987   656.241   9.626   -999.250
 7365.5     883.626   43.31   743.829   9.631   -999.250
 7366     1387.741   36.169   1024.151   9.635   -999.250
 7366.5     1312.063   32.449   1504.705   9.64   -999.250
 7367     200.258   50.823   672.999   9.644   -999.250
 7367.5     117.787   74.038   136.551   9.648   -999.250
 7368     86.403   90.654   110.144   9.653   -999.250
 7368.5     88.979   103.897   83.736   9.657   -999.250
 7369     117.519   107.745   84.689   9.662   -999.250
 7369.5     130.707   106.218   110.124   9.666   -999.250
 7370     289.079   79.21   137.473   9.671   -999.250
 7370.5     447.059   49.432   301.075   9.675   -999.250
 7371     438.253   38.227   418.838   9.679   -999.250
 7371.5     793.926   27.799   470.418   9.684   -999.250
 7372     1252.938   24.08   991.343   9.688   -999.250
 7372.5     1206.142   22.981   1270.58   9.693   -999.250
 7373     1025.092   25.543   1029.339   9.697   -999.250
 7373.5     585.278   45.493   739.127   9.701   -999.250
 7374     93.689   68.324   426.46   9.766   -999.250
 7374.5     72.313   89.582   97.717   9.947   -999.250
 7375     80.943   112.899   73.25   10.129   -999.250
 7375.5     62.269   115.756   68.612   10.201   -999.250
 7376     57.569   105.642   54.268   10.197   -999.250
 7376.5     72.274   90.306   52.654   10.194   -999.250
 7377     117.602   79.424   116.765   10.175   -999.250
 7377.5     297.023   73.554   204.163   9.962   -999.250
 7378     225.556   80.903   290.795   9.749   -999.250
 7378.5     134.359   88.795   176.656   9.706   -999.250
 7379     121.633   93.98   114.308   9.708   -999.250
 7379.5     111.472   98.019   102.465   9.709   -999.250
 7380     111.473   95.636   101.041   9.711   -999.250
 7380.5     121.338   91.968   105.28   9.713   -999.250
 7381     154.314   88.275   122.022   9.714   -999.250
 7381.5     199.141   82.882   157.924   9.716   -999.250
 7382     203.009   80.948   193.825   9.715   -999.250
 7382.5     133.075   86.006   153.623   9.705   -999.250
 7383     132.539   92.623   118.043   9.695   -999.250
 7383.5     140.847   99.241   114.662   9.685   -999.250
 7384     144.56   103.209   125.794   9.675   -999.250
 7384.5     102.166   101.691   134.004   9.665   -999.250
 7385     89.613   91.717   100.507   9.655   -999.250
 7385.5     91.745   79.028   88.863   9.645   -999.250
 7386     170.116   62.055   118.367   9.636   -999.250
 7386.5     508.911   45.081   399.113   9.641   -999.250
 7387     689.962   28.107   705.588   9.704   -999.250
 7387.5     671.221   19.749   673.87   9.767   -999.250
 7388     546.687   14.668   587.849   9.83   -999.250
 7388.5     422.154   14.668   465.647   9.893   -999.250
 7389     421.133   14.668   426.494   9.956   -999.250
 7389.5     427.708   14.669   444.658   10.198   -999.250
 7390     474.292   14.777   462.821   10.451   -999.250
 7390.5     582.592   15.546   533.87   9.773   -999.250
 7391     487.141   25.848   657.081   9.757   -999.250
 7391.5     207.694   45.211   368.141   9.742   -999.250
 7392     154.897   61.508   176.425   9.727   -999.250
 7392.5     124.843   72.804   153.245   9.712   -999.250
 7393     100.775   77.912   89.195   9.823   -999.250
 7393.5     126.709   82.518   104.32   10.054   -999.250
 7394     104.984   86.503   109.568   10.082   -999.250
 7394.5     104.888   90.487   105.842   9.919   -999.250
 7395     92.473   90.682   86.778   9.757   -999.250
 7395.5     132.059   86.881   98.496   9.764   -999.250
 7396     192.703   76.609   147.685   9.773   -999.250
 7396.5     213.649   67.988   177.941   9.781   -999.250
 7397     175.335   67.804   188.22   9.79   -999.250
 7397.5     86.661   78.46   92.965   9.953   -999.250
 7398     79.855   89.116   73.348   10.291   -999.250
 7398.5     74.064   99.772   70.934   10.629   -999.250
 7399     74.33   103.795   70.469   10.428   -999.250
 7399.5     81.594   99.721   73.338   10.138   -999.250
 7400     204.638   89.18   128.607   9.848   -999.250
 7400.5     186.528   76.736   203.821   9.816   -999.250
 7401     182.812   74.95   180.433   9.844   -999.250
 7401.5     168.701   75.747   176.728   9.871   -999.250
 7402     154.065   76.544   158.315   9.898   -999.250
 7402.5     144.825   76.716   143.409   9.925   -999.250
 7403     144.826   72.983   146.588   9.942   -999.250
 7403.5     151.709   68.857   149.767   9.905   -999.250
 7404     193.68   66.27   187.626   9.868   -999.250
 7404.5     167.223   72.029   199.38   9.831   -999.250
 7405     142.584   82.208   161.144   9.794   -999.250
 7405.5     116.761   93.077   147.961   9.757   -999.250
 7406     87.115   93.964   100.031   9.732   -999.250
 7406.5     105.62   91.984   92.915   9.714   -999.250
 7407     127.636   89.959   120.127   9.696   -999.250
 7407.5     136.492   89.794   138.668   9.678   -999.250
 7408     97.799   91.685   137.951   9.66   -999.250
 7408.5     68.776   96.721   93.776   9.642   -999.250
 7409     70.962   101.756   67.147   9.656   -999.250
 7409.5     67.512   102.992   69.954   9.823   -999.250
 7410     62.489   103.689   65.071   9.991   -999.250
 7410.5     63.65   98.585   59.642   10.025   -999.250
 7411     72.497   93.48   71.206   9.799   -999.250
 7411.5     109.153   88.376   98.274   9.644   -999.250
 7412     146.59   78.509   125.647   9.794   -999.250
 7412.5     158.441   75.215   154.088   9.944   -999.250
 7413     195.203   73.43   182.528   10.094   -999.250
 7413.5     208.408   76.731   210.969   9.986   -999.250
 7414     138.16   82.71   162.753   9.702   -999.250
 7414.5     76.723   89.004   93.15   10.24   -999.250
 7415     73.667   95.121   70.679   10.441   -999.250
 7415.5     84.805   101.018   79.53   9.879   -999.250
 7416     96.746   102.803   90.015   9.683   -999.250
 7416.5     101.049   103.564   97.146   9.688   -999.250
 7417     93.839   100.514   94.741   9.694   -999.250
 7417.5     89.588   95.654   92.107   9.699   -999.250
 7418     91.872   87.679   87.954   9.705   -999.250
 7418.5     144.58   79.518   102.716   9.71   -999.250
 7419     353.054   75.081   367.648   9.716   -999.250
 7419.5     174.632   76.032   260.471   9.721   -999.250
 7420     146.101   77.95   155.09   9.727   -999.250
 7420.5     146.102   69.013   137.409   9.732   -999.250
 7421     325.133   54.47   161.837   9.737   -999.250
 7421.5     990.222   32.555   669.414   9.743   -999.250
 7422     829.209   20.604   881.173   9.748   -999.250
 7422.5     854.37   15.792   838.384   9.754   -999.250
 7423     824.157   15.792   804.977   9.759   -999.250
 7423.5     837.728   20.603   824.97   9.765   -999.250
 7424     646.465   27.439   869.841   9.971   -999.250
 7424.5     393.586   35.237   587.245   10.84   -999.250
 7425     243.079   43.291   331.516   10.881   -999.250
 7425.5     481.869   44.589   234.724   10.418   -999.250
 7426     850.804   39.282   588.892   10.134   -999.250
 7426.5     805.806   34.669   837.172   10.119   -999.250
 7427     404.019   50.532   602.082   10.103   -999.250
 7427.5     78.43   71.722   179.932   9.897   -999.250
 7428     59.928   101.751   51.167   9.876   -999.250
 7428.5     71.585   113.189   59.419   10.611   -999.250
 7429     96.075   119.917   75.665   11.301   -999.250
