~Version Information
 VERS.                  2.0:   CWLS log ASCII Standard -VERSION 2.0
 WRAP.                   NO:   One line per depth step
~Well Information Block
#MNEM.UNIT     VALUE/NAME     DESCRIPTION
#---------     -----------    ---------------------------
 STRT.F              8564.0000: START DEPTH
 STOP.F             14132.0000: STOP DEPTH
 STEP.F                 0.5000: STEP DEPTH
 NULL.                 -999.25: NULL VALUE
 FL6 .       API  42-109-33219:  LOCATIONLINE6
 LOC .     253' FEL & 408' FNL:  LOCATION
 FL4 .           ABSTRACT 1760:  LOCATIONLINE4
 FL3 .        T&P RR CO SURVEY:  LOCATIONLINE3
 FL2 .     SECTION 32, BLOCK 58 T2:  LOCATIONLINE2
 FL1 .     253' FEL & 408' FNL:  LOCATIONLINE1
 DMF .                      KB:  DRILL MEAS FROM
 PDAT.                      GL:  PERMANENT DATUM
 CTRY.                     USA:  COUNTRY NAME
 PROV.                   TEXAS:  PROVINCE
 STAT.                   TEXAS:  STATE NAME
 CNTY.               CULBERSON:  COUNTY NAME
 FLD .     FORD, WEST (WOLFCAMP):  FIELD NAME
 WELL.        MOTHER FEE 28 2H:  WELL NAME
 COMP.     CAPITAN ENERGY INC.:  COMPANY
 DATE.             24-Jan-2018:  DATE
 SVCO.             Halliburton:  SERVICECONAME
 HIDE.                        :  WELLNAMEOPERAT
 BASI.                 PERMIAN:  BASIN
 UWI .            42-109-33219LAT:  UNIQUE WELL IDENTIFIER
 API .            42-109-33219LAT:  API NUMBER
 RANG.                     N/A:  RANGE
 TOWN.                     N/A:  TOWNSHIP
 SECT.                     N/A:  SECTION
 SON .               904563795:  JOB NUMBER
 SRVC.             Halliburton:  SERVICE COMPANY
 LMF .                      KB:  LOG MEASURED FROM
 EGL .ft             3142.0000:  GROUND ELEVATION
 BAP .ft                0.0000:  GL ELEV ONSHORE
 GVFD.g                 1.0000:  GRAVITY FIELD
 EKB .ft             3167.0000:  KB ELEVATION
 EDF .ft             3166.0000:  DF ELEVATION
~Curve Information Block
#MNEM.UNIT                 API CODE     Curve Description
#---------               -----------    ---------------------------
 DEPT.F                 00 000 000 000:  Depth
 CCL .V                 00 000 000 000:  Casing Collar Locator
 NPHI_OH.pu             00 000 000 000:  NPHI_OH
 NPHI_CHI.pu            00 000 000 000:  NPHI_CHI
 GR_OH.api              00 000 000 000:  GR_OH
 GR_CHI.api             00 000 000 000:  GR_CHI
 RHOB_OH.g/cc           00 000 000 000:  RHOB_OH
 RHOB_CHI.g/cc          00 000 000 000:  RHOB_CHI
 PE_OH.b/e              00 000 000 000:  PE_OH
 PE_CHI.b/e             00 000 000 000:  PE_CHI
 DTC_OH.uspf            00 000 000 000:  DTC_OH
 DTC_CHI.uspf           00 000 000 000:  DTC_CHI
 SPHI_CHI.pu            00 000 000 000:  SPHI_CHI
 RT10_OH.ohmm           00 000 000 000:  RT10_OH
 RT10_CHI.ohmm          00 000 000 000:  RT10_CHI
 RT30_OH.ohmm           00 000 000 000:  RT30_OH
 RT30_CHI.ohmm          00 000 000 000:  RT30_CHI
 RT90_OH.ohmm           00 000 000 000:  RT90_OH
 RT90_CHI.ohmm          00 000 000 000:  RT90_CHI
 SGF .cu                00 000 000 000:  Formation Sigma
 CRNF.NONE              00 000 000 000:  CaptMode Capt Ratio
 RIN .NONE              00 000 000 000:  CaptMode Gross Inel Ratio
#Other Information
#
#WARRANTY: Halliburton will use its best efforts to furnish customers with 
#accurate information and interpretations that are part of, and incident to, the services 
#provided.  However, Halliburton cannot and does not warrant the accuracy 
#or correctness of such information and interpretations.  Under no circumstances should any 
#such information or interpretation be relied upon as the sole basis for any drilling, 
#completion, production, or financial decision or any procedure involving any risk to the 
#safety of any drilling venture, drilling rig or its crew or any other third party.  The 
#Customer has full responsibility for all drilling, completion and production operation.  
#Halliburton makes no representations or warranties, either expressed or 
#implied, including, but not limited to, the implied warranties of merchantability or fitness 
#for a particular purpose, with respect to the services rendered.  In no event will 
#Halliburton be liable for failure to obtain any particular results or for 
#any damages, including, but not limited to, indirect, special or consequential damages, 
#resulting from the use of any information or interpretation provided by Halliburton.
#
~A    DEPT       CCL    NPHI_OH NPHI_CHI  GR_OH    GR_CHI  RHOB_OH RHOB_CHI  PE_OH   PE_CHI   DTC_OH  DTC_CHI SPHI_CHI RT10_OH  RT10_CHI RT30_OH  RT30_CHI RT90_OH  RT90_CHI   SGF    CRNF   RIN   
# ...
    9299.0000    0.0000 11.1600  12.3600 116.9276 110.5782  2.5860   2.5559  3.8045    3.1130 67.7138 74.3889  18.9500  34.2622  31.4367  32.7458  29.9443  31.7321  31.4067 28.0221 1.1254 1.2529
    9299.5000    0.0000 11.1600  11.6159 116.9276 104.7136  2.5860   2.5598  3.8045    3.1437 68.5038 73.4279  18.2700  34.2622  31.5159  32.7458  30.1850  31.7321  31.8087 26.6595 1.1156 1.2567
    9300.0000    0.0000 12.2900  11.1160 108.1959 101.4419  2.5591   2.5627  3.5239    3.2348 68.9538 72.8297  17.8400  33.2353  31.6784  31.3193  30.5652  30.3915  32.3851 25.3409 1.1146 1.2546
    9300.5000    0.0000 12.2900  10.3416 108.1959  91.2326  2.5591   2.5677  3.5239    3.3195 68.7243 71.8169  17.1300  33.2353  35.3320  31.3193  34.9018  30.3915  37.6294 24.4878 1.1227 1.2480
    9301.0000    0.0000 11.9500   9.4552  96.8924  74.0679  2.5564   2.5738  3.6222    3.3756 67.7626 70.7908  16.4000  32.7037  42.0500  32.2542  42.8668  31.3500  47.1937 24.2752 1.1399 1.2459
    9301.5000    0.0000 11.4300   9.0835  90.4697  66.4809  2.5696   2.5760  3.8270    3.3770 66.7870 70.3302  16.0800  33.4128  45.0559  33.3624  46.4815  32.5786  51.5551 24.7292 1.1688 1.2530
    9302.0000    0.0000 11.4300   9.1588  90.4697  70.1054  2.5696   2.5733  3.8270    3.3608 65.9868 70.2520  16.0200  33.4128  47.2731  33.3624  49.0459  32.5786  54.8122 25.7852 1.2009 1.2643
    9302.5000    0.0000 13.4900  10.1412  94.4357  90.6069  2.5689   2.5634  3.7468    3.3237 65.6104 70.8186  16.4200  34.8236  45.2610  34.9047  46.3926  34.3561  51.7233 27.6838 1.2204 1.2708
    9303.0000    0.0000 13.4900  11.5347  94.4357 116.6606  2.5689   2.5521  3.7468    3.2748 65.2276 71.3703  16.8100  34.8236  37.8683  34.9047  37.6029  34.3561  41.0107 29.0403 1.2186 1.2704
    9303.5000    0.0000 14.1800  11.3835 103.6028 101.3987  2.5472   2.5572  3.4283    3.1994 65.0695 72.8697  17.8700  38.7085  37.5722  34.6572  37.0859  34.5209  40.0580 29.3342 1.1943 1.2623
    9304.0000    0.0000 14.1800  11.6982 103.6028  98.1415  2.5472   2.5601  3.4283    3.1356 64.7620 73.7843  18.5200  38.7085  33.1068  34.6572  31.9658  34.5209  33.7955 28.6261 1.1575 1.2535
    9304.5000    0.0000 13.3200  12.0894 107.1717 105.2016  2.5150   2.5580  3.1684    3.1421 64.2988 74.2056  18.8200  40.7900  31.5481  36.0699  30.1558  36.4504  31.6586 27.3752 1.1245 1.2452
    9305.0000    0.0000 13.3200  11.8242 107.1717 106.5112  2.5150   2.5579  3.1684    3.1703 64.3824 73.6978  18.4600  40.7900  31.9677  36.0699  30.6864  36.4504  32.3775 25.9667 1.0987 1.2424
    9305.5000    0.0000 12.0800  10.9859  99.2059  98.4408  2.5105   2.5616  3.1506    3.2162 65.1673 72.4600  17.5800  48.6568  35.3748  43.3804  34.6735  44.7676  37.2361 25.2206 1.0944 1.2402
    9306.0000    0.0000 12.0800  10.2263  99.2059  90.7190  2.5105   2.5666  3.1506    3.3166 66.6286 71.3309  16.7800  48.6568  38.7940  43.3804  38.8317  44.7676  42.3824 24.8721 1.1013 1.2383
    9306.5000    0.0000  9.9700   9.2574  83.7323  75.9535  2.5429   2.5749  3.4789    3.3798 67.8407 70.0372  15.8700  52.4622  43.7169  48.6909  44.7209  51.4582  49.5161 24.9207 1.1181 1.2341
    9307.0000    0.0000  7.1500   9.2942  68.6771  78.6436  2.5798   2.5744  4.1267    3.3964 68.7996 69.9231  15.7900  58.8683  43.8731  57.7886  44.8987  62.6502  49.8007 25.4394 1.1342 1.2300
    9307.5000    0.0000  7.1500   8.7509  68.6771  66.3705  2.5798   2.5782  4.1267    3.3715 69.7976 69.3423  15.3800  58.8683  47.1393  57.7886  48.8679  62.6502  54.5264 26.2137 1.1370 1.2292
    9308.0000    0.0000  6.3600   8.8935  55.0150  67.1433  2.6016   2.5749  4.7291    3.2769 70.9522 69.6198  15.5700  84.4061  47.9462  84.6816  49.8023  93.8955  55.6916 26.3879 1.1169 1.2284
    9308.5000    0.0000  6.3600   9.8820  55.0150  85.2352  2.6016   2.5659  4.7291    3.2064 71.7644 70.7310  16.3600  84.4061  45.7029  84.6816  46.6909  93.8955  51.9216 25.6873 1.0820 1.2261
    9309.0000    0.0000  5.2200  10.2472  40.8442  90.4519  2.6154   2.5640  4.9973    3.1942 72.2887 71.1749  16.6700 103.7466  42.7072 113.3798  43.0910 128.3720  47.4727 24.2152 1.0406 1.2181
    9309.5000    0.0000  5.2200  10.3942  40.8442 100.0956  2.6154   2.5626  4.9973    3.2779 72.5476 70.6838  16.3300 103.7466  41.1688 113.3798  41.3441 128.3720  45.5376 22.5609 1.0081 1.2080
    9310.0000    1.2834  4.4700   9.0510  34.9753  79.3970  2.6153   2.5750  4.9810    3.4197 72.7003 69.1156  15.2200  89.1462  47.6564 100.5079  49.3244 116.0290  55.3725 20.8684 1.0014 1.1995
    9310.5000    1.2834  4.4700   8.0654  34.9753  70.5010  2.6153   2.5871  4.9810    3.6473 73.3514 67.3200  13.9500  89.1462  51.3119 100.5079  53.9910 116.0290  61.3013 20.0187 1.0267 1.1958
    9311.0000    1.2834  4.9100   7.5713  41.3935  72.1321  2.5911   2.5960  4.7095    3.8884 74.1078 66.1197  13.1000  70.6852  53.7414  81.4190  57.0636  95.3789  65.4767 20.0232 1.0785 1.1968
    9311.5000    1.2834  4.9100   6.8456  41.3935  58.7297  2.5911   2.6038  4.7095    3.9624 74.7497 65.9358  12.9700  70.6852  54.6414  81.4190  58.3615  95.3789  66.8366 20.8441 1.1349 1.2028
    9312.0000    1.2834  7.4600   7.2778  52.2514  62.3712  2.5728   2.5947  4.3512    3.8291 74.9972 67.1097  13.8000  67.9395  54.1675  79.3923  57.8586  93.7166  66.3649 22.3464 1.1626 1.2103
    9312.5000    1.2834 11.0000   7.8217  61.0463  69.6270  2.5513   2.5839  3.9969    3.6323 74.9819 68.2788  14.6200  72.5496  55.3092  85.1263  59.0451 100.5430  68.0267 23.8249 1.1406 1.2176
    9313.0000    1.2834 11.0000   9.6487  61.0463  95.1523  2.5513   2.5605  3.9969    3.3470 75.2369 69.8943  15.7700  72.5496  56.7331  85.1263  60.0668 100.5430  69.4459 23.2603 1.0657 1.2174
    9313.5000    1.2834 11.6100  10.3907  70.3375  94.0188  2.4982   2.5555  3.4840    3.2213 75.1396 71.4921  16.9000  69.3265  53.3025  80.9761  55.6859  95.1737  63.3524 21.1038 0.9898 1.2087
    9314.0000    1.2834 11.6100  10.8103  70.3375 100.1988  2.4982   2.5552  3.4840    3.2802 74.3357 71.2715  16.7400  69.3265  46.8359  80.9761  48.1249  95.1737  53.8819 18.9951 0.9550 1.1953
    9314.5000    1.2834 11.6600   9.7736  76.0552  90.8973  2.4608   2.5660  2.9376    3.5737 73.0632 69.2000  15.2800  65.2358  45.9949  75.7238  48.2575  88.1721  54.6756 17.4504 0.9596 1.1867
    9315.0000    1.2834 11.6600   7.5356  76.0552  79.3994  2.4608   2.6011  2.9376    4.1477 70.9668 65.6184  12.7400  65.2358  52.7258  75.7238  56.3045  88.1721  65.0984 17.0432 1.0047 1.1899
    9315.5000    1.2834 11.4900   6.0875  73.4124  57.9135  2.4844   2.6232  2.8792    4.4610 67.9755 65.0046  12.3100  63.9967  54.9256  73.6135  59.0196  84.6914  67.9733 17.5450 1.0638 1.2040
    9316.0000    1.2834 11.4900   6.1869  73.4124  60.7870  2.4844   2.6206  2.8792    4.4384 65.3315 65.6247  12.7500  63.9967  55.1621  73.6135  59.3126  84.6914  68.5070 18.8492 1.1310 1.2216
    9316.5000    1.2834 11.0600   6.6692  71.8524  57.1124  2.5287   2.6068  3.3469    4.1589 63.9780 66.8009  13.5800  67.5547  52.5844  76.5112  56.4593  86.9192  64.7927 21.0028 1.1795 1.2347
    9317.0000    1.2834 12.1300   8.0101  81.0995  69.6521  2.5376   2.5837  3.5905    3.8345 63.1460 68.2659  14.6200  66.8485  50.6310  74.2546  54.2498  83.4319  62.3729 23.9512 1.2028 1.2428
    9317.5000    1.2834 12.1300   9.8889  81.0995 102.9094  2.5376   2.5613  3.5905    3.5804 62.3615 68.1937  14.5600  66.8485  50.9872  74.2546  54.0576  83.4319  62.3319 26.4170 1.1859 1.2432
    9318.0000    1.2834 13.5300  10.3008  93.4577  88.7593  2.5279   2.5580  3.4223    3.3233 61.3481 71.2636  16.7400  58.0858  50.1303  63.7679  52.3937  71.0907  59.2881 27.2783 1.1471 1.2414
    9318.5000    1.2834 13.5300  10.8593  93.4577  88.6267  2.5279   2.5581  3.4223    3.2019 60.7405 72.6785  17.7400  58.0858  45.6389  63.7679  46.5372  71.0907  51.5202 26.7431 1.1159 1.2331
    9319.0000    1.2834 12.5100  10.9560  90.3919  86.1622  2.5364   2.5616  3.5114    3.1685 60.0956 72.9868  17.9500  53.4780  40.3820  58.9854  40.3742  65.4751  43.8683 25.7898 1.0944 1.2240
    9319.5000    1.2834 12.5100  10.3905  90.3919  82.8360  2.5364   2.5648  3.5114    3.1880 59.5370 72.0439  17.2900  53.4780  41.5868  58.9854  41.8856  65.4751  45.8175 24.6142 1.0914 1.2175
