# Exported from Transform Software 5.2.0 on 27-Jun-2019 by user brian.umlang
# DI Transform - A Product of Drillinginfo, Inc. - www.drillinginfo.com
#
~VERSION INFORMATION
 VERS.        2.0 : LAS ASCII STANDARD - VERSION 2.0
 WRAP.         NO : ONE LINE PER DEPTH STEP

~WELL INFORMATION
#MNEM.UNIT       DATA TYPE       INFORMATION
#---------       ---------       -----------
 STRT.ft                   0 : Start Depth
 STOP.ft               12430 : Stop Depth
 STEP.ft                 0.5 : Step Length
 NULL.               -999.25 : Null Value
 COMP.                       : Company
 WELL.  42109313590000_API14 : Well Name
 FLD.                        : Field Name
 LOC.                        : Well Location
 CNTY.                       : County
 STAT.                       : State or Province
 CTRY.                       : Country
 SRVC.                       : Service Company
 DATE.                       : Date
 API.         42109313590000 : Well Identifier

~CURVE INFORMATION
#MNEM.UNIT       API CODE       CURVE DESCRIPTION
#---------       --------       -----------------
 DEPT.ft          : <Measured Depth>
 CAL.in           : Caliper
 DPHI.%           : Density Porosity
 DT.us/ft         : Sonic
 GR.gAPI          : Gamma Ray
 ILD.ohmm         : Deep Resistivity
 ILM.ohmm         : Medium Resistivity
 ILS.ohmm         : Shallow Resistivity
 NPHI.%           : Neutron Porosity
 RHOB.g/cm3       : Density
 SP.mV            : Spontaneous Potential

~PARAMETER INFORMATION
#MNEM.UNIT       VALUE       DESCRIPTION
#---------       -----       -----------
 EKB.ft      3771 : Elevation above MSL

~A      DEPT         CAL        DPHI          DT          GR         ILD         ILM         ILS        NPHI        RHOB          SP
# ...
      7228.5     13.5207     29.8297     63.0676     33.7843     36.0694     13.2812     18.8798     30.0399      2.5097    -56.9582
        7229     13.5188     29.9202     63.2158     33.2129     88.6268     13.2812     19.8527     30.0399      2.4724     -56.568
      7229.5     13.4898     29.9202     65.2844     35.7597     33.2135     13.2812     19.8527     30.0399      2.3608     -56.568
        7230     13.4608     29.9202     67.1968     41.7217     24.8898     13.9254     20.8157     30.0399      2.3565     -56.568
      7230.5     13.4318     29.9202     70.7951     47.6838     24.8898     14.3209     21.7276     30.0399      2.4104     -56.568
        7231     13.4028     29.9202     71.9384     53.6458     24.2939     15.0589     24.6232     30.0399      2.4304     -56.568
      7231.5     13.3738     29.9202     71.1066     59.6079     23.6728     15.0589     23.0801     30.0399      2.4069     -56.568
        7232     13.4795     29.9202     69.8642     65.5699     26.6443     15.0589     22.3223     30.0399      2.3206     -56.568
      7232.5     13.5898     29.9202     70.8951      71.532     27.8116     15.0589     22.3223     30.0399      2.2997     -56.568
        7233     13.7002     29.9202     73.3156     78.8682     28.9541     14.9333       22.51     30.0399      2.1138     -56.568
      7233.5     13.8106     29.9202     73.2339     79.1325     34.7966     14.8088     15.5081     30.0399      2.1117     -56.568
        7234      13.921     29.9202     70.1301     55.9902     44.5872     14.6105     15.0589     30.0399      2.1097     -56.568
      7234.5     14.0314     29.9202     67.0708     34.8609     45.1085      14.115     15.0589     30.0399      2.0484     -56.568
        7235     14.1417     29.9202     65.7362     37.3283     46.1983     13.5055     15.5524     30.0399      2.0117     -56.568
      7235.5     14.2521     29.9202     65.8463     42.8282     36.5967     13.5055     16.2337     30.0399      2.0096     -56.568
        7236     14.5704     29.9202     68.8469     48.3281     27.9654      12.621     16.3744     30.0399      2.0096     -56.568
      7236.5      14.671     29.9202     72.6169      53.828      26.283     11.5603     16.3744     30.0399      2.0068     -56.568
        7237     14.7715     29.9202     77.9363     55.0173      17.608      4.9319     16.1935     30.0399       2.005     -56.568
      7237.5     14.8521     29.9202     80.7895     54.9051     16.8691      5.0695     15.5139     30.0399       2.006     -56.568
        7238     14.8156     29.9202     81.1929     54.7929     12.5706      5.3561     15.0589     30.0399      2.0153     -56.568
      7238.5     14.7276     29.9202     78.4643     54.6806     12.0697      6.4076     15.0589     30.0399      2.0371     -56.568
        7239     14.6396     29.9202     75.3925     54.5684     12.4004     10.7375      12.651     30.0399      2.0814     -56.568
      7239.5     14.5516     29.9202     70.0479     54.4561      16.046     11.5869       12.12     30.0399      2.0953     -56.568
        7240     14.4636     29.7997     67.0455     54.3439     21.2283     12.8484     12.1123     30.0399      2.0976     -56.568
      7240.5     14.3756     26.9628     64.6261     54.2316     21.9366     13.4113     12.3173     30.0399      2.0997     -56.568
        7241     14.2771     24.5942     63.2007     53.3447     25.2192     13.9989     20.1743     30.0399       2.103     -56.568
      7241.5     14.1758     23.2255     62.2142     47.7003     32.3028     20.9488     24.5593     30.0399      2.5526     -56.568
        7242     14.1087     22.2442     63.7387     41.8076    130.2732     25.6981     25.0991     30.0399      2.6422     -56.568
      7242.5     14.0417     23.5332     65.3241     36.6091    139.7245     30.1161     25.0991     30.0399      2.6443     -56.568
        7243     13.9747     24.4992     66.4966     31.8949    139.7245     34.8567     22.9362     30.0399      2.6483     -56.568
      7243.5     13.9076     25.1297     67.3938     27.1808    139.7245     40.3431     21.9515     30.0399      2.6464     -56.568
        7244     13.8406     25.1297     65.2658      25.023      64.663       42.35     21.9515     30.0399      2.6433     -56.568
      7244.5     13.7735     18.8703     62.1864     24.2585     60.7647     41.4962     21.9736     30.0399      2.5934     -56.568
        7245     13.7065     16.2084     60.6841      23.494     42.8124     40.6595     22.7909     30.0399      2.5934     -56.568
      7245.5     13.6394     17.0498      59.738     22.7296     43.0272     39.8397     24.5502     30.0399      2.5934     -56.568
        7246     13.5729     17.0659     60.2588     21.9651     50.9237     35.5007     26.7215     30.0399      2.6549     -56.568
      7246.5     13.5073     16.9062     59.8731     21.2007     51.1465      31.204     27.8921     30.0399      2.6466     -56.568
        7247     13.4417     16.9062     58.1178     20.4362     53.2077     24.5347     29.6056     30.0399      2.5934     -56.568
      7247.5     13.3761     17.7011     56.1689     19.9704      55.691      23.505     30.6867     30.0399      2.5934     -56.568
        7248     13.3105     18.1111     55.7417     19.9121     37.0158     20.0772     30.6867     30.0399      2.5934     -56.568
      7248.5     13.2894     22.2797     57.7448     19.8159     27.4199     19.8355     30.6867     30.0399      2.6493     -56.568
        7249      13.278     23.2136     61.2436     19.7197     23.6787     19.8527     29.6276     30.0399      2.6524     -56.568
      7249.5     13.2666     23.0539     65.1582     19.6235     21.1848     21.1069       27.68     30.0399      2.6518     -56.568
        7250     13.2551     23.0151     66.3215     19.5273     21.2283     21.5869     27.5212     30.0399      2.6518     -56.568
      7250.5     13.2437     21.2974     68.2629     19.4311     20.9542     21.6873     26.7146     30.0399      2.6517     -56.568
        7251     13.2323     21.0159     67.6976     19.3348     20.2436     23.4085     25.7377     30.0399      2.6441     -56.568
      7251.5     13.2268      20.499      66.671     19.2386     16.7503     24.5471     25.7377     30.0399      2.5934     -56.568
        7252     13.2323      20.499       65.16     19.1424     15.3133     17.9545     25.7377     30.0399      2.6196     -56.568
      7252.5     13.2379     20.3393     64.3045     19.0462     15.3133     17.9545     25.7377     30.0399      2.6304     -56.568
        7253     13.2434     20.0998     64.9482     19.0851     18.7459     17.9545     25.9542     30.0399      2.6312     -56.568
      7253.5      13.249       20.02     65.5855     19.1813     20.3203     17.1795     25.7377     30.0399      2.6314     -56.568
        7254     13.2545       20.02     64.9539     19.2775     24.5748     16.8943     26.2777     30.0399      2.5992     -56.568
      7254.5     13.2601      18.952     64.3099     19.3737     25.8161     16.9322     27.6389     30.0399      2.5983     -56.568
        7255     13.2656     18.5828     62.4974     19.4699     21.7474     18.3542     28.9395     30.0399      2.6013     -56.568
      7255.5     13.2712     18.2177     61.5164     19.5661     19.5183     19.9775     29.3663     30.0399      2.6685    -56.8637
        7256     13.2767     17.8106     62.2017     19.6623     19.8088     21.7443     29.4283     30.0399      2.6143    -57.1826
      7256.5     13.2823     15.3125     61.3128     19.7585     21.0489     28.2182     29.4283     30.0399      2.6148    -57.5015
        7257     13.2878     15.6982     61.1299     19.8548     22.1434     28.9844     29.4283     30.0399      2.6216    -57.8204
      7257.5     13.2933     17.4005     60.8717      19.951     24.5228     24.4304     30.4884     30.0399      2.6186    -58.1392
        7258     13.2988     18.1092     59.5826     19.2182     26.1722       22.82      31.205     30.0399      2.6204    -58.4581
      7258.5      13.303     23.1805     59.3893     18.2754     39.2753     15.3133      31.205     30.0399      2.6348     -58.777
