# Exported from Transform Software 5.2.0 on 17-Oct-2019 by user kathryn.gehrke
# DI Transform - A Product of Drillinginfo, Inc. - www.drillinginfo.com
#
~VERSION INFORMATION
 VERS.        2.0 : LAS ASCII STANDARD - VERSION 2.0
 WRAP.         NO : ONE LINE PER DEPTH STEP

~WELL INFORMATION
#MNEM.UNIT       DATA TYPE       INFORMATION
#---------       ---------       -----------
 STRT.ft                 100 : Start Depth
 STOP.ft               10126 : Stop Depth
 STEP.ft                 0.5 : Step Length
 NULL.               -999.25 : Null Value
 COMP.                       : Company
 WELL.  42109329790000_API14 : Well Name
 FLD.                        : Field Name
 LOC.                        : Well Location
 CNTY.                       : County
 STAT.                       : State or Province
 CTRY.                       : Country
 SRVC.                       : Service Company
 DATE.                       : Date
 API.         42109329790000 : Well Identifier

~CURVE INFORMATION
#MNEM.UNIT       API CODE       CURVE DESCRIPTION
#---------       --------       -----------------
 DEPT.ft        : <Measured Depth>
 DT.us/ft       : Sonic
 GR.gAPI        : Gamma Ray

~PARAMETER INFORMATION
#MNEM.UNIT       VALUE       DESCRIPTION
#---------       -----       -----------
 EKB.ft      3282 : Elevation above MSL

~A      DEPT          DT          GR
# ...
        4006    264.4258     30.6036
      4006.5    264.4258     32.9295
        4007    264.4258     34.4314
      4007.5    264.4258     32.5063
        4008    264.4258     32.9208
      4008.5     264.986     35.1894
        4009     264.986     36.1345
      4009.5     264.986     35.7349
        4010     264.986     37.6606
      4010.5     264.986      38.138
        4011     264.986     36.0309
      4011.5     264.986     33.8527
        4012     264.986      33.626
      4012.5     264.986     34.1893
        4013     264.986     34.0336
      4013.5     264.986     33.2654
        4014     264.986     32.9528
      4014.5     264.986      32.756
        4015     264.986      30.409
      4015.5     264.986     29.5067
        4016     264.986      31.576
      4016.5     264.986      33.792
        4017     264.986     33.2035
      4017.5     264.986     34.2957
        4018     264.986     34.7333
      4018.5     264.986     32.0445
        4019     264.986     29.3558
      4019.5     264.986     28.1603
        4020     264.986     27.7599
      4020.5     264.986     26.0504
        4021     264.986     26.8151
      4021.5     264.986     29.3981
        4022     264.986     33.6253
      4022.5     264.986     36.2338
        4023     264.986     39.1671
      4023.5     264.986      39.401
        4024     264.986     37.8151
      4024.5     264.986     36.9748
        4025     264.986      37.395
      4025.5     264.986     38.3256
        4026     264.986     40.3902
      4026.5     264.986     42.6108
        4027     264.986     42.0168
      4027.5     264.986     40.9191
        4028     264.986     40.3361
      4028.5    265.4406     38.9844
        4029    267.4571     36.8021
      4029.5    267.7871     36.1388
        4030    267.7871     37.6512
      4030.5    267.7871     39.1636
        4031    267.3341      39.916
      4031.5    267.2269     39.3243
        4032    265.2597     39.0788
      4032.5    264.4258     41.1838
        4033    264.4258     46.4787
      4033.5    264.4258     51.1852
        4034    264.4258     56.0129
      4034.5    264.4258     57.9832
        4035    264.4258     55.8341
      4035.5    264.4258     50.2062
        4036    264.4258     49.0769
      4036.5    264.4258     50.5893
        4037    264.4258     51.8924
      4037.5    264.4258     55.3373
        4038    264.4258     56.2181
      4038.5    264.4258     54.1594
        4039    264.4258     51.0507
      4039.5    264.4258     46.8499
        4040    264.4258     41.3037
      4040.5    264.4258     39.4126
        4041    264.4258     38.3204
      4041.5    264.4258     36.9748
        4042    264.4258     36.9748
      4042.5    264.4258     37.6453
        4043    264.4258     37.3129
      4043.5    264.4258     36.1345
        4044    264.4258     34.7083
      4044.5    264.4258     34.0309
        4045    264.4258     34.0336
      4045.5    264.4258     34.5347
        4046    264.4258     34.5412
      4046.5    264.4258     34.7005
        4047    264.4258     37.3911
      4047.5    264.4258     37.5671
        4048    264.4258     36.0547
      4048.5    264.4258     36.0459
        4049    264.4258      37.395
      4049.5    264.4258     36.9698
        4050    264.4258     37.2216
      4050.5    264.4258     38.3138
        4051    264.4258     38.2353
      4051.5    264.4258     38.4934
        4052    264.4258     38.2353
      4052.5    264.4258     37.1493
        4053    264.4258     36.1345
      4053.5    264.4258     34.9649
        4054    264.4258     34.0336
      4054.5    264.4258     33.6208
        4055    264.4258     33.4378
      4055.5    264.4258     34.9882
        4056    264.4258     36.8827
      4056.5    264.4258      36.815
        4057    264.4258     36.1259
      4057.5    264.4258     35.9576
        4058    264.4258     35.2191
      4058.5    264.4258     34.7807
        4059    264.4258     35.0325
      4059.5    264.4258     34.8739
        4060    264.4258     35.7143
      4060.5    264.4258     35.7143
        4061    264.4258     35.2941
      4061.5    264.4258     36.2919
        4062     264.986     36.9857
      4062.5     264.986     34.6021
        4063     264.986     31.8238
      4063.5     264.986     28.8583
        4064     264.986     25.1858
      4064.5     264.986     23.9496
        4065     264.986     25.2695
      4065.5     264.986     28.0798
        4066     264.986     27.6343
      4066.5    265.8566     27.8862
        4067     264.986      30.219
      4067.5     264.986     33.0117
        4068     264.986      33.544
      4068.5     264.986      37.101
        4069     264.986     41.6943
      4069.5     264.986     42.6687
        4070     264.986     41.8341
      4070.5     264.986     43.6257
        4071     264.986     45.3782
      4071.5     264.986     44.3087
        4072    266.0857     42.8571
      4072.5    268.1022     42.8571
        4073    268.9076     41.9488
      4073.5    268.9076     40.4365
        4074    268.9076     38.1423
      4074.5    269.4454     36.5546
        4075    268.8408     38.9156
      4075.5    266.5776     42.0836
        4076     264.986     44.6535
      4076.5    264.4258     49.9712
        4077    264.4258     55.6527
      4077.5    264.4258     53.1967
        4078    264.4258     50.3545
      4078.5    264.4258      47.787
        4079    264.4258     43.3245
      4079.5    264.4258     40.3648
        4080    264.4258     38.6555
      4080.5    264.4258     37.0882
        4081    264.4258     34.6096
      4081.5     264.986      32.341
        4082     264.986     30.2724
      4082.5     264.986       28.76
        4083     264.986     28.5714
      4083.5     264.986     29.3067
        4084     264.986     30.8191
      4084.5     264.986     31.0924
        4085     264.986     32.1632
      4085.5     264.986     34.0099
        4086     264.986     37.2888
      4086.5     264.986     38.8096
        4087     264.986     43.4308
      4087.5     264.986     45.3782
        4088     264.986     44.4464
      4088.5     264.986     42.8571
        4089     264.986     41.8001
      4089.5     264.986     39.3214
        4090     264.986     37.8151
      4090.5     264.986     37.8151
        4091     264.986     38.9671
      4091.5     264.986     40.0593
        4092     264.986     40.7563
      4092.5     264.986     39.2689
        4093     264.986      38.714
      4093.5     264.986     40.2264
        4094    264.4258     38.3001
      4094.5    264.4258     35.7404
        4095    264.4258     35.2941
      4095.5    264.4258     35.2367
        4096    264.4258      33.205
      4096.5    264.4258     31.6536
        4097    264.4258     31.1198
      4097.5    264.4258     30.0565
        4098    264.4258     31.4564
      4098.5    264.4258     32.2409
        4099    264.4258     35.0134
      4099.5     264.986     38.9901
        4100     264.986     40.7563
      4100.5     264.986      39.971
        4101     264.986     40.7563
      4101.5     264.986     39.7773
        4102     264.986     38.6555
      4102.5     264.986     39.0756
        4103     264.986     38.1545
      4103.5     264.986       35.16
        4104     264.986     31.7953
      4104.5     264.986     30.7031
        4105    264.4258     30.8714
      4105.5    264.4258      30.725
        4106    264.4258      32.752
      4106.5    264.4258     35.0102
        4107    264.4258     34.8739
      4107.5    264.4258      35.514
        4108    264.4258     37.4465
      4108.5    264.4258      38.352
        4109    264.4258     38.2353
      4109.5    264.4258     38.6555
        4110    264.4258     37.5965
      4110.5    264.4258     36.5042
        4111    264.4258     35.2941
      4111.5    264.4258     33.8997
        4112    265.5004     33.1933
      4112.5    267.5169     32.5556
        4113    268.9076     31.6489
      4113.5    267.9459     30.2521
        4114    267.7871     32.7512
