###############################################
##         ENVERUS                           ##
##         ESS - Open Hole                   ##
##         PERMIAN / DELAWARE                ##
##         Nov 03 2023  V4.0                 ##
##         42-109-32508-00-00                ##
###############################################
## Copyright 2017-2023  ENVERUS.  All Rights Reserved. 
## Confidential - Property of ENVERUS, use governed by terms and 
## conditions found within the existing Information Services Subscription Agreement 
## (as may be amended, the “ISSA”) between Customer and ENVERUS. 
## 
~VERSION INFORMATION
# MNEM.UNIT                               DATA : DESCRIPTION OF MNEMONIC
#-----.-----     ----------------------------- : -----------------------------
VERS.                                     2.00 : CWLS LOG ASCII STANDARD - VERSION 2.00
WRAP.                                       NO : MULTIPLE LINES PER DEPTH STEP
VEND.                                  ENVERUS : VENDOR
TYPE.                          ESS - OPEN HOLE : ENVERUS ESSENTIAL CURVES – ACCESSIBLE THROUGH ENVERUS PRISM(TM)
DOC.                                  51093165 : ENVERUS HEADER RAW DOCUMENT ID
#___________________________________________________________________________________________________ 
~WELL INFORMATION 
# 1l9uGBxUQQhBCtjIwzslcirW42fLV8cokTOAxV7sfA093x4JFuWG6+twQwU/7oNL7vvW02EVanlAmdL+peO2nw== 
# MNEM.UNIT                                              DATA : DESCRIPTION OF MNEMONIC 
#-----.-----                    ----------------------------- : ----------------------------- 
CNTY.                                               CULBERSON : COUNTY 
STATE.                                                  TEXAS : STATE 
CNTRY.                                                    USA : COUNTRY 
API.                                             42-109-32508 : API (10 Digit) 
API_14.                                    42-109-32508-00-00 : API (14 Digits) 
API_14_std.                                 42-109-32508-0000 : API (14 Digits Standard) 
UWI.                                           42109325080000 : UNIQUE WELL ID 
WELL.                                  LT. GIBSON 12 STATE 1H : WELL NAME
STRT.FT                                                1970.5 : START DEPTH
STOP.FT                                                8727.0 : STOP DEPTH
STEP.FT                                                   0.5 : STEP BETWEEN DEPTHS
NULL.                                                 -999.25 : NULL VALUE
PREV_APII.                                     42109325080000 : WELL IDENTIFIER
#___________________________________________________________________________________________________ 
~PARAMETER INFORMATION 
# MNEM.UNIT                                              DATA : DESCRIPTION OF MNEMONIC 
#-----.-----                    ----------------------------- : ----------------------------- 
EKB.FT                                                   3552 : ELEVATION ABOVE MSL
#___________________________________________________________________________________________________ 
~CURVE INFORMATION 
# MNEM.UNIT           : CURVE DESCRIPTION 
#-----.-----          : ----------------------------- 
 DEPT.FT               : MEASURED DEPTH 
 GR__A.API             : GAMMA RAY (GAMMA RAY) 
 DT__A.US/FT           : SONIC DELTA TRANSIT TIME (SONIC) 
 #___________________________________________________________________________________________________ 
~A         DEPT          GR__A          DT__A
# ...
         6407.5        399.388         77.393
         6408.0        366.488        109.820
         6408.5        343.483         84.086
         6409.0        362.504         55.556
         6409.5        384.199         55.123
         6410.0        385.185         61.795
         6410.5        359.119         77.768
         6411.0        364.699         68.290
         6411.5        380.583         67.434
         6412.0        408.507         48.780
         6412.5        415.234         66.319
         6413.0        403.900         67.446
         6413.5        391.398         67.048
         6414.0        400.034         58.066
         6414.5        411.075         45.017
         6415.0        417.237         44.055
         6415.5        424.322         43.839
         6416.0        429.347         52.461
         6416.5        443.083         53.866
         6417.0        447.981         59.662
         6417.5        408.654         99.933
         6418.0        342.105        106.669
         6418.5        311.479        105.263
         6419.0        327.794         99.650
         6419.5        345.726         89.637
         6420.0        354.412         95.746
         6420.5        355.346        103.467
         6421.0        352.600        115.667
         6421.5        342.620        123.336
         6422.0        323.828        123.123
         6422.5        303.360        121.713
         6423.0        292.414        130.593
         6423.5        287.874        142.093
         6424.0        268.179        147.549
         6424.5        243.198        153.190
         6425.0        229.881        156.432
         6425.5        232.070        155.453
         6426.0        242.863        152.047
         6426.5        262.921        129.786
         6427.0        334.934         94.913
         6427.5        392.736         95.322
         6428.0        452.864         88.376
         6428.5        483.603         96.474
         6429.0        462.468        103.853
         6429.5        428.577        105.429
         6430.0        426.450         95.212
         6430.5        449.733         94.347
         6431.0        518.767         95.031
         6431.5        545.585         74.860
         6432.0        509.778         82.493
         6432.5        482.536         82.137
         6433.0        467.251         77.798
         6433.5        447.791         99.238
         6434.0        454.641         85.209
         6434.5        474.576         85.380
         6435.0        467.218         93.685
         6435.5        454.136         79.596
         6436.0        496.854         62.167
         6436.5        553.837         71.396
         6437.0        522.947        122.313
         6437.5        450.101        114.357
         6438.0        362.277        108.976
         6438.5        386.597        109.144
         6439.0        402.226        119.031
         6439.5        373.313        131.470
         6440.0        329.364        133.554
         6440.5        324.642        130.502
         6441.0        336.787        120.231
         6441.5        353.315        113.976
         6442.0        356.334        106.922
         6442.5        354.652        119.412
         6443.0        350.681        110.878
         6443.5        357.608        115.109
         6444.0        380.195        112.262
         6444.5        416.531        118.261
         6445.0        423.624        112.086
         6445.5        405.435        112.086
         6446.0        407.842        119.820
         6446.5        414.603        119.148
         6447.0        397.956        121.608
         6447.5        383.745        125.982
         6448.0        377.943        125.194
         6448.5        366.526        122.383
         6449.0        362.997        117.564
         6449.5        374.943        120.519
         6450.0        377.519        120.654
         6450.5        364.121        127.067
         6451.0        325.378        137.383
         6451.5        316.047        139.106
         6452.0        310.318        140.332
         6452.5        308.684        139.000
         6453.0        320.097        130.657
         6453.5        342.843        119.169
         6454.0        384.715        114.276
         6454.5        402.968        109.831
         6455.0        404.391        116.631
         6455.5        385.342        119.013
         6456.0        365.855        124.447
         6456.5        357.621        127.988
         6457.0        347.016        133.960
         6457.5        323.604        132.996
         6458.0        311.766        130.716
         6458.5        314.056        121.041
         6459.0        336.186        121.581
         6459.5        353.845        122.222
         6460.0        356.629        122.996
         6460.5        357.031        122.230
         6461.0        358.594        114.418
         6461.5        358.984        116.412
         6462.0        360.403        115.779
         6462.5        371.295        108.887
         6463.0        386.196        109.702
         6463.5        393.622        107.085
         6464.0        392.134        108.577
         6464.5        385.106        111.100
         6465.0        366.205        118.233
         6465.5        334.189        120.584
         6466.0        305.773        119.199
         6466.5        292.541        108.875
         6467.0        293.462         98.791
         6467.5        298.599        101.102
         6468.0        325.272         98.726
         6468.5        352.167         94.499
         6469.0        381.969         92.270
         6469.5        394.922        102.508
         6470.0        379.131        110.525
         6470.5        361.669        100.382
         6471.0        348.998         95.322
         6471.5        389.751         82.709
         6472.0        441.752        102.803
         6472.5        462.537        107.321
         6473.0        411.092         98.956
         6473.5        371.325        114.553
         6474.0        365.625        109.920
         6474.5        367.306        108.211
         6475.0        383.191        111.099
         6475.5        398.713        107.184
         6476.0        389.486        111.236
         6476.5        363.696        116.233
         6477.0        348.546        114.222
         6477.5        358.757        110.896
         6478.0        378.407        115.606
         6478.5        365.055        127.765
         6479.0        349.450        130.053
         6479.5        325.336        138.360
         6480.0        299.358        136.295
         6480.5        302.088        128.126
         6481.0        345.920         99.956
         6481.5        397.075         91.228
         6482.0        410.461         98.982
         6482.5        374.850        108.546
         6483.0        326.962        109.955
         6483.5        304.743        108.781
         6484.0        298.818        104.324
         6484.5        302.333        101.951
         6485.0        313.702        103.704
         6485.5        326.939        103.098
         6486.0        332.880        100.161
         6486.5        344.776        100.015
         6487.0        368.944        100.799
         6487.5        375.413        106.301
         6488.0        358.989        112.281
         6488.5        334.587        112.476
         6489.0        317.045        112.580
         6489.5        316.566        104.086
         6490.0        331.299        101.798
         6490.5        354.065        103.833
         6491.0        376.380        105.636
         6491.5        373.716        105.095
         6492.0        373.558        105.879
         6492.5        376.434        110.068
         6493.0        369.081        113.587
         6493.5        344.844        114.548
         6494.0        326.157        113.221
