###############################################
##         ENVERUS                           ##
##         ESS - Open Hole                   ##
##         PERMIAN / DELAWARE                ##
##         Nov 02 2023  V4.0                 ##
##         42-109-32297-90-00                ##
###############################################
## Copyright 2017-2023  ENVERUS.  All Rights Reserved. 
## Confidential - Property of ENVERUS, use governed by terms and 
## conditions found within the existing Information Services Subscription Agreement 
## (as may be amended, the “ISSA”) between Customer and ENVERUS. 
## 
~VERSION INFORMATION
# MNEM.UNIT                               DATA : DESCRIPTION OF MNEMONIC
#-----.-----     ----------------------------- : -----------------------------
VERS.                                     2.00 : CWLS LOG ASCII STANDARD - VERSION 2.00
WRAP.                                       NO : MULTIPLE LINES PER DEPTH STEP
VEND.                                  ENVERUS : VENDOR
TYPE.                          ESS - OPEN HOLE : ENVERUS ESSENTIAL CURVES – ACCESSIBLE THROUGH ENVERUS PRISM(TM)
DOC.                                  52921007 : ENVERUS HEADER RAW DOCUMENT ID
#___________________________________________________________________________________________________ 
~WELL INFORMATION 
# EM3SY5Bwx6x9YoJmjxbMXtwK21/gMzSEmeWIZ71LA4UD3Y8PQw/mHJ0IHc4n7dRi3zAL189RIdETacnakexX1Q== 
# MNEM.UNIT                                              DATA : DESCRIPTION OF MNEMONIC 
#-----.-----                    ----------------------------- : ----------------------------- 
CNTY.                                               CULBERSON : COUNTY 
STATE.                                                  TEXAS : STATE 
CNTRY.                                                    USA : COUNTRY 
API.                                             42-109-32297 : API (10 Digit) 
API_14.                                    42-109-32297-90-00 : API (14 Digits) 
API_14_std.                                 42-109-32297-9000 : API (14 Digits Standard) 
UWI.                                           42109322979000 : UNIQUE WELL ID 
WELL.                          MELISSA TAYLOR STATE 105-3  1H : WELL NAME
STRT.FT                                                 200.0 : START DEPTH
STOP.FT                                               10260.0 : STOP DEPTH
STEP.FT                                                   0.5 : STEP BETWEEN DEPTHS
NULL.                                                 -999.25 : NULL VALUE
PREV_API.                                        421093229700 : API NUMBER 
COMP.                              CHESAPEAKE OPERATING  INC. : COMPANY 
DATE.                                             17-JUN-2008 : LOG DATE
#___________________________________________________________________________________________________ 
~CURVE INFORMATION 
# MNEM.UNIT           : CURVE DESCRIPTION 
#-----.-----          : ----------------------------- 
 DEPT.FT               : MEASURED DEPTH 
 CALI.IN               : CALIPER (CAL - CAL) 
 GR.API                : GAMMA RAY (GR) 
 DT.US/FT              : SONIC DELTA TRANSIT TIME (DT) 
 RESS.OHMM             : SHALLOW INDUCTION RESISTIVITY (ILS - ILS) 
 RESD.OHMM             : DEEP INDUCTION RESISTIVITY (ILD - ILD) 
 DPHI.V/V              : DENSITY POROSITY (DPHI) 
 NPHI.V/V              : NEUTRON POROSITY (NPHI) 
 RHOB.G/CC             : BULK DENSITY (RHOB) 
 #___________________________________________________________________________________________________ 
~A         DEPT           CALI             GR             DT           RESS           RESD           DPHI           NPHI           RHOB
# ...
        10200.5         12.330         98.666         65.783        151.498        159.298        0.04943        0.10456         2.6160
        10201.0         12.335         98.290         62.869        192.255        206.539        0.03147        0.09270         2.6390
        10201.5         12.340         98.964         62.343        233.011        244.523        0.02602        0.08085         2.6620
        10202.0         12.286         99.639         63.442        177.414        182.420        0.04471        0.06869         2.6520
        10202.5         12.294        100.313         66.923         56.056         81.273        0.04659        0.05536         2.6410
        10203.0         12.338        100.898         70.518         48.640         38.718        0.04158        0.04204         2.6450
        10203.5         12.383        100.402         71.347         41.223         34.333        0.03296        0.03591         2.6550
        10204.0         12.395         99.905         69.602         34.812         39.795        0.02806        0.03645         2.6590
        10204.5         12.388         99.787         67.294         72.332         67.496        0.03631        0.03699         2.6490
        10205.0         12.380        100.544         64.986        109.853         85.304        0.04455        0.03753         2.6380
        10205.5         12.373        101.015         62.678        133.031        101.384        0.04444        0.03807         2.6340
        10206.0         12.379        100.212         63.465        149.686        114.975        0.04348        0.03799         2.6370
        10206.5         12.398         99.409         65.428        123.170        119.332        0.04307        0.03759         2.6410
        10207.0         12.417         99.532         67.391         82.944         87.008        0.03881        0.03721         2.6500
        10207.5         12.437         99.766         67.624         42.719         54.684        0.03091        0.03690         2.6580
        10208.0         12.456         98.413         64.779         66.044         70.371        0.02300        0.03659         2.6670
        10208.5         12.447         96.952         60.367        175.625        185.585        0.01527        0.03647         2.6760
        10209.0         12.434         95.492         55.981        327.232        366.429        0.01709        0.03779         2.6720
        10209.5         12.421         94.043         54.740        478.839        548.119        0.02497        0.03912         2.6690
        10210.0         12.408         94.355         53.498        410.120        675.321        0.02868        0.04044         2.6720
        10210.5         12.394         94.667         52.257        311.598        764.103        0.02443        0.04176         2.6780
        10211.0         12.381         94.979         51.558        516.688        852.884        0.01747        0.04308         2.6850
        10211.5         12.368         95.291         51.358        721.779       1005.926        0.01187        0.03972         2.6790
        10212.0         12.355         95.277         52.294        926.870        905.837        0.01516        0.03602         2.6720
        10212.5         12.324         95.049         53.209        856.504        797.668        0.02834        0.03623         2.6450
        10213.0         12.291         94.820         53.444        702.755        714.886        0.04136        0.03644         2.6180
        10213.5         12.257         94.592         53.056        625.751        785.766        0.05468        0.03665         2.5910
        10214.0         12.224         94.364         52.452        665.977        849.241        0.06919        0.03686         2.5700
        10214.5         12.191         94.029         52.033        706.204        897.946        0.08371        0.03707         2.5650
        10215.0         11.971         93.602         53.313        746.430        876.166        0.08897        0.03727         2.5840
        10215.5         11.741         93.176         54.592        375.077        702.514        0.06964        0.03748         2.6070
        10216.0         11.511         92.750         55.871        312.805        390.784        0.05018        0.03769         2.6360
        10216.5         11.486         92.323         56.270        250.533        269.034        0.03394        0.03790         2.6650
        10217.0         11.486         91.968         55.325        210.321        234.894        0.02690        0.03735         2.6630
        10217.5         11.486         92.006         53.478        473.236        646.049        0.02796        0.03595         2.6620
        10218.0         11.486         92.044         51.632        736.150       1159.069        0.02902        0.03505         2.6620
        10218.5         11.486         92.083         49.786        999.064       1492.939        0.02812        0.03495         2.6640
        10219.0         11.486         92.121         51.196        920.997       1368.664        0.02592        0.03486         2.6660
        10219.5         11.486         92.160         52.658        767.269       1058.468        0.02669        0.03476         2.6650
        10220.0         11.486         92.198         52.686        459.269        655.728        0.02969        0.03466         2.6650
        10220.5         11.486         92.236         51.879        264.922        262.574        0.03014        0.03456         2.6640
        10221.0         11.486         92.275         51.072        571.115        768.712        0.02656        0.03447         2.6670
        10221.5         11.486         92.313         50.265       1077.085       1189.061        0.02297        0.03356         2.6710
        10222.0         11.486         92.352         49.458       1583.055       1623.937        0.02261        0.03410         2.6740
        10222.5         11.486         92.390         49.475       1696.891       1686.391        0.02247        0.03476         2.6720
        10223.0         11.486         92.428         49.502       1480.066       1574.538        0.02107        0.03542         2.6700
        10223.5         11.486         92.467         49.528       1131.397       1083.872        0.02269        0.03469         2.6690
        10224.0         11.486         92.505         49.555        677.888       1039.051        0.02444        0.03233         2.6710
        10224.5         11.492         92.544         49.958        715.782       1107.513        0.02562        0.02997         2.6710
        10225.0         11.497         92.582         50.921        799.571       1143.847        0.02199        0.02761         2.6660
        10225.5         11.503       -999.250         54.000        755.010       1036.821        0.02388        0.02525         2.6620
        10226.0         11.509       -999.250         58.076        463.578        929.795        0.02914        0.02338         2.6570
        10226.5       -999.250       -999.250         61.265        172.146        216.697        0.03440        0.02314         2.6520
        10227.0       -999.250       -999.250         60.743        168.112        122.978        0.03507        0.02291         2.6520
        10227.5       -999.250       -999.250         57.490        278.352        234.712        0.03204        0.02268         2.6570
        10228.0       -999.250       -999.250         54.236        388.591        409.876        0.02902        0.02245         2.6610
        10228.5       -999.250       -999.250         52.414        498.831        585.040        0.02893        0.02222         2.6620
        10229.0       -999.250       -999.250         53.667        564.249        623.518        0.02853        0.02209         2.6600
        10229.5       -999.250       -999.250         56.249        492.348        608.487        0.02724        0.02202         2.6570
