###############################################
##         ENVERUS                           ##
##         ESS - Open Hole                   ##
##         PERMIAN / DELAWARE                ##
##         Nov 02 2023  V4.0                 ##
##         42-109-10429-00-00                ##
###############################################
## Copyright 2017-2023  ENVERUS.  All Rights Reserved. 
## Confidential - Property of ENVERUS, use governed by terms and 
## conditions found within the existing Information Services Subscription Agreement 
## (as may be amended, the “ISSA”) between Customer and ENVERUS. 
## 
~VERSION INFORMATION
# MNEM.UNIT                               DATA : DESCRIPTION OF MNEMONIC
#-----.-----     ----------------------------- : -----------------------------
VERS.                                     2.00 : CWLS LOG ASCII STANDARD - VERSION 2.00
WRAP.                                       NO : MULTIPLE LINES PER DEPTH STEP
VEND.                                  ENVERUS : VENDOR
TYPE.                          ESS - OPEN HOLE : ENVERUS ESSENTIAL CURVES – ACCESSIBLE THROUGH ENVERUS PRISM(TM)
DOC.                                  32032754 : ENVERUS HEADER RAW DOCUMENT ID
#___________________________________________________________________________________________________ 
~WELL INFORMATION 
# hXqYWT5FmhW7UEcPXxReyvN++rqgSwBrBdup88XCyeQNQmx1Fo1vv7xYmZNr9HC+TZh0ltY2ePdKOSE9Z1hlZw== 
# MNEM.UNIT                                              DATA : DESCRIPTION OF MNEMONIC 
#-----.-----                    ----------------------------- : ----------------------------- 
CNTY.                                               CULBERSON : COUNTY 
STATE.                                                  TEXAS : STATE 
CNTRY.                                                    USA : COUNTRY 
API.                                             42-109-10429 : API (10 Digit) 
API_14.                                    42-109-10429-00-00 : API (14 Digits) 
API_14_std.                                 42-109-10429-0000 : API (14 Digits Standard) 
UWI.                                           42109104290000 : UNIQUE WELL ID 
WELL.                                          ROUNSAVILLE  1 : WELL NAME
STRT.FT                                                     0 : START DEPTH
STOP.FT                                                8409.0 : STOP DEPTH
STEP.FT                                                   0.5 : STEP BETWEEN DEPTHS
NULL.                                                 -999.25 : NULL VALUE
COMP.                                     EOG RESOURCES  INC. : COMPANY
#___________________________________________________________________________________________________ 
~CURVE INFORMATION 
# MNEM.UNIT           : CURVE DESCRIPTION 
#-----.-----          : ----------------------------- 
 DEPT.FT               : MEASURED DEPTH 
 CALI.IN               : CALIPER (CAL - CAL) 
 GR.API                : GAMMA RAY (GR) 
 SP.MV                 : SPONTANEOUS POTENTIAL (SP) 
 DT.US/FT              : SONIC DELTA TRANSIT TIME (DT) 
 RESD.OHMM             : DEEP INDUCTION RESISTIVITY (ILD - ILD) 
 #___________________________________________________________________________________________________ 
~A         DEPT           CALI             GR             SP             DT           RESD
# ...
          396.0         13.202         32.388       -999.250       -999.250       -999.250
          396.5         13.184         33.846       -999.250       -999.250       -999.250
          397.0         13.117         35.303       -999.250       -999.250       -999.250
          397.5         13.051         36.468       -999.250       -999.250       -999.250
          398.0         12.984         35.692       -999.250       -999.250       -999.250
          398.5         12.917         34.917       -999.250       -999.250       -999.250
          399.0         12.898         34.974       -999.250       -999.250       -999.250
          399.5         12.901         35.759       -999.250       -999.250       -999.250
          400.0         12.905         37.252       -999.250       -999.250       -999.250
          400.5         12.908         39.062       -999.250       -999.250       -999.250
          401.0         12.911         45.240       -999.250       -999.250       -999.250
          401.5         12.918         51.419       -999.250       -999.250       -999.250
          402.0         12.939         57.597       -999.250       -999.250       -999.250
          402.5         12.960         62.017       -999.250       -999.250       -999.250
          403.0         12.981         64.920       -999.250       -999.250       -999.250
          403.5         13.002         67.592       -999.250       -999.250          1.712
          404.0         12.997         66.558       -999.250       -999.250          1.988
          404.5         12.977         65.523       -999.250       -999.250          3.795
          405.0         12.957         64.489       -999.250       -999.250          8.270
          405.5         12.937         66.746       -999.250       -999.250         12.744
          406.0         12.916         70.264       -999.250       -999.250        171.826
          406.5         12.896         72.214       -999.250       -999.250        461.226
          407.0         12.876         73.059       -999.250       -999.250        750.626
          407.5         12.856         73.904       -999.250       -999.250       1040.025
          408.0         12.835         72.649       -999.250       -999.250        969.746
          408.5         12.815         68.915       -999.250       -999.250        638.516
          409.0         12.804         65.180       -999.250       -999.250        307.286
          409.5         12.798         61.446       -999.250       -999.250        904.993
          410.0         12.793         63.315       -999.250       -999.250       1521.280
          410.5         12.787         67.504       -999.250       -999.250       1570.669
          411.0         12.782         71.693       -999.250       -999.250       1568.441
          411.5         12.776         75.882       -999.250       -999.250       1566.214
          412.0         12.770         72.594       -999.250       -999.250       1563.986
          412.5         12.765         67.756       -999.250       -999.250       1561.759
          413.0         12.759         63.391       -999.250       -999.250       1559.531
          413.5         12.754         66.674       -999.250       -999.250       1557.304
          414.0         12.748         67.532       -999.250       -999.250       1555.076
          414.5         12.743         67.335       -999.250       -999.250       1552.849
          415.0         12.737         67.139       -999.250       -999.250       1550.621
          415.5         12.732         66.942       -999.250       -999.250       1548.393
          416.0         12.726         69.348       -999.250       -999.250       1546.166
          416.5         12.721         73.608       -999.250       -999.250       1543.938
          417.0         12.729         77.868       -999.250       -999.250       1541.711
          417.5         12.774         75.785       -999.250       -999.250       1539.483
          418.0         12.815         70.661       -999.250       -999.250       1537.256
          418.5         12.810         65.657       -999.250       -999.250       1535.028
          419.0         12.806         60.777       -999.250       -999.250       1532.801
          419.5         12.801         55.897       -999.250       -999.250       1530.573
          420.0         12.803         51.016       -999.250       -999.250       1528.346
          420.5         12.807         48.014       -999.250       -999.250       1526.118
          421.0         12.811         48.708       -999.250       -999.250       1523.891
          421.5         12.815         52.656       -999.250       -999.250       1521.663
          422.0         12.847         58.971       -999.250       -999.250       1519.436
          422.5         12.932         65.287       -999.250       -999.250       1438.585
          423.0         12.933         65.657       -999.250       -999.250       1099.645
          423.5         12.933         63.293       -999.250       -999.250        866.566
          424.0         12.934         60.928       -999.250       -999.250        719.028
          424.5         12.934         58.542       -999.250       -999.250        592.638
          425.0         12.965         56.113       -999.250       -999.250        596.429
          425.5         12.998         53.684       -999.250       -999.250        564.475
          426.0         13.032         52.240       -999.250       -999.250        484.820
          426.5         13.040         51.509       -999.250       -999.250        406.038
          427.0         13.020         50.779       -999.250       -999.250        431.013
          427.5         12.999         50.663       -999.250       -999.250        455.987
          428.0         12.986         52.426       -999.250       -999.250        480.962
          428.5         12.986         54.189       -999.250       -999.250        505.937
          429.0         12.987         57.940       -999.250       -999.250        530.911
          429.5         12.987         62.498       -999.250       -999.250        555.886
          430.0         12.988         67.057       -999.250       -999.250        580.860
          430.5         12.984         71.616       -999.250       -999.250        577.384
          431.0         12.977         74.367       -999.250       -999.250        532.547
          431.5         12.970         71.870       -999.250       -999.250        487.711
          432.0         12.964         69.372       -999.250       -999.250        464.172
          432.5         12.957         66.875       -999.250       -999.250        505.170
          433.0         12.950         64.378       -999.250       -999.250        519.596
          433.5         12.944         64.738       -999.250       -999.250        466.541
          434.0         12.937         83.358       -999.250       -999.250        413.486
          434.5         12.931        101.977       -999.250       -999.250        360.431
          435.0         12.924        117.878       -999.250       -999.250        406.134
          435.5         12.917        132.380       -999.250       -999.250        506.369
          436.0         12.910        140.466       -999.250       -999.250        611.151
          436.5         12.902        139.907       -999.250       -999.250        722.414
          437.0         12.893        135.322       -999.250       -999.250        879.524
          437.5         12.884        130.737       -999.250       -999.250       1232.495
          438.0         12.875        126.152       -999.250       -999.250       1585.467
          438.5         12.867        125.020       -999.250       -999.250       1605.635
          439.0         12.858        125.391       -999.250       -999.250       1607.267
          439.5         12.853        125.763       -999.250       -999.250       1608.899
