###############################################
##         ENVERUS                           ##
##         ESS - Open Hole                   ##
##         PERMIAN / DELAWARE                ##
##         Nov 02 2023  V4.0                 ##
##         42-109-32297-90-00                ##
###############################################
## Copyright 2017-2023  ENVERUS.  All Rights Reserved. 
## Confidential - Property of ENVERUS, use governed by terms and 
## conditions found within the existing Information Services Subscription Agreement 
## (as may be amended, the “ISSA”) between Customer and ENVERUS. 
## 
~VERSION INFORMATION
# MNEM.UNIT                               DATA : DESCRIPTION OF MNEMONIC
#-----.-----     ----------------------------- : -----------------------------
VERS.                                     2.00 : CWLS LOG ASCII STANDARD - VERSION 2.00
WRAP.                                       NO : MULTIPLE LINES PER DEPTH STEP
VEND.                                  ENVERUS : VENDOR
TYPE.                          ESS - OPEN HOLE : ENVERUS ESSENTIAL CURVES – ACCESSIBLE THROUGH ENVERUS PRISM(TM)
DOC.                                  52921007 : ENVERUS HEADER RAW DOCUMENT ID
#___________________________________________________________________________________________________ 
~WELL INFORMATION 
# EM3SY5Bwx6x9YoJmjxbMXtwK21/gMzSEmeWIZ71LA4UD3Y8PQw/mHJ0IHc4n7dRi3zAL189RIdETacnakexX1Q== 
# MNEM.UNIT                                              DATA : DESCRIPTION OF MNEMONIC 
#-----.-----                    ----------------------------- : ----------------------------- 
CNTY.                                               CULBERSON : COUNTY 
STATE.                                                  TEXAS : STATE 
CNTRY.                                                    USA : COUNTRY 
API.                                             42-109-32297 : API (10 Digit) 
API_14.                                    42-109-32297-90-00 : API (14 Digits) 
API_14_std.                                 42-109-32297-9000 : API (14 Digits Standard) 
UWI.                                           42109322979000 : UNIQUE WELL ID 
WELL.                          MELISSA TAYLOR STATE 105-3  1H : WELL NAME
STRT.FT                                                 200.0 : START DEPTH
STOP.FT                                               10260.0 : STOP DEPTH
STEP.FT                                                   0.5 : STEP BETWEEN DEPTHS
NULL.                                                 -999.25 : NULL VALUE
PREV_API.                                        421093229700 : API NUMBER 
COMP.                              CHESAPEAKE OPERATING  INC. : COMPANY 
DATE.                                             17-JUN-2008 : LOG DATE
#___________________________________________________________________________________________________ 
~CURVE INFORMATION 
# MNEM.UNIT           : CURVE DESCRIPTION 
#-----.-----          : ----------------------------- 
 DEPT.FT               : MEASURED DEPTH 
 CALI.IN               : CALIPER (CAL - CAL) 
 GR.API                : GAMMA RAY (GR) 
 DT.US/FT              : SONIC DELTA TRANSIT TIME (DT) 
 RESS.OHMM             : SHALLOW INDUCTION RESISTIVITY (ILS - ILS) 
 RESD.OHMM             : DEEP INDUCTION RESISTIVITY (ILD - ILD) 
 DPHI.V/V              : DENSITY POROSITY (DPHI) 
 NPHI.V/V              : NEUTRON POROSITY (NPHI) 
 RHOB.G/CC             : BULK DENSITY (RHOB) 
 #___________________________________________________________________________________________________ 
~A         DEPT           CALI             GR             DT           RESS           RESD           DPHI           NPHI           RHOB
# ...
         7811.0         12.394        103.614         59.666        132.798        152.249        0.01676        0.05152         2.6810
         7811.5         12.395        103.943         60.324         93.263        112.920        0.01761        0.05963         2.6810
         7812.0         12.397        108.352         61.007         95.597         97.552        0.01841        0.07172         2.6810
         7812.5         12.398        110.315         61.689        105.163        103.380        0.02342        0.07874         2.6740
         7813.0         12.400        110.215         61.891        114.730        111.580        0.02862        0.07832         2.6630
         7813.5         12.401        110.741         61.299        121.226        113.542        0.03193        0.07443         2.6640
         7814.0         12.403        113.067         60.944        114.359        113.181        0.02133        0.06986         2.6680
         7814.5         12.404        115.393         61.113        107.491        107.419        0.01872        0.06529         2.6720
         7815.0         12.406        114.907         61.201        108.847        122.296        0.02159        0.06071         2.6750
         7815.5         12.407        111.528         60.773        121.812        135.245        0.03732        0.05614         2.6560
         7816.0         12.409        108.149         60.346        134.777        138.914        0.04139        0.05122         2.6340
         7816.5         12.412        104.770         59.918        135.825        138.777        0.04394        0.04563         2.6370
         7817.0         12.417        100.029         59.638        136.427        162.721        0.04412        0.04005         2.6400
         7817.5         12.421         94.180         59.299        153.738        165.816        0.03861        0.03447         2.6420
         7818.0         12.426         89.351         58.308        264.290        192.518        0.03214        0.02888         2.6470
         7818.5         12.430         84.631         56.489        523.610        659.716        0.02459        0.02330         2.6640
         7819.0         12.434         80.164         54.671        694.170       1290.222        0.02162        0.01772         2.6780
         7819.5         12.439         81.931         54.393        686.491        564.074        0.02336        0.01213         2.6730
         7820.0         12.433         91.324         55.220        372.387        220.142        0.02344        0.00896         2.6700
         7820.5         12.425        100.450         56.529        210.772        218.411        0.02058        0.01153         2.6750
         7821.0         12.416         97.826         56.842        240.829        267.197        0.01772        0.01595         2.6790
         7821.5         12.409         94.182         56.837        263.401        231.592        0.01486        0.02036         2.6830
         7822.0         12.408         93.656         57.155        174.905        180.956        0.01166        0.02366         2.6880
         7822.5         12.406         97.464         57.472        154.744        150.563        0.00668        0.02543         2.6920
         7823.0         12.404        101.627         57.790        177.319        204.421        0.00944        0.02720         2.6930
         7823.5         12.402        104.138         58.060        175.482        213.758        0.01283        0.02897         2.6880
         7824.0         12.401        103.326         58.311        175.855        201.730        0.01749        0.03073         2.6830
         7824.5         12.399        102.513         58.694        183.288        189.703        0.02318        0.03250         2.6790
         7825.0         12.397        101.346         59.094        167.275        178.925        0.02317        0.03374         2.6740
         7825.5         12.395         98.958         58.612        177.216        168.262        0.01881        0.03491         2.6770
         7826.0         12.459         96.569         58.130        227.052        228.216        0.01514        0.03609         2.6800
         7826.5         12.467         97.806         58.485        255.164        296.731        0.01678        0.03727         2.6840
         7827.0         12.476        103.709         59.653        202.571        167.669        0.02614        0.04126         2.6740
         7827.5         12.484        110.025         63.159        149.978        131.359        0.04019        0.05542         2.6580
         7828.0         12.548        116.570         65.734         97.385         99.060        0.04062        0.07686         2.6470
         7828.5         12.618        111.651         65.494        136.601        133.567        0.03965        0.08820         2.6520
         7829.0         12.672        106.731         63.808        189.403        212.163        0.02868        0.07916         2.6570
         7829.5         12.609        102.963         61.545        218.312        214.486        0.02527        0.06418         2.6620
         7830.0         12.529        102.682         59.282        217.503        223.554        0.02525        0.04921         2.6690
         7830.5         12.481        102.707         58.138        216.693        262.531        0.02468        0.04244         2.6740
         7831.0         12.451        102.924         57.970        279.341        286.521        0.02427        0.04012         2.6720
         7831.5         12.421        104.782         58.258        252.955        205.564        0.02234        0.03961         2.6710
         7832.0         12.397        108.745         58.949        198.898        160.947        0.02341        0.04203         2.6690
         7832.5         12.410        113.100         59.641        154.233        151.673        0.02404        0.05933         2.6670
         7833.0         12.424        117.692         60.332        136.192        134.201        0.02047        0.07663         2.6720
         7833.5         12.437        122.986         61.024        118.150        115.308        0.02261        0.07821         2.6760
         7834.0         12.450        125.768         61.716        122.523        127.519        0.02475        0.07566         2.6740
         7834.5         12.464        122.181         61.155        148.875        145.580        0.02637        0.06868         2.6680
         7835.0         12.477        116.735         60.326        167.908        163.073        0.02302        0.06170         2.6710
         7835.5         12.483        106.676         59.321        172.141        166.660        0.01966        0.05471         2.6790
         7836.0         12.479        103.677         58.187        253.318        270.442        0.01291        0.04773         2.6880
         7836.5         12.475        104.685         58.171        202.301        193.438        0.01364        0.04075         2.6890
         7837.0         12.471        110.598         58.555        151.285        134.243        0.01602        0.04388         2.6870
         7837.5         12.467        116.199         58.939        153.527        128.461        0.02094        0.04741         2.6770
         7838.0         12.463        114.478         58.669        226.532        139.859        0.02320        0.05094         2.6750
         7838.5         12.459        110.642         58.371        202.578        208.908        0.02484        0.05103         2.6720
         7839.0         12.455        110.212         58.072        169.492        189.028        0.02731        0.04513         2.6690
         7839.5         12.459        111.608         58.425        139.189        168.392        0.03291        0.04353         2.6580
         7840.0         12.464        114.009         59.818        127.029        144.267        0.04081        0.04861         2.6470
