# Exported from Transform Software 5.2.0 on 17-Oct-2019 by user kathryn.gehrke
# DI Transform - A Product of Drillinginfo, Inc. - www.drillinginfo.com
#
~VERSION INFORMATION
 VERS.        2.0 : LAS ASCII STANDARD - VERSION 2.0
 WRAP.         NO : ONE LINE PER DEPTH STEP

~WELL INFORMATION
#MNEM.UNIT       DATA TYPE       INFORMATION
#---------       ---------       -----------
 STRT.ft                 100 : Start Depth
 STOP.ft               10126 : Stop Depth
 STEP.ft                 0.5 : Step Length
 NULL.               -999.25 : Null Value
 COMP.                       : Company
 WELL.  42109329790000_API14 : Well Name
 FLD.                        : Field Name
 LOC.                        : Well Location
 CNTY.                       : County
 STAT.                       : State or Province
 CTRY.                       : Country
 SRVC.                       : Service Company
 DATE.                       : Date
 API.         42109329790000 : Well Identifier

~CURVE INFORMATION
#MNEM.UNIT       API CODE       CURVE DESCRIPTION
#---------       --------       -----------------
 DEPT.ft        : <Measured Depth>
 DT.us/ft       : Sonic
 GR.gAPI        : Gamma Ray

~PARAMETER INFORMATION
#MNEM.UNIT       VALUE       DESCRIPTION
#---------       -----       -----------
 EKB.ft      3282 : Elevation above MSL

~A      DEPT          DT          GR
# ...
      6067.5    263.3053     42.9974
        6068    263.3053     43.6694
      6068.5    263.3053     44.1176
        6069    263.3053      44.958
      6069.5    263.3053     44.8452
        6070    263.3053      44.958
      6070.5    263.3053     44.1469
        6071    263.8655       40.83
      6071.5    263.8655     36.6561
        6072    263.8655      32.905
      6072.5    263.8655     28.1578
        6073    263.8655     23.9952
      6073.5    263.8655     25.7523
        6074    263.8655     27.8108
      6074.5    263.8655     30.2319
        6075    263.8655     34.9956
      6075.5    263.8655      41.276
        6076    263.8655     45.6086
      6076.5    263.8655     49.1574
        6077    263.8655      52.521
      6077.5    263.8655     51.6807
        6078    263.8655     49.6618
      6078.5    263.8655     47.6981
        6079    263.8655     49.1089
      6079.5    263.8655     49.1935
        6080    263.8655     50.9747
      6080.5    263.8655     52.0669
        6081    263.8655     50.5135
      6081.5    263.8655     50.0992
        6082    263.8655     52.4023
      6082.5    263.8655     51.5475
        6083    263.8655     52.8534
      6083.5    263.8655     56.0991
        6084    263.8655     55.8339
      6084.5    263.8655     55.3423
        6085    263.8655     57.2749
      6085.5    263.8655     57.9832
        6086    263.8655     55.8714
      6086.5    263.8655     51.7726
        6087    263.8655     46.7951
      6087.5    263.8655     42.1476
        6088    263.8655     41.0226
      6088.5    263.8655     38.8612
        6089    263.8655     39.1217
      6089.5    263.8655     40.6341
        6090    263.8655     40.6266
      6090.5    263.8655     38.5227
        6091    263.8655     36.0247
      6091.5    263.8655     33.7337
        6092    263.8655      31.636
      6092.5    263.8655     30.8008
        6093    263.8655     33.0937
      6093.5    263.8655     36.8747
        6094    263.8655     41.5178
      6094.5    263.8655     47.6343
        6095    263.8655     55.6786
      6095.5    263.8655      62.231
        6096    263.8655     65.7571
      6096.5    263.8655     66.7641
        6097    263.8655     63.6753
      6097.5    263.8655     59.2015
        6098    263.8655     54.2024
      6098.5    263.8655      48.635
        6099    263.8655     46.3251
      6099.5    263.8655     43.4042
        6100     264.962     41.6193
      6100.5    263.8655     39.9593
        6101    263.8655     41.1765
      6101.5    263.8655     39.8757
        6102    263.8655     38.3634
      6102.5    263.8655      36.851
        6103    264.3664      36.179
      6103.5    266.3829     35.7143
        6104    268.4221     35.2941
      6104.5    267.3992     34.8739
        6105    266.6667     34.8739
      6105.5    266.6667     34.0793
        6106    266.6667     34.0336
      6106.5     264.885     34.5106
        6107    263.0994     37.7644
      6107.5    263.8655     40.3082
        6108    263.8655       41.97
      6108.5    263.8655     41.8118
        6109    263.8655     40.2627
      6109.5    263.8655     35.1902
        6110    263.8655      30.552
      6110.5    263.8655     29.0396
        6111    263.8655     27.7311
      6111.5    264.0408     29.2728
        6112    263.8655     32.2975
      6112.5    263.8655     35.4132
        6113    263.8655     36.9256
      6113.5    263.8655     38.6555
        6114    263.8655     37.8495
      6114.5    263.8655     39.0848
        6115    263.8655     42.1347
      6115.5    263.8655     42.0168
        6116    263.8655     43.9997
      6116.5    263.8655     47.3519
        6117    263.8655     50.7052
      6117.5    263.8655     50.8403
        6118    263.8655     51.2605
      6118.5    263.8655     49.6995
        6119    263.8655     46.6887
      6119.5    263.8655     39.9785
        6120    263.8655     38.1197
      6120.5    263.8655     37.8151
        6121    263.8655     37.8151
      6121.5    263.8655     37.0056
        6122    263.8655      38.518
      6122.5    263.8655     39.6102
        6123    263.8655      41.936
      6123.5    263.8655     43.8833
        6124    263.8655     46.8932
      6124.5    263.8655     48.6009
        6125    263.8655       49.41
      6125.5    263.8655     46.3011
        6126    263.8655     44.7612
      6126.5    263.8655     43.2346
        6127    263.8655     41.3163
      6127.5    263.8655      42.549
        6128    264.3508     44.2434
      6128.5    264.1649       47.24
        6129    263.8655     50.2511
      6129.5    263.8655     50.5611
        6130    263.8655     48.7395
      6130.5    263.8655     50.3628
        6131    263.8655     50.4202
      6131.5    263.8655      50.394
        6132    263.8655          50
      6132.5    263.8655     51.1508
        6133    263.8655     48.8274
      6133.5    263.8655     46.8655
        6134    263.8655     43.8576
      6134.5    263.8655     41.1814
        6135    263.8655     38.9128
      6135.5    263.8655     36.6144
        6136    263.8655     38.5055
      6136.5    263.8655     42.9167
        6137    263.8655     48.3716
      6137.5    263.8655     56.2138
        6138    263.8655     63.4727
      6138.5    263.8655     64.9351
        6139    263.8655     65.1034
      6139.5    263.8655     64.4314
        6140    263.8655     62.4988
      6140.5    263.8655     62.1849
        6141    263.8655     61.7647
      6141.5    263.8655     58.7699
        6142    264.4258     55.7559
      6142.5    264.4258     52.0484
        6143    264.4258     45.9046
      6143.5    264.4258     41.5238
        6144     264.986      40.736
      6144.5    266.4693     37.9751
        6145    267.2269     36.0306
      6145.5    267.2269     36.4902
        6146    267.2269     36.3672
      6146.5    267.1986     36.9939
        6147    268.1484     39.8886
      6147.5    268.0799     45.5274
        6148    264.4566     48.6411
      6148.5    263.8655     48.5533
        6149    263.8655     45.3333
      6149.5    263.8655     40.8624
        6150    263.8655     36.6125
      6150.5    263.8655      34.554
        6151    263.8655     32.2854
      6151.5    263.8655     31.5377
        6152    263.8655     33.4619
      6152.5    263.8655     34.0336
        6153    263.8655     34.4538
      6153.5    263.8655     36.6861
        6154    263.8655     40.5774
      6154.5    263.8655     44.7863
        6155    263.8655     49.0983
      6155.5    263.8655     50.4202
        6156    263.8655     50.4202
      6156.5    263.8655     48.7035
        6157    263.8655     45.3989
      6157.5    263.8655     42.5001
        6158    263.8655     41.9465
      6158.5    263.8655     42.2554
        6159    263.8655     41.1632
      6159.5    263.8655     40.3361
        6160    263.8655     38.7203
      6160.5    263.8655     36.2417
        6161    263.8655     34.6936
      6161.5    263.8655     35.9726
        6162    263.8655     39.7597
      6162.5    263.8655     43.9656
        6163    263.8655     51.1799
      6163.5    263.8655     57.1398
        6164    263.8655     58.8126
      6164.5    263.8655     57.7204
        6165    263.8655     56.1608
      6165.5    263.8655     54.1024
        6166    263.8655     50.3953
      6166.5    263.8655     47.4693
        6167    263.8655     45.5367
      6167.5    263.8655     41.1302
        6168    263.8655     36.6296
      6168.5    263.8655     36.3113
        6169    263.8655     35.4871
      6169.5    263.8655     34.4242
        6170    263.8655     36.2266
      6170.5    263.8655     36.2106
        6171    263.8655     34.2781
      6171.5    263.8655     33.6208
        6172    263.8655     34.4538
      6172.5    263.8655     33.1023
        6173    263.8655     31.1698
      6173.5    263.8655     31.2669
        6174    263.8655     32.7793
      6174.5    263.8655     33.6134
        6175    263.8655     34.5884
      6175.5    263.8655     38.5514
