~VERSION INFORMATION
 VERS.                2.0:   CWLS LOG ASCII STANDARD - VERSION 2.0
 WRAP.                 NO:   ONE LINE PER DEPTH STEP
~WELL INFORMATION
#MNEM.UNIT      DATA TYPE    INFORMATION
#----------   ------------   ------------------------------
 STRT.FT          68.0000:   START DEPTH
 STOP.FT        1517.0000:   STOP DEPTH
 STEP.FT           0.5000:   STEP LENGTH
 NULL.          -999.2500:   NULL VALUE
 COMP. LINCOLN ROCK CORPORATION:   COMPANY
 WELL.        HOLLER #602:   WELL
 FLD .            UNNAMED:   FIELD
 LOC .                   :   LOCATION
 CNTY.          CULBERSON:   COUNTY
 STAT.              TEXAS:   STATE
 CTRY. UNITED STATES OF AMERICA:   COUNTRY
 SRVC.           Gearhart:   SERVICE COMPANY
 DATE.        24-Jun-1984:   LOGDATE
 API .     42109317410000:   API NUMBER
~CURVE INFORMATION
#MNEM.UNIT       API CODE    CURVE DESCRIPTION
#----------   ------------   ------------------------------
 DEPT.F                  :   
 CALXS.IN    60 280 13 00:   CALIPER FROM X AXIS OF X-Y CALIPER(S) FROM SONIC LOG
 GRD .GAPI   45 310 01 00:   GAMMA RAY FROM DENSITY LOG
 GRS .GAPI   60 310 01 00:   GAMMA RAY FROM SONIC LOG
 TEND.LB     45 635 00 00:   TENSION FROM DENSITY LOG
 TENR.LB     11 635 00 00:   TENSION FROM RESISTIVITY LOG
 TENS.LB     60 635 00 00:   TENSION FROM SONIC LOG
 CALYD.IN    45 280 24 00:   CALIPER FROM X AXIS OF X-Y CALIPER(S) FROM DENSITY LOG
 CNS_LS.DEC  42 890 01 00:   COMPENSATED NEUTRON POROSITY
 CDL_LS.DEC  45 890 10 00:   COMPENSATED DENSITY POROSITY LIMESTONE
 RHOB.G/C3   45 350 01 00:   BULK DENSITY
 DRHO.G/C3   45 356 01 00:   BULK DENSITY CORRECTION
 GRR .GAPI   11 310 01 00:   GAMMA RAY FROM RESISTIVITY LOG
 RLLD.OHMM   11 220 10 00:   RAW LATEROLOG DEEP RESISTIVITY
 RLLS.OHMM   11 220 09 00:   RAW LATEROLOG SHALLOW RESISTIVITY
 DT  .US/F   60 500 00 00:   DELTA-T (INTERVAL TRANSIT TIME)
 SPHI.DEC    60 890 00 00:   SONIC POROSITY
~PARAMETER INFORMATION
#MNEM.UNIT          VALUE    DESCRIPTION
#----------   ------------   ------------------------------
 PD  .                 GL:   PERMANENT DATUM
 EPD .FT             3532:   ELEVATION PERMANENT DATUM
 LMF .                 GL:   LOG MEASURED FROM
 DMF .                RKB:   DRILLING MEASURED FROM
 EKB .FT             3544:   KELLY BUSHING
 EDF .FT             3543:   DRILLING FLOOR
 EGL .FT             3532:   GROUND LEVEL
 DATE.           06/24/84:   RUN DATE
 RUN .                  1:   RUN NUMBER
 DD  .FT             1502:   DEPTH DRILLER
 DL  .FT             1506:   DEPTH LOGGER
 BLI .FT             1505:   BOTTOM LOG INTERVAL
 TLI .FT               90:   TOP LOG INTERVAL
 CS  .IN              4.5:   CASING SIZE
 CBD .FT              101:   CASING BOTTOM DRILLER
 CBL .FT             1502:   CASING BOTTOM LOGGER
 BS  .IN            7.875:   BIT SIZE
 BSD .FT             1502:   BIT SIZE AT DEPTH
 DFT .          FRESH H2O:   DRILLING FLUID TYPE
 DFD .                8.4:   DRILLING FLUID DENSITY
 DFV .                 27:   DRILLING FLUID VISCOSITY
 DFPH.                 12:   DRILLING FLUID PH
 MSS .                PIT:   MUD SAMPLE SOURCE
 RMS .OHMM           2.32:   RESISTIVITY MUD SAMPLE
 MST .DEGF             77:   MUD SAMPLE TEMPERATURE
 RMF .OHMM           2.32:   RESISTIVITY MUD FILTRATE SAMPLE
 MFST.DEGF             77:   MUD FILTRATE SAMPLE TEMPERATURE
 MFSS.               MEAS:   MUD FILTRATE SAMPLE SOURCE
 TCS .HRS            0940:   TIME CIRCULATED STOPPED
 TLAB.HRS            1319:   TIME LOGGER AT BOTTOM
 MRT .DEGF            770:   MAXIMUM RECORDED TEMPERATURE
 LUN .               7583:   LOGGING UNIT NUMBER
 LUL .              HOBBS:   LOGGING UNIT LOCATION
 ENGI.             BRYANT:   RECORDING ENGINEER
 WITN.             BURROW:   WITNESSED BY
 CLNT.            :   CLIENT CODE
 ORIG.      1" 2.5" PRINT:   ORIGIN OF DATA
 UWI .     42109317410000:   UNIQUE WELL ID
 
~OTHER INFORMATION
~A   DEPT    CALXS        GRD        GRS       TEND       TENR       TENS      CALYD      CNS_LS     CDL_LS      RHOB       DRHO          GRR     RLLD       RLLS         DT       SPHI   
# ...
  670.0000     8.6201    10.1275     6.7976   958.1411   654.0376   843.1997     8.0450    -0.0039     0.2726     2.9303    -0.0367     6.2164 15619.2988 66579.7734    49.2651    -0.0201
  670.5000     8.6134    10.2649     6.1792   978.2617   642.3371   858.3450     8.0450    -0.0037     0.2688     2.9347    -0.0265     6.0309 12198.6602 43567.9688    49.4589    -0.0179
  671.0000     8.5963     9.2748     5.2429   978.1048   642.3446   858.9628     8.0451    -0.0037     0.2683     2.9390    -0.0280     5.8704  9462.2979 29066.7695    49.7810    -0.0152
  671.5000     8.6180     8.2531     4.2671   979.7837   642.3521   859.5793     8.0447    -0.0037     0.2672     2.9434    -0.0265     6.6802  9463.0430 22895.1699    49.9879    -0.0137
  672.0000     8.6397     7.2945     4.7770   979.6268   642.3595   860.1959     8.0448    -0.0038     0.2644     2.9459    -0.0224     6.1215 10166.6455 23977.6953    49.8683    -0.0151
  672.5000     8.6967     7.2982     8.3611   981.3032   643.0037   860.8124     8.0444    -0.0039     0.2617     2.9479    -0.0102     5.1012 13515.9102 41533.2617    49.4636    -0.0173
  673.0000     9.4789     7.7409    12.8042   982.9808   646.1936   861.4289     8.0440    -0.0039     0.2610     2.9421    -0.0102     4.2510 16779.2598 55262.5195    49.2156    -0.0207
  673.5000     8.7592     7.9859    15.0465   982.8251   649.3837   862.0455     8.0441    -0.0040     0.2659     2.9341    -0.0189     4.8919 18914.2129 58418.6172    49.0721    -0.0225
  674.0000     8.7108     7.2821    13.7715   984.5003   637.6339   862.6620     8.0437    -0.0041     0.2708     2.9260    -0.0289     5.4413 19822.1406 50800.3672    48.9286    -0.0228
  674.5000     8.6629     6.3638    10.7874   984.3434   644.9480   863.2786     8.0438    -0.0042     0.2757     2.9271    -0.0389     5.9907 21365.0078 46265.0195    48.7850    -0.0228
  675.0000     8.6244     5.5063     8.6219   986.0186   652.2622   863.8953     8.0435    -0.0042     0.2776     2.9266    -0.0388     6.5400 23277.7422 51740.4414    48.8252    -0.0229
  675.5000     8.6357     4.9230     7.0985   985.8618   648.0108   864.5118     8.0435    -0.0043     0.2740     2.9301    -0.0321     7.0850 24758.6914 58036.5234    48.7251    -0.0238
  676.0000     8.6328     5.3713     6.8285   985.7061   651.6481   865.1284     8.0436    -0.0044     0.2695     2.9355    -0.0265     7.4899 25770.7402 62946.8047    48.4392    -0.0250
  676.5000     8.6299     6.2843     8.0727   987.3800   643.7423   865.7449     8.0433    -0.0045     0.2650     2.9409    -0.0236     6.6559 27360.3223 73854.8828    48.3556    -0.0262
  677.0000     8.6270     6.9092    10.9126   987.2231   644.4560   866.3615     8.0433    -0.0045     0.2637     2.9408    -0.0245     5.8470 30249.5352 90002.4922    48.3607    -0.0265
  677.5000     8.5978     7.4603    13.7372   988.8970   645.1697   866.9780     8.0430    -0.0042     0.2666     2.9395    -0.0286     5.7449 33932.1602 96840.5547    48.5174    -0.0253
  678.0000     8.6159     8.0112    14.2352   990.5722   645.8847   867.5945     8.0426    -0.0038     0.2678     2.9385    -0.0240     5.6429 38623.7969 83403.6641    48.7119    -0.0240
  678.5000     8.6150     8.7035    11.3232   990.4141   646.5984   868.2111     8.0427    -0.0037     0.2662     2.9344    -0.0189     5.5409 41723.8555 64483.6875    48.7327    -0.0236
  679.0000     8.6141     9.9537     9.0349   992.0880   647.3121   868.8276     8.0424    -0.0045     0.2688     2.9290    -0.0143     5.5992 41961.5352 60758.7031    48.6922    -0.0244
  679.5000     8.6179    11.1132     8.7458   991.9299   648.0258   869.4442     8.0424     0.0006     0.2761     2.9237    -0.0143     7.2081 36098.2617 63427.1680    48.5804    -0.0255
  680.0000     8.6262    16.3587     9.9051  1010.1824   650.6404   870.0071     8.0429     0.0054     0.2980     2.8455    -0.0143    10.0648 26728.4375 62624.6016    48.5144    -0.0252
  680.5000     8.6341    20.0466    13.1637  1012.0515   650.3328   870.6239     8.0363     0.0110     0.3530     2.7368    -0.0245    12.8721 16948.9199 49812.9961    48.6834    -0.0246
  681.0000     8.6218    22.4245    16.2408  1013.9194   651.9259   871.4141     8.0358     0.0118     0.3889     2.7034    -0.0319    15.6267  7169.4048 31979.1211    48.9111    -0.0226
  681.5000     8.6284    24.3311    18.3854  1013.9589   649.0200   864.2484     8.0357     0.0070     0.4009     2.7034    -0.0409    18.3814  4060.2595 15463.0830    49.1389    -0.0201
  682.0000     8.6314    23.1175    18.6769  1015.8268   649.4858   853.6390     8.0351     0.0022     0.3835     2.7034    -0.0429    21.1360  3179.5388  8872.8057    49.3586    -0.0198
  682.5000     8.6380    19.0980    15.5541  1015.8663   648.0507   858.8481     8.0350    -0.0025     0.3517     2.7513    -0.0367    22.4696  3208.1914  8875.6465    49.1207    -0.0211
  683.0000     8.6426    15.0729    12.4313  1015.9058   646.6183   864.0561     8.0348    -0.0041     0.3150     2.8218    -0.0305    19.2308  4815.0400 15272.8330    48.8828    -0.0226
  683.5000     8.6405    11.0439     9.2767  1017.7749   647.0842   871.4712     8.0343    -0.0052     0.2786     2.8923    -0.0242    15.6308  7183.3589 30122.5859    49.1348    -0.0207
  684.0000     8.6419     8.9411     6.7845  1017.8157   645.6518   870.4552     8.0342    -0.0063     0.2393     2.9628    -0.0224    11.5385 12247.8652 48229.1289    49.4466    -0.0187
  684.5000     8.6398     8.0923     7.1145  1019.6836   646.1189   871.6449     8.0336    -0.0069     0.2389     2.9868    -0.0224     8.8887 13530.5469 53131.3203    49.5083    -0.0167
  685.0000     8.6378     7.9453     9.8241  1019.7256   646.5872   872.8345     8.0335    -0.0068     0.2393     2.9845    -0.0224     6.7206 13424.8623 44744.5820    49.5271    -0.0174
  685.5000     8.6392     8.0052    12.2563  1021.5947   647.0767   871.8185     8.0329    -0.0068     0.2420     2.9810    -0.0224     5.8704 12184.6748 36357.8438    49.3363    -0.0184
  686.0000     8.6371     8.0202    13.1145  1023.4651   657.1649   873.0082     8.0324    -0.0067     0.2448     2.9775    -0.0196     6.3806 12819.3223 34691.9180    49.3116    -0.0205
  686.5000     8.6385     7.6448     9.3386  1023.5059   660.7919   871.9910     8.0323    -0.0066     0.2475     2.9740    -0.0153     6.8178 14616.4902 41615.0742    48.8879    -0.0231
  687.0000     8.6205     7.1910     6.3839  1025.3750   648.0843   873.1806     8.0317    -0.0066     0.2499     2.9668    -0.0102     6.8470 19251.6211 50906.0273    48.5392    -0.0256
  687.5000     8.6396     6.5192     5.6070  1025.4170   646.1313   872.1646     8.0316    -0.0065     0.2522     2.9575    -0.0102     6.2348 27474.4844 59191.2500    48.4751    -0.0256
  688.0000     8.6419     6.9449     8.6752  1025.4578   652.6109   871.1487     8.0314    -0.0064     0.2615     2.9483    -0.0179     5.6227 26637.0898 65979.8281    48.6453    -0.0239
  688.5000     8.6406     7.6165    11.6878  1027.3281   656.7289   872.3383     8.0309    -0.0064     0.2760     2.9390    -0.0308     5.0105 23465.2344 65532.0039    48.7450    -0.0231
  689.0000     8.6428     7.2750    10.8661  1027.3713   641.9037   871.3223     8.0308    -0.0063     0.2760     2.9297    -0.0437     4.7632 19851.4941 65451.1992    48.8049    -0.0230
  689.5000     8.6094     7.0091     7.7656  1029.2417   649.0723   872.5120     8.0302    -0.0063     0.2737     2.9180    -0.0456     5.0607 18996.4082 64102.0742    48.8346    -0.0226
  690.0000     8.6298     6.5603     4.6823  1030.9774   677.5440   868.8611     8.0358    -0.0062     0.2655     2.9508    -0.0449     4.7773 19810.4805 61539.6250    48.9833    -0.0218
  690.5000     8.6406     6.0930     3.8630   990.2453   701.5565   854.1793     8.0360    -0.0061     0.2519     2.9745    -0.0205     4.4372 21694.9414 55842.8398    49.1000    -0.0213
  691.0000     8.6378     5.7272     5.3079   991.7737   715.8794   853.1646     8.0362    -0.0061     0.2440     2.9775     0.0082     4.0972 22814.1113 50678.7695    49.0892    -0.0215
