~VERSION INFORMATION
VERS. 2.0 : CWLS Log ASCII Standard - version 2.0
WRAP.  NO : One line per depth step
#--------------------------------------------------#
#----------------DRILLING INFO, INC.---------------#
#---------------WWW.DRILLINGINFO.COM---------------#
#------------------COPYRIGHT 2015------------------#
#--------------------------------------------------#
#THIS FILE MAY BE USED ONLY IN ACCORDANCE WITH A CURRENT SUBSCRIPTION AGREEMENT BETWEEN
#THE USER AND DRILLING INFO, INC. NO PART OF THIS FILE MAY BE REPRODUCED, USED, COPIED,
#MODIFIED, PROPAGATED, OR DISTRIBUTED EXCEPT IN ACCORDANCE WITH THE SUBSCRIPTION
#AGREEMENT. UNAUTHORIZED USE OR DISTRIBUTION OF ALL OR ANY PART OF THIS FILE MAY VIOLATE
#COPYRIGHT, TRADEMARK, AND/OR OTHER LAWS AND IS SUBJECT TO CIVIL AS WELL AS CRIMINAL
#SANCTIONS.
#--------------------------------------------------#
#THIS FILE IS PROVIDED "AS-IS" AND ALL WARRANTIES ARE EXPRESSLY DISCLAIMED, WHETHER
#EXPRESS, ORAL, IMPLIED, STATUTORY OR OTHERWISE, INCLUDING ANY IMPLIED WARRANTY OF FITNESS
#FOR A PARTICULAR PURPOSE, MERCHANTABILITY, TITLE OR NON-INFRINGEMENT, AND ANY WARRANTIES
#ARISING BY VIRTUE OF CUSTOM OF TRADE OR COURSE OF DEALING.  FURTHER, DRILLING INFO,
#INC. AND ITS LICENSORS DO NOT REPRESENT OR WARRANT THAT THIS FILE WILL MEET USER'S
#REQUIREMENTS OR ARE SUITABLE FOR USER'S NEEDS OR THAT THE DATA OR RESULTS PROVIDED IN
#CONJUNCTION THEREWITH ARE CORRECT, ACCURATE, TIMELY OR RELIABLE. THESE DISCLAIMERS SHALL
#APPLY REGARDLESS OF ANY FAILURE OF ESSENTIAL PURPOSE OF ANY LIMITED REMEDY.  SOME
#JURISDICTIONS DO NOT ALLOW THE EXCLUSION OF CERTAIN WARRANTIES SO SOME OF THE ABOVE
#EXCLUSIONS MAY NOT APPLY. IN NO EVENT SHALL DRILLING INFO, INC. OR ANY OF ITS AFFILIATES
#BE LIABLE UNDER ANY LEGAL THEORY, WHETHER IN TORT (INCLUDING WITHOUT LIMITATION
#NEGLIGENCE), CONTRACT, STRICT LIABILITY, STATUTORY OR OTHERWISE, FOR ANY SPECIAL,
#INCIDENTAL, CONSEQUENTIAL, EXEMPLARY, PUNITIVE OR INDIRECT DAMAGE OF ANY KIND, INCLUDING
#WITHOUT LIMITATION LOSS OF REVENUE, PROFITS, GOODWILL, USE, AND/OR DATA OR THE COST OF
#PROCUREMENT OF SUBSTITUTE GOODS OR SERVICES, EVEN IF APPRISED OF THE POSSIBILITY OF SUCH
#DAMAGES IN ADVANCE.
#--------------------------------------------------#
~WELL INFORMATION
#MNEMONIC     .UNIT              VALUE :DESCRIPTION
#--------------------------------------------------#
STRT       .FT                35 :START DEPTH
STOP       .FT                15948 :STOP DEPTH
STEP       .FT                   0.500 :STEP
NULL       .                  -999.250 :NULL
API        .                421093136200 :API NUMBER
COMP       .         ARRINGTON DAVID H. OIL & GAS INC :COMPANY
WELL       .        SCOTT UNIT  1 :WELL
DATE       .                17-Jun-1991 :LOG DATE
~CURVE INFORMATION
#MNEMONIC     .UNIT      API CODE :CURVE DESCRIPTION
#--------------------------------------------------#
DEPTH       .FT                      :Measured Depth
CAL.INCH        UNKNOWN   :CAL
DT.US/FT        UNKNOWN   :DT
GR.API        UNKNOWN   :GR
~A    DEPTH    CAL    DT    GR
# ...
 13958.5     7.008   80.718   104.599
 13959     7.034   80.501   100.938
 13959.5     7.059   80.486   97.277
 13960     7.085   81.632   96.618
 13960.5     7.111   82.135   99.05
 13961     7.137   82.328   104.741
 13961.5     7.103   80.695   108.552
 13962     7.057   79.028   110.401
 13962.5     7.011   79.01   110.784
 13963     6.998   79.005   110.964
 13963.5     6.998   79.026   111.145
 13964     6.997   78.935   110.911
 13964.5     6.997   78.801   109.527
 13965     6.997   79.424   106.131
 13965.5     6.996   80.198   102.804
 13966     6.996   80.518   103.067
 13966.5     6.996   81.913   103.673
 13967     6.995   82.618   106.173
 13967.5     6.995   83.571   108.672
 13968     6.995   84.219   111.172
 13968.5     6.994   85.091   114.66
 13969     6.994   86.598   119.252
 13969.5     6.994   85.579   123.844
 13970     6.993   83.774   127.327
 13970.5     6.993   81.242   130.485
 13971     6.993   80.808   133.642
 13971.5     6.992   81.047   136.799
 13972     6.992   81.941   139.957
 13972.5     6.992   84.122   142.516
 13973     6.991   83.916   142.291
 13973.5     6.991   83.054   137.856
 13974     6.991   82.093   131.467
 13974.5     6.99   80.231   125.078
 13975     6.99   77.757   118.949
 13975.5     6.99   76.762   112.304
 13976     6.989   76.875   105.604
 13976.5     6.99   77.536   104.061
 13977     6.991   79.159   105.704
 13977.5     6.992   81.587   107.347
 13978     6.992   82.99   107.715
 13978.5     6.993   83.851   106.145
 13979     6.994   84.692   104.575
 13979.5     6.995   85.23   103.005
 13980     6.996   85.768   104.545
 13980.5     6.997   85.808   106.428
 13981     6.997   84.721   107.522
 13981.5     6.998   83.489   104.923
 13982     6.999   82.669   102.324
 13982.5     7   81.958   100.725
 13983     7.001   81.391   103.928
 13983.5     7.001   81.394   107.131
 13984     7.002   81.574   107.207
 13984.5     7.003   81.755   107.189
 13985     7.004   81.936   108.022
 13985.5     7.005   83.185   108.689
 13986     7.006   84.562   107.797
 13986.5     7.006   85.608   107.847
 13987     7.007   86.612   111.136
 13987.5     7.008   86.613   114.424
 13988     7.009   86.614   117.713
 13988.5     7.01   86.615   120.613
 13989     7.011   86.765   122.687
 13989.5     7.011   86.992   117.787
 13990     7.012   87.22   112.887
 13990.5     7.012   86.535   108.058
 13991     7.011   85.261   107.494
 13991.5     7.011   84.417   106.93
 13992     7.011   83.895   104.925
 13992.5     7.01   84.382   103.215
 13993     7.01   85.235   115.35
 13993.5     7.01   86.279   126.418
 13994     7.009   86.732   130.932
 13994.5     7.009   86.26   129.817
 13995     7.009   84.466   124.936
 13995.5     7.008   81.951   112.104
 13996     7.008   78.683   103.719
 13996.5     7.008   76.196   105.9
 13997     7.008   76.388   108.081
 13997.5     7.009   77.028   105.09
 13998     7.01   77.602   101.854
 13998.5     7.011   78.929   107.224
 13999     7.012   81.833   113.019
 13999.5     7.013   83.458   118.814
 14000     7.014   85.681   121.487
 14000.5     7.015   87.999   115.402
 14001     7.016   88.238   109.316
 14001.5     7.017   87.655   103.231
 14002     7.018   85.929   97.145
 14002.5     7.019   83.448   92.795
 14003     7.02   81.552   93.332
 14003.5     7.021   81.178   96.965
 14004     7.022   81.849   100.599
 14004.5     7.023   82.915   103.612
 14005     7.024   84.013   105.656
 14005.5     7.025   85.446   106.854
 14006     7.026   86.161   105.935
 14006.5     7.027   83.419   105.516
 14007     7.028   83.493   106.312
 14007.5     7.029   83.566   106.224
 14008     7.03   83.398   104.951
 14008.5     7.031   83.271   103.679
 14009     7.032   84.249   105.572
 14009.5     7.033   85.777   108.201
 14010     7.034   88.289   110.83
 14010.5     7.035   89.87   111.386
 14011     7.036   88.854   108.016
 14011.5     7.037   87.358   104.646
 14012     7.038   84.35   101.275
 14012.5     7.039   81.852   97.905
 14013     7.04   81.698   97.124
 14013.5     7.041   82.356   97.388
 14014     7.042   83.395   97.879
 14014.5     7.043   84.287   99.147
 14015     7.043   84.121   100.415
 14015.5     7.043   83.728   101.683
 14016     7.043   83.647   102.951
 14016.5     7.044   83.566   103.787
 14017     7.044   83.484   101.985
 14017.5     7.044   83.352   100.248
 14018     7.044   83.201   102.07
 14018.5     7.044   83.482   108.856
 14019     7.044   83.857   117.719
 14019.5     7.044   84.036   119.164
 14020     7.044   83.903   118.463
 14020.5     7.045   83.375   116.203
 14021     7.045   82.751   113.953
 14021.5     7.045   82.495   111.823
 14022     7.045   82.858   110.385
 14022.5     7.045   84.159   111.604
 14023     7.045   85.228   112.823
 14023.5     7.045   86.045   114.042
 14024     7.046   86.373   115.26
 14024.5     7.046   86.035   112.362
 14025     7.046   85.562   108.824
 14025.5     7.046   85.09   105.287
 14026     7.046   84.672   103.141
 14026.5     7.046   84.372   102.695
 14027     7.046   83.948   102.959
 14027.5     7.046   83.816   107.965
 14028     7.047   83.684   112.987
 14028.5     7.047   82.417   118.009
 14029     7.047   80.438   120.531
 14029.5     7.047   79.238   117.214
 14030     7.047   79.022   117.046
 14030.5     7.047   78.806   119.487
 14031     7.047   79.93   120.63
 14031.5     7.048   81.482   120.148
 14032     7.051   82.331   119.665
 14032.5     7.056   84.048   119.183
 14033     7.062   85.787   118.7
 14033.5     7.067   85.975   113.994
 14034     7.072   83.921   106.344
 14034.5     7.077   80.758   98.694
 14035     7.082   76.57   92.65
 14035.5     7.088   75.724   95.162
 14036     7.104   77.997   100.67
 14036.5     7.192   81.99   106.178
 14037     7.28   85.155   108.353
 14037.5     7.279   85.273   108.349
 14038     7.227   83.621   109.744
 14038.5     7.175   82.085   111.355
 14039     7.123   81.342   112.967
 14039.5     7.089   81.258   111.875
 14040     7.087   81.279   110.445
 14040.5     7.086   80.891   109.015
 14041     7.084   79.934   108.25
 14041.5     7.082   80.028   108.484
 14042     7.08   80.663   108.718
 14042.5     7.078   81.829   108.952
 14043     7.077   83.705   113.432
 14043.5     7.075   85.72   118.291
 14044     7.073   86.855   121.792
 14044.5     7.071   86.68   121.92
 14045     7.069   84.417   116.595
 14045.5     7.068   82.109   111.269
 14046     7.066   80.182   105.944
 14046.5     7.064   79.465   100.619
 14047     7.062   79.876   100.3
 14047.5     7.061   81.876   104.665
 14048     7.059   83.931   111.669
 14048.5     7.057   85.494   118.673
 14049     7.055   87.126   120.956
 14049.5     7.053   87.241   122.573
 14050     7.052   87.238   123.048
 14050.5     7.062   86.767   122.473
 14051     7.079   86.212   118.052
 14051.5     7.096   87.499   112.534
 14052     7.113   90.609   107.016
 14052.5     7.13   100.399   101.498
 14053     7.139   95.54   99.187
 14053.5     7.117   83.583   100.019
 14054     7.094   79.352   100.85
 14054.5     7.071   77.14   99.985
 14055     7.048   77.141   97.591
 14055.5     7.025   78.336   95.285
 14056     7.046   77.847   96.066
 14056.5     7.099   85.004   96.846
 14057     7.29   97.751   93.069
 14057.5     7.612   102.583   88.872
 14058     8.696   110.786   84.675
 14058.5     9.642   95.764   89.551
 14059     9.17   94.532   95.336
 14059.5     8.221   93.456   101.122
 14060     7.762   90.495   106.907
 14060.5     7.599   84.157   107.401
 14061     7.454   81.638   105.893
 14061.5     7.463   79.667   104.384
 14062     7.415   78.766   103.786
 14062.5     7.255   78.701   103.337
 14063     7.179   78.88   103.718
 14063.5     7.169   82.891   106.661
 14064     7.16   87.916   109.604
 14064.5     7.154   92.595   112.547
 14065     7.164   93.942   115.489
 14065.5     7.175   93.301   118.432
 14066     7.185   91.015   121.375
 14066.5     7.196   86.483   120.886
 14067     7.207   88.469   119.194
 14067.5     7.204   89.447   117.501
