# Exported from Transform Software 5.2.0 on 27-Jun-2019 by user brian.umlang
# DI Transform - A Product of Drillinginfo, Inc. - www.drillinginfo.com
#
~VERSION INFORMATION
 VERS.        2.0 : LAS ASCII STANDARD - VERSION 2.0
 WRAP.         NO : ONE LINE PER DEPTH STEP

~WELL INFORMATION
#MNEM.UNIT       DATA TYPE       INFORMATION
#---------       ---------       -----------
 STRT.ft                   0 : Start Depth
 STOP.ft               12430 : Stop Depth
 STEP.ft                 0.5 : Step Length
 NULL.               -999.25 : Null Value
 COMP.                       : Company
 WELL.  42109313590000_API14 : Well Name
 FLD.                        : Field Name
 LOC.                        : Well Location
 CNTY.                       : County
 STAT.                       : State or Province
 CTRY.                       : Country
 SRVC.                       : Service Company
 DATE.                       : Date
 API.         42109313590000 : Well Identifier

~CURVE INFORMATION
#MNEM.UNIT       API CODE       CURVE DESCRIPTION
#---------       --------       -----------------
 DEPT.ft          : <Measured Depth>
 CAL.in           : Caliper
 DPHI.%           : Density Porosity
 DT.us/ft         : Sonic
 GR.gAPI          : Gamma Ray
 ILD.ohmm         : Deep Resistivity
 ILM.ohmm         : Medium Resistivity
 ILS.ohmm         : Shallow Resistivity
 NPHI.%           : Neutron Porosity
 RHOB.g/cm3       : Density
 SP.mV            : Spontaneous Potential

~PARAMETER INFORMATION
#MNEM.UNIT       VALUE       DESCRIPTION
#---------       -----       -----------
 EKB.ft      3771 : Elevation above MSL

~A      DEPT         CAL        DPHI          DT          GR         ILD         ILM         ILS        NPHI        RHOB          SP
# ...
      9424.5     11.3373     16.9995     85.3307     62.2205     -999.25     -999.25     -999.25     13.8281      2.4086     -999.25
        9425      11.377     16.6267     85.8134     59.4813     -999.25     -999.25     -999.25     13.8652      2.4069     -999.25
      9425.5      11.377     16.3194     86.3527     58.5317     -999.25     -999.25     -999.25     14.4202      2.4575     -999.25
        9426     11.3571     15.8474     86.0295     58.7997     -999.25     -999.25     -999.25     14.4125      2.4595     -999.25
      9426.5     11.3571      15.887     84.8331     60.1425     -999.25     -999.25     -999.25     14.2813      2.4625     -999.25
        9427     11.3373     15.8474     83.6505     64.4841     -999.25     -999.25     -999.25     13.8566      2.4116     -999.25
      9427.5     11.3034     15.8474     82.7879     68.7004     -999.25     -999.25     -999.25     13.5877      2.4136     -999.25
        9428      11.202     15.5554     82.5291     67.7534     -999.25     -999.25     -999.25     12.9138      2.4265     -999.25
      9428.5     11.1984     14.8592     82.6167     67.9563     -999.25     -999.25     -999.25     12.8345      2.4781     -999.25
        9429     11.1587     13.3861     83.1553     68.9568     -999.25     -999.25     -999.25     12.2714      2.4982     -999.25
      9429.5     11.1758      12.778     82.8492     69.6573     -999.25     -999.25     -999.25     11.5347      2.5039     -999.25
        9430     11.0744     10.6146     81.1744     69.4444     -999.25     -999.25     -999.25     13.0673       2.513     -999.25
      9430.5     10.9731      9.9589     77.1024     69.3558     -999.25     -999.25     -999.25     13.5622      2.5262     -999.25
        9431      10.881      8.7964     72.4728     68.7004     -999.25     -999.25     -999.25     14.9273       2.568     -999.25
      9431.5     10.8611      7.9352     72.9123     72.1393     -999.25     -999.25     -999.25     15.8305      2.5898     -999.25
        9432     10.8278      7.8277     75.8758     84.8672     -999.25     -999.25     -999.25     16.4387      2.5858     -999.25
      9432.5     10.8214       8.505     79.2334     87.2614     -999.25     -999.25     -999.25     17.5838      2.5759     -999.25
        9433     10.7222      9.8216     79.0197      83.671     -999.25     -999.25     -999.25     14.7523      2.5581     -999.25
      9433.5     10.7023      9.7421     78.6606     80.8521     -999.25     -999.25     -999.25     13.8256      2.5465     -999.25
        9434     10.6627      9.6234     77.4827     79.3372     -999.25     -999.25     -999.25     12.9113       2.548     -999.25
      9434.5     10.6588      9.7027      76.617     75.0396     -999.25     -999.25     -999.25     12.4051      2.5504     -999.25
        9435     10.6032      9.2412     74.3259     70.8551     -999.25     -999.25     -999.25     11.6068      2.5561     -999.25
      9435.5     10.5833      8.0072     70.0209     66.8562     -999.25     -999.25     -999.25      10.954      2.5664     -999.25
        9436     10.5238      7.4792     65.8674     67.3472     -999.25     -999.25     -999.25     10.6545      2.5877     -999.25
      9436.5     10.5173      7.2586     64.7282     68.2044     -999.25     -999.25     -999.25      9.9312      2.5991     -999.25
        9437     10.4643       7.156     62.8289     63.6869     -999.25     -999.25     -999.25      5.8513      2.6065     -999.25
      9437.5     10.3876      7.6202     59.7151     59.3087     -999.25     -999.25     -999.25      4.1975      2.6301     -999.25
        9438     10.3452      7.7988     57.0265     60.2679     -999.25     -999.25     -999.25      4.6082      2.5607     -999.25
      9438.5     10.3039      7.8791     56.2043     60.5364     -999.25     -999.25     -999.25      7.4041      2.5584     -999.25
        9439     10.2659      8.9967     57.1233     65.0397     -999.25     -999.25     -999.25      9.7102      2.5603     -999.25
      9439.5      10.246      9.1992     59.5177     74.3918     -999.25     -999.25     -999.25     11.6848      2.5645     -999.25
        9440     10.2063      9.2666     62.6732     82.4421     -999.25     -999.25     -999.25     14.1192      2.5624     -999.25
      9440.5     10.2063      9.2372     65.2111     86.3202     -999.25     -999.25     -999.25     14.3613      2.5614     -999.25
        9441     10.2262      9.3855     66.2124     87.0536     -999.25     -999.25     -999.25     14.2326      2.5594     -999.25
      9441.5     10.1522      9.0533     66.2124     86.8056     -999.25     -999.25     -999.25     13.9284      2.5584     -999.25
        9442      10.127      8.0934     66.0223     88.2534     -999.25     -999.25     -999.25      14.612      2.5804     -999.25
      9442.5     10.1077      7.5968     66.2987     93.6826     -999.25     -999.25     -999.25     16.5323      2.5858     -999.25
        9443     10.1071      7.1237     67.1703     95.9954     -999.25     -999.25     -999.25     17.3393      2.5918     -999.25
      9443.5     10.0873      6.9213     69.2913     96.2302     -999.25     -999.25     -999.25     17.5124      2.6027     -999.25
        9444     10.0873      7.0969     70.6359     95.9154     -999.25     -999.25     -999.25     16.1538      2.5988     -999.25
      9444.5     10.0798      6.9199     70.6198     87.1613     -999.25     -999.25     -999.25     13.7018      2.5997     -999.25
        9445     10.0873      6.3138     70.9016     80.1955     -999.25     -999.25     -999.25      11.626       2.605     -999.25
      9445.5     10.0675      5.2237     70.5467      78.226     -999.25     -999.25     -999.25     11.0049      2.6248     -999.25
        9446     10.0675      5.1833       68.04     75.7191     -999.25     -999.25     -999.25      8.6045      2.6358     -999.25
      9446.5     10.0675      5.5022     64.5362     54.0526     -999.25     -999.25     -999.25      2.5756      2.6524     -999.25
        9447     10.1071      6.9589     60.3769     47.8671     -999.25     -999.25     -999.25      1.1827      2.6593     -999.25
      9447.5     10.0861      7.7687     55.6348       47.87     -999.25     -999.25     -999.25      1.0586      2.6322     -999.25
        9448      9.9458       8.915     53.1066      50.628     -999.25     -999.25     -999.25      1.1846      2.5518     -999.25
      9448.5      9.8492      9.6329     52.9259     58.3432     -999.25     -999.25     -999.25      2.2981      2.5481     -999.25
        9449      9.8294     10.3766     53.6868     60.3541     -999.25     -999.25     -999.25      3.7543      2.5434     -999.25
      9449.5      9.8492      10.409     54.9548     70.5629     -999.25     -999.25     -999.25       5.706       2.539     -999.25
        9450      9.8492     10.4782     58.5164     73.3044     -999.25     -999.25     -999.25      5.9985      2.5377     -999.25
      9450.5       9.869     10.5086     61.1685     78.2914     -999.25     -999.25     -999.25       8.692      2.5245     -999.25
        9451      9.8647      9.3231     63.2665     79.2554     -999.25     -999.25     -999.25      8.8702      2.5129     -999.25
      9451.5       9.869      8.9584     64.3745      81.775     -999.25     -999.25     -999.25      9.4603      2.5167     -999.25
        9452       9.869      8.8702     65.7063      83.084     -999.25     -999.25     -999.25     14.1429      2.5707     -999.25
      9452.5       9.869      8.7472     67.6027      86.583     -999.25     -999.25     -999.25      13.452      2.5695     -999.25
        9453       9.869      8.3861     67.6686     83.2556     -999.25     -999.25     -999.25     10.9495      2.5715     -999.25
      9453.5      9.8492      8.1962     66.3049     69.1175     -999.25     -999.25     -999.25      9.8216      2.5855     -999.25
        9454      9.8492      8.2359     64.1232     67.9563     -999.25     -999.25     -999.25      8.5303      2.5877     -999.25
      9454.5       9.869      8.4949     64.1082       72.14     -999.25     -999.25     -999.25     12.5056      2.5946     -999.25
