###############################################
##         ENVERUS                           ##
##         ESS - Open Hole                   ##
##         PERMIAN / DELAWARE                ##
##         Nov 03 2023  V4.0                 ##
##         42-109-32508-00-00                ##
###############################################
## Copyright 2017-2023  ENVERUS.  All Rights Reserved. 
## Confidential - Property of ENVERUS, use governed by terms and 
## conditions found within the existing Information Services Subscription Agreement 
## (as may be amended, the “ISSA”) between Customer and ENVERUS. 
## 
~VERSION INFORMATION
# MNEM.UNIT                               DATA : DESCRIPTION OF MNEMONIC
#-----.-----     ----------------------------- : -----------------------------
VERS.                                     2.00 : CWLS LOG ASCII STANDARD - VERSION 2.00
WRAP.                                       NO : MULTIPLE LINES PER DEPTH STEP
VEND.                                  ENVERUS : VENDOR
TYPE.                          ESS - OPEN HOLE : ENVERUS ESSENTIAL CURVES – ACCESSIBLE THROUGH ENVERUS PRISM(TM)
DOC.                                  51093165 : ENVERUS HEADER RAW DOCUMENT ID
#___________________________________________________________________________________________________ 
~WELL INFORMATION 
# 1l9uGBxUQQhBCtjIwzslcirW42fLV8cokTOAxV7sfA093x4JFuWG6+twQwU/7oNL7vvW02EVanlAmdL+peO2nw== 
# MNEM.UNIT                                              DATA : DESCRIPTION OF MNEMONIC 
#-----.-----                    ----------------------------- : ----------------------------- 
CNTY.                                               CULBERSON : COUNTY 
STATE.                                                  TEXAS : STATE 
CNTRY.                                                    USA : COUNTRY 
API.                                             42-109-32508 : API (10 Digit) 
API_14.                                    42-109-32508-00-00 : API (14 Digits) 
API_14_std.                                 42-109-32508-0000 : API (14 Digits Standard) 
UWI.                                           42109325080000 : UNIQUE WELL ID 
WELL.                                  LT. GIBSON 12 STATE 1H : WELL NAME
STRT.FT                                                1970.5 : START DEPTH
STOP.FT                                                8727.0 : STOP DEPTH
STEP.FT                                                   0.5 : STEP BETWEEN DEPTHS
NULL.                                                 -999.25 : NULL VALUE
PREV_APII.                                     42109325080000 : WELL IDENTIFIER
#___________________________________________________________________________________________________ 
~PARAMETER INFORMATION 
# MNEM.UNIT                                              DATA : DESCRIPTION OF MNEMONIC 
#-----.-----                    ----------------------------- : ----------------------------- 
EKB.FT                                                   3552 : ELEVATION ABOVE MSL
#___________________________________________________________________________________________________ 
~CURVE INFORMATION 
# MNEM.UNIT           : CURVE DESCRIPTION 
#-----.-----          : ----------------------------- 
 DEPT.FT               : MEASURED DEPTH 
 GR__A.API             : GAMMA RAY (GAMMA RAY) 
 DT__A.US/FT           : SONIC DELTA TRANSIT TIME (SONIC) 
 #___________________________________________________________________________________________________ 
~A         DEPT          GR__A          DT__A
# ...
         2405.5        102.058         87.135
         2406.0         99.120         84.648
         2406.5         97.266         80.790
         2407.0         95.818         76.654
         2407.5         97.389         73.171
         2408.0         97.916         72.515
         2408.5         97.266         73.169
         2409.0        101.198         74.417
         2409.5        103.945         75.516
         2410.0        105.078         76.885
         2410.5        104.297         77.193
         2411.0        103.906         75.843
         2411.5        102.546         73.886
         2412.0        101.366         72.220
         2412.5        102.158         70.361
         2413.0        102.131         69.201
         2413.5         97.266         71.728
         2414.0         99.126         82.305
         2414.5        106.921         92.965
         2415.0        109.766         99.220
         2415.5        107.558         95.078
         2416.0        103.253         83.348
         2416.5        101.953         71.285
         2417.0        103.013         69.674
         2417.5        105.365         71.528
         2418.0        104.393         77.006
         2418.5        101.303         77.821
         2419.0        101.483         74.622
         2419.5        103.445         69.060
         2420.0        104.234         63.353
         2420.5        107.703         62.577
         2421.0        115.759         67.766
         2421.5        123.927         69.942
         2422.0        121.515         67.552
         2422.5        104.529         62.088
         2423.0         95.159         59.419
         2423.5         92.193         70.703
         2424.0         92.576         79.342
         2424.5         90.203         77.773
         2425.0         85.323         68.708
         2425.5         86.409         54.796
         2426.0         91.068         49.123
         2426.5         92.925         49.708
         2427.0         91.797         48.123
         2427.5         92.757         47.758
         2428.0         96.484         51.436
         2428.5         94.846         55.826
         2429.0         94.351         56.293
         2429.5         97.266         52.837
         2430.0         95.212         48.438
         2430.5         88.346         46.426
         2431.0         85.664         44.523
         2431.5         92.805         43.212
         2432.0        102.477         42.300
         2432.5        104.479         42.176
         2433.0         94.353         42.690
         2433.5         94.148         41.363
         2434.0        100.830         37.373
         2434.5        107.878         35.478
         2435.0        108.320         36.738
         2435.5        103.035         37.037
         2436.0         90.036         36.644
         2436.5         82.008         34.308
         2437.0         91.915         33.918
         2437.5        108.984         44.027
         2438.0        120.153         62.060
         2438.5        140.890         70.245
         2439.0        137.967         69.648
         2439.5        130.550         61.740
         2440.0        125.644         59.649
         2440.5        115.862         58.929
         2441.0        110.126         56.805
         2441.5        105.342         51.174
         2442.0         98.430         48.827
         2442.5         90.253         43.836
         2443.0         87.030         39.491
         2443.5         80.173         37.656
         2444.0         75.061         37.457
         2444.5         77.238         47.183
         2445.0         94.826         51.417
         2445.5        103.609         50.896
         2446.0         96.903         51.058
         2446.5         79.479         57.054
         2447.0         75.000         61.385
         2447.5         78.703         58.877
         2448.0         81.641         46.392
         2448.5         85.219         43.312
         2449.0         93.421         52.129
         2449.5         97.714         57.144
         2450.0        101.320         57.718
         2450.5        105.785         54.917
         2451.0        115.234         45.472
         2451.5        112.552         41.295
         2452.0        107.325         40.741
         2452.5         90.861         40.546
         2453.0         83.117         39.680
         2453.5         82.563         37.286
         2454.0         86.152         35.427
         2454.5         89.844         33.028
         2455.0         87.458         31.325
         2455.5         85.156         31.774
         2456.0         86.073         31.512
         2456.5         87.500         29.558
         2457.0         86.177         33.668
         2457.5         86.967         42.432
         2458.0         95.593         52.522
         2458.5        116.192         61.521
         2459.0        134.905         68.399
         2459.5        148.303         76.401
         2460.0        155.970         82.261
         2460.5        163.281         82.130
         2461.0        157.901         74.031
         2461.5        135.574         67.387
         2462.0        127.737         64.717
         2462.5        130.234         65.423
         2463.0        135.406         66.667
         2463.5        132.504         64.854
         2464.0        124.967         51.234
         2464.5        103.982         30.755
         2465.0         92.783         18.984
         2465.5         85.267         18.703
         2466.0         78.493         25.983
         2466.5         69.658         30.674
         2467.0         66.406         32.944
         2467.5         68.615         29.959
         2468.0         72.958         26.345
         2468.5         75.340         30.595
         2469.0         75.391         38.100
         2469.5         71.142         43.435
         2470.0         67.214         43.275
         2470.5         68.313         39.849
         2471.0         74.203         34.713
         2471.5         76.755         34.113
         2472.0         81.641         34.116
         2472.5         82.408         34.712
         2473.0         81.171         38.113
         2473.5         77.087         46.470
         2474.0         74.571         48.921
         2474.5         75.852         44.912
         2475.0         76.843         38.404
         2475.5         71.268         32.685
         2476.0         67.471         33.600
         2476.5         68.049         36.337
         2477.0         71.509         37.666
         2477.5         78.336         38.791
         2478.0         78.756         38.791
         2478.5         79.690         38.402
         2479.0         80.346         38.597
         2479.5         80.876         39.246
         2480.0         79.414         40.156
         2480.5         74.319         40.084
         2481.0         66.644         39.105
         2481.5         67.867         38.321
         2482.0         74.422         36.978
         2482.5         78.303         33.758
         2483.0         82.031         31.291
         2483.5         81.250         28.460
         2484.0         82.827         30.611
         2484.5         82.602         32.464
         2485.0         66.969         32.749
         2485.5         61.555         32.554
         2486.0         66.565         33.646
         2486.5         73.924         34.624
         2487.0         77.135         36.703
         2487.5         77.475         38.661
         2488.0         75.781         40.679
         2488.5         74.609         41.521
         2489.0         75.284         41.521
         2489.5         78.759         40.254
         2490.0         77.434         38.597
         2490.5         73.828         42.938
         2491.0         79.488         55.309
         2491.5         93.258         63.092
         2492.0        101.890         65.302
