###############################################
##         ENVERUS                           ##
##         ESS - Open Hole                   ##
##         PERMIAN / DELAWARE                ##
##         Nov 03 2023  V4.0                 ##
##         42-109-33144-00-00                ##
###############################################
## Copyright 2017-2023  ENVERUS.  All Rights Reserved. 
## Confidential - Property of ENVERUS, use governed by terms and 
## conditions found within the existing Information Services Subscription Agreement 
## (as may be amended, the “ISSA”) between Customer and ENVERUS. 
## 
~VERSION INFORMATION
# MNEM.UNIT                               DATA : DESCRIPTION OF MNEMONIC
#-----.-----     ----------------------------- : -----------------------------
VERS.                                     2.00 : CWLS LOG ASCII STANDARD - VERSION 2.00
WRAP.                                       NO : MULTIPLE LINES PER DEPTH STEP
VEND.                                  ENVERUS : VENDOR
TYPE.                          ESS - OPEN HOLE : ENVERUS ESSENTIAL CURVES – ACCESSIBLE THROUGH ENVERUS PRISM(TM)
DOC.                                  44408038 : ENVERUS HEADER RAW DOCUMENT ID
#___________________________________________________________________________________________________ 
~WELL INFORMATION 
# jhvnPe+1QU9E4rmF00QVhgJB4IQXrbTj+4JQBaOQ+xeerJB1ro+a2ny8/YeKPBUHGPa8yPZn1kHe7+9ZkyRs1A== 
# MNEM.UNIT                                              DATA : DESCRIPTION OF MNEMONIC 
#-----.-----                    ----------------------------- : ----------------------------- 
CNTY.                                               CULBERSON : COUNTY 
STATE.                                                  TEXAS : STATE 
CNTRY.                                                    USA : COUNTRY 
API.                                             42-109-33144 : API (10 Digit) 
API_14.                                    42-109-33144-00-00 : API (14 Digits) 
API_14_std.                                 42-109-33144-0000 : API (14 Digits Standard) 
UWI.                                           42109331440000 : UNIQUE WELL ID 
WELL.                                        PAT FEE 4 NO. 3H : WELL NAME
STRT.FT                                                8880.0 : START DEPTH
STOP.FT                                               14320.0 : STOP DEPTH
STEP.FT                                                   0.5 : STEP BETWEEN DEPTHS
NULL.                                                 -999.25 : NULL VALUE
LOC.                                     API  42-109-33144LAT : LOCATION 
FL1.                                     API  42-109-33144LAT : LOCATIONLINE1 
DMF.                                                       KB : DRILL MEAS FROM 
PDAT.                                                      GL : PERMANENT DATUM 
FLD.                                    FORD, WEST (WOLFCAMP) : FIELD NAME 
COMP.                            CAPITAN ENERGY, INCORPORATED : COMPANY 
DATE.                                             21-SEP-2017 : DATE 
SVCO.                                             HALLIBURTON : SERVICECONAME 
PROV.                                                   TEXAS : PROVINCE 
BASI.                                                 PERMIAN : BASIN 
RANG.                                                     N/A : RANGE 
TOWN.                                                     N/A : TOWNSHIP 
SECT.                                                     N/A : SECTION 
SON.                                                      N/A : JOB NUMBER 
SRVC.                                             HALLIBURTON : SERVICE COMPANY 
LMF.                                                       KB : LOG MEASURED FROM 
EGL.FT                                              3093.0000 : GROUND ELEVATION 
BAP.FT                                                 0.0000 : GL ELEV ONSHORE 
GVFD.G                                                 1.0000 : GRAVITY FIELD 
EKB.FT                                              3114.0000 : KB ELEVATION 
EDF.FT                                              3113.0000 : DF ELEVATION
#___________________________________________________________________________________________________ 
~CURVE INFORMATION 
# MNEM.UNIT           : CURVE DESCRIPTION 
#-----.-----          : ----------------------------- 
 DEPT.FT               : MEASURED DEPTH 
 GR.API                : GAMMA RAY (GR_CHI - GR_CHI) 
 GR__01.API            : GAMMA RAY (GR_OH - GR_OH) 
 DT.US/FT              : SONIC DELTA TRANSIT TIME (DTC_CHI - DTC_CHI) 
 DT__01.US/FT          : SONIC DELTA TRANSIT TIME (DTC_OH - DTC_OH) 
 PE.B/E                : PHOTOELECTRIC EFFECT/FACTOR (PE_CHI - PE_CHI) 
 PE__01.B/E            : PHOTOELECTRIC EFFECT/FACTOR (PE_OH - PE_OH) 
 RESS_LL.OHMM          : SHALLOW LATEROLOG (LLS_CHI - LLS_CHI) 
 RESS_LL__01.OHMM      : SHALLOW LATEROLOG (LLS_OH - LLS_OH) 
 RESD_LL.OHMM          : DEEP LATEROLOG (LLD_CHI - LLD_CHI) 
 RESD_LL__01.OHMM      : DEEP LATEROLOG (LLD_OH - LLD_OH) 
 NPHI.V/V              : NEUTRON POROSITY (NPHI_CHI - NPHI_CHI) 
 NPHI__01.V/V          : NEUTRON POROSITY (NPHI_OH - NPHI_OH) 
 SPHI.V/V              : SONIC POROSITY (SPHI_CHI - SPHI_CHI) 
 RHOB.G/CC             : BULK DENSITY (RHOB_CHI - RHOB_CHI) 
 RHOB__01.G/CC         : BULK DENSITY (RHOB_OH - RHOB_OH) 
 #___________________________________________________________________________________________________ 
~A         DEPT             GR         GR__01             DT         DT__01             PE         PE__01        RESS_LL    RESS_LL__01        RESD_LL    RESD_LL__01           NPHI       NPHI__01           SPHI           RHOB       RHOB__01
# ...
        11413.0         32.413       -999.250         55.246       -999.250         4.2036      -999.2500       116.3201      -999.2500       110.7130      -999.2500        0.07759     -999.25000        0.05410         2.6305      -999.2500
        11413.5         35.162       -999.250         55.434       -999.250         4.2033      -999.2500       117.7858      -999.2500       112.1871      -999.2500        0.07841     -999.25000        0.05540         2.6291      -999.2500
        11414.0         39.361       -999.250         55.813       -999.250         4.2160      -999.2500       122.2551      -999.2500       116.5742      -999.2500        0.07983     -999.25000        0.05810         2.6270      -999.2500
        11414.5         37.132       -999.250         55.710       -999.250         4.2003      -999.2500       119.0306      -999.2500       113.5816      -999.2500        0.07926     -999.25000        0.05740         2.6283      -999.2500
        11415.0         40.088       -999.250         55.950       -999.250         4.1909      -999.2500       121.3212      -999.2500       115.8129      -999.2500        0.08058     -999.25000        0.05900         2.6265      -999.2500
        11415.5         45.158       -999.250         56.370       -999.250         4.1861      -999.2500       127.7101      -999.2500       121.8810      -999.2500        0.08299     -999.25000        0.06200         2.6234      -999.2500
        11416.0         38.936       -999.250         56.130       -999.250         4.1619      -999.2500       124.1910      -999.2500       118.4680      -999.2500        0.08205     -999.25000        0.06030         2.6263      -999.2500
        11416.5         35.548       -999.250         56.197       -999.250         4.1846      -999.2500       126.5627      -999.2500       120.7969      -999.2500        0.08157     -999.25000        0.06080         2.6281      -999.2500
        11417.0         35.634       -999.250         56.543       -999.250         4.2623      -999.2500       134.3021      -999.2500       128.4475      -999.2500        0.08126     -999.25000        0.06320         2.6288      -999.2500
        11417.5         40.089       -999.250         56.858       -999.250         4.3234      -999.2500       141.2832      -999.2500       135.2902      -999.2500        0.08158     -999.25000        0.06550         2.6272      -999.2500
        11418.0         33.407       -999.250         56.276       -999.250         4.3006      -999.2500       131.2716      -999.2500       125.6006      -999.2500        0.07913     -999.25000        0.06140         2.6307      -999.2500
        11418.5         29.336       -999.250         55.689       -999.250         4.2572      -999.2500       121.7375      -999.2500       116.2856      -999.2500        0.07737     -999.25000        0.05720         2.6326      -999.2500
        11419.0         33.473       -999.250         55.783       -999.250         4.2406      -999.2500       122.8953      -999.2500       117.2927      -999.2500        0.07859     -999.25000        0.05790         2.6302      -999.2500
        11419.5         37.153       -999.250         55.923       -999.250         4.2294      -999.2500       124.2104      -999.2500       118.5274      -999.2500        0.07971     -999.25000        0.05890         2.6282      -999.2500
        11420.0         38.865       -999.250         55.959       -999.250         4.2142      -999.2500       123.8486      -999.2500       118.1650      -999.2500        0.08029     -999.25000        0.05910         2.6271      -999.2500
        11420.5         36.707       -999.250         55.805       -999.250         4.2452      -999.2500       121.6991      -999.2500       116.2363      -999.2500        0.07860     -999.25000        0.05800         2.6290      -999.2500
        11421.0         37.488       -999.250         55.817       -999.250         4.2764      -999.2500       122.1610      -999.2500       116.7730      -999.2500        0.07793     -999.25000        0.05810         2.6291      -999.2500
        11421.5         34.039       -999.250         55.545       -999.250         4.3073      -999.2500       118.6221      -999.2500       113.4883      -999.2500        0.07573     -999.25000        0.05620         2.6317      -999.2500
        11422.0         33.821       -999.250         55.509       -999.250         4.2898      -999.2500       116.9702      -999.2500       111.9230      -999.2500        0.07580     -999.25000        0.05590         2.6317      -999.2500
        11422.5         36.180       -999.250         55.678       -999.250         4.2264      -999.2500       117.6097      -999.2500       112.4108      -999.2500        0.07809     -999.25000        0.05710         2.6295      -999.2500
        11423.0         45.425       -999.250         56.420       -999.250         4.2181      -999.2500       128.3018      -999.2500       122.6039      -999.2500        0.08226     -999.25000        0.06240         2.6239      -999.2500
        11423.5         52.047       -999.250         57.027       -999.250         4.2190      -999.2500       137.0181      -999.2500       131.0329      -999.2500        0.08520     -999.25000        0.06670         2.6201      -999.2500
        11424.0         45.081       -999.250         56.623       -999.250         4.1750      -999.2500       128.0786      -999.2500       122.4973      -999.2500        0.08365     -999.25000        0.06380         2.6235      -999.2500
        11424.5         41.628       -999.250         56.511       -999.250         4.1694      -999.2500       124.2870      -999.2500       119.0336      -999.2500        0.08259     -999.25000        0.06300         2.6256      -999.2500
        11425.0         41.605       -999.250         56.560       -999.250         4.1779      -999.2500       123.9687      -999.2500       118.8524      -999.2500        0.08235     -999.25000        0.06340         2.6259      -999.2500
        11425.5         37.543       -999.250         56.271       -999.250         4.2189      -999.2500       119.6722      -999.2500       114.9161      -999.2500        0.07958     -999.25000        0.06130         2.6290      -999.2500
        11426.0         46.848       -999.250         56.914       -999.250         4.3228      -999.2500       131.3172      -999.2500       126.3792      -999.2500        0.08066     -999.25000        0.06590         2.6254      -999.2500
        11426.5         47.921       -999.250         56.947       -999.250         4.3877      -999.2500       133.8914      -999.2500       128.9848      -999.2500        0.07948     -999.25000        0.06610         2.6258      -999.2500
        11427.0         39.837       -999.250         56.248       -999.250         4.3237      -999.2500       123.1534      -999.2500       118.3632      -999.2500        0.07762     -999.25000        0.06120         2.6293      -999.2500
        11427.5         48.087       -999.250         56.653       -999.250         4.2469      -999.2500       129.3366      -999.2500       123.9104      -999.2500        0.08219     -999.25000        0.06400         2.6233      -999.2500
        11428.0         40.199       -999.250         55.880       -999.250         4.0839      -999.2500       116.3452      -999.2500       110.9175      -999.2500        0.08257     -999.25000        0.05860         2.6251      -999.2500
        11428.5         40.664       -999.250         55.740       -999.250         3.9945      -999.2500       112.9641      -999.2500       107.4239      -999.2500        0.08441     -999.25000        0.05760         2.6235      -999.2500
        11429.0         42.042       -999.250         55.818       -999.250         3.9828      -999.2500       113.5235      -999.2500       107.9376      -999.2500        0.08514     -999.25000        0.05810         2.6225      -999.2500
        11429.5         36.971       -999.250         55.468       -999.250         3.9673      -999.2500       108.2002      -999.2500       102.8934      -999.2500        0.08338     -999.25000        0.05560         2.6254      -999.2500
