~VERSION INFORMATION
VERS. 2.0 : CWLS Log ASCII Standard - version 2.0
WRAP.  NO : One line per depth step
#--------------------------------------------------#
#----------------DRILLING INFO, INC.---------------#
#---------------WWW.DRILLINGINFO.COM---------------#
#------------------COPYRIGHT 2015------------------#
#--------------------------------------------------#
#THIS FILE MAY BE USED ONLY IN ACCORDANCE WITH A CURRENT SUBSCRIPTION AGREEMENT BETWEEN
#THE USER AND DRILLING INFO, INC. NO PART OF THIS FILE MAY BE REPRODUCED, USED, COPIED,
#MODIFIED, PROPAGATED, OR DISTRIBUTED EXCEPT IN ACCORDANCE WITH THE SUBSCRIPTION
#AGREEMENT. UNAUTHORIZED USE OR DISTRIBUTION OF ALL OR ANY PART OF THIS FILE MAY VIOLATE
#COPYRIGHT, TRADEMARK, AND/OR OTHER LAWS AND IS SUBJECT TO CIVIL AS WELL AS CRIMINAL
#SANCTIONS.
#--------------------------------------------------#
#THIS FILE IS PROVIDED "AS-IS" AND ALL WARRANTIES ARE EXPRESSLY DISCLAIMED, WHETHER
#EXPRESS, ORAL, IMPLIED, STATUTORY OR OTHERWISE, INCLUDING ANY IMPLIED WARRANTY OF FITNESS
#FOR A PARTICULAR PURPOSE, MERCHANTABILITY, TITLE OR NON-INFRINGEMENT, AND ANY WARRANTIES
#ARISING BY VIRTUE OF CUSTOM OF TRADE OR COURSE OF DEALING.  FURTHER, DRILLING INFO,
#INC. AND ITS LICENSORS DO NOT REPRESENT OR WARRANT THAT THIS FILE WILL MEET USER'S
#REQUIREMENTS OR ARE SUITABLE FOR USER'S NEEDS OR THAT THE DATA OR RESULTS PROVIDED IN
#CONJUNCTION THEREWITH ARE CORRECT, ACCURATE, TIMELY OR RELIABLE. THESE DISCLAIMERS SHALL
#APPLY REGARDLESS OF ANY FAILURE OF ESSENTIAL PURPOSE OF ANY LIMITED REMEDY.  SOME
#JURISDICTIONS DO NOT ALLOW THE EXCLUSION OF CERTAIN WARRANTIES SO SOME OF THE ABOVE
#EXCLUSIONS MAY NOT APPLY. IN NO EVENT SHALL DRILLING INFO, INC. OR ANY OF ITS AFFILIATES
#BE LIABLE UNDER ANY LEGAL THEORY, WHETHER IN TORT (INCLUDING WITHOUT LIMITATION
#NEGLIGENCE), CONTRACT, STRICT LIABILITY, STATUTORY OR OTHERWISE, FOR ANY SPECIAL,
#INCIDENTAL, CONSEQUENTIAL, EXEMPLARY, PUNITIVE OR INDIRECT DAMAGE OF ANY KIND, INCLUDING
#WITHOUT LIMITATION LOSS OF REVENUE, PROFITS, GOODWILL, USE, AND/OR DATA OR THE COST OF
#PROCUREMENT OF SUBSTITUTE GOODS OR SERVICES, EVEN IF APPRISED OF THE POSSIBILITY OF SUCH
#DAMAGES IN ADVANCE.
#--------------------------------------------------#
~WELL INFORMATION
#MNEMONIC     .UNIT              VALUE :DESCRIPTION
#--------------------------------------------------#
STRT       .FT                0 :START DEPTH
STOP       .FT                10142 :STOP DEPTH
STEP       .FT                   0.500 :STEP
NULL       .                  -999.250 :NULL
API        .                421093138200 :API NUMBER
COMP       .         SHELL OIL COMPANY :COMPANY
WELL       .        SIBLEY  1 :WELL
DATE       .                08-Aug-1978 :LOG DATE
~CURVE INFORMATION
#MNEMONIC     .UNIT      API CODE :CURVE DESCRIPTION
#--------------------------------------------------#
DEPTH       .FT                      :Measured Depth
CAL.INCH        UNKNOWN   :CAL
DT.US/FT        UNKNOWN   :DT
GR.API        UNKNOWN   :GR
~A    DEPTH    CAL    DT    GR
# ...
 2053     13.956   72.832   48.635
 2053.5     13.956   73.296   46.55
 2054     13.956   73.703   44.466
 2054.5     13.955   73.335   42.382
 2055     13.955   72.966   42.379
 2055.5     13.955   72.597   42.574
 2056     13.954   72.923   42.77
 2056.5     13.954   73.207   42.966
 2057     13.954   72.893   43.161
 2057.5     13.953   72.58   42.662
 2058     13.953   72.267   41.925
 2058.5     13.952   72.297   41.188
 2059     13.944   72.767   40.451
 2059.5     13.936   73.236   40.385
 2060     13.928   72.92   40.389
 2060.5     13.92   72.597   41.706
 2061     13.912   72.274   44.638
 2061.5     13.904   72.607   47.57
 2062     13.896   73.073   50.503
 2062.5     13.888   73.54   53.435
 2063     13.88   74.006   52.766
 2063.5     13.873   74.473   50.349
 2064     13.865   74.767   47.933
 2064.5     13.857   74.704   45.516
 2065     13.849   74.573   44.062
 2065.5     13.841   73.931   42.867
 2066     13.831   73.29   41.672
 2066.5     13.819   72.648   40.867
 2067     13.806   72.476   41.875
 2067.5     13.793   72.585   42.883
 2068     13.781   72.693   43.891
 2068.5     13.768   72.802   44.085
 2069     13.756   72.91   44.257
 2069.5     13.743   73.019   44.428
 2070     13.73   73.127   44.599
 2070.5     13.718   73.051   44.771
 2071     13.705   72.314   43.471
 2071.5     13.693   71.577   41.797
 2072     13.68   70.84   44.356
 2072.5     13.667   70.103   52.37
 2073     13.655   70.48   60.384
 2073.5     13.642   71.139   65.8
 2074     13.63   71.797   61.373
 2074.5     13.617   71.766   56.946
 2075     13.604   71.304   52.519
 2075.5     13.592   70.841   48.093
 2076     13.579   70.379   43.666
 2076.5     13.567   69.917   41.224
 2077     13.554   69.968   47.978
 2077.5     13.543   70.592   54.732
 2078     13.538   71.217   61.486
 2078.5     13.534   71.841   59.204
 2079     13.53   71.512   54.471
 2079.5     13.526   70.741   49.738
 2080     13.522   69.969   45.366
 2080.5     13.518   69.197   41.028
 2081     13.514   68.869   40.516
 2081.5     13.51   69.647   40.343
 2082     13.506   70.424   40.233
 2082.5     13.502   70.851   40.555
 2083     13.498   71.109   40.878
 2083.5     13.494   71.635   43.696
 2084     13.489   72.705   50.088
 2084.5     13.485   73.342   50.383
 2085     13.481   72.623   49.188
 2085.5     13.477   71.904   47.993
 2086     13.473   71.185   46.799
 2086.5     13.469   70.466   45.604
 2087     13.465   70.668   44.671
 2087.5     13.461   71.091   44.618
 2088     13.457   71.515   44.679
 2088.5     13.453   70.778   46.192
 2089     13.436   69.707   47.705
 2089.5     13.411   68.636   49.218
 2090     13.386   67.565   50.731
 2090.5     13.361   66.494   51.234
 2091     13.335   66.238   48.483
 2091.5     13.31   66.428   45.731
 2092     13.285   66.617   46.967
 2092.5     13.26   66.806   49.739
 2093     13.234   66.99   52.51
 2093.5     13.224   66.933   55.281
 2094     13.217   66.876   58.053
 2094.5     13.21   66.819   58.07
 2095     13.203   66.763   56.443
 2095.5     13.195   66.706   55.209
 2096     13.188   66.649   55.013
 2096.5     13.181   67.073   54.818
 2097     13.174   67.529   57.653
 2097.5     13.166   67.984   61.285
 2098     13.159   68.44   58.184
 2098.5     13.152   68.896   54.978
 2099     13.145   69.435   51.773
 2099.5     13.142   70.076   48.568
 2100     13.138   70.717   45.362
 2100.5     13.135   71.358   46.94
 2101     13.131   71.999   49.578
 2101.5     13.128   72.64   47.358
 2102     13.125   72.381   42.615
 2102.5     13.121   71.828   37.872
 2103     13.118   71.276   33.129
 2103.5     13.115   70.723   29.251
 2104     13.111   70.729   29.477
 2104.5     13.108   70.976   29.703
 2105     13.105   71.224   29.929
 2105.5     13.101   71.471   30.155
 2106     13.098   71.037   30.381
 2106.5     13.093   70.158   30.606
 2107     13.072   69.279   33.692
 2107.5     13.05   68.401   39.677
 2108     13.029   67.522   45.661
 2108.5     13.008   66.643   51.646
 2109     12.986   65.205   51.972
 2109.5     12.965   62.74   51.468
 2110     12.944   61.831   47.104
 2110.5     12.923   63   42.739
 2111     12.901   64.17   38.375
 2111.5     12.886   65.339   47.742
 2112     12.888   66.509   57.351
 2112.5     12.889   67.292   66.96
 2113     12.891   67.608   76.57
 2113.5     12.893   67.923   73.017
 2114     12.894   68.239   67.573
 2114.5     12.896   68.554   59.339
 2115     12.898   68.87   50.124
 2115.5     12.899   69.185   40.908
 2116     12.912   69.501   31.693
 2116.5     12.93   69.322   22.478
 2117     12.949   68.977   18.266
 2117.5     12.967   68.632   19.228
 2118     12.985   68.287   20.191
 2118.5     13.004   67.976   21.153
 2119     13.022   69.325   21.937
 2119.5     13.041   70.673   21.166
 2120     13.059   71.941   20.808
 2120.5     13.077   71.916   20.857
 2121     13.096   71.89   20.905
 2121.5     13.114   71.746   29.835
 2122     13.133   71.295   41.744
 2122.5     13.151   70.843   53.653
 2123     13.169   70.392   53.948
 2123.5     13.135   70.426   49.1
 2124     13.087   70.701   44.251
 2124.5     13.039   70.977   39.402
 2125     12.991   70.753   34.554
 2125.5     12.943   70.342   29.705
 2126     12.935   69.931   26.586
 2126.5     12.929   69.575   24.759
 2127     12.923   69.765   22.933
 2127.5     12.917   69.956   21.106
 2128     12.911   70.146   21.697
 2128.5     12.906   70.337   22.707
 2129     12.9   70.527   22.973
 2129.5     12.894   70.718   22.54
 2130     12.888   70.452   22.107
 2130.5     12.883   70.014   21.674
 2131     12.877   69.576   21.242
 2131.5     12.871   68.774   20.809
 2132     12.863   67.753   24.322
 2132.5     12.84   66.732   31.03
 2133     12.817   65.711   41.637
 2133.5     12.794   64.69   52.464
 2134     12.772   63.669   63.292
 2134.5     12.749   62.648   74.12
 2135     12.726   61.627   84.05
 2135.5     12.703   60.606   89.91
 2136     12.68   59.585   90.477
 2136.5     12.657   60.837   77.467
 2137     12.634   62.939   64.457
 2137.5     12.643   65.042   65.159
 2138     12.652   67.144   74.631
 2138.5     12.661   69.247   84.103
 2139     12.673   70.467   93.575
 2139.5     12.701   69.784   73.617
 2140     12.73   69.101   61.844
 2140.5     12.758   68.633   50.072
 2141     12.787   68.591   38.3
 2141.5     12.815   68.549   26.528
 2142     12.844   68.501   24.154
 2142.5     12.872   67.797   24.997
 2143     12.892   67.092   25.841
 2143.5     12.873   66.388   28.405
 2144     12.855   65.927   37.411
 2144.5     12.837   65.673   46.418
 2145     12.818   65.418   55.425
 2145.5     12.8   66.322   64.432
 2146     12.781   67.397   65.171
 2146.5     12.763   68.472   59.204
 2147     12.745   69.546   53.237
 2147.5     12.729   70.588   47.498
 2148     12.724   70.157   46.087
 2148.5     12.719   69.727   44.676
 2149     12.713   69.296   42.858
 2149.5     12.708   68.341   36.112
 2150     12.703   66.77   29.366
 2150.5     12.698   66.545   27.85
 2151     12.693   66.319   29.801
 2151.5     12.687   66.094   37.759
 2152     12.682   65.868   53.867
 2152.5     12.677   65.121   73.52
 2153     12.672   63.116   93.172
 2153.5     12.667   61.111   88.188
 2154     12.661   60.197   80.336
 2154.5     12.656   60.999   72.485
 2155     12.658   62.812   64.633
 2155.5     12.66   64.626   56.781
 2156     12.662   66.44   48.93
 2156.5     12.664   68.202   54.747
 2157     12.666   67.966   62.702
 2157.5     12.668   67.73   70.656
 2158     12.681   67.494   76.54
 2158.5     12.7   67.043   66.588
 2159     12.719   66.026   56.635
 2159.5     12.739   65.009   46.683
 2160     12.758   63.992   36.731
 2160.5     12.777   62.975   32.742
 2161     12.796   61.958   29.486
 2161.5     12.815   61.829   26.231
 2162     12.802   62.439   29.394
 2162.5     12.787   63.302   31.047
 2163     12.771   64.165   31.765
 2163.5     12.755   65.029   32.483
 2164     12.74   65.892   33.201
 2164.5     12.724   65.545   36.931
 2165     12.708   64.833   43.697
