~Version Information
 VERS.                  2.0:   CWLS log ASCII Standard -VERSION 2.0
 WRAP.                   NO:   One line per depth step
~Well Information Block
#MNEM.UNIT     VALUE/NAME     DESCRIPTION
#---------     -----------    ---------------------------
 STRT.F              8400.0000: START DEPTH
 STOP.F             13890.0000: STOP DEPTH
 STEP.F                 0.5000: STEP DEPTH
 NULL.                 -999.25: NULL VALUE
 LOC .     506' FEL & 344' FSL:  LOCATION
 FL6 .       API  42-109-33224:  LOCATIONLINE6
 FL4 .           ABSTRACT 4479:  LOCATIONLINE4
 FL3 .        T&P RR CO SURVEY:  LOCATIONLINE3
 FL2 .     SECTION 30, BLOCK 58 T2:  LOCATIONLINE2
 FL1 .     506' FEL & 344' FSL:  LOCATIONLINE1
 DMF .                      KB:  DRILL MEAS FROM
 PDAT.                      GL:  PERMANENT DATUM
 CNTY.               CULBERSON:  COUNTY NAME
 FLD .     FORD, WEST (WOLFCAMP):  FIELD NAME
 WELL.      LAUREN STATE 30 2H:  WELL NAME
 COMP.     CAPITAN ENERGY, INC.:  COMPANY
 DATE.             19-Feb-2018:  DATE
 SVCO.             Halliburton:  SERVICECONAME
 PROV.                   TEXAS:  PROVINCE
 STAT.                   TEXAS:  STATE NAME
 CTRY.                     USA:  COUNTRY NAME
 HIDE.                        :  WELLNAMEOPERAT
 BASI.                 PERMIAN:  BASIN
 UWI .            42-109-33224:  UNIQUE WELL IDENTIFIER
 API .            42-109-33224:  API NUMBER
 RANG.                     N/A:  RANGE
 TOWN.                     N/A:  TOWNSHIP
 SECT.                     N/A:  SECTION
 SON .               904646015:  JOB NUMBER
 SRVC.             Halliburton:  SERVICE COMPANY
 LMF .                      KB:  LOG MEASURED FROM
 EGL .ft             3168.0000:  GROUND ELEVATION
 BAP .ft                0.0000:  GL ELEV ONSHORE
 GVFD.g                 1.0000:  GRAVITY FIELD
 EKB .ft             3194.0000:  KB ELEVATION
 EDF .ft             3193.0000:  DF ELEVATION
~Curve Information Block
#MNEM.UNIT                 API CODE     Curve Description
#---------               -----------    ---------------------------
 DEPT.F                 00 000 000 000:  Depth
 CCL .V                 00 000 000 000:  Casing Collar Locator
 NPHI_OH.pu             00 000 000 000:  NPHI_OH
 NPHI_CHI.pu            00 000 000 000:  NPHI_CHI
 GR_OH.api              00 000 000 000:  GR_OH
 GR_CHI.api             00 000 000 000:  GR_CHI
 RHOB_OH.g/cc           00 000 000 000:  RHOB_OH
 RHOB_CHI.g/cc          00 000 000 000:  RHOB_CHI
 PE_OH.b/e              00 000 000 000:  PE_OH
 PE_CHI.b/e             00 000 000 000:  PE_CHI
 RT10_OH.ohmm           00 000 000 000:  RT10_OH
 RT10_CHI.ohmm          00 000 000 000:  RT10_CHI
 RT30_OH.ohmm           00 000 000 000:  RT30_OH
 RT30_CHI.ohmm          00 000 000 000:  RT30_CHI
 RT90_OH.ohmm           00 000 000 000:  RT90_OH
 RT90_CHI.ohmm          00 000 000 000:  RT90_CHI
 DTC_OH.uspf            00 000 000 000:  DTC_OH
 DTC_CHI.uspf           00 000 000 000:  DTC_CHI
 SPHI_CHI.pu            00 000 000 000:  SPHI_CHI
 SGF .cu                00 000 000 000:  Formation Sigma
 CRNF.NONE              00 000 000 000:  CM GrsCaptRatio
 RIN .NONE              00 000 000 000:  CM GrsInelRatio
#Other Information
#
#WARRANTY: Halliburton will use its best efforts to furnish customers with 
#accurate information and interpretations that are part of, and incident to, the services 
#provided.  However, Halliburton cannot and does not warrant the accuracy 
#or correctness of such information and interpretations.  Under no circumstances should any 
#such information or interpretation be relied upon as the sole basis for any drilling, 
#completion, production, or financial decision or any procedure involving any risk to the 
#safety of any drilling venture, drilling rig or its crew or any other third party.  The 
#Customer has full responsibility for all drilling, completion and production operation.  
#Halliburton makes no representations or warranties, either expressed or 
#implied, including, but not limited to, the implied warranties of merchantability or fitness 
#for a particular purpose, with respect to the services rendered.  In no event will 
#Halliburton be liable for failure to obtain any particular results or for 
#any damages, including, but not limited to, indirect, special or consequential damages, 
#resulting from the use of any information or interpretation provided by Halliburton.
#
~A    DEPT      CCL   NPHI_OH NPHI_CHI  GR_OH    GR_CHI  RHOB_OH RHOB_CHI  PE_OH  PE_CHI  RT10_OH  RT10_CHI RT30_OH  RT30_CHI RT90_OH  RT90_CHI DTC_OH  DTC_CHI SPHI_CHI   SGF    CRNF   RIN   
# ...
   13125.0000  0.0000 -999.25  18.0401  -999.25 128.6696 -999.25   2.5161 -999.25  2.7076  -999.25  28.7893  -999.25  27.0166  -999.25  28.7128 -999.25 74.8491  19.2700 33.3301 1.2157 1.1184
   13125.5000  0.0000 -999.25  17.8008  -999.25 123.0850 -999.25   2.5192 -999.25  2.7162  -999.25  29.4193  -999.25  27.6590  -999.25  29.5344 -999.25 74.5391  19.0500 32.8140 1.2088 1.1182
   13126.0000  0.0000 -999.25  17.7731  -999.25 122.9317 -999.25   2.5186 -999.25  2.7372  -999.25  30.4127  -999.25  28.5881  -999.25  30.5892 -999.25 74.5871  19.0900 32.7588 1.2050 1.1166
   13126.5000  0.0000 -999.25  17.5150  -999.25 119.6795 -999.25   2.5208 -999.25  2.7630  -999.25  31.3737  -999.25  29.4840  -999.25  31.5653 -999.25 74.4430  18.9800 32.8577 1.2021 1.1131
   13127.0000  0.0000 -999.25  18.2064  -999.25 133.5397 -999.25   2.5099 -999.25  2.7640  -999.25  33.4594  -999.25  31.3505  -999.25  33.3442 -999.25 75.4983  19.7300 33.2678 1.2092 1.1107
   13127.5000  0.0000 -999.25  18.1965  -999.25 134.3956 -999.25   2.5101 -999.25  2.7672  -999.25  33.0122  -999.25  30.9042  -999.25  32.8082 -999.25 75.4818  19.7200 33.6962 1.2155 1.1134
   13128.0000  0.0000 -999.25  17.6165  -999.25 125.0473 -999.25   2.5197 -999.25  2.7640  -999.25  29.9787  -999.25  28.0807  -999.25  29.8092 -999.25 74.5984  19.0900 34.0321 1.2049 1.1178
   13128.5000  0.0000 -999.25  17.5798  -999.25 122.3694 -999.25   2.5221 -999.25  2.7567  -999.25  27.9685  -999.25  26.3030  -999.25  28.1014 -999.25 74.1725  18.7900 33.8860 1.1855 1.1221
   13129.0000  0.0000 -999.25  17.7096  -999.25 122.8304 -999.25   2.5219 -999.25  2.7589  -999.25  26.3749  -999.25  24.9325  -999.25  26.8360 -999.25 73.9438  18.6300 33.3443 1.1614 1.1244
   13129.5000  0.0000 -999.25  17.8870  -999.25 128.9606 -999.25   2.5185 -999.25  2.7943  -999.25  25.8716  -999.25  24.4033  -999.25  26.2560 -999.25 74.1936  18.8100 32.3793 1.1616 1.1251
   13130.0000  0.0000 -999.25  17.6300  -999.25 130.2118 -999.25   2.5201 -999.25  2.8632  -999.25  25.4465  -999.25  23.9101  -999.25  25.6729 -999.25 74.0588  18.7100 31.4683 1.1686 1.1249
   13130.5000  0.0000 -999.25  16.7294  -999.25 122.1411 -999.25   2.5299 -999.25  2.9639  -999.25  25.1834  -999.25  23.5912  -999.25  25.2893 -999.25 73.2456  18.1400 30.7251 1.1775 1.1250
   13131.0000  0.0000 -999.25  17.4041  -999.25 133.9439 -999.25   2.5181 -999.25  3.0274  -999.25  26.7944  -999.25  24.9902  -999.25  27.0627 -999.25 74.0595  18.7100 30.1915 1.1765 1.1236
   13131.5000  0.0000 -999.25  16.7695  -999.25 121.6885 -999.25   2.5263 -999.25  3.0770  -999.25  26.5737  -999.25  24.8426  -999.25  27.2028 -999.25 73.1683  18.0800 29.9264 1.1668 1.1227
   13132.0000  0.0000 -999.25  16.8479  -999.25 120.6893 -999.25   2.5242 -999.25  3.0795  -999.25  28.2874  -999.25  26.4286  -999.25  29.0543 -999.25 73.3638  18.2200 29.7311 1.1768 1.1198
   13132.5000  0.0000 -999.25  17.1095  -999.25 125.5016 -999.25   2.5197 -999.25  3.0980  -999.25  28.5911  -999.25  26.6542  -999.25  29.3688 -999.25 73.7059  18.4600 29.2945 1.1742 1.1195
   13133.0000  0.0000 -999.25  16.7553  -999.25 122.2465 -999.25   2.5235 -999.25  3.1023  -999.25  30.2726  -999.25  28.2215  -999.25  30.8523 -999.25 73.5928  18.3800 28.5709 1.1700 1.1149
   13133.5000  0.0000 -999.25  16.7692  -999.25 119.8186 -999.25   2.5226 -999.25  3.0983  -999.25  31.8917  -999.25  29.7642  -999.25  32.6675 -999.25 73.6819  18.4500 27.6530 1.1476 1.1075
   13134.0000  0.0000 -999.25  16.3675  -999.25 114.0807 -999.25   2.5263 -999.25  3.1227  -999.25  34.2512  -999.25  32.0203  -999.25  35.1232 -999.25 73.4936  18.3100 27.0509 1.1303 1.0970
   13134.5000  0.0000 -999.25  16.3884  -999.25 115.9927 -999.25   2.5235 -999.25  3.1730  -999.25  36.3961  -999.25  34.0345  -999.25  37.4451 -999.25 73.7506  18.4900 26.8498 1.1239 1.0888
   13135.0000  0.0000 -999.25  16.1314  -999.25 118.2775 -999.25   2.5245 -999.25  3.2383  -999.25  38.5558  -999.25  36.0359  -999.25  39.4083 -999.25 73.7673  18.5100 27.0212 1.1149 1.0829
   13135.5000  0.0000 -999.25  15.5731  -999.25 114.0495 -999.25   2.5313 -999.25  3.2799  -999.25  38.7133  -999.25  36.1851  -999.25  39.3828 -999.25 73.2677  18.1500 27.2399 1.1170 1.0826
   13136.0000  0.0000 -999.25  15.7190  -999.25 118.1470 -999.25   2.5292 -999.25  3.2782  -999.25  39.1714  -999.25  36.5868  -999.25  39.6388 -999.25 73.4964  18.3100 27.4576 1.1165 1.0834
   13136.5000  0.0000 -999.25  15.2339  -999.25 112.6071 -999.25   2.5362 -999.25  3.2759  -999.25  38.7684  -999.25  36.2638  -999.25  39.0602 -999.25 73.0120  17.9700 27.7857 1.1256 1.0858
   13137.0000  0.0000 -999.25  15.4829  -999.25 115.9858 -999.25   2.5332 -999.25  3.2608  -999.25  38.5057  -999.25  35.9786  -999.25  38.7218 -999.25 73.2564  18.1400 28.3903 1.1378 1.0892
   13137.5000  0.0000 -999.25  16.1681  -999.25 127.2635 -999.25   2.5240 -999.25  3.2464  -999.25  38.4057  -999.25  35.7786  -999.25  38.4170 -999.25 73.9898  18.6600 29.0029 1.1487 1.0933
   13138.0000  0.0000 -999.25  15.9059  -999.25 120.0853 -999.25   2.5297 -999.25  3.1959  -999.25  36.5251  -999.25  34.0654  -999.25  36.5493 -999.25 73.5479  18.3500 29.6228 1.1518 1.0967
   13138.5000  0.0000 -999.25  16.0419  -999.25 118.6146 -999.25   2.5299 -999.25  3.1407  -999.25  35.1965  -999.25  32.8404  -999.25  35.2486 -999.25 73.5286  18.3400 29.9673 1.1486 1.0990
   13139.0000  0.0000 -999.25  16.2899  -999.25 119.3677 -999.25   2.5283 -999.25  3.0861  -999.25  34.2202  -999.25  31.9408  -999.25  34.2675 -999.25 73.6628  18.4300 30.2519 1.1500 1.1008
   13139.5000  0.0000 -999.25  17.1019  -999.25 131.9753 -999.25   2.5175 -999.25  3.0705  -999.25  33.8408  -999.25  31.5130  -999.25  33.8340 -999.25 74.4759  19.0100 30.3630 1.1511 1.1040
   13140.0000  0.0000 -999.25  16.7313  -999.25 126.5005 -999.25   2.5234 -999.25  3.0578  -999.25  32.7500  -999.25  30.5156  -999.25  32.6441 -999.25 74.0491  18.7100 30.4520 1.1525 1.1046
   13140.5000  0.0000 -999.25  18.0372  -999.25 148.3041 -999.25   2.5046 -999.25  3.0530  -999.25  34.1326  -999.25  31.7126  -999.25  33.9291 -999.25 75.4923  19.7300 30.4679 1.1535 1.1066
   13141.0000  0.0000 -999.25  17.7280  -999.25 142.6249 -999.25   2.5094 -999.25  3.0467  -999.25  33.3820  -999.25  31.0355  -999.25  33.2132 -999.25 75.1227  19.4600 30.4995 1.1537 1.1079
   13141.5000  0.0000 -999.25  17.9783  -999.25 146.5984 -999.25   2.5061 -999.25  3.0570  -999.25  32.4503  -999.25  30.1384  -999.25  32.3847 -999.25 75.2754  19.5700 30.6429 1.1594 1.1109
   13142.0000  0.0000 -999.25  18.7871  -999.25 160.5400 -999.25   2.4945 -999.25  3.0680  -999.25  32.1323  -999.25  29.7730  -999.25  32.1120 -999.25 76.0306  20.1100 30.9857 1.1676 1.1138
   13142.5000  0.0000 -999.25  18.6486  -999.25 158.0241 -999.25   2.4971 -999.25  3.0730  -999.25  30.3709  -999.25  28.1278  -999.25  30.4355 -999.25 75.7476  19.9100 31.3289 1.1751 1.1167
   13143.0000  0.0000 -999.25  18.0871  -999.25 146.4185 -999.25   2.5064 -999.25  3.0382  -999.25  29.7050  -999.25  27.5996  -999.25  29.8148 -999.25 75.1014  19.4500 31.7157 1.1793 1.1173
   13143.5000  0.0000 -999.25  17.7071  -999.25 137.3365 -999.25   2.5130 -999.25  2.9882  -999.25  30.1552  -999.25  28.1074  -999.25  30.2473 -999.25 74.7129  19.1700 32.0646 1.1814 1.1169
   13144.0000  0.0000 -999.25  17.7710  -999.25 136.0785 -999.25   2.5130 -999.25  2.9336  -999.25  31.1300  -999.25  29.0538  -999.25  31.1085 -999.25 74.8643  19.2800 32.5123 1.1808 1.1153
   13144.5000  0.0000 -999.25  18.4548  -999.25 146.6008 -999.25   2.5037 -999.25  2.8951  -999.25  32.4047  -999.25  30.2217  -999.25  32.2193 -999.25 75.7043  19.8800 33.0302 1.1809 1.1157
   13145.0000  0.0000 -999.25  17.9842  -999.25 137.5344 -999.25   2.5116 -999.25  2.8491  -999.25  31.6066  -999.25  29.4970  -999.25  31.2527 -999.25 75.2364  19.5400 33.6044 1.1854 1.1154
   13145.5000  0.0000 -999.25  19.0857  -999.25 156.9368 -999.25   2.4963 -999.25  2.8191  -999.25  32.3742  -999.25  30.1518  -999.25  31.7605 -999.25 76.4921  20.4300 33.8843 1.1907 1.1149
