~VERSION INFORMATION
VERS. 2.0 : CWLS Log ASCII Standard - Version 2.0
WRAP. NO : One line per depth step
#--------------------------------------------------#
#----------------DRILLING INFO, INC.---------------#
#---------------WWW.DRILLINGINFO.COM---------------#
#------------------COPYRIGHT 2015------------------#
#--------------------------------------------------#
#THIS FILE MAY BE USED ONLY IN ACCORDANCE WITH A CURRENT SUBSCRIPTION AGREEMENT BETWEEN
#THE USER AND DRILLING INFO, INC. NO PART OF THIS FILE MAY BE REPRODUCED, USED, COPIED,
#MODIFIED, PROPAGATED, OR DISTRIBUTED EXCEPT IN ACCORDANCE WITH THE SUBSCRIPTION
#AGREEMENT. UNAUTHORIZED USE OR DISTRIBUTION OF ALL OR ANY PART OF THIS FILE MAY VIOLATE
#COPYRIGHT, TRADEMARK, AND/OR OTHER LAWS AND IS SUBJECT TO CIVIL AS WELL AS CRIMINAL
#SANCTIONS.
#--------------------------------------------------#
#THIS FILE IS PROVIDED "AS-IS" AND ALL WARRANTIES ARE EXPRESSLY DISCLAIMED, WHETHER
#EXPRESS, ORAL, IMPLIED, STATUTORY OR OTHERWISE, INCLUDING ANY IMPLIED WARRANTY OF FITNESS
#FOR A PARTICULAR PURPOSE, MERCHANTABILITY, TITLE OR NON-INFRINGEMENT, AND ANY WARRANTIES
#ARISING BY VIRTUE OF CUSTOM OF TRADE OR COURSE OF DEALING.  FURTHER, DRILLING INFO,
#INC. AND ITS LICENSORS DO NOT REPRESENT OR WARRANT THAT THIS FILE WILL MEET USER'S
#REQUIREMENTS OR ARE SUITABLE FOR USER'S NEEDS OR THAT THE DATA OR RESULTS PROVIDED IN
#CONJUNCTION THEREWITH ARE CORRECT, ACCURATE, TIMELY OR RELIABLE. THESE DISCLAIMERS SHALL
#APPLY REGARDLESS OF ANY FAILURE OF ESSENTIAL PURPOSE OF ANY LIMITED REMEDY.  SOME
#JURISDICTIONS DO NOT ALLOW THE EXCLUSION OF CERTAIN WARRANTIES SO SOME OF THE ABOVE
#EXCLUSIONS MAY NOT APPLY. IN NO EVENT SHALL DRILLING INFO, INC. OR ANY OF ITS AFFILIATES
#BE LIABLE UNDER ANY LEGAL THEORY, WHETHER IN TORT (INCLUDING WITHOUT LIMITATION
#NEGLIGENCE), CONTRACT, STRICT LIABILITY, STATUTORY OR OTHERWISE, FOR ANY SPECIAL,
#INCIDENTAL, CONSEQUENTIAL, EXEMPLARY, PUNITIVE OR INDIRECT DAMAGE OF ANY KIND, INCLUDING
#WITHOUT LIMITATION LOSS OF REVENUE, PROFITS, GOODWILL, USE, AND/OR DATA OR THE COST OF
#PROCUREMENT OF SUBSTITUTE GOODS OR SERVICES, EVEN IF APPRISED OF THE POSSIBILITY OF SUCH
#DAMAGES IN ADVANCE.
#--------------------------------------------------#
~WELL INFORMATION
#MNEMONIC     .UNIT              VALUE :DESCRIPTION
#--------------------------------------------------#
STRT       .ft                52.00000 :START DEPTH
STOP       .ft                8797.00000 :STOP DEPTH
STEP       .ft                0.50000 :STEP
NULL       .                -999.25000 :NULL VALUE
COMP       .                 :COMPANY
WELL       .                 :WELL
FLD       .                 :FIELD
LOC       .                 :LOCATION
CNTY       .                 :COUNTY
STAT       .                 :STATE
CTRY       .                 :COUNTRY
SRVC       .                 :SERVICE COMPANY
DATE       .                 :DATE
API       .                42109700290000 :API NUMBER
~CURVE INFORMATION
#MNEMONIC     .UNIT      API CODE :CURVE DESCRIPTION
#--------------------------------------------------#
DEPTH       .ft                      :Measured Depth
DT       .us/ft        UNKNOWN   :DT
GR       .gAPI        UNKNOWN   :GR
ILD       .ohmm        UNKNOWN   :ILD
ILS       .ohmm        UNKNOWN   :ILS
SP       .mV        UNKNOWN   :SP
~A    DEPTH    DT    GR    ILD    ILS    SP
# ...
3567.00000    67.97589    53.15731    752.37443    727.92480    -68.78370
3567.50000    67.50868    54.24321    752.39533    728.18441    -68.87953
3568.00000    67.04149    55.44756    752.41624    728.44401    -68.97535
3568.50000    66.57429    56.78394    752.43714    730.45478    -68.98806
3569.00000    66.39083    55.97367    752.45805    733.19780    -68.98735
3569.50000    66.97935    55.16340    752.47895    734.62400    -68.98663
3570.00000    67.56787    54.35314    752.49986    737.66038    -68.98591
3570.50000    67.34384    54.26173    752.52076    740.50948    -68.98519
3571.00000    66.89547    55.88806    752.54167    743.35859    -68.98447
3571.50000    66.14447    57.51438    752.56257    746.20769    -68.98375
3572.00000    64.79870    58.79502    752.58348    749.05679    -68.98303
3572.50000    63.45293    58.27120    752.60438    751.90590    -68.98231
3573.00000    62.10716    57.74738    752.62529    754.75500    -68.98160
3573.50000    60.76139    57.22356    752.64619    757.60410    -68.50155
3574.00000    60.20550    52.87561    752.66710    760.45321    -67.67899
3574.50000    60.32894    33.08649    752.68800    763.30231    -66.85644
3575.00000    60.45237    30.33296    752.70891    766.15141    -66.03388
3575.50000    60.57580    29.22126    752.72981    769.00052    -65.21132
3576.00000    60.71991    29.16264    752.75072    771.84962    -64.38876
3576.50000    60.87851    31.37694    752.77162    774.69872    -64.15730
3577.00000    61.03711    33.59125    752.79253    777.54783    -66.73058
3577.50000    61.13614    35.80556    752.81343    780.39693    -69.30385
3578.00000    60.83716    37.23527    752.83434    783.24603    -71.87712
3578.50000    60.53818    36.90759    752.85524    786.09514    -73.61517
3579.00000    61.14790    36.57991    752.87615    788.94424    -73.27024
3579.50000    61.15291    34.97924    752.89705    791.79334    -72.92531
3580.00000    60.67011    33.03717    752.91796    792.39977    -72.58038
3580.50000    60.18731    28.43704    752.93886    792.22442    -72.23544
3581.00000    60.26921    26.39180    752.95977    792.04907    -71.89051
3581.50000    61.88218    25.82070    752.98067    791.87371    -71.54558
3582.00000    61.82969    25.47828    753.00158    791.69836    -71.20065
3582.50000    61.76771    25.63188    753.02248    791.52301    -70.85571
3583.00000    62.08249    25.78549    753.04339    791.34765    -70.51078
3583.50000    63.31989    25.93910    753.06429    791.17230    -70.16585
3584.00000    63.93673    27.07974    753.08520    790.99695    -69.82091
3584.50000    62.88383    28.76189    753.10610    790.82159    -69.47598
3585.00000    62.64761    30.44404    753.12701    790.64624    -69.13105
3585.50000    62.58560    32.02000    753.14791    790.47089    -68.78612
3586.00000    62.52359    31.74638    753.16882    790.29554    -68.44118
3586.50000    60.76139    31.47275    753.18972    790.12018    -68.09625
3587.00000    60.27719    31.19912    753.21062    789.94483    -67.75132
3587.50000    60.61238    30.92550    753.23153    789.76948    -67.40639
3588.00000    61.74741    30.65187    753.25243    789.59412    -67.06145
3588.50000    62.88243    31.10155    753.27334    788.38895    -66.93423
3589.00000    63.56793    32.22871    753.29424    786.63831    -67.13819
3589.50000    64.22827    33.35587    753.31515    784.88767    -67.34215
3590.00000    64.50851    34.48303    753.33605    783.13703    -67.54611
3590.50000    64.33451    35.61019    753.36907    781.38640    -67.75007
3591.00000    64.16051    34.65655    753.40517    779.63576    -67.95403
3591.50000    63.98651    33.69368    753.44128    777.88512    -68.15799
3592.00000    63.81251    32.73080    753.47738    776.13448    -68.36195
3592.50000    63.57972    32.16463    753.51348    774.38384    -68.54195
3593.00000    63.29944    32.69638    753.54958    772.63320    -68.71080
3593.50000    62.51680    33.22812    753.58569    770.43454    -68.87965
3594.00000    61.39501    33.53045    753.62179    766.77682    -69.04850
3594.50000    60.27322    30.95668    753.65789    763.11910    -69.21735
3595.00000    60.26540    28.38291    753.69400    759.46139    -69.38620
3595.50000    60.69483    26.09615    753.73010    755.80367    -69.55505
3596.00000    61.12426    24.88285    753.76620    752.14595    -69.72390
3596.50000    58.92406    27.51421    753.80231    748.48823    -69.89275
3597.00000    59.55607    31.05278    753.83841    744.83052    -70.06160
3597.50000    60.99155    34.59136    753.87451    741.17280    -70.23045
3598.00000    61.60383    38.12994    753.91061    737.51508    -70.39930
3598.50000    61.99299    41.65191    753.94672    733.85736    -70.56815
3599.00000    62.38214    42.60531    753.98282    730.19965    -70.73700
3599.50000    64.25196    43.55871    754.01892    726.54193    -70.90585
3600.00000    65.67270    44.51211    754.05503    722.88421    -71.07470
3600.50000    64.95037    47.38667    754.09113    719.22650    -71.24355
3601.00000    64.32192    52.02540    754.12723    715.56878    -71.41240
3601.50000    63.88419    56.71327    754.16334    711.91106    -71.52234
3602.00000    63.44646    61.40114    754.19944    708.25334    -70.28601
3602.50000    63.00873    65.11265    754.23554    704.59563    -69.04967
3603.00000    62.91981    62.80810    754.27164    700.93791    -67.81334
3603.50000    63.28878    60.50356    754.30775    697.28019    -66.57701
3604.00000    65.70627    58.19902    754.34385    693.62248    -65.34068
3604.50000    65.91270    55.89447    754.37995    689.96476    -67.00877
3605.00000    65.89502    53.58993    754.41606    686.30704    -68.90962
3605.50000    65.87734    52.71453    754.45216    682.64932    -70.81047
3606.00000    65.19149    54.46581    754.48826    678.99161    -72.64141
3606.50000    63.76344    56.70810    754.52437    675.33389    -73.05013
3607.00000    62.50243    58.95038    754.56047    671.67617    -73.45885
3607.50000    63.05397    61.19267    754.59657    668.01845    -73.86758
3608.00000    63.59040    60.43130    754.63267    664.36074    -74.27630
3608.50000    63.98423    59.56206    754.66878    660.70302    -74.68502
3609.00000    64.37806    58.69283    754.70488    657.04530    -75.09375
3609.50000    64.39897    59.32029    754.74098    653.38759    -75.50247
3610.00000    64.19142    60.58102    754.77709    649.72987    -75.84421
3610.50000    63.98387    61.84176    754.81319    646.07215    -76.04829
3611.00000    63.07375    63.10249    754.84929    642.41443    -76.25236
3611.50000    61.84018    64.36323    754.88540    638.75672    -76.45644
3612.00000    60.60660    58.88864    754.92150    635.09900    -76.66051
3612.50000    59.37303    49.14878    754.95760    631.44128    -76.86459
3613.00000    58.36305    46.01960    754.99370    627.78356    -77.06866
3613.50000    57.70617    42.89041    755.02981    622.67096    -77.27273
3614.00000    57.04929    39.76123    755.06591    617.01163    -77.47681
3614.50000    56.99908    37.77120    755.10201    611.35230    -77.68088
3615.00000    56.96364    36.59340    755.13812    605.69297    -77.88496
3615.50000    56.92819    36.25735    755.17422    600.03363    -78.08903
3616.00000    57.25887    35.92130    755.21032    594.37430    -78.29310
3616.50000    57.89880    35.58525    755.24643    588.71497    -78.60171
3617.00000    57.72214    35.24921    755.28253    583.05564    -79.02874
3617.50000    56.85739    35.09846    755.31863    577.39631    -79.45576
3618.00000    56.20389    35.45985    755.35473    571.73697    -79.88279
3618.50000    56.77334    35.82125    755.39084    566.07764    -80.30981
3619.00000    57.11329    36.18264    755.42694    560.41831    -80.73684
3619.50000    57.32930    35.92560    755.46304    554.75898    -81.16386
3620.00000    57.54530    35.28395    755.49915    548.20637    -81.59089
3620.50000    57.76130    34.64229    755.53525    539.40559    -82.01791
3621.00000    59.04155    34.74772    755.57135    530.60482    -82.44494
