###############################################
##         ENVERUS                           ##
##         ESS - Open Hole                   ##
##         PERMIAN / DELAWARE                ##
##         Nov 02 2023  V4.0                 ##
##         42-109-32255-00-00                ##
###############################################
## Copyright 2017-2023  ENVERUS.  All Rights Reserved. 
## Confidential - Property of ENVERUS, use governed by terms and 
## conditions found within the existing Information Services Subscription Agreement 
## (as may be amended, the “ISSA”) between Customer and ENVERUS. 
## 
~VERSION INFORMATION
# MNEM.UNIT                               DATA : DESCRIPTION OF MNEMONIC
#-----.-----     ----------------------------- : -----------------------------
VERS.                                     2.00 : CWLS LOG ASCII STANDARD - VERSION 2.00
WRAP.                                       NO : MULTIPLE LINES PER DEPTH STEP
VEND.                                  ENVERUS : VENDOR
TYPE.                          ESS - OPEN HOLE : ENVERUS ESSENTIAL CURVES – ACCESSIBLE THROUGH ENVERUS PRISM(TM)
DOC.                                  22531479 : ENVERUS HEADER RAW DOCUMENT ID
#___________________________________________________________________________________________________ 
~WELL INFORMATION 
# hWe/832LbRsDOXT7erJRLf+k/AYA64twV/RtTeeHm/CkPExvlrAQ0qJE/El28xU0WYmlktkqeCNHArF5iUyCGg== 
# MNEM.UNIT                                              DATA : DESCRIPTION OF MNEMONIC 
#-----.-----                    ----------------------------- : ----------------------------- 
CNTY.                                               CULBERSON : COUNTY 
STATE.                                                  TEXAS : STATE 
CNTRY.                                                    USA : COUNTRY 
API.                                             42-109-32255 : API (10 Digit) 
API_14.                                    42-109-32255-00-00 : API (14 Digits) 
API_14_std.                                 42-109-32255-0000 : API (14 Digits Standard) 
UWI.                                           42109322550000 : UNIQUE WELL ID 
WELL.                               MELISSA TAYLOR STATE 27-1 : WELL NAME
STRT.FT                                                7612.0 : START DEPTH
STOP.FT                                               13645.5 : STOP DEPTH
STEP.FT                                                   0.5 : STEP BETWEEN DEPTHS
NULL.                                                 -999.25 : NULL VALUE
COMP.                                         PETRO-HUNT,LLC. : COMPANY 
FLD.                                                  WILDCAT : FIELD 
SRVC.                                            SCHLUMBERGER : SERVICE COMPANY 
DATE.                                              04/06/2006 : DATE 
TVD.                                                       NO : TVD FLAG
#___________________________________________________________________________________________________ 
~PARAMETER INFORMATION 
# MNEM.UNIT                                              DATA : DESCRIPTION OF MNEMONIC 
#-----.-----                    ----------------------------- : ----------------------------- 
RUN.                                                      ONE : RUN NUMBER 
PDAT.                                                      GL : PERMANENT DATUM 
EPD.FT                                               000.0000 : ELEVATION OF PERM. DATUM 
LMF.                                            KELLY BUSHING : LOG MEASURED FROM 
EKB.FT                                                 3796.6 : ELEVATION OF KELLY BUSHING 
DF.FT                                                  3773.0 : ELEVATION OF DERRICK FLOOR 
GL.FT                                                  3795.6 : ELEVATION OF GROUND LEVEL 
TD.FT                                              13716.0000 : TOTAL DEPTH 
BHT.DEGF                                               224.00 : BOTTOM HOLE TEMPERATURE 
BLI.FT                                             13716.0000 : BOTTOM LOG INTERVAL 
CSGSIZE.IN                                             9.6250 : CASING SIZE 
BITSIZE.IN                                              8.750 : BITSIZE 
CSGD.FT                                               12804.0 : CASING BOTTOM (DRILLER) 1 
CSGL.FT                                               12802.0 : CASING BOTTOM (LOGGER) 1 
MUD.                                                    BRINE : DRILLING FLUID TYPE 
MUDV.CP                                                  45.0 : DRILLING FLUID VISCOSITY 
MUDD.LB/USG                                               9.5 : DRILLING FLUID DENSITY 
PH.                                                      10.0 : DRILLING FLUID PH 
FL.ML/30MIN                                               5.0 : DRILLING FLUID LOSS 
MUDS.                                               CIRC TANK : MUD SAMPLE SOURCE 
RM.OHMM                                                 0.064 : RESISTIVITY OF MUD SAMPLE 
RMT.DEGF                                                66.00 : MUD SAMPLE TEMPERATURE 
RMF.OHMM                                                0.048 : MUD FILTRATE RESISTIVITY 
RMFT.DEGF                                               66.00 : MUD FILTRATE SAMPLE TEMPERATURE 
RMC.OHMM                                                0.095 : MUD CAKE RESISTIVITY 
RMCT.DEGF                                               66.00 : MUD CAKE SAMPLE TEMPERATURE 
RMB.OHMM                                                0.015 : MUD RESISTIVITY AT BHT 
TMAX.DEGF                                              224.00 : BOTTOM HOLE TEMPERATURE
#___________________________________________________________________________________________________ 
~CURVE INFORMATION 
# MNEM.UNIT           : CURVE DESCRIPTION 
#-----.-----          : ----------------------------- 
 DEPT.FT               : MEASURED DEPTH 
 DT__A.US/FT           : SONIC DELTA TRANSIT TIME (DELTA T COMP) 
 SPHI__A.V/V           : SONIC POROSITY (SONIC POROSITY) 
 #___________________________________________________________________________________________________ 
~A         DEPT          DT__A        SPHI__A
# ...
        11527.0         60.181        0.09300
        11527.5         61.678        0.10200
        11528.0         62.926        0.11000
        11528.5         63.675        0.11600
        11529.0         63.675        0.11500
        11529.5         63.675        0.11300
        11530.0         63.675        0.12100
        11530.5         65.723        0.12800
        11531.0         66.788        0.13500
        11531.5         67.771        0.14200
        11532.0         67.337        0.14100
        11532.5         66.928        0.13600
        11533.0         66.048        0.13000
        11533.5         64.959        0.12400
        11534.0         64.101        0.11700
        11534.5         63.643        0.11200
        11535.0         63.195        0.11000
        11535.5         62.751        0.10800
        11536.0         62.308        0.10600
        11536.5         61.864        0.10200
        11537.0         61.418        0.09800
        11537.5         61.069        0.09300
        11538.0         60.783        0.09200
        11538.5         60.454        0.09000
        11539.0         60.191        0.08900
        11539.5         59.928        0.08800
        11540.0         59.819        0.08700
        11540.5         59.819        0.08700
        11541.0         60.108        0.08700
        11541.5         60.422        0.09300
        11542.0         61.438        0.10100
        11542.5         62.520        0.10900
        11543.0         63.602        0.11600
        11543.5         64.528        0.12100
        11544.0         65.000        0.12500
        11544.5         65.237        0.12500
        11545.0         64.273        0.12200
        11545.5         62.103        0.10700
        11546.0         59.838        0.09300
        11546.5         59.542        0.08400
        11547.0         59.450        0.08400
        11547.5         59.815        0.08800
        11548.0         60.787        0.09500
        11548.5         61.869        0.10100
        11549.0         62.976        0.10700
        11549.5         64.036        0.11300
        11550.0         64.036        0.11700
        11550.5         63.952        0.11600
        11551.0         63.694        0.11400
        11551.5         63.264        0.11100
        11552.0         62.952        0.10900
        11552.5         63.188        0.10900
        11553.0         63.671        0.11400
        11553.5         64.154        0.11900
        11554.0         64.849        0.12300
        11554.5         65.482        0.12600
        11555.0         65.422        0.12700
        11555.5         65.345        0.12800
        11556.0         65.268        0.12500
        11556.5         64.877        0.12100
        11557.0         64.313        0.11800
        11557.5         63.825        0.11300
        11558.0         63.554        0.11400
        11558.5         63.795        0.11500
        11559.0         64.181        0.11500
        11559.5         64.160        0.11500
        11560.0         64.007        0.11500
        11560.5         63.957        0.11500
        11561.0         64.038        0.11400
        11561.5         63.768        0.11200
        11562.0         63.303        0.10800
        11562.5         62.679        0.10400
        11563.0         62.055        0.10000
        11563.5         61.429        0.09600
        11564.0         60.804        0.09200
        11564.5         60.060        0.08900
        11565.0         60.361        0.09500
        11565.5         61.265        0.10500
        11566.0         63.795        0.11500
        11566.5         64.277        0.12000
        11567.0         64.578        0.12000
        11567.5         64.383        0.11800
        11568.0         63.441        0.11100
        11568.5         62.494        0.10500
        11569.0         61.737        0.09800
        11569.5         60.795        0.09200
        11570.0         60.168        0.08700
        11570.5         59.809        0.08400
        11571.0         59.690        0.08600
        11571.5         59.971        0.08800
        11572.0         60.214        0.09000
        11572.5         60.448        0.09200
        11573.0         60.949        0.09400
        11573.5         61.627        0.09600
        11574.0         61.739        0.09800
        11574.5         61.852        0.10000
        11575.0         61.988        0.10000
        11575.5         61.280        0.09700
        11576.0         59.511        0.08700
        11576.5         57.741        0.07400
        11577.0         56.325        0.05400
        11577.5         55.482        0.05500
        11578.0         56.386        0.05900
        11578.5         57.892        0.07200
        11579.0         59.398        0.08400
        11579.5         60.904        0.09600
        11580.0         61.386        0.09900
        11580.5         61.867        0.10200
        11581.0         62.018        0.10400
        11581.5         62.169        0.10500
        11582.0         62.349        0.10700
        11582.5         62.711        0.10900
        11583.0         63.313        0.11200
        11583.5         63.313        0.11200
        11584.0         62.518        0.11200
        11584.5         61.193        0.09900
        11585.0         60.699        0.09000
        11585.5         60.759        0.08800
        11586.0         60.331        0.08600
        11586.5         59.578        0.08300
        11587.0         58.976        0.08000
        11587.5         60.542        0.09600
        11588.0         62.500        0.10900
        11588.5         64.006        0.11900
        11589.0         65.000        0.12300
        11589.5         65.181        0.12700
        11590.0         65.422        0.12900
        11590.5         65.482        0.12500
        11591.0         64.458        0.11800
        11591.5         63.434        0.10800
        11592.0         61.777        0.09800
        11592.5         60.120        0.08800
        11593.0         58.855        0.08000
        11593.5         58.976        0.08000
        11594.0         59.036        0.08200
        11594.5         59.096        0.08600
        11595.0         60.663        0.09200
        11595.5         61.627        0.10200
        11596.0         62.831        0.11100
        11596.5         64.036        0.12100
        11597.0         65.000        0.12100
        11597.5         64.096        0.11900
        11598.0         63.193        0.10800
        11598.5         62.952        0.11000
        11599.0         63.931        0.11400
        11599.5         65.097        0.12100
        11600.0         66.543        0.13100
        11600.5         67.990        0.14200
        11601.0         69.337        0.15300
        11601.5         69.217        0.15300
        11602.0         68.334        0.14900
        11602.5         67.500        0.14200
        11603.0         66.813        0.13600
        11603.5         66.552        0.13300
        11604.0         66.905        0.13800
        11604.5         67.434        0.14200
        11605.0         68.128        0.14700
        11605.5         68.822        0.15200
        11606.0         69.518        0.15600
        11606.5         70.213        0.16100
        11607.0         70.898        0.16500
        11607.5         71.386        0.16900
        11608.0         71.072        0.16800
        11608.5         70.458        0.16000
        11609.0         69.843        0.15400
        11609.5         68.855        0.14700
        11610.0         67.771        0.14100
        11610.5         67.675        0.14100
        11611.0         67.735        0.14100
        11611.5         67.620        0.14100
        11612.0         67.169        0.13600
        11612.5         66.633        0.13200
        11613.0         65.964        0.12700
        11613.5         65.295        0.12300
