###############################################
##         ENVERUS                           ##
##         ESS - Open Hole                   ##
##         PERMIAN / DELAWARE                ##
##         Nov 02 2023  V4.0                 ##
##         42-109-32255-00-00                ##
###############################################
## Copyright 2017-2023  ENVERUS.  All Rights Reserved. 
## Confidential - Property of ENVERUS, use governed by terms and 
## conditions found within the existing Information Services Subscription Agreement 
## (as may be amended, the “ISSA”) between Customer and ENVERUS. 
## 
~VERSION INFORMATION
# MNEM.UNIT                               DATA : DESCRIPTION OF MNEMONIC
#-----.-----     ----------------------------- : -----------------------------
VERS.                                     2.00 : CWLS LOG ASCII STANDARD - VERSION 2.00
WRAP.                                       NO : MULTIPLE LINES PER DEPTH STEP
VEND.                                  ENVERUS : VENDOR
TYPE.                          ESS - OPEN HOLE : ENVERUS ESSENTIAL CURVES – ACCESSIBLE THROUGH ENVERUS PRISM(TM)
DOC.                                  22531479 : ENVERUS HEADER RAW DOCUMENT ID
#___________________________________________________________________________________________________ 
~WELL INFORMATION 
# hWe/832LbRsDOXT7erJRLf+k/AYA64twV/RtTeeHm/CkPExvlrAQ0qJE/El28xU0WYmlktkqeCNHArF5iUyCGg== 
# MNEM.UNIT                                              DATA : DESCRIPTION OF MNEMONIC 
#-----.-----                    ----------------------------- : ----------------------------- 
CNTY.                                               CULBERSON : COUNTY 
STATE.                                                  TEXAS : STATE 
CNTRY.                                                    USA : COUNTRY 
API.                                             42-109-32255 : API (10 Digit) 
API_14.                                    42-109-32255-00-00 : API (14 Digits) 
API_14_std.                                 42-109-32255-0000 : API (14 Digits Standard) 
UWI.                                           42109322550000 : UNIQUE WELL ID 
WELL.                               MELISSA TAYLOR STATE 27-1 : WELL NAME
STRT.FT                                                7612.0 : START DEPTH
STOP.FT                                               13645.5 : STOP DEPTH
STEP.FT                                                   0.5 : STEP BETWEEN DEPTHS
NULL.                                                 -999.25 : NULL VALUE
COMP.                                         PETRO-HUNT,LLC. : COMPANY 
FLD.                                                  WILDCAT : FIELD 
SRVC.                                            SCHLUMBERGER : SERVICE COMPANY 
DATE.                                              04/06/2006 : DATE 
TVD.                                                       NO : TVD FLAG
#___________________________________________________________________________________________________ 
~PARAMETER INFORMATION 
# MNEM.UNIT                                              DATA : DESCRIPTION OF MNEMONIC 
#-----.-----                    ----------------------------- : ----------------------------- 
RUN.                                                      ONE : RUN NUMBER 
PDAT.                                                      GL : PERMANENT DATUM 
EPD.FT                                               000.0000 : ELEVATION OF PERM. DATUM 
LMF.                                            KELLY BUSHING : LOG MEASURED FROM 
EKB.FT                                                 3796.6 : ELEVATION OF KELLY BUSHING 
DF.FT                                                  3773.0 : ELEVATION OF DERRICK FLOOR 
GL.FT                                                  3795.6 : ELEVATION OF GROUND LEVEL 
TD.FT                                              13716.0000 : TOTAL DEPTH 
BHT.DEGF                                               224.00 : BOTTOM HOLE TEMPERATURE 
BLI.FT                                             13716.0000 : BOTTOM LOG INTERVAL 
CSGSIZE.IN                                             9.6250 : CASING SIZE 
BITSIZE.IN                                              8.750 : BITSIZE 
CSGD.FT                                               12804.0 : CASING BOTTOM (DRILLER) 1 
CSGL.FT                                               12802.0 : CASING BOTTOM (LOGGER) 1 
MUD.                                                    BRINE : DRILLING FLUID TYPE 
MUDV.CP                                                  45.0 : DRILLING FLUID VISCOSITY 
MUDD.LB/USG                                               9.5 : DRILLING FLUID DENSITY 
PH.                                                      10.0 : DRILLING FLUID PH 
FL.ML/30MIN                                               5.0 : DRILLING FLUID LOSS 
MUDS.                                               CIRC TANK : MUD SAMPLE SOURCE 
RM.OHMM                                                 0.064 : RESISTIVITY OF MUD SAMPLE 
RMT.DEGF                                                66.00 : MUD SAMPLE TEMPERATURE 
RMF.OHMM                                                0.048 : MUD FILTRATE RESISTIVITY 
RMFT.DEGF                                               66.00 : MUD FILTRATE SAMPLE TEMPERATURE 
RMC.OHMM                                                0.095 : MUD CAKE RESISTIVITY 
RMCT.DEGF                                               66.00 : MUD CAKE SAMPLE TEMPERATURE 
RMB.OHMM                                                0.015 : MUD RESISTIVITY AT BHT 
TMAX.DEGF                                              224.00 : BOTTOM HOLE TEMPERATURE
#___________________________________________________________________________________________________ 
~CURVE INFORMATION 
# MNEM.UNIT           : CURVE DESCRIPTION 
#-----.-----          : ----------------------------- 
 DEPT.FT               : MEASURED DEPTH 
 DT__A.US/FT           : SONIC DELTA TRANSIT TIME (DELTA T COMP) 
 SPHI__A.V/V           : SONIC POROSITY (SONIC POROSITY) 
 #___________________________________________________________________________________________________ 
~A         DEPT          DT__A        SPHI__A
# ...
        10744.0         64.277        0.12000
        10744.5         64.566        0.12100
        10745.0         64.807        0.12300
        10745.5         65.048        0.12500
        10746.0         65.289        0.12600
        10746.5         65.530        0.12800
        10747.0         65.723        0.12800
        10747.5         64.897        0.12500
        10748.0         64.208        0.11900
        10748.5         63.082        0.11000
        10749.0         61.300        0.10100
        10749.5         59.518        0.09200
        10750.0         57.735        0.08500
        10750.5         55.422        0.05300
        10751.0         53.442        0.04000
        10751.5         52.503        0.03500
        10752.0         51.988        0.03200
        10752.5         52.078        0.03100
        10753.0         52.590        0.03700
        10753.5         53.763        0.05000
        10754.0         55.036        0.06400
        10754.5         56.084        0.07700
        10755.0         60.542        0.09000
        10755.5         61.727        0.10600
        10756.0         62.912        0.11100
        10756.5         63.795        0.11200
        10757.0         63.795        0.11200
        10757.5         63.524        0.11200
        10758.0         62.602        0.10400
        10758.5         61.681        0.09800
        10759.0         61.265        0.09900
        10759.5         61.657        0.10300
        10760.0         62.046        0.10700
        10760.5         62.556        0.11000
        10761.0         63.373        0.11400
        10761.5         64.191        0.11800
        10762.0         64.586        0.12000
        10762.5         64.699        0.12000
        10763.0         64.812        0.12000
        10763.5         64.739        0.12000
        10764.0         64.388        0.11800
        10764.5         64.036        0.11400
        10765.0         63.434        0.11000
        10765.5         62.831        0.10500
        10766.0         62.229        0.10100
        10766.5         61.506        0.09600
        10767.0         60.602        0.09100
        10767.5         59.699        0.08600
        10768.0         58.735        0.08000
        10768.5         59.096        0.08000
        10769.0         59.893        0.08600
        10769.5         60.618        0.09200
        10770.0         61.344        0.09800
        10770.5         62.069        0.10500
        10771.0         63.193        0.11000
        10771.5         62.881        0.11100
        10772.0         62.108        0.10300
        10772.5         60.359        0.09000
        10773.0         58.376        0.07700
        10773.5         56.393        0.06400
        10774.0         53.916        0.05100
        10774.5         54.440        0.04400
        10775.0         55.738        0.05900
        10775.5         57.620        0.07200
        10776.0         59.502        0.08400
        10776.5         60.904        0.09400
        10777.0         60.904        0.09400
        10777.5         60.545        0.09300
        10778.0         60.199        0.09000
        10778.5         59.859        0.08800
        10779.0         59.521        0.08500
        10779.5         59.670        0.08600
        10780.0         59.894        0.08800
        10780.5         60.638        0.09200
        10781.0         61.045        0.09500
        10781.5         61.466        0.09800
        10782.0         61.867        0.10300
        10782.5         62.108        0.10300
        10783.0         62.108        0.10300
        10783.5         61.325        0.09700
        10784.0         60.673        0.09300
        10784.5         60.020        0.08800
        10785.0         59.367        0.08400
        10785.5         58.925        0.08000
        10786.0         58.907        0.08000
        10786.5         59.073        0.08200
        10787.0         59.204        0.08400
        10787.5         59.335        0.08500
        10788.0         59.595        0.08700
        10788.5         59.855        0.08800
        10789.0         60.305        0.09000
        10789.5         61.953        0.10600
        10790.0         63.711        0.12500
        10790.5         65.468        0.13100
        10791.0         66.458        0.13400
        10791.5         66.871        0.13700
        10792.0         67.011        0.13700
        10792.5         66.593        0.13300
        10793.0         65.456        0.12300
        10793.5         64.318        0.11300
        10794.0         63.187        0.10300
        10794.5         62.055        0.09400
        10795.0         61.024        0.09000
        10795.5         60.139        0.08500
        10796.0         58.520        0.07900
        10796.5         56.690        0.06800
        10797.0         54.730        0.05700
        10797.5         52.723        0.03600
        10798.0         50.716        0.01300
        10798.5         48.012        0.00200
        10799.0         53.313        0.11800
        10799.5         61.265        0.14300
        10800.0         68.908        0.17000
        10800.5         73.434        0.18200
        10801.0         69.361        0.15400
        10801.5         65.367        0.12700
        10802.0         62.386        0.10600
        10802.5         62.078        0.09900
        10803.0         61.747        0.09800
        10803.5         61.181        0.09600
        10804.0         60.566        0.09200
        10804.5         59.952        0.08600
        10805.0         58.888        0.08000
        10805.5         57.700        0.07000
        10806.0         56.512        0.06100
        10806.5         55.324        0.05200
        10807.0         54.136        0.04300
        10807.5         52.831        0.03500
        10808.0         52.475        0.03300
        10808.5         52.080        0.03100
        10809.0         51.747        0.02900
        10809.5         51.741        0.02700
        10810.0         52.108        0.03000
        10810.5         52.309        0.03200
        10811.0         52.560        0.03500
        10811.5         52.811        0.03700
        10812.0         53.062        0.04000
        10812.5         53.317        0.04200
        10813.0         53.570        0.04300
        10813.5         53.824        0.04300
        10814.0         53.747        0.04300
        10814.5         53.450        0.04000
        10815.0         53.095        0.03800
        10815.5         53.021        0.03600
        10816.0         52.986        0.04100
        10816.5         53.313        0.05100
        10817.0         55.020        0.06100
        10817.5         56.727        0.07100
        10818.0         58.434        0.07900
        10818.5         59.337        0.08300
        10819.0         59.096        0.08300
        10819.5         57.530        0.07000
        10820.0         56.225        0.06000
        10820.5         54.943        0.04500
        10821.0         54.185        0.05400
        10821.5         56.573        0.07000
        10822.0         58.557        0.08600
        10822.5         60.539        0.09800
        10823.0         62.100        0.10300
        10823.5         61.785        0.09600
        10824.0         60.948        0.09000
        10824.5         60.100        0.08400
        10825.0         59.096        0.08000
        10825.5         58.855        0.08300
        10826.0         59.630        0.08900
        10826.5         60.404        0.09500
        10827.0         61.024        0.10000
        10827.5         62.217        0.10600
        10828.0         63.211        0.11200
        10828.5         64.205        0.11800
        10829.0         65.000        0.12200
        10829.5         64.880        0.12200
        10830.0         64.270        0.11900
        10830.5         63.661        0.11500
