###############################################
##         ENVERUS                           ##
##         ESS - Open Hole                   ##
##         PERMIAN / DELAWARE                ##
##         Nov 02 2023  V4.0                 ##
##         42-109-32255-00-00                ##
###############################################
## Copyright 2017-2023  ENVERUS.  All Rights Reserved. 
## Confidential - Property of ENVERUS, use governed by terms and 
## conditions found within the existing Information Services Subscription Agreement 
## (as may be amended, the “ISSA”) between Customer and ENVERUS. 
## 
~VERSION INFORMATION
# MNEM.UNIT                               DATA : DESCRIPTION OF MNEMONIC
#-----.-----     ----------------------------- : -----------------------------
VERS.                                     2.00 : CWLS LOG ASCII STANDARD - VERSION 2.00
WRAP.                                       NO : MULTIPLE LINES PER DEPTH STEP
VEND.                                  ENVERUS : VENDOR
TYPE.                          ESS - OPEN HOLE : ENVERUS ESSENTIAL CURVES – ACCESSIBLE THROUGH ENVERUS PRISM(TM)
DOC.                                  22531479 : ENVERUS HEADER RAW DOCUMENT ID
#___________________________________________________________________________________________________ 
~WELL INFORMATION 
# hWe/832LbRsDOXT7erJRLf+k/AYA64twV/RtTeeHm/CkPExvlrAQ0qJE/El28xU0WYmlktkqeCNHArF5iUyCGg== 
# MNEM.UNIT                                              DATA : DESCRIPTION OF MNEMONIC 
#-----.-----                    ----------------------------- : ----------------------------- 
CNTY.                                               CULBERSON : COUNTY 
STATE.                                                  TEXAS : STATE 
CNTRY.                                                    USA : COUNTRY 
API.                                             42-109-32255 : API (10 Digit) 
API_14.                                    42-109-32255-00-00 : API (14 Digits) 
API_14_std.                                 42-109-32255-0000 : API (14 Digits Standard) 
UWI.                                           42109322550000 : UNIQUE WELL ID 
WELL.                               MELISSA TAYLOR STATE 27-1 : WELL NAME
STRT.FT                                                7612.0 : START DEPTH
STOP.FT                                               13645.5 : STOP DEPTH
STEP.FT                                                   0.5 : STEP BETWEEN DEPTHS
NULL.                                                 -999.25 : NULL VALUE
COMP.                                         PETRO-HUNT,LLC. : COMPANY 
FLD.                                                  WILDCAT : FIELD 
SRVC.                                            SCHLUMBERGER : SERVICE COMPANY 
DATE.                                              04/06/2006 : DATE 
TVD.                                                       NO : TVD FLAG
#___________________________________________________________________________________________________ 
~PARAMETER INFORMATION 
# MNEM.UNIT                                              DATA : DESCRIPTION OF MNEMONIC 
#-----.-----                    ----------------------------- : ----------------------------- 
RUN.                                                      ONE : RUN NUMBER 
PDAT.                                                      GL : PERMANENT DATUM 
EPD.FT                                               000.0000 : ELEVATION OF PERM. DATUM 
LMF.                                            KELLY BUSHING : LOG MEASURED FROM 
EKB.FT                                                 3796.6 : ELEVATION OF KELLY BUSHING 
DF.FT                                                  3773.0 : ELEVATION OF DERRICK FLOOR 
GL.FT                                                  3795.6 : ELEVATION OF GROUND LEVEL 
TD.FT                                              13716.0000 : TOTAL DEPTH 
BHT.DEGF                                               224.00 : BOTTOM HOLE TEMPERATURE 
BLI.FT                                             13716.0000 : BOTTOM LOG INTERVAL 
CSGSIZE.IN                                             9.6250 : CASING SIZE 
BITSIZE.IN                                              8.750 : BITSIZE 
CSGD.FT                                               12804.0 : CASING BOTTOM (DRILLER) 1 
CSGL.FT                                               12802.0 : CASING BOTTOM (LOGGER) 1 
MUD.                                                    BRINE : DRILLING FLUID TYPE 
MUDV.CP                                                  45.0 : DRILLING FLUID VISCOSITY 
MUDD.LB/USG                                               9.5 : DRILLING FLUID DENSITY 
PH.                                                      10.0 : DRILLING FLUID PH 
FL.ML/30MIN                                               5.0 : DRILLING FLUID LOSS 
MUDS.                                               CIRC TANK : MUD SAMPLE SOURCE 
RM.OHMM                                                 0.064 : RESISTIVITY OF MUD SAMPLE 
RMT.DEGF                                                66.00 : MUD SAMPLE TEMPERATURE 
RMF.OHMM                                                0.048 : MUD FILTRATE RESISTIVITY 
RMFT.DEGF                                               66.00 : MUD FILTRATE SAMPLE TEMPERATURE 
RMC.OHMM                                                0.095 : MUD CAKE RESISTIVITY 
RMCT.DEGF                                               66.00 : MUD CAKE SAMPLE TEMPERATURE 
RMB.OHMM                                                0.015 : MUD RESISTIVITY AT BHT 
TMAX.DEGF                                              224.00 : BOTTOM HOLE TEMPERATURE
#___________________________________________________________________________________________________ 
~CURVE INFORMATION 
# MNEM.UNIT           : CURVE DESCRIPTION 
#-----.-----          : ----------------------------- 
 DEPT.FT               : MEASURED DEPTH 
 DT__A.US/FT           : SONIC DELTA TRANSIT TIME (DELTA T COMP) 
 SPHI__A.V/V           : SONIC POROSITY (SONIC POROSITY) 
 #___________________________________________________________________________________________________ 
~A         DEPT          DT__A        SPHI__A
# ...
        12310.0         68.906        0.15200
        12310.5         68.378        0.14800
        12311.0         67.850        0.14400
        12311.5         67.289        0.13600
        12312.0         66.663        0.13300
        12312.5         67.733        0.14800
        12313.0         69.873        0.16100
        12313.5         72.014        0.17400
        12314.0         73.701        0.18400
        12314.5         74.832        0.19200
        12315.0         75.964        0.19800
        12315.5         74.157        0.19800
        12316.0         65.150        0.12100
        12316.5         67.116        0.14700
        12317.0         71.618        0.19500
        12317.5         79.791        0.24200
        12318.0         89.032        0.27700
        12318.5         78.767        0.29200
        12319.0         79.935        0.24100
        12319.5         84.971        0.27300
        12320.0         90.394        0.31000
        12320.5         89.327        0.30100
        12321.0         86.836        0.29100
        12321.5         86.515        0.28000
        12322.0         86.276        0.27200
        12322.5         86.546        0.27400
        12323.0         86.278        0.27200
        12323.5         85.139        0.26400
        12324.0         83.529        0.25400
        12324.5         81.937        0.24400
        12325.0         80.345        0.23300
        12325.5         78.787        0.22300
        12326.0         77.410        0.21300
        12326.5         76.452        0.20400
        12327.0         75.733        0.20000
        12327.5         75.241        0.19400
        12328.0         74.759        0.20000
        12328.5         77.505        0.21900
        12329.0         80.321        0.24100
        12329.5         83.193        0.25500
        12330.0         82.211        0.24500
        12330.5         80.542        0.23500
        12331.0         80.181        0.23000
        12331.5         80.036        0.22900
        12332.0         79.819        0.22700
        12332.5         77.940        0.21400
        12333.0         75.590        0.19700
        12333.5         73.241        0.18100
        12334.0         70.422        0.16100
        12334.5         70.301        0.15900
        12335.0         73.870        0.18000
        12335.5         76.446        0.20200
        12336.0         77.892        0.21400
        12336.5         78.494        0.21900
        12337.0         78.373        0.21900
        12337.5         77.547        0.21200
        12338.0         76.859        0.20700
        12338.5         76.325        0.20400
        12339.0         76.837        0.20400
        12339.5         77.691        0.21300
        12340.0         78.133        0.21800
        12340.5         77.651        0.21500
        12341.0         76.446        0.20700
        12341.5         75.458        0.20000
        12342.0         74.795        0.19300
        12342.5         73.755        0.18500
        12343.0         72.149        0.17600
        12343.5         70.542        0.16300
        12344.0         70.301        0.16000
        12344.5         70.617        0.16300
        12345.0         70.881        0.16500
        12345.5         71.145        0.16800
        12346.0         72.575        0.17600
        12346.5         74.006        0.18800
        12347.0         75.723        0.20200
        12347.5         75.723        0.20300
        12348.0         74.699        0.19100
        12348.5         73.675        0.18400
        12349.0         73.434        0.18200
        12349.5         73.241        0.18100
        12350.0         72.952        0.18100
        12350.5         73.014        0.18100
        12351.0         73.127        0.18100
        12351.5         73.357        0.19700
        12352.0         76.984        0.21700
        12352.5         80.640        0.23600
        12353.0         82.711        0.24400
        12353.5         82.229        0.24700
        12354.0         79.914        0.23100
        12354.5         77.879        0.21300
        12355.0         75.848        0.19700
        12355.5         75.134        0.19500
        12356.0         74.994        0.19400
        12356.5         74.821        0.19300
        12357.0         74.650        0.19100
        12357.5         74.485        0.19000
        12358.0         74.487        0.19000
        12358.5         74.868        0.19100
        12359.0         75.241        0.19400
        12359.5         76.205        0.20500
        12360.0         80.022        0.23000
        12360.5         83.916        0.25400
        12361.0         85.602        0.26800
        12361.5         83.795        0.26800
        12362.0         82.470        0.24500
        12362.5         82.590        0.24600
        12363.0         82.590        0.24700
        12363.5         81.530        0.24400
        12364.0         79.940        0.23400
        12364.5         79.458        0.22500
        12365.0         78.735        0.22100
        12365.5         77.085        0.21700
        12366.0         75.023        0.19900
        12366.5         72.961        0.18100
        12367.0         70.899        0.16300
        12367.5         68.837        0.14500
        12368.0         67.186        0.13400
        12368.5         65.809        0.12300
        12369.0         64.157        0.11700
        12369.5         63.675        0.11600
        12370.0         63.675        0.11700
        12370.5         64.108        0.11800
        12371.0         64.759        0.11900
        12371.5         66.024        0.14500
        12372.0         67.289        0.17100
        12372.5         82.542        0.24800
        12373.0         92.711        0.29600
        12373.5         99.819        0.38800
        12374.0        106.807        0.41800
        12374.5        107.691        0.42700
        12375.0        108.373        0.43000
        12375.5        102.229        0.40200
        12376.0         88.193        0.26100
        12376.5         76.386        0.20400
        12377.0         76.205        0.19900
        12377.5         77.048        0.21400
        12378.0         78.102        0.21800
        12378.5         78.855        0.22100
        12379.0         79.157        0.22300
        12379.5         79.428        0.22500
        12380.0         79.699        0.22700
        12380.5         80.157        0.22900
        12381.0         80.728        0.23300
        12381.5         81.265        0.23700
        12382.0         81.102        0.23800
        12382.5         80.196        0.22800
        12383.0         78.181        0.21700
        12383.5         76.325        0.20600
        12384.0         74.928        0.19600
        12384.5         74.398        0.19100
        12385.0         75.843        0.19900
        12385.5         77.134        0.20800
        12386.0         78.373        0.21600
        12386.5         84.355        0.24500
        12387.0         91.892        0.28600
        12387.5         96.072        0.32600
        12388.0         98.161        0.36100
        12388.5         88.494        0.29900
        12389.0         81.940        0.30000
        12389.5         78.754        0.23000
        12390.0         76.325        0.19800
        12390.5         75.361        0.19700
        12391.0         75.060        0.19500
        12391.5         74.931        0.19400
        12392.0         75.060        0.19400
        12392.5         75.189        0.19500
        12393.0         74.699        0.19500
        12393.5         73.795        0.18600
        12394.0         75.361        0.18800
        12394.5         76.928        0.19000
        12395.0         81.822        0.22300
        12395.5         85.783        0.25700
        12396.0         88.343        0.29800
        12396.5         90.904        0.30100
