###############################################
##         ENVERUS                           ##
##         ESS - Open Hole                   ##
##         PERMIAN / DELAWARE                ##
##         Nov 02 2023  V4.0                 ##
##         42-109-10071-00-00                ##
###############################################
## Copyright 2017-2023  ENVERUS.  All Rights Reserved. 
## Confidential - Property of ENVERUS, use governed by terms and 
## conditions found within the existing Information Services Subscription Agreement 
## (as may be amended, the “ISSA”) between Customer and ENVERUS. 
## 
~VERSION INFORMATION
# MNEM.UNIT                               DATA : DESCRIPTION OF MNEMONIC
#-----.-----     ----------------------------- : -----------------------------
VERS.                                     2.00 : CWLS LOG ASCII STANDARD - VERSION 2.00
WRAP.                                       NO : MULTIPLE LINES PER DEPTH STEP
VEND.                                  ENVERUS : VENDOR
TYPE.                          ESS - OPEN HOLE : ENVERUS ESSENTIAL CURVES – ACCESSIBLE THROUGH ENVERUS PRISM(TM)
DOC.                                  31950413 : ENVERUS HEADER RAW DOCUMENT ID
#___________________________________________________________________________________________________ 
~WELL INFORMATION 
# OfUh2+mdeFjroaXzMJDg/lRWUsinBwpBr+LWp9Jgnw936lSgPWOOCrYxw0Bz1A8ekYSC2IJg55FhS+cGr4hs3w== 
# MNEM.UNIT                                              DATA : DESCRIPTION OF MNEMONIC 
#-----.-----                    ----------------------------- : ----------------------------- 
CNTY.                                               CULBERSON : COUNTY 
STATE.                                                  TEXAS : STATE 
CNTRY.                                                    USA : COUNTRY 
API.                                             42-109-10071 : API (10 Digit) 
API_14.                                    42-109-10071-00-00 : API (14 Digits) 
API_14_std.                                 42-109-10071-0000 : API (14 Digits Standard) 
UWI.                                           42109100710000 : UNIQUE WELL ID 
WELL.                                                  DRD_55 : WELL NAME
STRT.FT                                                 320.5 : START DEPTH
STOP.FT                                               12359.5 : STOP DEPTH
STEP.FT                                                   0.5 : STEP BETWEEN DEPTHS
NULL.                                                 -999.25 : NULL VALUE
#___________________________________________________________________________________________________ 
~PARAMETER INFORMATION 
# MNEM.UNIT                                              DATA : DESCRIPTION OF MNEMONIC 
#-----.-----                    ----------------------------- : -----------------------------
#___________________________________________________________________________________________________ 
~CURVE INFORMATION 
# MNEM.UNIT           : CURVE DESCRIPTION 
#-----.-----          : ----------------------------- 
 DEPT.FT               : MEASURED DEPTH 
 GR.API                : GAMMA RAY (GAMMA RAY) 
 DT.US/FT              : SONIC DELTA TRANSIT TIME (SONIC) 
 #___________________________________________________________________________________________________ 
~A         DEPT             GR             DT
# ...
         1886.5         75.153         67.204
         1887.0         71.126         66.472
         1887.5         67.099         65.371
         1888.0         63.071         65.712
         1888.5         61.722         65.923
         1889.0         64.389         66.207
         1889.5         68.521         66.414
         1890.0         70.746         65.511
         1890.5         71.351         66.140
         1891.0         67.569         66.711
         1891.5         65.095         66.582
         1892.0         63.733         66.534
         1892.5         64.708         66.918
         1893.0         67.224         67.556
         1893.5         70.106         68.157
         1894.0         71.351         67.752
         1894.5         71.334         67.225
         1895.0         70.049         66.781
         1895.5         68.864         66.459
         1896.0         69.191         66.631
         1896.5         72.302         66.916
         1897.0         77.563         67.893
         1897.5         84.907         68.848
         1898.0         96.174         69.396
         1898.5         99.051         69.394
         1899.0         96.706         68.217
         1899.5         90.553         67.063
         1900.0         83.035         66.303
         1900.5         76.402         66.231
         1901.0         70.818         66.247
         1901.5         69.843         65.246
         1902.0         70.039         65.598
         1902.5         68.856         67.253
         1903.0         66.894         67.199
         1903.5         67.035         66.607
         1904.0         69.788         66.269
         1904.5         68.991         67.708
         1905.0         64.339         69.908
         1905.5         60.051         72.816
         1906.0         56.647         75.724
         1906.5         56.647         78.372
         1907.0         56.647         78.275
         1907.5         56.812         77.337
         1908.0         69.206         74.805
         1908.5         77.637         73.106
         1909.0         81.594         71.473
         1909.5         83.551         69.382
         1910.0         75.478         69.427
         1910.5         60.928         71.094
         1911.0         53.870         71.452
         1911.5         52.546         70.594
         1912.0         53.500         69.601
         1912.5         54.830         68.872
         1913.0         54.830         68.384
         1913.5         55.483         67.809
         1914.0         56.492         67.529
         1914.5         57.766         68.435
         1915.0         59.010         69.341
         1915.5         58.544         70.247
         1916.0         57.299         71.157
         1916.5         56.789         71.517
         1917.0         58.289         71.398
         1917.5         60.013         71.164
         1918.0         60.931         71.074
         1918.5         60.866         69.795
         1919.0         58.864         67.581
         1919.5         57.071         67.179
         1920.0         56.153         67.305
         1920.5         56.385         67.685
         1921.0         57.629         67.910
         1921.5         60.247         68.352
         1922.0         62.519         70.507
         1922.5         66.598         70.447
         1923.0         69.435         70.074
         1923.5         71.360         69.431
         1924.0         72.680         68.686
         1924.5         76.787         69.039
         1925.0         78.003         68.875
         1925.5         78.003         68.449
         1926.0         78.003         68.734
         1926.5         77.024         69.022
         1927.0         74.176         69.039
         1927.5         71.750         68.146
         1928.0         70.823         68.410
         1928.5         69.913         69.540
         1929.0         67.198         69.836
         1929.5         65.793         70.050
         1930.0         56.753         70.811
         1930.5         54.973         71.271
         1931.0         55.908         72.204
         1931.5         58.126         71.779
         1932.0         60.239         71.686
         1932.5         63.838         71.438
         1933.0         64.678         71.253
         1933.5         64.421         70.748
         1934.0         63.919         70.379
         1934.5         61.503         70.873
         1935.0         60.911         71.614
         1935.5         60.379         71.614
         1936.0         60.053         71.685
         1936.5         60.052         71.992
         1937.0         59.522         72.194
         1937.5         57.389         72.366
         1938.0         55.970         72.752
         1938.5         54.864         72.774
         1939.0         56.731         72.500
         1939.5         58.974         72.235
         1940.0         60.219         71.754
         1940.5         60.926         71.813
         1941.0         60.007         71.851
         1941.5         58.117         71.238
         1942.0         56.865         71.253
         1942.5         55.620         71.137
         1943.0         53.984         69.837
         1943.5         51.825         68.961
         1944.0         51.585         68.862
         1944.5         54.834         68.827
         1945.0         58.951         68.769
         1945.5         63.160         68.806
         1946.0         65.365         70.000
         1946.5         71.358         69.395
         1947.0         73.210         68.789
         1947.5         76.044         68.239
         1948.0         73.737         68.051
         1948.5         69.069         68.141
         1949.0         66.526         68.195
         1949.5         66.899         68.248
         1950.0         68.143         68.551
         1950.5         70.956         69.074
         1951.0         71.802         68.848
         1951.5         72.378         68.792
         1952.0         71.133         68.901
         1952.5         68.533         69.105
         1953.0         65.323         69.250
         1953.5         63.889         68.934
         1954.0         63.019         69.548
         1954.5         67.818         70.078
         1955.0         71.093         69.926
         1955.5         76.523         69.692
         1956.0         78.512         69.548
         1956.5         89.950         69.365
         1957.0         97.453         68.899
         1957.5        105.418         68.544
         1958.0        105.478         67.144
         1958.5         99.070         65.771
         1959.0         80.814         64.516
         1959.5         68.931         64.161
         1960.0         59.396         64.066
         1960.5         59.844         64.133
         1961.0         65.781         64.774
         1961.5         70.258         66.331
         1962.0         71.582         67.498
         1962.5         72.454         67.759
         1963.0         71.816         67.909
         1963.5         70.282         68.243
         1964.0         69.000         68.848
         1964.5         67.102         68.810
         1965.0         66.253         68.502
         1965.5         66.253         68.189
         1966.0         66.253         66.807
         1966.5         65.927         66.967
         1967.0         64.795         67.317
         1967.5         63.876         67.590
         1968.0         61.147         68.114
         1968.5         60.081         69.068
         1969.0         59.073         70.022
         1969.5         58.420         70.787
         1970.0         58.420         70.969
         1970.5         58.812         71.079
         1971.0         59.720         70.630
         1971.5         61.969         69.987
         1972.0         64.820         68.663
         1972.5         66.391         68.333
         1973.0         66.580         68.333
