# Exported from Transform Software 5.2.0 on 27-Jun-2019 by user brian.umlang
# DI Transform - A Product of Drillinginfo, Inc. - www.drillinginfo.com
#
~VERSION INFORMATION
 VERS.        2.0 : LAS ASCII STANDARD - VERSION 2.0
 WRAP.         NO : ONE LINE PER DEPTH STEP

~WELL INFORMATION
#MNEM.UNIT       DATA TYPE       INFORMATION
#---------       ---------       -----------
 STRT.ft                   0 : Start Depth
 STOP.ft               12430 : Stop Depth
 STEP.ft                 0.5 : Step Length
 NULL.               -999.25 : Null Value
 COMP.                       : Company
 WELL.  42109313590000_API14 : Well Name
 FLD.                        : Field Name
 LOC.                        : Well Location
 CNTY.                       : County
 STAT.                       : State or Province
 CTRY.                       : Country
 SRVC.                       : Service Company
 DATE.                       : Date
 API.         42109313590000 : Well Identifier

~CURVE INFORMATION
#MNEM.UNIT       API CODE       CURVE DESCRIPTION
#---------       --------       -----------------
 DEPT.ft          : <Measured Depth>
 CAL.in           : Caliper
 DPHI.%           : Density Porosity
 DT.us/ft         : Sonic
 GR.gAPI          : Gamma Ray
 ILD.ohmm         : Deep Resistivity
 ILM.ohmm         : Medium Resistivity
 ILS.ohmm         : Shallow Resistivity
 NPHI.%           : Neutron Porosity
 RHOB.g/cm3       : Density
 SP.mV            : Spontaneous Potential

~PARAMETER INFORMATION
#MNEM.UNIT       VALUE       DESCRIPTION
#---------       -----       -----------
 EKB.ft      3771 : Elevation above MSL

~A      DEPT         CAL        DPHI          DT          GR         ILD         ILM         ILS        NPHI        RHOB          SP
# ...
      2836.5     18.0276     29.8542     81.9496     25.3908      9.1546      8.7373     15.1856     29.9794      2.3436    -16.0082
        2837     18.0276     29.8558     82.9107     25.5178      9.1985      8.7373     15.1687     29.9784      2.3437     -15.858
      2837.5     18.0276     29.8573     84.0775     25.5178      9.2145      8.7373     14.0534     29.9773      2.3385    -15.7078
        2838     18.0276     29.8589     85.4692     25.5178      9.2145      8.7373     13.4014     29.9762      2.3421    -15.5576
      2838.5     18.0276     29.8605     86.5631     25.5178      9.2145      8.7015     12.6843     29.9751      2.3204    -15.4074
        2839     18.0276     29.8621     87.9863     25.5178      9.2145      8.5922     12.3572      29.974      2.3078    -15.2571
      2839.5     18.0276     29.8637     88.8874     25.0814      9.2145      8.5922     12.3169      29.973      2.3022    -15.1069
        2840     18.0402     29.8652     89.6528     24.4528      9.1954      8.5922     12.3169     29.9719      2.2996    -14.9567
      2840.5     18.0473     29.8668      89.889     23.8242      9.0813      8.5206     12.0113     29.9708      2.3017    -14.8065
        2841     18.0473     29.8684     89.7011     23.6686      8.9687      8.4495     11.8031     29.9697      2.2911    -14.6563
      2841.5     18.0276       29.87     89.2197     23.6686      8.8574      8.3092     11.5187     29.9686       2.294    -14.5061
        2842     18.0473     29.8716     88.6781     23.6686      8.7475      8.3092     11.5187     29.9675      2.3021    -14.3559
      2842.5     18.0473     29.8732     88.7806     23.6639       8.639      8.2399     11.2329     29.9665      2.3037    -14.2057
        2843      18.045     29.8747     89.1026     23.4826      8.5392      8.0354     11.1393     29.9654      2.3017    -14.0555
      2843.5     18.0276     29.8763     89.4246     23.3013         8.5      7.9684     10.9542     29.9643      2.2875    -13.9052
        2844     18.0473     29.8779     89.6256       23.12      8.4609      7.9684     10.9542     29.9632      2.2709     -13.755
      2844.5     18.0473     29.8795     89.7074     22.9386       8.422      7.9019     10.8629     29.9621      2.2681    -13.6048
        2845     18.0473     29.8811     89.7074     22.7573      8.3833      7.9019     10.5011     29.9611      2.2677    -13.4546
      2845.5     18.0473     29.8826     89.6468      22.576      8.3448      7.9019     10.2444       29.96      2.2748    -13.3044
        2846     18.0671     29.8842     89.6468     22.3947      8.4429      7.9019     10.2444     29.9589      2.2662    -13.1542
      2846.5     18.0671     29.8858      89.511     22.2134      8.6204      8.0354     10.1933     29.9578      2.2874     -13.004
        2847     18.0668     29.8874     89.2496     22.0321      8.8017      8.1711     10.4632     29.9567      2.2924    -12.8538
      2847.5     18.0473      29.889     88.6962     21.8508      8.9868      8.3092     10.7723     29.9557      2.2927    -12.7811
        2848     18.0402     29.8906     87.8366     21.8195      9.1757      8.3092     10.7723     29.9546      2.2927    -12.7811
      2848.5     18.0671     29.8921     87.2834     21.8195      9.3686      8.3092     10.7723     29.9535      2.2698    -12.7811
        2849     17.9602     29.8937     86.8716     21.8195      9.4497      8.1711     10.7723     29.9524      2.2737    -12.7811
      2849.5     17.9188     29.8953     86.6707     21.8195      9.4497       8.103     10.6824     29.9513      2.2738    -12.7811
        2850     17.8144     29.8969     86.7837     21.8648      9.4497       8.103     10.6824     29.9502      2.2747    -12.7811
      2850.5     17.8107     29.8985     87.4421     22.0077      9.4497      8.1958     10.6824     29.9492       2.275    -12.7811
        2851     17.8107        29.9     88.3855     22.1505      9.4497      8.3092     10.6824     29.9481        2.28    -12.7811
      2851.5     17.8107     29.9016     88.0117     22.2934      9.4497      8.3092     10.5406      29.947      2.3044    -12.7811
        2852     17.7315     29.9032     87.7019     22.4362      9.4497      8.0354     10.5934     29.9459      2.3133    -12.7811
      2852.5      17.631     29.9048     87.0915     22.5791      9.4497      8.1544     10.1661     29.9448      2.3248    -12.7811
        2853     17.5304     29.9064     85.3775     22.7219      9.4741      8.5174     10.3365     29.9438      2.3396    -12.7811
      2853.5     17.5148      29.908     83.8612     22.7441      9.6059      8.8108     10.5097     29.9427      2.3524    -12.8412
        2854     17.5148     29.9095     83.9578     22.7441      9.7396      8.8108     10.6859     29.9416      2.3425    -12.9414
      2854.5     17.5148     29.9111     84.8485     22.7441      9.8752      8.8849     10.7139     29.9405      2.3269    -13.0415
        2855     17.4634     29.9127     86.0031     22.7441     10.0126      8.8849     10.7139     29.9394      2.3115    -13.1416
      2855.5     17.4359     29.9143     86.7395     22.7441      10.152      8.8849     10.8617     29.9384      2.3067    -13.2418
        2856     17.4517     29.9159     86.4622     22.7441     10.3501      8.8849     11.0782     29.9373      2.3067    -13.3419
      2856.5     17.5148     29.9174     85.3469     22.7441     10.5751      9.0193     11.2991     29.9362      2.3131    -13.4421
        2857     17.5148      29.919     84.6859     22.7441     10.8049      9.2649     11.3957     29.9351      2.3077    -13.5422
      2857.5     17.5148     29.9206     84.9398     25.5178      11.005      9.3428     11.3957      29.934      2.3176    -13.6423
        2858     17.5109     29.9222     85.5691     25.5178     11.0697      9.3428     11.3957     29.9329      2.3082    -13.7425
      2858.5     17.3059     29.9238     85.7719     25.5178     11.1348       9.683     11.3957     29.9319       2.329    -13.8426
        2859     17.0378     29.9254      85.014     25.4917     11.2003     10.1072     11.3957     29.9308      2.3401    -13.9428
      2859.5     16.9133     29.9269     82.2272     25.1549     11.2662     10.1589     11.3957     29.9297      2.3815    -14.0429
        2860      16.785     29.9285     78.5777     24.8182     11.3826     10.1589     11.3957     29.9286      2.3932     -14.143
      2860.5      16.785     29.9301     76.1351     24.4815     11.5057     10.2228      17.509     29.9275      2.3819    -14.2432
        2861      16.785     29.9317     75.9887     24.1448     11.5602     10.6706     16.3021     29.9265      2.3405    -14.3433
      2861.5      16.785     29.9333     78.9539      23.808     11.5602     10.6824     12.8558     29.9254      2.3284    -14.4435
        2862      16.785     29.9348     82.5442     23.4713     11.5602     10.6824     11.7133     29.9243      2.3243    -14.5436
      2862.5      16.785     29.9364     85.2269     23.1346     11.5602     10.6824     11.7133     29.9232       2.338    -14.6437
        2863      16.785      29.938     85.8325     22.7978     11.5602     10.3875     11.2949     29.9221      2.3373    -14.7439
      2863.5     16.7653     29.9396     85.3864     22.7441     11.5699      9.9902     10.8208     29.9211       2.343     -14.844
        2864     16.3632     29.9412     84.3551     22.7441      11.677      9.9902     10.6824       29.92      2.3545    -14.9442
      2864.5     16.2627     29.9428     82.0065     22.7441     11.7851      9.9902     11.1359     29.9189      2.3751    -15.0443
        2865     16.1621     29.9443     77.9328     22.7441     11.8942     10.4895     12.7177     29.9178      2.3946    -15.1445
      2865.5     16.1341     29.9459     74.8935     22.7441     12.0043     10.5934     14.4474     29.9167      2.3946    -15.1479
        2866     16.1188     29.9475     74.3699     22.7441     12.1154     10.8629      13.842     29.9157      2.3609    -15.1479
      2866.5      16.112     29.9491     76.1399     22.7441     12.3763     10.8629     12.5617     29.9146      2.3527    -15.1479
