~Version Information
 VERS.                  2.0:   CWLS log ASCII Standard -VERSION 2.0
 WRAP.                   NO:   One line per depth step
~Well Information Block
#MNEM.UNIT     VALUE/NAME     DESCRIPTION
#---------     -----------    ---------------------------
 STRT.F              8432.0000: START DEPTH
 STOP.F             13842.0000: STOP DEPTH
 STEP.F                 0.5000: STEP DEPTH
 NULL.                 -999.25: NULL VALUE
 LOC .     100' FNL & 990' FEL:  LOCATION
 FL6 .       API  42-109-33163:  LOCATIONLINE6
 FL4 .           ABSTRACT 1006:  LOCATIONLINE4
 FL3 .        T&P RR CO SURVEY:  LOCATIONLINE3
 FL2 .     SECTION 36, BLOCK 59 T2:  LOCATIONLINE2
 FL1 .     100' FNL & 990' FEL:  LOCATIONLINE1
 DMF .                      KB:  DRILL MEAS FROM
 PDAT.                      GL:  PERMANENT DATUM
 CNTY.               CULBERSON:  COUNTY NAME
 FLD .     FORD, WEST (WOLFCAMP):  FIELD NAME
 WELL.         SCOTT FEE 36 2H:  WELL NAME
 COMP.     CAPITAN ENERGY INC.:  COMPANY
 DATE.             11-Oct-2017:  DATE
 SVCO.             Halliburton:  SERVICECONAME
 PROV.                   TEXAS:  PROVINCE
 STAT.                   TEXAS:  STATE NAME
 CTRY.           UNITED STATES:  COUNTRY NAME
 HIDE.                        :  WELLNAMEOPERAT
 BASI.                 PERMIAN:  BASIN
 UWI .            42-109-33163Lat:  UNIQUE WELL IDENTIFIER
 API .            42-109-33163Lat:  API NUMBER
 RANG.                     N/A:  RANGE
 TOWN.                     N/A:  TOWNSHIP
 SECT.                     N/A:  SECTION
 SON .               904352259:  JOB NUMBER
 SRVC.             Halliburton:  SERVICE COMPANY
 LMF .                      KB:  LOG MEASURED FROM
 EGL .ft             3174.0000:  GROUND ELEVATION
 BAP .ft                0.0000:  GL ELEV ONSHORE
 GVFD.g                 1.0000:  GRAVITY FIELD
 EKB .ft             3200.0000:  KB ELEVATION
 EDF .ft             3199.0000:  DF ELEVATION
~Curve Information Block
#MNEM.UNIT                 API CODE     Curve Description
#---------               -----------    ---------------------------
 DEPT.F                 00 000 000 000:  Depth
 CCL .V                 00 000 000 000:  Casing Collar Locator
 NPHI_OH.pu             00 000 000 000:  NPHI_OH
 NPHI_CHI.pu            00 000 000 000:  NPHI_CHI
 GR_CHI.api             00 000 000 000:  GR_CHI
 GR_OH.api              00 000 000 000:  GR_OH
 RHOB_OH.g/cc           00 000 000 000:  RHOB_OH
 RHOB_CHI.g/cc          00 000 000 000:  RHOB_CHI
 PE_CHI.b/e             00 000 000 000:  PE_CHI
 PE_OH.b/e              00 000 000 000:  PE_OH
 MSFL_OH.ohmm           00 000 000 000:  MSFL_OH
 MSFL_CHI.ohmm          00 000 000 000:  MSFL_CHI
 LLS_OH.ohmm            00 000 000 000:  LLS_OH
 LLS_CHI.ohmm           00 000 000 000:  LLS_CHI
 LLD_OH.ohmm            00 000 000 000:  LLD_OH
 LLD_CHI.ohmm           00 000 000 000:  LLD_CHI
 DTC_OH.uspf            00 000 000 000:  DTC_OH
 DTC_CHI.uspf           00 000 000 000:  DTC_CHI
 SPHI_CHI.pu            00 000 000 000:  SPHI_CHI
 SGF .cu                00 000 000 000:  Formation Sigma
 CRNF.NONE              00 000 000 000:  CM GrsCaptRatio
 RIN .NONE              00 000 000 000:  CM GrsInelRatio
~A    DEPT      CCL   NPHI_OH NPHI_CHI  GR_CHI   GR_OH   RHOB_OH RHOB_CHI PE_CHI  PE_OH   MSFL_OH  MSFL_CHI  LLS_OH   LLS_CHI   LLD_OH  LLD_CHI  DTC_OH  DTC_CHI SPHI_CHI   SGF    CRNF   RIN   
# ...
   10595.0000  0.0000 -999.25  15.8400 128.9327  -999.25 -999.25   2.5062 3.2151 -999.25   -999.25  46.5511   -999.25  57.6102  -999.25  58.2907 -999.25 71.7311  16.9600 22.2075 1.0115 1.0605
   10595.5000  0.0000 -999.25  16.1247 142.5390  -999.25 -999.25   2.4966 3.1216 -999.25   -999.25  45.5310   -999.25  56.1750  -999.25  56.8289 -999.25 72.7520  17.5700 22.6345 1.0119 1.0609
   10596.0000  0.0000 -999.25  16.3671 148.8846  -999.25 -999.25   2.4943 3.0680 -999.25   -999.25  44.3428   -999.25  54.5089  -999.25  55.1323 -999.25 73.2989  18.0600 23.0576 1.0125 1.0640
   10596.5000  0.0000 -999.25  16.2763 141.9114  -999.25 -999.25   2.4950 3.0853 -999.25   -999.25  42.7859   -999.25  52.3351  -999.25  52.9192 -999.25 73.0290  18.0400 23.4306 1.0129 1.0669
   10597.0000  0.0000 -999.25  16.3256 143.1751  -999.25 -999.25   2.4940 3.0605 -999.25   -999.25  41.2971   -999.25  50.2666  -999.25  50.8139 -999.25 73.1157  18.0300 23.7174 1.0208 1.0701
   10597.5000  0.0000 -999.25  16.2978 141.0480  -999.25 -999.25   2.4940 3.0566 -999.25   -999.25  40.0276   -999.25  48.5110  -999.25  49.0275 -999.25 73.0074  17.9900 23.9398 1.0239 1.0727
   10598.0000  0.0000 -999.25  16.4045 145.1225  -999.25 -999.25   2.4931 3.0266 -999.25   -999.25  39.0781   -999.25  47.2030  -999.25  47.6968 -999.25 73.2525  18.0900 24.4185 1.0229 1.0731
   10598.5000  0.0000 -999.25  16.2954 138.2634  -999.25 -999.25   2.4944 3.0573 -999.25   -999.25  38.3573   -999.25  46.2130  -999.25  46.6898 -999.25 73.0004  18.0200 25.0688 1.0257 1.0697
   10599.0000  0.0000 -999.25  16.3917 141.9175  -999.25 -999.25   2.4937 3.0290 -999.25   -999.25  36.8507   -999.25  44.1519  -999.25  44.5938 -999.25 73.2588  18.0900 25.6855 1.0248 1.0651
   10599.5000  0.0000 -999.25  16.6255 150.2758  -999.25 -999.25   2.4944 2.9728 -999.25   -999.25  34.8983   -999.25  41.4985  -999.25  41.8964 -999.25 73.6572  18.3400 26.3173 1.0314 1.0608
   10600.0000  0.0000 -999.25  16.6643 150.1856  -999.25 -999.25   2.4948 2.9572 -999.25   -999.25  33.1425   -999.25  39.1296  -999.25  39.4893 -999.25 73.6863  18.4400 26.7684 1.0305 1.0591
   10600.5000  0.0000 -999.25  16.8868 155.6734  -999.25 -999.25   2.4967 2.9135 -999.25   -999.25  31.4353   -999.25  36.8429  -999.25  37.1666 -999.25 73.9296  18.5700 27.0888 1.0294 1.0605
   10601.0000  0.0000 -999.25  16.5217 142.7180  -999.25 -999.25   2.4936 2.9624 -999.25   -999.25  30.2704   -999.25  35.2925  -999.25  35.5922 -999.25 73.4165  18.3700 27.2161 1.0312 1.0615
   10601.5000  0.0000 -999.25  16.3436 136.9584  -999.25 -999.25   2.4933 2.9822 -999.25   -999.25  29.4693   -999.25  34.2311  -999.25  34.5147 -999.25 73.0811  18.0900 26.9982 1.0357 1.0612
   10602.0000  0.0000 -999.25  16.2397 133.6380  -999.25 -999.25   2.4936 2.9955 -999.25   -999.25  29.1570   -999.25  33.8183  -999.25  34.0957 -999.25 72.8692  17.9200 26.8695 1.0416 1.0605
   10602.5000  0.0000 -999.25  16.1167 128.8121  -999.25 -999.25   2.4952 3.0270 -999.25   -999.25  29.6937   -999.25  34.5279  -999.25  34.8161 -999.25 72.6183  17.7500 26.8614 1.0451 1.0572
   10603.0000  0.0000 -999.25  16.2890 133.9298  -999.25 -999.25   2.4939 3.0041 -999.25   -999.25  30.0153   -999.25  34.9541  -999.25  35.2486 -999.25 73.0056  17.8800 27.0448 1.0534 1.0584
   10603.5000  0.0000 -999.25  16.2025 128.4771  -999.25 -999.25   2.4952 3.0310 -999.25   -999.25  30.0356   -999.25  34.9811  -999.25  35.2760 -999.25 72.8082  17.8700 27.2064 1.0567 1.0578
   10604.0000  0.0000 -999.25  16.1215 122.7831  -999.25 -999.25   2.4971 3.0522 -999.25   -999.25  29.5781   -999.25  34.3749  -999.25  34.6607 -999.25 72.5425  17.7000 27.4383 1.0666 1.0599
   10604.5000  0.0000 -999.25  16.1117 118.2715  -999.25 -999.25   2.4991 3.0677 -999.25   -999.25  29.1806   -999.25  33.8495  -999.25  34.1275 -999.25 72.4347  17.5900 27.6845 1.0738 1.0615
   10605.0000  0.0000 -999.25  16.0398 112.6563  -999.25 -999.25   2.5028 3.0886 -999.25   -999.25  28.6197   -999.25  33.1096  -999.25  33.3765 -999.25 72.1498  17.4200 27.7457 1.0740 1.0617
   10605.5000  0.0000 -999.25  16.2689 120.6516  -999.25 -999.25   2.4964 3.0405 -999.25   -999.25  28.0359   -999.25  32.3417  -999.25  32.5973 -999.25 72.8545  17.7100 27.8582 1.0704 1.0625
   10606.0000  0.0000 -999.25  16.4005 124.1090  -999.25 -999.25   2.4948 3.0224 -999.25   -999.25  27.8926   -999.25  32.1536  -999.25  32.4064 -999.25 73.2094  18.0400 27.7848 1.0633 1.0608
   10606.5000  0.0000 -999.25  16.3503 122.4102  -999.25 -999.25   2.4955 3.0295 -999.25   -999.25  27.6312   -999.25  31.8107  -999.25  32.0585 -999.25 73.1076  18.0600 27.4557 1.0623 1.0587
   10607.0000  0.0000 -999.25  16.3494 124.4335  -999.25 -999.25   2.4952 3.0245 -999.25   -999.25  27.8015   -999.25  32.0340  -999.25  32.2851 -999.25 73.1466  18.0600 27.0793 1.0554 1.0554
   10607.5000  0.0000 -999.25  16.3061 125.8689  -999.25 -999.25   2.4955 3.0289 -999.25   -999.25  28.5780   -999.25  33.0547  -999.25  33.3208 -999.25 73.0791  18.0300 26.7180 1.0464 1.0528
   10608.0000  0.0000 -999.25  16.4316 131.7581  -999.25 -999.25   2.4946 3.0122 -999.25   -999.25  29.4928   -999.25  34.2621  -999.25  34.5462 -999.25 73.3825  18.1700 26.6159 1.0341 1.0499
   10608.5000  0.0000 -999.25  16.3594 132.0417  -999.25 -999.25   2.4951 3.0229 -999.25   -999.25  30.3983   -999.25  35.4624  -999.25  35.7648 -999.25 73.2524  18.1700 26.6218 1.0240 1.0478
   10609.0000  0.0000 -999.25  16.4122 136.9307  -999.25 -999.25   2.4945 3.0022 -999.25   -999.25  30.6593   -999.25  35.8092  -999.25  36.1168 -999.25 73.3351  18.1800 26.3944 1.0192 1.0478
   10609.5000  0.0000 -999.25  16.1661 132.2740  -999.25 -999.25   2.4955 3.0266 -999.25   -999.25  30.6441   -999.25  35.7891  -999.25  36.0964 -999.25 72.8368  17.9500 26.1764 1.0173 1.0467
   10610.0000  0.0000 -999.25  15.9243 125.3729  -999.25 -999.25   2.4989 3.0693 -999.25   -999.25  31.2330   -999.25  36.5732  -999.25  36.8926 -999.25 72.2502  17.5600 25.7790 1.0076 1.0461
   10610.5000  0.0000 -999.25  15.9661 130.1317  -999.25 -999.25   2.4973 3.0531 -999.25   -999.25  31.8082   -999.25  37.3410  -999.25  37.6724 -999.25 72.4169  17.5200 25.5601 0.9915 1.0435
   10611.0000  0.0000 -999.25  16.0248 134.1925  -999.25 -999.25   2.4966 3.0462 -999.25   -999.25  32.8841   -999.25  38.7825  -999.25  39.1366 -999.25 72.5901  17.6400 25.3856 0.9721 1.0408
   10611.5000  0.0000 -999.25  15.8197 129.2143  -999.25 -999.25   2.4995 3.0811 -999.25   -999.25  33.4922   -999.25  39.6001  -999.25  39.9673 -999.25 72.1240  17.4400 25.2786 0.9529 1.0376
   10612.0000  0.0000 -999.25  15.6923 131.4157  -999.25 -999.25   2.4998 3.0758 -999.25   -999.25  33.9850   -999.25  40.2642  -999.25  40.6421 -999.25 71.9060  17.2400 24.9137 0.9432 1.0312
   10612.5000  0.0000 -999.25  15.4264 126.8883  -999.25 -999.25   2.5041 3.1013 -999.25   -999.25  34.2908   -999.25  40.6769  -999.25  41.0615 -999.25 71.2812  16.8800 24.4474 0.9436 1.0250
   10613.0000  0.0000 -999.25  15.2141 124.1791  -999.25 -999.25   2.5086 3.1268 -999.25   -999.25  35.3544   -999.25  42.1165  -999.25  42.5246 -999.25 70.7715  16.5000 23.8173 0.9502 1.0189
   10613.5000  0.0000 -999.25  15.2463 132.3508  -999.25 -999.25   2.5041 3.0969 -999.25   -999.25  36.7616   -999.25  44.0305  -999.25  44.4703 -999.25 70.9984  16.5000 23.2938 0.9579 1.0169
   10614.0000  0.0000 -999.25  15.3394 137.6212  -999.25 -999.25   2.5021 3.0983 -999.25   -999.25  38.7526   -999.25  46.7557  -999.25  47.2418 -999.25 71.2606  16.6800 23.0651 0.9620 1.0168
   10614.5000  0.0000 -999.25  15.4541 140.5056  -999.25 -999.25   2.5011 3.1112 -999.25   -999.25  40.4886   -999.25  49.1477  -999.25  49.6753 -999.25 71.5271  16.8700 23.1751 0.9535 1.0177
   10615.0000  0.0000 -999.25  15.3478 128.5592  -999.25 -999.25   2.5092 3.2025 -999.25   -999.25  41.2711   -999.25  50.2307  -999.25  50.7774 -999.25 71.1146  16.7200 23.4528 0.9422 1.0179
   10615.5000  0.0000 -999.25  15.3173 124.8350  -999.25 -999.25   2.5122 3.2226 -999.25   -999.25  40.8929   -999.25  49.7069  -999.25  50.2443 -999.25 70.9891  16.5700 23.6480 0.9293 1.0160
