~Version Information
 VERS.                  2.0:   CWLS log ASCII Standard -VERSION 2.0
 WRAP.                   NO:   One line per depth step
~Well Information Block
#MNEM.UNIT     VALUE/NAME     DESCRIPTION
#---------     -----------    ---------------------------
 STRT.F              8432.0000: START DEPTH
 STOP.F             13842.0000: STOP DEPTH
 STEP.F                 0.5000: STEP DEPTH
 NULL.                 -999.25: NULL VALUE
 LOC .     100' FNL & 990' FEL:  LOCATION
 FL6 .       API  42-109-33163:  LOCATIONLINE6
 FL4 .           ABSTRACT 1006:  LOCATIONLINE4
 FL3 .        T&P RR CO SURVEY:  LOCATIONLINE3
 FL2 .     SECTION 36, BLOCK 59 T2:  LOCATIONLINE2
 FL1 .     100' FNL & 990' FEL:  LOCATIONLINE1
 DMF .                      KB:  DRILL MEAS FROM
 PDAT.                      GL:  PERMANENT DATUM
 CNTY.               CULBERSON:  COUNTY NAME
 FLD .     FORD, WEST (WOLFCAMP):  FIELD NAME
 WELL.         SCOTT FEE 36 2H:  WELL NAME
 COMP.     CAPITAN ENERGY INC.:  COMPANY
 DATE.             11-Oct-2017:  DATE
 SVCO.             Halliburton:  SERVICECONAME
 PROV.                   TEXAS:  PROVINCE
 STAT.                   TEXAS:  STATE NAME
 CTRY.           UNITED STATES:  COUNTRY NAME
 HIDE.                        :  WELLNAMEOPERAT
 BASI.                 PERMIAN:  BASIN
 UWI .            42-109-33163Lat:  UNIQUE WELL IDENTIFIER
 API .            42-109-33163Lat:  API NUMBER
 RANG.                     N/A:  RANGE
 TOWN.                     N/A:  TOWNSHIP
 SECT.                     N/A:  SECTION
 SON .               904352259:  JOB NUMBER
 SRVC.             Halliburton:  SERVICE COMPANY
 LMF .                      KB:  LOG MEASURED FROM
 EGL .ft             3174.0000:  GROUND ELEVATION
 BAP .ft                0.0000:  GL ELEV ONSHORE
 GVFD.g                 1.0000:  GRAVITY FIELD
 EKB .ft             3200.0000:  KB ELEVATION
 EDF .ft             3199.0000:  DF ELEVATION
~Curve Information Block
#MNEM.UNIT                 API CODE     Curve Description
#---------               -----------    ---------------------------
 DEPT.F                 00 000 000 000:  Depth
 CCL .V                 00 000 000 000:  Casing Collar Locator
 NPHI_OH.pu             00 000 000 000:  NPHI_OH
 NPHI_CHI.pu            00 000 000 000:  NPHI_CHI
 GR_CHI.api             00 000 000 000:  GR_CHI
 GR_OH.api              00 000 000 000:  GR_OH
 RHOB_OH.g/cc           00 000 000 000:  RHOB_OH
 RHOB_CHI.g/cc          00 000 000 000:  RHOB_CHI
 PE_CHI.b/e             00 000 000 000:  PE_CHI
 PE_OH.b/e              00 000 000 000:  PE_OH
 MSFL_OH.ohmm           00 000 000 000:  MSFL_OH
 MSFL_CHI.ohmm          00 000 000 000:  MSFL_CHI
 LLS_OH.ohmm            00 000 000 000:  LLS_OH
 LLS_CHI.ohmm           00 000 000 000:  LLS_CHI
 LLD_OH.ohmm            00 000 000 000:  LLD_OH
 LLD_CHI.ohmm           00 000 000 000:  LLD_CHI
 DTC_OH.uspf            00 000 000 000:  DTC_OH
 DTC_CHI.uspf           00 000 000 000:  DTC_CHI
 SPHI_CHI.pu            00 000 000 000:  SPHI_CHI
 SGF .cu                00 000 000 000:  Formation Sigma
 CRNF.NONE              00 000 000 000:  CM GrsCaptRatio
 RIN .NONE              00 000 000 000:  CM GrsInelRatio
~A    DEPT      CCL   NPHI_OH NPHI_CHI  GR_CHI   GR_OH   RHOB_OH RHOB_CHI PE_CHI  PE_OH   MSFL_OH  MSFL_CHI  LLS_OH   LLS_CHI   LLD_OH  LLD_CHI  DTC_OH  DTC_CHI SPHI_CHI   SGF    CRNF   RIN   
    8432.0000  0.0000 10.6300   6.5998  63.3744  67.1773  2.5804   2.5907 3.6205  3.8203   34.0774  41.0123   64.4734  72.0698  52.6971  66.6365 68.0714 68.5654  14.8300 23.4500 1.1242 1.1215
    8432.5000  0.0000 10.4000   6.5929  57.6250  71.4921  2.5878   2.5908 3.6785  3.6882   49.1972  42.2193   79.0622  74.9569  62.2074  69.2455 68.2244 68.5427  14.8200 24.5354 1.1790 1.1328
    8433.0000  0.0000 10.4800   7.0598  60.4741  66.1434  2.5870   2.5874 3.7063  3.5727   32.2005  41.8193   77.4620  74.7300  58.2855  69.5360 68.8144 69.0797  15.0800 25.7978 1.2094 1.1439
    8433.5000  0.0000 10.1000   8.2345  76.2616  63.2403  2.5884   2.5790 3.6188  3.5880   13.5359  38.8734   77.2148  69.1726  60.1856  65.5127 69.7377 70.4089  15.8500 26.8282 1.2159 1.1487
    8434.0000  0.0000 11.5000  10.0227 101.9586  76.1264  2.5676   2.5660 3.3742  3.3888   10.8548  34.2573   76.1513  59.9810  61.5814  58.2571 70.8314 71.9625  16.9000 27.3829 1.2183 1.1501
    8434.5000  0.0000 13.9000  10.6162 104.4146  92.5373  2.5246   2.5617 3.2827  2.9425   17.7594  31.9654   71.2557  55.4785  57.5342  54.6564 72.0966 72.5167  17.5000 27.7582 1.2277 1.1483
    8435.0000  0.0000 14.1600  10.2010  91.4034  94.8393  2.5110   2.5647 3.3430  2.8174   44.3684  32.0132   67.0119  55.6694  49.8926  54.8918 73.4830 72.2909  17.5100 28.1938 1.2332 1.1459
    8435.5000  0.0000 12.5600  10.1581  89.4662  86.8940  2.5317   2.5650 3.3276  3.1404   26.1520  31.1638   54.4596  53.8780  45.0692  53.3054 74.9418 72.2449  17.4400 28.7676 1.2114 1.1445
    8436.0000  0.0000 12.4200  10.8573 104.4224  90.5623  2.5458   2.5600 3.1772  3.3141   17.1677  28.4088   50.5190  48.1348  42.2290  48.2331 75.8705 72.6702  17.6400 28.6399 1.1734 1.1420
    8436.5000  0.0000 14.0300  10.4572  93.2874 100.9694  2.5413   2.5629 3.2205  3.0825   17.1752  28.1176   43.1181  47.5629  37.2369  47.7442 76.0166 72.4117  17.6000 28.0057 1.1385 1.1378
    8437.0000  0.0000 14.1500   9.0621  69.6860  99.9182  2.5483   2.5730 3.4105  2.9059   19.5378  30.1087   49.0202  51.3625  39.5219  50.8162 75.5947 71.2760  16.9800 26.6478 1.0938 1.1288
    8437.5000  0.0000 12.3100   8.3156  72.0665  91.1073  2.5711   2.5784 3.4196  2.9884   19.4560  29.7868   52.1820  49.9760  42.3773  48.9786 74.7083 70.3214  16.2700 24.1365 1.0284 1.1146
    8438.0000  0.0000 11.3700   7.8408  82.9755  85.4521  2.5789   2.5818 3.4019  3.1048   17.0479  30.6520   53.0875  51.0007  45.4510  49.3026 73.1944 69.5412  15.6800 21.3039 0.9474 1.0974
    8438.5000  0.0000 11.3000   7.0317  86.4069  85.0366  2.5717   2.5877 3.4331  3.1077   16.8224  35.6810   61.6548  60.4277  54.5365  56.7253 71.1187 68.5565  15.0300 18.6939 0.8833 1.0803
    8439.0000  0.0000 11.1000   5.7623  65.8287  81.0715  2.5668   2.5967 3.5156  2.9651   25.6381  44.1024   72.8289  77.0333  63.9788  69.7501 68.2679 67.3390  14.2200 16.9574 0.8660 1.0721
    8439.5000  0.0000  8.9000   4.9895  50.2374  68.6095  2.5718   2.6021 3.5478  2.8343   67.1802  50.2281  150.1597  88.8533 124.4472  78.3808 65.6472 66.4790  13.5300 16.1595 0.8990 1.0765
    8440.0000  0.0000  6.7600   4.7540  45.4317  54.8697  2.5927   2.6038 3.5682  2.9501  255.2765  53.1767  245.0450  94.5781 183.9848  82.4299 64.4810 66.0935  13.1600 16.3056 0.9759 1.0993
    8440.5000  0.0000  5.6700   4.8520  42.3790  47.2330  2.6158   2.6031 3.6453  3.2653  125.1906  55.5323  228.2183 100.5699 209.5120  87.8227 64.6770 65.9904  13.0300 17.7925 1.0821 1.1363
    8441.0000  0.0000  6.6200   5.4895  50.9035  55.1136  2.6235   2.5986 3.8121  3.4878   21.3848  56.6314  167.9584 105.2841 159.5785  93.2283 66.2185 66.6164  13.3200 20.8178 1.1786 1.1800
    8441.5000  0.0000  8.4500   7.1011  71.0541  77.7755  2.5943   2.5871 4.0083  3.3827   11.3342  54.6916  114.2650 103.8699 109.3082  94.0988 68.7236 68.4830  14.3700 24.9658 1.2251 1.2174
    8442.0000 -0.7558 11.3700  10.4784  87.7320 100.9047  2.5337   2.5627 2.8694  3.0082   10.0985  12.6234   73.1010  17.7473  72.2380  19.3906 71.1248 70.8412  15.9400 27.3639 1.2109 1.2390
    8442.5000  0.0000 13.8800  12.5165  86.7160 111.9960  2.5061   2.5479 2.8848  2.7384   13.1425   9.5715   71.3268  13.0160  71.6890  15.1809 72.5758 72.7393  17.3800 27.5884 1.1848 1.2505
    8443.0000 -0.0926 13.3200  13.2252  78.6473 107.2927  2.5324   2.5428 2.8975  2.7677   23.4901   8.4660   58.2290  11.3603  50.8130  13.6595 73.0699 73.3409  18.0800 26.8079 1.1976 1.2560
    8443.5000  0.0000 10.9100  12.9855  74.8508  90.4652  2.5680   2.5445 2.9082  3.0054   25.8309   8.3613   36.9640  11.1716  38.0092  13.4268 73.0182 72.9187  18.0000 26.6104 1.2237 1.2617
    8444.0000  0.0000  9.0100  12.4903  74.6035  82.9321  2.5818   2.5481 2.9133  3.3680   23.6979   8.6919   34.3289  11.6354  32.2042  13.8153 72.8867 72.3749  17.6400 26.8625 1.2384 1.2612
    8444.5000  0.0000  9.6200  12.3789  72.0894  97.0259  2.5728   2.5490 2.9220  3.6035   17.9287   8.9680   23.7616  12.0938  23.9670  14.3158 72.7674 72.4479  17.5600 26.9285 1.2146 1.2519
    8445.0000  0.0000 12.7100  12.7001  75.6352 109.0098  2.5596   2.5466 2.8981  3.5100   17.3917   8.7190   23.5357  11.7152  22.4620  13.9780 72.6347 73.0313  17.8600 26.4310 1.1758 1.2401
    8445.5000  0.0000 13.4100  12.6622  76.3059 107.1233  2.5652   2.5469 2.8774  3.3034   13.4062   8.5798   25.2476  11.4783  24.0370  13.7370 72.2506 73.1853  18.0600 25.3295 1.1304 1.2262
    8446.0000  0.0000 13.0100  11.6907  65.1310  94.9494  2.5923   2.5540 2.9030  3.3098   17.5520   9.1072   25.1449  12.2622  23.1053  14.4584 71.4805 72.2062  17.6100 24.4517 1.1047 1.2215
    8446.5000  0.0000 11.7400  10.8131  59.7881  78.9292  2.6118   2.5603 2.9165  3.5026   17.1261   9.9272   27.0961  13.5017  24.3550  15.5821 70.2709 71.1921  16.9000 23.7312 1.0913 1.2229
    8447.0000  0.0000 10.8000  10.3442  64.9550  70.0006  2.6073   2.5637 2.8790  3.6038   16.3033  10.0212   27.9571  13.5182  25.9313  15.4158 68.6967 70.5797  16.3800 23.2367 1.0804 1.2277
    8447.5000  0.0000 10.5600  10.1321  65.4971  69.4405  2.5978   2.5653 2.8998  3.5127   20.0082  10.6011   27.8113  14.4316  25.7177  16.2538 67.2453 70.1659  16.0500 22.6623 1.0700 1.2377
    8448.0000  0.0000 10.6100   9.9621  62.3878  69.1059  2.5985   2.5665 2.9409  3.3620   35.4904  11.3361   27.9342  15.6572  26.3708  17.4408 66.0664 69.7703  15.7600 22.0838 1.0556 1.2465
    8448.5000  0.0000  9.7500  10.0964  65.4844  68.7692  2.6076   2.5655 2.9644  3.2515   29.4463  11.9332   32.0449  16.6777  30.2370  18.4291 65.0284 69.7582  15.6700 21.3235 1.0370 1.2570
    8449.0000  0.0000  8.9300   9.7220  59.4738  67.8378  2.6154   2.5682 3.0029  3.1452   21.5588  12.9600   36.7610  18.4185  36.3707  20.0763 64.0458 69.2031  15.4000 20.2555 1.0091 1.2592
    8449.5000  0.0000  8.3200   8.7714  47.4329  62.3283  2.6138   2.5751 3.0236  3.0819   19.1923  14.2723   42.5378  20.5742  44.0074  21.9967 63.1657 68.1977  14.7800 19.1619 0.9692 1.2459
    8450.0000  0.0000  7.7600   7.9401  47.2985  57.7739  2.6128   2.5811 2.9569  3.1181   27.0951  14.8075   48.2369  21.2257  50.4322  22.3583 62.1782 67.8437  14.3900 17.9832 0.9180 1.2173
    8450.5000  0.0000  6.9800   6.8745  44.3773  57.3293  2.6163   2.5888 2.9778  3.2020   22.2432  15.2254   57.6109  21.5476  66.0234  22.3123 60.9062 67.1558  13.9800 17.2128 0.8777 1.1792
    8451.0000  0.9090  6.2700   6.0161  42.2965  55.9392  2.6166   2.5950 3.1321  3.2982   31.4563  15.7735   71.7427  22.0706  83.1513  22.4217 59.5117 66.3461  13.4300 16.7244 0.8486 1.1494
    8451.5000  0.0000  5.5600   5.5663  47.5563  54.1239  2.6215   2.5982 3.1762  3.3577   34.9573  15.2834   91.1879  20.8821 109.1513  21.0094 58.4449 65.7590  12.9700 16.6372 0.8476 1.1373
    8452.0000  0.0000  5.0400   5.4038  53.9601  52.9367  2.6287   2.5993 3.1622  3.3966   26.4119  14.8242  115.5438  19.9252 127.6683  19.9476 57.9115 65.4676  12.7000 16.8503 0.8584 1.1394
    8452.5000  0.0000  4.4700   5.2767  53.1105  49.7098  2.6364   2.6002 3.1578  3.5330   22.6247  14.6110  101.7389  19.4889 125.4786  19.4410 57.8176 65.1656  12.4900 17.1215 0.8721 1.1481
