# Exported from Transform Software 5.2.0 on 21-Oct-2019 by user kathryn.gehrke
# DI Transform - A Product of Drillinginfo, Inc. - www.drillinginfo.com
#
~VERSION INFORMATION
 VERS.        2.0 : LAS ASCII STANDARD - VERSION 2.0
 WRAP.         NO : ONE LINE PER DEPTH STEP

~WELL INFORMATION
#MNEM.UNIT       DATA TYPE       INFORMATION
#---------       ---------       -----------
 STRT.ft                  30 : Start Depth
 STOP.ft                9000 : Stop Depth
 STEP.ft                 0.5 : Step Length
 NULL.               -999.25 : Null Value
 COMP.                       : Company
 WELL.  42109330470000_API14 : Well Name
 FLD.                        : Field Name
 LOC.                        : Well Location
 CNTY.                       : County
 STAT.                       : State or Province
 CTRY.                       : Country
 SRVC.                       : Service Company
 DATE.                       : Date
 API.         42109330470000 : Well Identifier

~CURVE INFORMATION
#MNEM.UNIT       API CODE       CURVE DESCRIPTION
#---------       --------       -----------------
 DEPT.ft        : <Measured Depth>
 DT.us/ft       : Sonic
 GR.gAPI        : Gamma Ray

~PARAMETER INFORMATION
#MNEM.UNIT       VALUE       DESCRIPTION
#---------       -----       -----------
 EKB.ft      3201 : Elevation above MSL

~A      DEPT          DT          GR
# ...
      1223.5    339.3222     18.6515
        1224    339.3222     17.6365
      1224.5    339.3222     17.0753
        1225    339.3222     21.6975
      1225.5    339.3222     23.2839
        1226    339.3222     18.4939
      1226.5    339.3222     16.2872
        1227    339.3222      16.778
      1227.5    339.3222     17.9603
        1228    339.3222     19.9308
      1228.5    339.3222     22.1639
        1229    339.3222     23.8716
      1229.5    339.3222     26.9906
        1230    339.3222     29.6514
      1230.5    339.3222     32.8689
        1231    339.3222     38.0251
      1231.5    339.3222     38.5179
        1232    339.3222     36.2848
      1232.5    339.3222     33.4272
        1233    339.3222     28.6983
      1233.5    339.3222     26.6957
        1234    339.3222     24.2634
      1234.5    339.3222     20.3906
        1235    339.3222     19.2082
      1235.5    339.3222     17.7632
        1236    339.3222     16.2872
      1236.5    339.3222     19.1154
        1237    339.3222     22.0055
      1237.5    339.3222     22.5919
        1238    339.3222     21.8039
      1238.5    339.3222     21.0158
        1239    339.3222     23.0579
      1239.5    339.3222     29.0414
        1240    339.3222     35.8723
      1240.5    339.3222     39.6091
        1241    339.3222     39.1996
      1241.5    339.3222     34.6307
        1242    339.3222     27.2001
      1242.5    339.3222     21.5977
        1243    339.3222     19.4676
      1243.5    339.3222     19.1769
        1244    339.3222     19.4119
      1244.5    339.3222     21.3824
        1245    339.3222     21.8583
      1245.5    339.3222     16.4997
        1246    339.3222     13.6602
      1246.5    339.3222     17.3895
        1247    339.3222     23.8262
      1247.5    339.3222     28.2137
        1248    339.3222     28.8967
      1248.5    339.3222     27.2665
        1249    339.3222     18.7795
      1249.5    339.3222     10.7154
        1250    339.3222      8.1436
      1250.5    339.3222     13.9294
        1251    339.3222     26.3342
      1251.5    339.3222     31.4169
        1252    339.3222     22.7625
      1252.5    339.3222     14.8077
        1253    339.3222     11.0333
      1253.5    339.3222     12.8247
        1254    339.3222     16.5028
      1254.5    339.3222     15.7618
        1255    339.3222     15.2364
      1255.5    339.3222     15.7618
        1256    339.3222     13.2258
      1256.5    339.3222       8.714
        1257    339.3222      8.1213
      1257.5    339.3222     11.7771
        1258    339.3222     16.4842
      1258.5    339.3222     20.7097
        1259    339.3222     23.1173
      1259.5    339.3222     24.5409
        1260    339.3222     26.7529
      1260.5    339.3222     26.1592
        1261    339.3222      22.654
      1261.5    339.3222     18.4297
        1262    339.3222     16.5499
      1262.5    339.3222     21.4609
        1263    339.3222     30.3934
      1263.5    339.3222     29.6124
        1264    339.3222     16.9682
      1264.5    339.3222      9.7583
        1265    339.3222     10.4698
      1265.5    339.3222     17.2627
        1266    339.3222     25.4071
      1266.5    339.3222     33.4386
        1267    339.3222     37.0221
      1267.5    339.3222     35.3508
        1268    339.3222     34.1684
      1268.5    339.3222      30.657
        1269    339.3222     23.6949
      1269.5    339.3222      21.918
        1270    339.3222     26.2187
      1270.5    339.3222     27.5832
        1271    339.3222     27.8127
      1271.5    339.3222     30.4401
        1272    339.3222     27.3852
      1272.5    339.3222     21.9512
        1273    339.3222     21.0158
      1273.5    339.3222      22.445
        1274    339.3222     23.1173
      1274.5    339.3222     23.1173
        1275    339.3222     24.6636
      1275.5    339.3222     27.9625
        1276    339.3222     24.7516
      1276.5    339.3222     19.5852
        1277    339.3222     18.6515
      1277.5    339.3222     21.2506
        1278    339.3222     27.7911
      1278.5    339.3222     33.2177
        1279    339.3222     31.5502
      1279.5    339.3222     30.0657
        1280    339.3222     34.6373
      1280.5    339.3222     38.8792
        1281    339.3222     33.1622
      1281.5    339.3222     27.0823
        1282    339.3222     28.0844
      1282.5    339.3222     30.9982
        1283    339.3222     29.9708
      1283.5    339.3222     27.9887
        1284    339.3222     27.8459
      1284.5    339.3222     27.7256
        1285    339.3222     25.4816
      1285.5    339.3222     29.2588
        1286    339.3222     34.1506
      1286.5    339.3222      28.796
        1287    339.3222     21.8239
      1287.5    339.3222     21.7842
        1288    339.3222     25.7251
      1288.5    339.3222     27.3205
        1289    339.3222     29.4037
      1289.5    339.3222     36.2162
        1290    339.3222     39.1599
      1290.5    339.3222      33.117
        1291    339.3222     29.1761
      1291.5    339.3222     28.1086
        1292    339.3222     29.9315
      1292.5    339.3222     31.7863
        1293    339.3222     32.0415
      1293.5    339.3222     33.7492
        1294    339.3222     33.9022
      1294.5    339.3222     27.7354
        1295    339.3222     23.9122
      1295.5    339.3222     24.6805
        1296    339.3222     27.3142
      1296.5    339.3222     27.7207
        1297    339.3222     25.7502
      1297.5    339.3222     25.7443
        1298    339.3222     26.7951
      1298.5    339.3222     25.4922
        1299    339.3222     20.7684
      1299.5    339.3222      16.297
        1300    339.3222     17.0612
      1300.5    339.3222     24.6756
        1301    339.3222     31.5194
      1301.5    339.3222     29.3029
        1302    339.3222     21.8155
      1302.5    339.3222     19.7023
        1303    339.3222     21.8004
      1303.5    339.3222     18.0045
        1304    339.3222     12.6186
      1304.5    339.3222      15.622
        1305    339.3222     22.8415
      1305.5    339.3222     29.1545
        1306    339.3222     29.9541
      1306.5    339.3222     23.5174
        1307    339.3222     20.7531
      1307.5    339.3222     23.1141
        1308    339.3222     21.2827
      1308.5    339.3222     16.5523
        1309    339.3222     18.1241
      1309.5    339.3222     23.6412
        1310    339.3222     27.8453
      1310.5    339.3222     29.1594
        1311    339.3222      28.634
      1311.5    339.3222      26.401
        1312    339.3222     23.6425
      1312.5    339.3222     22.0665
        1313    339.3222     22.0665
      1313.5    339.3222     23.6444
        1314    339.3222     33.3688
      1314.5    339.3222      40.718
        1315    339.3222     34.6701
      1315.5    339.3222     28.7637
        1316    339.3222     28.8967
      1316.5    339.3222      28.634
        1317    339.3222     26.7928
      1317.5    339.3222      26.007
        1318    339.3222     25.4762
      1318.5    339.3222      20.613
        1319    339.3222     16.5468
      1319.5    339.3222     14.8391
        1320    339.3222     14.4483
      1320.5    339.3222      14.711
        1321    339.3222     15.7618
      1321.5    339.3222      19.846
        1322    339.3222     26.5497
      1322.5    339.3222     30.6087
        1323    339.3222     26.2507
      1323.5    339.3222     20.0914
        1324    339.3222     21.2939
      1324.5    338.7452     25.3556
        1325    339.3222     23.8943
      1325.5    339.3222      19.428
        1326    339.3222     14.6991
      1326.5    339.3222     14.0605
        1327    339.3222     17.8826
      1327.5    339.3222     20.6283
        1328    339.3222     24.1885
      1328.5    339.3222      32.091
        1329    339.3222     38.8792
      1329.5    339.3222     34.5224
        1330    339.3222     32.3117
      1330.5    339.3222     32.5744
        1331    339.3222     27.8298
      1331.5    339.3222     23.6263
