# Exported from Transform Software 5.2.0 on 30-Oct-2019 by user kathryn.gehrke
# DI Transform - A Product of Drillinginfo, Inc. - www.drillinginfo.com
#
~VERSION INFORMATION
 VERS.        2.0 : LAS ASCII STANDARD - VERSION 2.0
 WRAP.         NO : ONE LINE PER DEPTH STEP

~WELL INFORMATION
#MNEM.UNIT       DATA TYPE       INFORMATION
#---------       ---------       -----------
 STRT.ft                  40 : Start Depth
 STOP.ft                9358 : Stop Depth
 STEP.ft                 0.5 : Step Length
 NULL.               -999.25 : Null Value
 COMP.                       : Company
 WELL.  42109330610000_API14 : Well Name
 FLD.                        : Field Name
 LOC.                        : Well Location
 CNTY.                       : County
 STAT.                       : State or Province
 CTRY.                       : Country
 SRVC.                       : Service Company
 DATE.                       : Date
 API.         42109330610000 : Well Identifier

~CURVE INFORMATION
#MNEM.UNIT       API CODE       CURVE DESCRIPTION
#---------       --------       -----------------
 DEPT.ft        : <Measured Depth>
 DT.us/ft       : Sonic
 GR.gAPI        : Gamma Ray

~PARAMETER INFORMATION
#MNEM.UNIT       VALUE       DESCRIPTION
#---------       -----       -----------
 EKB.ft      3200.5 : Elevation above MSL

~A      DEPT          DT          GR
# ...
         691     247.495     22.1242
       691.5     247.495     21.4028
         692     247.495     18.8081
       692.5     247.495      15.665
         693     247.495     13.2433
       693.5     247.495     14.1546
         694    245.9432     15.3739
       694.5    245.0902     16.0953
         695    245.0902     17.5213
       695.5    244.3401     20.1835
         696    244.2886     20.2004
       696.5    244.2886     19.2554
         697    244.2886     18.0361
       697.5    244.2886      19.462
         698    244.2886      19.496
       698.5    244.2886     17.6232
         699    244.2886     14.9439
       699.5    244.2886     14.9098
         700    244.2886     15.8717
       700.5    244.2886      17.521
         701    244.2886     19.2385
       701.5    244.2886     18.5512
         702    244.2886     16.3698
       702.5    244.2886     16.3356
         703    244.2886     19.9257
       703.5    244.2886     21.8838
         704    244.2886     20.4924
       704.5    244.2886     17.3661
         705    244.2886     16.8337
       705.5    244.2886     18.0189
         706    244.2886     17.8128
       706.5    244.2886     15.6485
         707    244.2886     15.3735
       707.5    244.2886     17.7611
         708    244.2886     18.7403
       708.5    244.2886     16.8682
         709    244.2886     15.4081
       709.5    244.2886     16.5586
         710    244.2886     17.3146
       710.5    244.2886     16.3527
         711    244.2886     16.1122
       711.5    244.2886     16.1122
         712    244.2886     16.1122
       712.5    244.2886     16.5584
         713    244.2886     18.7401
       713.5    244.2886      18.294
         714    244.2886     16.1471
       714.5    244.2886     16.0948
         715    244.2886     18.0012
       715.5    244.2886     19.4615
         716    244.2886     19.9599
       716.5    244.2886      19.479
         717    244.2886      18.998
       717.5    244.2886     19.6844
         718    244.2886      19.479
       718.5    244.2886     19.2385
         719    244.2886      18.517
       719.5    244.2886      18.998
         720    244.2886     18.5522
       720.5    244.2886     16.8688
         721    244.2886     17.2618
       721.5    244.2886     19.4613
         722    244.2886     19.9775
       722.5    244.2886     20.4232
         723    244.2886     21.8661
       723.5    244.2886     22.8457
         724    244.2886     22.3824
       724.5    244.2886     20.4763
         725    244.2886     18.0715
       725.5    244.2886     18.4816
         726    244.2886     21.6256
       726.5    244.2886     20.5118
         727    244.2886      15.925
       727.5    244.2886     14.4289
         728    244.2886     17.0208
       728.5    244.2886     19.2207
         729    244.2886     19.2563
       729.5    244.2886     18.0361
         730    244.2886     16.3527
       730.5    244.2886     18.4813
         731    244.2886      20.423
       731.5    244.2886     19.2742
         732    244.2886     16.3527
       732.5    244.2886     15.8896
         733    245.0902     16.1122
       733.5    245.8918     15.8897
         734    246.6934     15.4087
       734.5    246.6934     14.4289
         735    246.6934     15.5774
       735.5    246.6934     17.2607
         736    245.8918      19.479
       736.5    245.0902     17.1641
         737    244.2886     17.0381
       737.5    244.2886     20.8678
         738    244.2886     22.8457
       738.5    244.2886     18.3849
         739    244.2886     17.3146
       739.5    244.2886     19.4428
         740    244.2886     20.9218
       740.5    244.2886     19.5514
         741    244.2886      18.517
       741.5    244.2886      18.517
         742    244.2886     17.3509
       742.5    244.2886     15.1503
         743    244.2886     13.7256
       743.5    244.2886     13.2265
         744    244.2886     14.4107
       744.5    244.2886     18.2219
         745    244.2886     20.4227
       745.5    244.2886     20.2004
         746    244.2886     20.2004
       746.5    244.2886     19.9599
         747    244.2886     19.7194
       747.5    244.2886     19.9599
         748    244.2886     19.4973
       748.5    244.2886     18.7758
         749    244.2886     18.2766
       749.5    244.2886     18.0361
         750    244.2886     18.4987
       750.5    244.2886     18.2766
         751    244.2886     17.3146
       751.5    244.2886     16.6116
         752    244.2886     15.1687
       752.5    244.2886      16.057
         753    244.2886     20.4225
       753.5    244.2886     21.8838
         754    244.2886     21.8838
       754.5    244.2886     22.3647
         755    244.2886     21.4213
       755.5    244.2886     20.9034
         756    244.2886     22.5682
       756.5    244.2886     22.6422
         757    244.2886      20.515
       757.5    244.2886      19.257
         758    244.2886     19.4604
       758.5    244.2886     19.7194
         759    244.2886     19.4975
       759.5    244.2886     17.5737
         760    244.2886     16.6118
       760.5    244.2886      17.777
         761    244.2886     20.8846
       761.5    244.2886     21.8838
         762    244.2886     21.4028
       762.5    244.2886      21.181
         763    244.2886     20.4782
       763.5    244.2886     18.5357
         764    244.2886     17.3146
       764.5    244.2886     17.3146
         765    244.2886     17.7956
       765.5    244.2886     18.7575
         766    244.2886      18.998
       766.5    244.2886      18.998
         767    244.2886     17.8144
       767.5    244.2886     15.6877
         768    244.2886     14.9098
       768.5    244.2886     15.6124
         769    244.2886     16.8148
       769.5    244.2886     17.3146
         770    244.2886     17.1119
       770.5    244.2886     15.2069
         771    244.2886     14.1884
       771.5    244.2886     14.8909
         772    244.2886     15.6313
       772.5    244.2886     15.3908
         773    244.2886     16.2959
       773.5    244.2886     18.7007
         774    244.2886      19.479
       774.5    244.2886     17.5741
         775    244.2886     15.1693
       775.5    245.0317     15.6123
         776    245.0902     18.2385
       776.5    247.4364     20.8838
         777     247.495     21.2004
       777.5     247.495     17.6313
         778     247.495     13.7265
       778.5     247.495     15.2954
         779     247.495     18.2575
       779.5    245.9506     18.0552
         780    245.1491     15.6504
       780.5    245.0902     15.1503
         781    245.0902     14.6885
       781.5    244.3476     14.1884
         782    244.2886     15.1311
       782.5    244.2886      17.055
         783    244.2886     17.3146
       783.5    244.2886     17.2954
         784    244.2886     18.7383
       784.5    244.2886     19.0365
         785    244.2886     15.2081
       785.5    244.2886     14.6501
         786    244.2886     16.0929
       786.5    244.2886     15.6313
         787    244.2886     15.6313
       787.5    244.2886     17.2953
         788    244.2886     17.7956
       788.5    244.2886     18.4977
         789    245.0902     18.0748
       789.5    245.0902     16.3721
         790    245.0902     14.6887
       790.5    245.0902     15.3714
         791    245.0902     15.8717
       791.5    245.0902     15.6313
         792    245.0902     16.3333
       792.5    245.0902     18.4781
         793    245.0902      17.594
       793.5    245.0902     14.7083
         794    245.0902     14.6693
       794.5    245.0902     16.0927
         795    245.0902     18.0166
       795.5    245.0902     18.9785
         796    244.3488     19.2385
       796.5    244.2886     18.0556
         797    244.2886     18.0361
       797.5    244.2886     17.1133
         798    244.2886     16.3527
       798.5    244.2886     17.5159
         799    244.2886     17.8152
