~VERSION INFORMATION
VERS.           1.2   :CWLS Log ASCII Standard - VERSION 1.2
WRAP.           NO    :One Line per depth step
PROD.  Schlumberger   :LAS Producer
PROG.  DLIS to ASCII 10C0-306                          :LAS Program name and version
CREA.        2007/06/08 22:43                          :LAS Creation date {YYYY/MM/DD hh:mm}
SOURCE.     294b92a6-1e54-4f75-8d20-4493e48002f1       :DLIS File Name
#--------------------------------------------------
~WELL INFORMATION
#MNEM.UNIT      DATA             DESCRIPTION
#---- ------ --------------   -----------------------------
STRT .F      4145.5000       :START DEPTH     
STOP .F      10380.0000      :STOP DEPTH     
STEP .F       0.5000         :STEP       
NULL .          -999.25      :NULL VALUE
COMP .                 COMPANY:  Chesapeake Operating Inc.          
WELL .                    WELL:  University Lands 4627-1            
FLD  .                   FIELD:  Wildcat                            
LOC  .                LOCATION:  1200' FNL & 1995; FEL              
CNTY .                  COUNTY:  Culberson                          
STAT .                   STATE:  Texas                              
CTRY .                 COUNTRY:                                     
SRVC .         SERVICE COMPANY:  Schlumberger                       
API  .              API NUMBER:  42-109-32287                       
DATE .                LOG DATE:  7-Jun-2007
UWI  .          UNIQUE WELL ID:  42-109-32287-0000                  
#-----------------------------------------------------------------------------
~PARAMETER INFORMATION
#MNEM.UNIT    VALUE                      DESCRIPTION
#---- -----   --------------------       ------------------------
CN   .        Chesapeake Operating Inc.  :Company Name
WN   .        University Lands 4627-1    :Well Name
FN   .        Wildcat                    :Field Name
FL   .        1200' FNL & 1995  FEL      :Field Location
FL1  .        Secion  27  Block  46  Abstract  2860 :Field Location Line 1
COUN .        Culberson                  :County or Rig Name
STAT .        Texas                      :State or Province
NATI .                                   :Nation
DATE .        7-Jun-2007                 :Date as Month-Day-Year
APIN .        42-109-32287               :API Serial Number
SECT .        27                         :Section
TOWN .        46                         :Township
RANG .        2860                       :Range
DMF  .        Kelly Bushing              :Drilling Measured From
LMF  .        Kelly Bushing              :Log Measured From
PDAT .        Ground Level               :Permanent Datum
ENGI .        Tarek Sheira               :Engineer's Name
WITN .        Wiley Tisdale /Jud Walker  :Witness's Name
LATI .                                   :Latitude
LONG .                                   :Longitude
LUL  .        Midland  TX                :Logging Unit Location
LUN  .              2365                 :Logging Unit Number
RUN  .        2                          :Run Number
SON  .        11592406                   :Service Order Number
BHT  .DEGF     185.00000                 :Bottom Hole Temperature (used in calculations)
BS   .IN         8.75000                 :Bit Size
DFD  .LB/G       8.60000                 :Drilling Fluid Density
DFV  .S         39.00000                 :Drilling Fluid Viscosity
DFL  .C3         8.00000                 :Drilling Fluid Loss
RMFS .OHMM       0.42100                 :Resistivity of Mud Filtrate Sample
EKB  .F       4323.00000                 :Elevation of Kelly Bushing
EGL  .F       4283.00000                 :Elevation of Ground Level
BLI  .F       10360.70020                :Bottom Log Interval
BSAL .PPM      500.00000                 :Borehole Salinity
FLEV .                                   :Fluid Level
MCST .                                   :Mud Cake Sample Temperature
MFST .DEGF      96.90000                 :Mud Filtrate Sample Temperature
MRT  .DEGF     185.00000                 :Maximum Recorded Temperature
MST  .DEGF      96.90000                 :Mud Sample Temperature
RMCS .                                   :Resistivity of Mud Cake Sample
RMS  .OHMM       0.42100                 :Resistivity of Mud Sample
RW   .OHMM       1.00000                 :Resistivity of Connate Water
TDD  .F       10350.00000                :Total Depth - Driller
TDL  .F       10362.00000                :Total Depth - Logger
TLI  .F       4200.00000                 :Top Log Interval
HIDE .        Formation Micro Imager     :Header Identifier
MATR .        LIME                       :Rock Matrix for Neutron Porosity Corrections
FNUM .           1.00000                 :Form Factor Numerator
FEXP .           2.00000                 :Form Factor Exponent
DFT  .        Fresh Mud                  :Drilling Fluid Type
DFPH .           9.00000                 :Drilling Fluid PH
MCSS .        Calculated                 :Mud Cake Sample Source
MFSS .        Calculated                 :Mud Filtrate Sample Source
MSS  .        Circulation Tank           :Mud Sample Source
OS1  .        TLD-APS-HNGS               :Other Services Line 1
OS2  .        HRLA-HNGS                  :Other Services Line 2
OS3  .        FMI-GR                     :Other Services Line 3
OS4  .        DSI-GR                     :Other Services Line 4
OS5  .        HNGS                       :Other Services Line 5
R1   .        -Tool ran as per tool sketch. :Remark Line 1
R2   .        -Hole size & standoff corrections applied to APS porosity. :Remark Line 2
R3   .        -Log performed on a limestone matrix (MDEN = 2.71 g/cc  DTM = 47.6 us/ft) :Remark Line 3
R4   .        -Hole & cement volumes computed using FCD = 7 . :Remark Line 4
R5   .        -Source of max. hole temperature is CTEM = 185 DegF. :Remark Line 5
R6   .        -Source of max. hole deviation is company man = 3 Deg. :Remark Line 6
R7   .        -Repeat performed off bottom for 300' as per client request. :Remark Line 7
R8   .        -Density measurment is affected by washouts. :Remark Line 8
TCS  .        9 00                       :Time Circulation Stopped
TLAB .        22 15                      :Time Logger At Bottom
EPD  .F         4283.000000              :Elevation of Permanent Datum above Mean Sea Level
APD  .F          40.000000               :Elevation of Depth Reference (LMF) above Permanent Datum
#-----------------------------------------------------------------------------
~CURVE INFORMATION
#MNEM.UNIT   API CODE                                  DESCRIPTION
#---- -----  --------                                  -----------------------
DEPT .F                                                :DEPTH (BOREHOLE) {F12.4}
C1   .IN                                               :Caliper 1 {F11.4}
C2   .IN                                               :Caliper 2 {F11.4}
CHRP .                                                 :Label Peak Coherence, Receiver Array, Compressional - Monopole P&S {F11.4}
CHR1 .                                                 :Label Peak Coherence, Receiver Array - Lower Dipole {F11.4}
CHR2 .                                                 :Label Peak Coherence, Receiver Array - Upper Dipole {F11.4}
DCAL .IN                                               :Differential Caliper {F11.4}
DEVI .DEG                                              :Hole Deviation {F11.4}
DT1R .US/F                                             :Delta-T Shear, Receiver Array - Lower Dipole {F11.4}
DT2  .US/F                                             :Delta-T Shear - Upper Dipole {F11.4}
DT2R .US/F                                             :Delta-T Shear, Receiver Array - Upper Dipole {F11.4}
DT4P .US/F                                             :Delta-T Compressional - Monopole P&S {F11.4}
DT4S .US/F                                             :Delta-T Shear - Monopole P&S {F11.4}
DTCO .US/F                                             :Delta-T Compressional {F11.4}
DTRP .US/F                                             :Delta-T Compressional, Receiver Array - Monopole P&S {F11.4}
DTRS .US/F                                             :Delta-T Shear, Receiver Array - Monopole P&S {F11.4}
DTSM .US/F                                             :Delta-T Shear {F11.4}
ED   .F                                                :East Departure {F11.4}
GR_EDTC.GAPI                                           :Gamma Ray {F11.4}
GTEM .DEGF                                             :Generalized Borehole Temperature {F11.4}
HAZI .DEG                                              :Hole Azimuth {F11.4}
ITT  .S                                                :Integrated Transit Time {F11.4}
ND   .F                                                :North Departure {F11.4}
P1AZ .DEG                                              :Pad 1 Azimuth {F11.4}
PR   .                                                 :Poisson's Ratio {F11.4}
RB   .DEG                                              :Relative Bearing {F11.4}
SDEV .DEG                                              :Sonde Deviation {F11.4}
SPHI .CFCF                                             :Sonic Porosity {F11.4}
STIT .F                                                :Stuck Tool Indicator, Total {F11.4}
TENS .LBF                                              :Cable Tension {F11.4}
#-----------------------------------------------------------------------------
# 
#      DEPT         C1         C2        CHRP       CHR1       CHR2       DCAL       DEVI       DT1R       DT2        DT2R       DT4P       DT4S       DTCO       DTRP       DTRS       DTSM        ED      GR_EDTC      GTEM       HAZI       ITT         ND        P1AZ        PR         RB        SDEV       SPHI       STIT       TENS
#
~A  
# ...
   4558.0000     8.7787     8.8769     0.5540     0.9308     0.9452     0.0777     2.7983   114.5113   100.4340   107.9999    68.5539   112.0515    68.5539    68.5539   112.0515   100.4340   304.0058    99.4882   135.1491   257.0847     0.3981    20.5600   323.6466     0.0638    66.5371     2.7983     0.1482     0.0000  2643.0000
   4558.5000     8.7787     8.8769     0.6020     0.9111     0.8337     0.0777     2.8041   112.0007   104.2057   115.7425    69.2433   112.3687    69.2433    69.2433   112.3687   104.2057   303.9815    95.9767   135.1534   257.0591     0.3981    20.5545   317.3572     0.1047    60.2683     2.8041     0.1531     0.0000  2633.0000
   4559.0000     8.7787     8.8769     0.4729     0.8385     0.8563     0.0777     2.8096   107.9931   101.8239   107.7083    69.3839   111.0981    69.3839    69.3839   111.0981   101.8239   303.9573    86.8721   135.1577   257.0394     0.3981    20.5491   311.8603     0.0666    54.7883     2.8096     0.1541     0.0000  2666.0000
   4559.5000     8.7787     8.8769     0.4667     0.7791     0.9313     0.0777     2.8148   116.9734   105.4599   109.7661    66.0530   108.9029    66.0530    66.0530   108.9029   105.4599   303.9330    87.7886   135.1620   257.0258     0.3980    20.5437   306.0621     0.1772    49.0023     2.8148     0.1305     0.0000  2659.0000
   4560.0000     8.7787     8.8769     0.4205     0.5714     0.8201     0.0777     2.8189   200.8820    97.9955    92.6873    65.6206   108.2143    65.6206    65.6206   108.2143    97.9955   303.9088    81.5455   135.1662   257.0271     0.3980    20.5382   300.2856     0.0935    43.2240     2.8189     0.1274     0.0000  2678.0000
   4560.5000     8.7787     8.8769     0.3617     0.6457     0.4179     0.0777     2.8232   221.1147   101.4633    97.1144    66.5708   107.3379    66.5708    66.5708   107.3379   101.4633   303.8846    86.6147   135.1705   257.0324     0.3980    20.5328   295.8622     0.1221    38.7959     2.8232     0.1342     0.0000  2656.0000
   4561.0000     8.6783     8.8277     0.4300     0.4787     0.8033     0.0027     2.8276   195.1714   101.5153    96.0026    68.4481   106.1676    68.4481    68.4481   106.1676   101.5153   303.8605    85.0200   135.1748   257.0335     0.3979    20.5274   290.8906     0.0832    33.8246     2.8276     0.1474     0.0000  2648.0000
   4561.5000     8.6908     8.8277     0.4348     0.6728     0.8011     0.0090     2.8304   219.9348   110.6705   113.0641    66.8611   106.1791    66.8611    66.8611   106.1791   110.6705   303.8363    86.0751   135.1791   257.0404     0.3979    20.5220   285.8696     0.2126    28.7996     2.8304     0.1362     0.0000  2736.0000
   4562.0000     8.7285     8.8277     0.5783     0.5714     0.8011     0.0280     2.8338   213.5934   110.4088   113.0641    64.2983   106.3169    64.2983    64.2983   106.3169   110.4088   303.8122    84.1255   135.1834   257.0490     0.3979    20.5167   279.2744     0.2434    22.2010     2.8338     0.1181     0.0000  2844.0000
   4562.5000     8.7034     8.8277     0.6812     0.7204     0.8582     0.0153     2.8373   202.8918   106.6733   104.6682    63.2132   106.3904    63.2132    63.2132   106.3904   106.6733   303.7881    82.8401   135.1877   257.0494     0.3978    20.5113   270.3307     0.2294    13.2656     2.8373     0.1104     0.0000  2622.0000
   4563.0000     8.7411     8.8277     0.6718     0.6345     0.7128     0.0343     2.8408   203.4887   112.9608   118.0034    63.8435   106.4158    63.8435    63.8435   106.4158   112.9608   303.7640    79.8415   135.1920   257.0737     0.3978    20.5060   263.1052     0.2653     6.0240     2.8408     0.1149     0.0000  2682.0000
   4563.5000     8.7536     8.8277     0.5549     0.6825     0.7659     0.0406     2.8425   195.7460   109.7336   110.2586    63.0417   107.5029    63.0417    63.0417   107.5029   109.7336   303.7400    85.4594   135.1963   257.0884     0.3978    20.5007   257.2601     0.2537     0.1713     2.8425     0.1092     0.0000  2660.0000
   4564.0000     8.7034     8.8277     0.5569     0.8525     0.9350     0.0153     2.8450   104.6212   107.0464   101.6645    61.6100   107.1043    61.6100    61.6100   107.1043   107.0464   303.7160    83.2560   135.2006   257.1215     0.3978    20.4954   251.9135     0.2523   354.7986     2.8450     0.0991     0.0000  2687.0000
   4564.5000     8.7034     8.8277     0.4800     0.8846     0.9035     0.0153     2.8486   110.5440   107.4931   104.2945    63.5510   107.3731    63.5510    63.5510   107.3731   107.4931   303.6920    86.0713   135.2049   257.1509     0.3977    20.4901   247.0464     0.2313   349.9076     2.8486     0.1128     0.0000  2519.0000
   4565.0000     8.7285     8.8277     0.5140     0.9586     0.9468     0.0280     2.8500   111.3077   108.4861   108.1306    68.1966   107.6034    68.1966    68.1966   107.6034   108.4861   303.6680    77.2576   135.2092   257.1564     0.3977    20.4848   242.1051     0.1733   344.9665     2.8500     0.1457     0.0000  2416.0000
   4565.5000     8.6783     8.8277     0.8184     0.9604     0.9575     0.0027     2.8521   109.5809   105.8929   107.2688    67.1590   107.8019    67.1590    67.1590   107.8019   105.8929   303.6440    75.1925   135.2135   257.2001     0.3977    20.4796   237.3361     0.1636   340.1588     2.8521     0.1383     0.0000  2662.0000
   4566.0000     8.6783     8.8277     0.7061     0.9544     0.9545     0.0027     2.8536   112.0979   112.9014   106.8425    67.1255   108.4306    67.1255    67.1255   108.4306   112.9014   303.6201    74.5697   135.2178   257.2163     0.3976    20.4745   232.8246     0.2266   335.6349     2.8536     0.1381     0.0000  2626.0000
   4566.5000     8.6783     8.8277     0.6777     0.6723     0.2638     0.0027     2.8538   178.0505   180.5841   238.1067   107.4484   173.5660   107.4484   107.4484   173.5660   180.5841   303.5962    76.5449   135.2221   257.2808     0.3976    20.4693   228.0183     0.2260   330.7677     2.8538     0.4233     0.0000  2611.0000
   4567.0000     8.6783     8.8277     0.7696     0.0000     0.2558     0.0027     2.8546   213.1281   199.5731   252.7258   105.3941   170.2476   105.3941   105.3941   170.2476   199.5731   303.5722    75.6442   135.2264   257.3144     0.3975    20.4642   223.5917     0.3066   326.3102     2.8546     0.4087     0.0000  2656.0000
   4567.5000     8.6908     8.8277     0.7926     0.0000     0.2558     0.0090     2.8544   248.2056   199.0420   252.7258   108.1965   174.7744   108.1965   108.1965   174.7744   199.0420   303.5483    75.3505   135.2307   257.3307     0.3975    20.4592   219.2248     0.2903   321.9286     2.8544     0.4285     0.0000  2633.0000
   4568.0000     8.7034     8.8277     0.8627     0.4670     0.2558     0.0153     2.8550   236.2986   199.0420   252.7258   108.0588   174.5521   108.0588   108.0588   174.5521   199.0420   303.5244    78.5670   135.2350   257.3524     0.3974    20.4542   215.1059     0.2910   317.7890     2.8550     0.4276     0.0000  2647.0000
   4568.5000     8.6783     8.8277     0.8900     0.4782     0.2565     0.0027     2.8545   233.7551   194.7938   249.7378   107.3547   173.4147   107.3547   107.3547   173.4147   194.7938   303.5005    81.8505   135.2393   257.3475     0.3974    20.4492   211.2600     0.2819   313.9483     2.8545     0.4226     0.0000  2665.0000
   4569.0000     8.6783     8.8277     0.9102     0.6281     0.2798     0.0027     2.8536   219.9042   196.3745   244.9884   106.8067   172.5295   106.8067   106.8067   172.5295   196.3745   303.4765    81.1214   135.2435   257.3531     0.3973    20.4442   207.3067     0.2900   309.9884     2.8536     0.4187     0.0000  2613.0000
   4569.5000     8.6783     8.8277     0.8947     0.0000     0.2798     0.0027     2.8527   230.2758   197.2980   244.9884   105.3499   170.1763   105.3499   105.3499   170.1763   197.2980   303.4526    72.9919   135.2478   257.3565     0.3973    20.4393   203.3785     0.3006   306.0558     2.8527     0.4084     0.0000  2660.0000
   4570.0000     8.6783     8.8769     0.8587     0.0000     0.3123     0.0270     2.8513   226.7964   203.8387   249.3127   109.1667   176.3417   109.1667   109.1667   176.3417   203.8387   303.4287    73.3585   135.2521   257.3468     0.3972    20.4344   199.3698     0.2989   302.0550     2.8513     0.4354     0.0000  2610.0000
