~VERSION INFORMATION
VERS. 2.0 : CWLS Log ASCII Standard - Version 2.0
WRAP. NO : One line per depth step
#--------------------------------------------------#
#----------------DRILLING INFO, INC.---------------#
#---------------WWW.DRILLINGINFO.COM---------------#
#------------------COPYRIGHT 2015------------------#
#--------------------------------------------------#
#THIS FILE MAY BE USED ONLY IN ACCORDANCE WITH A CURRENT SUBSCRIPTION AGREEMENT BETWEEN
#THE USER AND DRILLING INFO, INC. NO PART OF THIS FILE MAY BE REPRODUCED, USED, COPIED,
#MODIFIED, PROPAGATED, OR DISTRIBUTED EXCEPT IN ACCORDANCE WITH THE SUBSCRIPTION
#AGREEMENT. UNAUTHORIZED USE OR DISTRIBUTION OF ALL OR ANY PART OF THIS FILE MAY VIOLATE
#COPYRIGHT, TRADEMARK, AND/OR OTHER LAWS AND IS SUBJECT TO CIVIL AS WELL AS CRIMINAL
#SANCTIONS.
#--------------------------------------------------#
#THIS FILE IS PROVIDED "AS-IS" AND ALL WARRANTIES ARE EXPRESSLY DISCLAIMED, WHETHER
#EXPRESS, ORAL, IMPLIED, STATUTORY OR OTHERWISE, INCLUDING ANY IMPLIED WARRANTY OF FITNESS
#FOR A PARTICULAR PURPOSE, MERCHANTABILITY, TITLE OR NON-INFRINGEMENT, AND ANY WARRANTIES
#ARISING BY VIRTUE OF CUSTOM OF TRADE OR COURSE OF DEALING.  FURTHER, DRILLING INFO,
#INC. AND ITS LICENSORS DO NOT REPRESENT OR WARRANT THAT THIS FILE WILL MEET USER'S
#REQUIREMENTS OR ARE SUITABLE FOR USER'S NEEDS OR THAT THE DATA OR RESULTS PROVIDED IN
#CONJUNCTION THEREWITH ARE CORRECT, ACCURATE, TIMELY OR RELIABLE. THESE DISCLAIMERS SHALL
#APPLY REGARDLESS OF ANY FAILURE OF ESSENTIAL PURPOSE OF ANY LIMITED REMEDY.  SOME
#JURISDICTIONS DO NOT ALLOW THE EXCLUSION OF CERTAIN WARRANTIES SO SOME OF THE ABOVE
#EXCLUSIONS MAY NOT APPLY. IN NO EVENT SHALL DRILLING INFO, INC. OR ANY OF ITS AFFILIATES
#BE LIABLE UNDER ANY LEGAL THEORY, WHETHER IN TORT (INCLUDING WITHOUT LIMITATION
#NEGLIGENCE), CONTRACT, STRICT LIABILITY, STATUTORY OR OTHERWISE, FOR ANY SPECIAL,
#INCIDENTAL, CONSEQUENTIAL, EXEMPLARY, PUNITIVE OR INDIRECT DAMAGE OF ANY KIND, INCLUDING
#WITHOUT LIMITATION LOSS OF REVENUE, PROFITS, GOODWILL, USE, AND/OR DATA OR THE COST OF
#PROCUREMENT OF SUBSTITUTE GOODS OR SERVICES, EVEN IF APPRISED OF THE POSSIBILITY OF SUCH
#DAMAGES IN ADVANCE.
#--------------------------------------------------#
~WELL INFORMATION
#MNEMONIC     .UNIT              VALUE :DESCRIPTION
#--------------------------------------------------#
STRT       .ft                52.00000 :START DEPTH
STOP       .ft                8797.00000 :STOP DEPTH
STEP       .ft                0.50000 :STEP
NULL       .                -999.25000 :NULL VALUE
COMP       .                 :COMPANY
WELL       .                 :WELL
FLD       .                 :FIELD
LOC       .                 :LOCATION
CNTY       .                 :COUNTY
STAT       .                 :STATE
CTRY       .                 :COUNTRY
SRVC       .                 :SERVICE COMPANY
DATE       .                 :DATE
API       .                42109700290000 :API NUMBER
~CURVE INFORMATION
#MNEMONIC     .UNIT      API CODE :CURVE DESCRIPTION
#--------------------------------------------------#
DEPTH       .ft                      :Measured Depth
DT       .us/ft        UNKNOWN   :DT
GR       .gAPI        UNKNOWN   :GR
ILD       .ohmm        UNKNOWN   :ILD
ILS       .ohmm        UNKNOWN   :ILS
SP       .mV        UNKNOWN   :SP
~A    DEPTH    DT    GR    ILD    ILS    SP
# ...
8164.00000    88.24306    77.55624    77.64815    96.02938    -60.74925
8164.50000    87.31763    77.51530    75.01602    96.11086    -60.19157
8165.00000    87.13603    77.47436    72.38390    96.31352    -59.63388
8165.50000    87.58154    77.43342    72.53340    96.62891    -59.07620
8166.00000    88.02704    77.39248    73.23803    96.94430    -58.51852
8166.50000    88.47254    77.35154    73.94267    97.25968    -57.96084
8167.00000    88.83018    77.31060    74.64731    97.57507    -57.40315
8167.50000    88.55352    76.55923    74.56183    97.38150    -56.84547
8168.00000    88.27687    75.40287    73.13226    96.97186    -56.28779
8168.50000    88.00021    74.24650    71.70270    96.56222    -55.73011
8169.00000    87.72356    73.09014    70.27313    95.88041    -55.17242
8169.50000    87.44691    71.93377    68.84357    94.69311    -54.61474
8170.00000    86.88448    70.77740    67.41400    93.50581    -54.05706
8170.50000    86.29224    70.66772    65.98444    92.31851    -53.49938
8171.00000    85.63196    70.71869    64.55487    91.13121    -52.94170
8171.50000    84.84928    70.73683    63.12531    90.50982    -52.38401
8172.00000    84.58953    70.43330    65.33186    90.50922    -51.82633
8172.50000    84.42346    70.12977    67.79084    90.50862    -51.26865
8173.00000    84.25738    69.82624    70.24982    90.50803    -50.71097
8173.50000    84.09131    71.65546    72.70880    91.47501    -50.15328
8174.00000    84.00963    73.95895    75.16778    92.74096    -49.59560
8174.50000    84.61601    78.05847    77.62676    94.00692    -49.03792
8175.00000    85.22239    83.07683    78.11989    95.27287    -48.48024
8175.50000    85.82877    86.57343    77.53867    96.53883    -47.92255
8176.00000    86.75661    85.67922    76.95746    97.80478    -47.36487
8176.50000    87.78987    84.78502    76.37624    98.28068    -46.80719
8177.00000    88.82313    83.05942    75.71808    98.01398    -46.51192
8177.50000    89.85640    81.21633    74.57061    97.63083    -46.56705
8178.00000    89.98211    79.37325    73.42315    96.77547    -46.62218
8178.50000    89.69452    77.53016    72.27568    95.92010    -46.67731
8179.00000    89.40694    75.68708    71.24325    95.06474    -46.73244
8179.50000    89.11468    73.84399    70.55198    94.20938    -46.78758
8180.00000    88.70187    72.90591    69.86071    93.38836    -46.84271
8180.50000    88.28907    72.93373    69.16944    93.21472    -46.89784
8181.00000    87.87627    72.96156    68.47817    93.04107    -46.95297
8181.50000    87.46346    72.98938    67.78689    92.86742    -47.00811
8182.00000    86.19447    73.01721    67.09562    92.69378    -47.06324
8182.50000    86.18818    73.98347    67.62006    92.52013    -47.11837
8183.00000    86.29098    76.41089    68.44300    92.34648    -47.17350
8183.50000    86.43704    78.83831    69.26595    92.17284    -47.22915
8184.00000    86.58309    81.26572    71.43803    93.86648    -47.44558
8184.50000    87.75184    83.69314    74.44832    95.59174    -47.66202
8185.00000    87.62777    84.23379    77.45861    97.31699    -47.87846
8185.50000    87.50369    83.78078    80.46889    99.04225    -48.09490
8186.00000    87.37962    83.32778    83.47917    104.25826    -48.31134
8186.50000    87.25554    82.87477    86.48946    106.07674    -48.52778
8187.00000    87.13147    82.42177    89.49974    107.89522    -48.74422
8187.50000    85.94656    81.93725    89.79016    109.71370    -48.96066
8188.00000    85.32742    79.24492    89.11206    111.53218    -49.17710
8188.50000    84.52164    76.55259    88.43396    113.35067    -49.39354
8189.00000    81.97690    74.96595    87.75586    115.16915    -49.60998
8189.50000    79.43215    67.14546    88.16652    112.99615    -49.82642
8190.00000    77.02247    63.23006    88.74136    107.55050    -50.04286
8190.50000    76.54605    62.21486    89.31621    102.10485    -50.25930
8191.00000    76.06962    62.17125    87.66168    99.66592    -50.47574
8191.50000    78.17228    62.12765    84.94415    99.12135    -50.69218
8192.00000    79.98512    63.12788    82.22663    98.57679    -50.90862
8192.50000    81.79795    65.16748    80.24838    98.31115    -50.66185
8193.00000    83.61079    67.20709    79.39168    98.05877    -50.40910
8193.50000    84.43495    69.24668    78.53497    97.80639    -50.15635
8194.00000    84.77050    71.28629    77.67826    97.55401    -49.90360
8194.50000    85.10606    74.42729    76.82155    97.06985    -49.65085
8195.00000    84.89672    79.52549    75.96484    94.90626    -49.39811
8195.50000    84.64623    77.92622    76.14651    92.74267    -49.14536
8196.00000    84.39575    76.32696    77.07369    90.77345    -48.89261
8196.50000    84.20877    74.66307    77.92195    90.63621    -48.63986
8197.00000    84.03906    72.71045    76.70802    90.49896    -48.38711
8197.50000    83.86936    70.75783    75.49409    91.71936    -48.13436
8198.00000    83.69965    70.23863    74.28016    93.14715    -48.00673
8198.50000    83.52995    70.30002    73.06624    94.57494    -48.09833
8199.00000    83.36024    70.23355    72.12113    95.04227    -48.18994
8199.50000    83.61940    69.97343    71.44307    94.76916    -48.28155
8200.00000    83.88452    69.71331    70.36973    94.49606    -48.37315
8200.50000    84.04569    69.50699    68.99505    94.22295    -48.46476
8201.00000    83.91335    69.67796    67.62037    93.99737    -48.55637
8201.50000    83.78101    69.84893    67.06660    94.20238    -48.64797
8202.00000    83.64866    70.01991    68.21287    94.40739    -48.73958
8202.50000    83.51632    70.19088    69.35914    94.85192    -48.83118
8203.00000    83.38398    69.66074    70.50541    96.82777    -48.92279
8203.50000    83.25163    69.11263    71.65169    98.80361    -49.01440
8204.00000    83.11929    68.56453    72.79796    103.95517    -49.10600
8204.50000    80.86960    68.01642    76.27562    105.39761    -49.19761
8205.00000    80.74831    67.46831    81.25210    106.84004    -49.28922
8205.50000    80.47258    66.92021    86.22859    108.28247    -49.38082
8206.00000    80.19686    66.37210    91.20508    109.72490    -49.75121
8206.50000    80.87677    65.82399    92.63014    111.16733    -50.95118
8207.00000    81.79412    66.28946    93.75112    112.60976    -52.15115
8207.50000    82.71148    66.80809    94.87210    109.85261    -53.35113
8208.00000    82.81442    67.32672    95.99307    106.66815    -54.55110
8208.50000    82.86344    67.84536    95.85800    103.48369    -55.75107
8209.00000    83.80311    68.36399    94.34477    98.47763    -56.95104
8209.50000    87.32439    68.28875    92.83155    95.37964    -58.15102
8210.00000    90.64733    67.56318    78.08468    92.28167    -59.35099
8210.50000    90.65968    66.83761    61.49135    70.36882    -60.55096
8211.00000    90.67204    66.16142    51.26274    66.15932    -61.75093
8211.50000    90.68440    65.75881    44.70730    63.20771    -62.95090
8212.00000    90.69675    65.35621    41.04336    60.25611    -64.15088
8212.50000    90.70911    65.49266    39.35056    57.30451    -65.35085
8213.00000    88.99771    66.70634    37.65776    54.35291    -65.67618
8213.50000    90.77659    67.92001    35.96495    51.40131    -65.73512
8214.00000    90.33152    69.13369    34.27215    50.47612    -65.79406
8214.50000    89.29059    70.34736    32.57935    49.80944    -65.85301
8215.00000    88.24966    72.23094    31.21805    48.39164    -65.91195
8215.50000    87.60030    75.02886    33.17629    46.97384    -65.97089
8216.00000    87.22114    76.55328    35.13454    45.58035    -66.02984
8216.50000    86.84198    75.00156    37.09279    46.34605    -66.08878
8217.00000    84.79113    73.68185    39.05103    47.11175    -66.14772
8217.50000    87.27263    72.57275    38.27957    47.02677    -66.20666
8218.00000    89.75412    71.72987    36.18997    45.80873    -66.26561
8218.50000    90.67761    70.88699    34.10038    44.59068    -66.32455
8219.00000    89.73202    69.96926    32.91604    44.22643    -66.29914
