###############################################
##         ENVERUS                           ##
##         ESS - Open Hole                   ##
##         PERMIAN / DELAWARE                ##
##         Nov 02 2023  V4.0                 ##
##         42-109-32297-90-00                ##
###############################################
## Copyright 2017-2023  ENVERUS.  All Rights Reserved. 
## Confidential - Property of ENVERUS, use governed by terms and 
## conditions found within the existing Information Services Subscription Agreement 
## (as may be amended, the “ISSA”) between Customer and ENVERUS. 
## 
~VERSION INFORMATION
# MNEM.UNIT                               DATA : DESCRIPTION OF MNEMONIC
#-----.-----     ----------------------------- : -----------------------------
VERS.                                     2.00 : CWLS LOG ASCII STANDARD - VERSION 2.00
WRAP.                                       NO : MULTIPLE LINES PER DEPTH STEP
VEND.                                  ENVERUS : VENDOR
TYPE.                          ESS - OPEN HOLE : ENVERUS ESSENTIAL CURVES – ACCESSIBLE THROUGH ENVERUS PRISM(TM)
DOC.                                  52921007 : ENVERUS HEADER RAW DOCUMENT ID
#___________________________________________________________________________________________________ 
~WELL INFORMATION 
# EM3SY5Bwx6x9YoJmjxbMXtwK21/gMzSEmeWIZ71LA4UD3Y8PQw/mHJ0IHc4n7dRi3zAL189RIdETacnakexX1Q== 
# MNEM.UNIT                                              DATA : DESCRIPTION OF MNEMONIC 
#-----.-----                    ----------------------------- : ----------------------------- 
CNTY.                                               CULBERSON : COUNTY 
STATE.                                                  TEXAS : STATE 
CNTRY.                                                    USA : COUNTRY 
API.                                             42-109-32297 : API (10 Digit) 
API_14.                                    42-109-32297-90-00 : API (14 Digits) 
API_14_std.                                 42-109-32297-9000 : API (14 Digits Standard) 
UWI.                                           42109322979000 : UNIQUE WELL ID 
WELL.                          MELISSA TAYLOR STATE 105-3  1H : WELL NAME
STRT.FT                                                 200.0 : START DEPTH
STOP.FT                                               10260.0 : STOP DEPTH
STEP.FT                                                   0.5 : STEP BETWEEN DEPTHS
NULL.                                                 -999.25 : NULL VALUE
PREV_API.                                        421093229700 : API NUMBER 
COMP.                              CHESAPEAKE OPERATING  INC. : COMPANY 
DATE.                                             17-JUN-2008 : LOG DATE
#___________________________________________________________________________________________________ 
~CURVE INFORMATION 
# MNEM.UNIT           : CURVE DESCRIPTION 
#-----.-----          : ----------------------------- 
 DEPT.FT               : MEASURED DEPTH 
 CALI.IN               : CALIPER (CAL - CAL) 
 GR.API                : GAMMA RAY (GR) 
 DT.US/FT              : SONIC DELTA TRANSIT TIME (DT) 
 RESS.OHMM             : SHALLOW INDUCTION RESISTIVITY (ILS - ILS) 
 RESD.OHMM             : DEEP INDUCTION RESISTIVITY (ILD - ILD) 
 DPHI.V/V              : DENSITY POROSITY (DPHI) 
 NPHI.V/V              : NEUTRON POROSITY (NPHI) 
 RHOB.G/CC             : BULK DENSITY (RHOB) 
 #___________________________________________________________________________________________________ 
~A         DEPT           CALI             GR             DT           RESS           RESD           DPHI           NPHI           RHOB
# ...
         2471.5         13.141        113.331         65.232       3097.362       4410.340        0.08775        0.14325         2.5720
         2472.0         13.122        120.359         66.019       2988.738       4214.267        0.08925        0.15255         2.5600
         2472.5         13.103        127.387         66.843       3070.171       4214.689        0.09207        0.16185         2.5500
         2473.0         13.084        133.898         67.771       3151.604       4215.111        0.10193        0.17115         2.5400
         2473.5         13.065        143.435         68.699       3147.031       4215.534        0.11163        0.17981         2.5300
         2474.0         13.053        152.594         69.627       2921.401       3851.619        0.11535        0.17518         2.5200
         2474.5         13.040        157.282         70.417       2695.771       2959.259        0.11502        0.16693         2.5110
         2475.0         13.027        153.206         70.792       2522.951       2752.527        0.11242        0.15662         2.5130
         2475.5         13.015        137.883         70.827       2622.831       2863.905        0.09838        0.14630         2.5400
         2476.0         13.003        118.289         69.284       2722.710       2975.284        0.08313        0.13605         2.5510
         2476.5         12.997        101.945         67.186       2822.590       3088.449        0.07458        0.12659         2.5620
         2477.0         12.990         90.495         64.962       2922.470       3563.838        0.07204        0.11714         2.5740
         2477.5         12.983         81.148         63.405       3022.350       4039.227        0.06602        0.10768         2.5840
         2478.0         12.977         81.713         62.283       3052.580       4365.432        0.05953        0.11006         2.5940
         2478.5         12.974         83.864         61.162       2954.840       4061.817        0.05303        0.11430         2.6030
         2479.0         12.974         84.853         61.063       2662.339       3743.891        0.04697        0.11853         2.6120
         2479.5         12.974         81.797         61.390       2369.838       2944.601        0.04968        0.11814         2.6210
         2480.0         12.974         75.470         61.716       2077.337       2201.754        0.05500        0.11103         2.6190
         2480.5         12.965         72.595         61.260       1966.404       2032.610        0.05924        0.09859         2.6120
         2481.0         12.954         72.493         59.875       2121.408       2131.262        0.05568        0.08666         2.6080
         2481.5         12.944         85.349         58.735       2447.835       2855.513        0.05619        0.09045         2.6110
         2482.0         12.933        100.179         59.011       2873.792       3754.016        0.06456        0.10380         2.6140
         2482.5         12.926        114.424         61.824       3046.236       4447.933        0.07293        0.13834         2.5900
         2483.0         12.924        122.385         64.636       2589.498       3453.894        0.08029        0.17289         2.5700
         2483.5         12.921        115.928         67.448       2079.172       2459.856        0.07962        0.18551         2.5760
         2484.0         12.918        107.610         67.976       1707.548       1924.839        0.07555        0.17325         2.5810
         2484.5         12.915        103.901         66.856       1619.822       1696.489        0.07247        0.15717         2.5870
         2485.0         12.912        100.236         65.737       1532.097       1715.250        0.07196        0.14110         2.5850
         2485.5         12.909         96.121         64.935       1301.187       1477.371        0.07360        0.13793         2.5800
         2486.0         12.906         92.203         65.152       1005.124       1125.467        0.07895        0.13777         2.5760
         2486.5         12.903         89.499         65.369        839.022        822.230        0.08513        0.13761         2.5710
         2487.0         12.900         89.283         65.489        910.603        822.312        0.08636        0.13745         2.5640
         2487.5         12.897         90.840         65.471        982.184        954.042        0.08982        0.14502         2.5570
         2488.0         12.894        102.265         65.452       1053.764       1107.878        0.09421        0.15442         2.5510
         2488.5         12.891        119.316         65.581       1105.427       1179.537        0.09739        0.16383         2.5440
         2489.0         12.888        134.128         66.687       1098.652       1169.414        0.09263        0.16303         2.5510
         2489.5         12.885        127.617         67.793       1091.878       1159.292        0.08480        0.14762         2.5630
         2490.0         12.882        110.375         68.515       1232.494       1243.106        0.07253        0.13220         2.5750
         2490.5         12.873         92.229         66.773       1507.548       1547.615        0.06260        0.12038         2.5870
         2491.0         12.859         81.649         65.031       1782.602       1764.780        0.06401        0.12802         2.5990
         2491.5         12.846         78.130         63.289       1777.676       1833.929        0.06858        0.13566         2.5980
         2492.0         12.832         77.299         63.114       1586.967       1659.413        0.07284        0.14248         2.5930
         2492.5         12.819         77.121         69.649       1147.776       1248.576        0.07241        0.14031         2.5890
         2493.0         12.806         78.501         79.141       1108.572       1282.819        0.07197        0.13814         2.5870
         2493.5         12.803         81.186         87.349       1130.849       1337.192        0.07353        0.13597         2.5850
         2494.0         12.801         85.215         83.321       1299.265       1391.564        0.07462        0.13963         2.5830
         2494.5         12.799         88.844         79.294       1637.793       1607.994        0.07491        0.14369         2.5810
         2495.0         12.796         87.998         77.256       2053.369       1964.057        0.07292        0.14037         2.5840
         2495.5         12.794         88.165         84.032       2294.457       2831.142        0.06909        0.13041         2.5860
         2496.0         12.792         90.541         95.337       2542.441       3341.907        0.07273        0.12713         2.5860
         2496.5         12.788        102.387        106.063       2604.299       3811.336        0.08131        0.12902         2.5740
         2497.0         12.778        114.233        103.150       2612.825       4126.438        0.09022        0.14435         2.5620
         2497.5         12.768        130.746         86.629       2427.771       3934.228        0.09912        0.16239         2.5510
         2498.0         12.759        127.957         76.422       2242.717       2333.739        0.10288        0.17010         2.5390
         2498.5         12.752        114.398         72.925       2029.460       1987.169        0.09783        0.16583         2.5310
         2499.0         12.746         95.118         70.378       1989.942       2001.180        0.08235        0.14636         2.5550
         2499.5         12.740         91.900         67.832       2118.524       2359.156        0.06472        0.12689         2.5800
         2500.0         12.734         90.675         65.905       2266.137       3238.031        0.06279        0.12280         2.5940
         2500.5         12.727         91.441         64.294       2417.988       4258.288        0.05862        0.13127         2.5990
