~Version Information
 VERS.                  2.0:   CWLS log ASCII Standard -VERSION 2.0
 WRAP.                   NO:   One line per depth step
~Well Information Block
#MNEM.UNIT     VALUE/NAME     DESCRIPTION
#---------     -----------    ---------------------------
 STRT.F              8400.0000: START DEPTH
 STOP.F             14661.0000: STOP DEPTH
 STEP.F                 0.5000: STEP DEPTH
 NULL.                 -999.25: NULL VALUE
 LOC .            42-109-33545:  LOCATION
 FL1 .            42-109-33545:  LOCATIONLINE1
 DMF .             Drill Floor:  DRILL MEAS FROM
 PDAT.                      GL:  PERMANENT DATUM
 CNTY.               CULBERSON:  COUNTY NAME
 FLD .              WOLFCAMP B:  FIELD NAME
 WELL.           DALE STATE 3H:  WELL NAME
 COMP.     CAPITAN ENERGY INC.:  COMPANY
 DATE.             12-Feb-2020:  DATE
 SVCO.             Halliburton:  SERVICECONAME
 PROV.                      TX:  PROVINCE
 STAT.                      TX:  STATE NAME
 HIDE.                        :  WELLNAMEOPERAT
 BASI.                 PERMIAN:  BASIN
 UWI .            42-109-33545:  UNIQUE WELL IDENTIFIER
 API .            42-109-33545:  API NUMBER
 RANG.                     N/A:  RANGE
 TOWN.                     N/A:  TOWNSHIP
 SECT.                     N/A:  SECTION
 SON .               906290460:  JOB NUMBER
 CTRY.                        :  COUNTRY
 SRVC.             Halliburton:  SERVICE COMPANY
 LMF .             Drill Floor:  LOG MEASURED FROM
 TVDS.ft             3291.0000:  TVDSS CORRECTN
 EGL .ft             3266.0000:  GROUND ELEVATION
 APD .ft               25.0000:  DEPTH ABOVE PD
 EPD .ft             3266.0000:  ELEVATION
 BAP .ft                0.0000:  GL ELEV ONSHORE
 GVFD.g                 1.0000:  GRAVITY FIELD
 EKB .ft             3291.0000:  KB ELEVATION
 EDF .ft             3291.0000:  DF ELEVATION
~Curve Information Block
#MNEM.UNIT                 API CODE     Curve Description
#---------               -----------    ---------------------------
 DEPT.F                 00 000 000 000:  Depth
 CCL .V                 00 000 000 000:  Casing Collar Locator
 NPHI_OH.pu             00 000 000 000:  NPHI_OH
 NPHI_CHI.decp          00 000 000 000:  NPHI_CHI
 GR_OH.api              00 000 000 000:  GR_OH
 GR_CHI.api             00 000 000 000:  GR_CHI
 RHOB_OH.g/cc           00 000 000 000:  RHOB_OH
 RHOB_CHI.g/cc          00 000 000 000:  RHOB_CHI
 PE_OH.NONE             00 000 000 000:  PE_OH
 PE_CHI.NONE            00 000 000 000:  PE_CHI
 LLS_CHI.ohmm           00 000 000 000:  LLS_CHI
 LLS_OH.ohmm            00 000 000 000:  LLS_OH
 LLD_OH.ohmm            00 000 000 000:  LLD_OH
 LLD_CHI.ohmm           00 000 000 000:  LLD_CHI
 DTC_OH.uspf            00 000 000 000:  DTC_OH
 DTC_CHI.uspf           00 000 000 000:  DTC_CHI
 SPHW_CHI.decp          00 000 000 000:  SPHW_CHI
#Other Information
#
#WARRANTY: Halliburton will use its best efforts to furnish customers with 
#accurate information and interpretations that are part of, and incident to, the services 
#provided.  However, Halliburton cannot and does not warrant the accuracy 
#or correctness of such information and interpretations.  Under no circumstances should any 
#such information or interpretation be relied upon as the sole basis for any drilling, 
#completion, production, or financial decision or any procedure involving any risk to the 
#safety of any drilling venture, drilling rig or its crew or any other third party.  The 
#Customer has full responsibility for all drilling, completion and production operation.  
#Halliburton makes no representations or warranties, either expressed or 
#implied, including, but not limited to, the implied warranties of merchantability or fitness 
#for a particular purpose, with respect to the services rendered.  In no event will 
#Halliburton be liable for failure to obtain any particular results or for 
#any damages, including, but not limited to, indirect, special or consequential damages, 
#resulting from the use of any information or interpretation provided by Halliburton.
#
~A    DEPT      CCL   NPHI_OH NPHI_CHI  GR_OH    GR_CHI  RHOB_OH RHOB_CHI  PE_OH  PE_CHI  LLS_CHI   LLS_OH    LLD_OH    LLD_CHI  DTC_OH  DTC_CHI SPHW_CHI 
# ...
    9221.5000  0.0282 14.3800   0.1296  88.7424  94.7165  2.5861   2.5629  2.9561 3.3998   89.2155   77.4185  110.9243  103.2167 74.5217 73.7843 0.1852
    9222.0000  0.0000 13.2900   0.1243  91.7562  98.6715  2.5953   2.5688  2.8438 3.5004   95.9642   78.3937  113.8075  111.2128 73.4089 73.9211 0.1861
    9222.5000  0.0000 13.2900   0.1127  91.7562  71.7419  2.5953   2.5838  2.8438 3.6199   88.6450   78.3937  113.8075  103.1542 73.3446 73.1236 0.1805
    9223.0000 -0.0890 14.2500   0.1113  91.3484  72.0726  2.5946   2.5864  2.9628 3.6520   88.8299   84.0959  120.3841  103.3976 74.3833 73.4952 0.1831
    9223.5000  0.0000 13.8700   0.1191  91.8906  91.2899  2.5890   2.5769  3.2139 3.5834   93.2819  191.8232  260.1217  107.8914 75.2686 74.6970 0.1916
    9224.0000  0.0000 14.6000   0.1296 106.1873 110.7723  2.5642   2.5649  3.1546 3.4585   92.1077  188.3624  254.7991  106.3266 77.4174 75.3456 0.1962
    9224.5000 -0.0267 14.6000   0.1326 106.1873 104.7933  2.5642   2.5635  3.1546 3.3244   72.2730  188.3624  254.7991   83.7775 78.4239 75.5990 0.1980
    9225.0000  0.0000 14.9900   0.1432 124.4819 128.7127  2.5200   2.5508  2.9017 3.1439   64.4560  175.3943  234.0022   75.1568 79.7007 77.5747 0.2120
    9225.5000  0.0113 16.5100   0.1466 128.2095 124.8689  2.4851   2.5472  2.8344 3.0749   59.0729  136.1613  179.5744   68.8404 79.6154 77.5972 0.2121
    9226.0000 -0.0242 15.9900   0.1474 122.7624 111.8823  2.4878   2.5459  2.9003 3.0569   58.2497  137.3764  181.3454   67.3819 78.5410 76.5844 0.2050
    9226.5000 -0.0197 15.9900   0.1532 122.7624 114.9940  2.4878   2.5367  2.9003 3.0618   72.3609  137.3764  181.3454   82.8111 77.8817 77.5173 0.2116
    9227.0000  0.0000 15.2300   0.1467 112.0088  94.6444  2.5164   2.5439  2.9429 3.1213   71.0203  137.7077  181.3364   80.7145 76.0353 75.4378 0.1969
    9227.5000  0.0000 13.5800   0.1371  91.0074  75.9057  2.5518   2.5555  2.9456 3.2127   66.7482  131.6863  159.7088   75.7915 74.9369 74.1781 0.1880
    9228.0000  0.0388 11.3900   0.1275  76.9565  65.7811  2.5798   2.5687  2.9060 3.2999   60.2722  140.8063  169.6940   68.9879 74.6941 73.6641 0.1843
    9228.5000  0.0383 11.8700   0.1313  79.5198  94.2298  2.5772   2.5650  2.8755 3.2925   65.6252  140.8807  169.7684   75.8466 75.6899 75.2755 0.1957
    9229.0000  0.0000 14.4100   0.1313  93.2073  95.1358  2.5412   2.5674  2.8924 3.2705   59.0197  143.1594  176.6837   68.6853 78.3604 75.3439 0.1962
    9229.5000  0.0335 14.4100   0.1488  93.2073 146.8722  2.5412   2.5447  2.8924 3.1669   74.9170  143.1594  176.6837   87.7925 80.2478 78.6455 0.2196
    9230.0000  0.0618 17.8000   0.1402 112.7023 113.8541  2.5040   2.5579  2.9003 3.1440   53.9082  173.3378  219.4799   63.2175 83.2479 76.3494 0.2033
    9230.5000  0.0397 18.4900   0.1489 129.5765 145.6138  2.4847   2.5438  2.8567 3.1244   70.7484  173.9306  220.1906   82.7556 83.6051 79.2569 0.2239
    9231.0000  0.0577 18.6800   0.1445 133.8849 132.8212  2.4769   2.5481  2.9127 3.1775   73.3375  262.2654  315.4075   85.2139 83.3296 77.8730 0.2141
    9231.5000  0.0330 16.7600   0.1453 130.1277 129.6262  2.4796   2.5447  3.2910 3.2320   88.5990  214.2900  222.4975  101.7955 83.1797 77.6754 0.2127
    9232.0000  0.0482 16.1100   0.1516 129.1359 138.3947  2.4818   2.5342  3.7038 3.2366  109.8476  211.5923  219.1310  124.9314 83.1390 78.6294 0.2194
    9232.5000  0.0000 16.0100   0.1482 134.7990 123.3490  2.4869   2.5386  3.6314 3.2411  103.4878  110.3341  119.9482  117.8855 82.5621 76.8837 0.2071
    9233.0000  0.0000 15.3900   0.1519 131.2509 144.5618  2.4975   2.5327  3.3021 3.2001  107.6264   67.2409   75.0802  123.2439 81.1298 78.2904 0.2170
    9233.5000  0.0000 15.7800   0.1346 114.5311 102.5313  2.4994   2.5553  3.1796 3.2747   81.9714   66.1331   73.9893   94.9101 78.4055 73.8933 0.1859
    9234.0000  0.0000 15.7800   0.1212 114.5311  84.7339  2.4994   2.5732  3.1796 3.3882   74.2368   66.1331   73.9893   87.8247 76.4120 71.7657 0.1709
    9234.5000  0.0000 14.7600   0.1118 104.4540  74.2829  2.5083   2.5840  3.1657 3.5139   79.9767   61.4698   70.5399   96.0958 72.7674 70.3108 0.1606
    9235.0000  0.0000 14.2000   0.0965  98.6990  38.9058  2.5288   2.6027  3.1559 3.7377   90.8565   73.5631   85.2456  113.8930 68.6834 66.0594 0.1305
    9235.5000  0.0000 14.2000   0.0860  78.9785  35.8606  2.5541   2.6137  3.2603 3.9491  117.9246  121.1416  132.1692  150.9853 64.2623 64.2026 0.1174
    9236.0000  0.0000  9.1400   0.0782  54.8068  44.1635  2.6188   2.6215  3.6337 4.1391  158.5193  438.8063  366.7230  203.5609 61.0880 64.3701 0.1186
    9236.5000  0.0000  5.1100   0.0679  44.5256  40.1962  2.7034   2.6348  4.3229 4.3123  181.8580  509.5719  419.8463  238.5460 59.7823 62.9296 0.1084
    9237.0000  0.0000  4.4800   0.0636  43.0625  25.6004  2.7256   2.6388  4.9205 4.3961  204.4489  808.5191  870.8459  272.4496 58.8831 60.3541 0.0902
    9237.5000  0.0000  5.2700   0.0611  44.1254  10.3362  2.6724   2.6422  5.0985 4.4346  209.3413  556.6180  498.0475  284.8155 59.4627 58.5470 0.0774
    9238.0000  0.0000  7.0400   0.0644  47.9403  18.2447  2.6055   2.6370  5.0582 4.3875  202.0231  499.7248  401.8262  268.1989 62.2363 60.0832 0.0883
    9238.5000  0.0000  8.0800   0.0700  59.8412  38.8694  2.5798   2.6295  5.0965 4.3044  185.3455  171.7659  201.6505  236.9277 69.3982 63.5684 0.1129
    9239.0000  0.0118  8.0800   0.0705  59.8412  30.3671  2.5798   2.6280  5.0965 4.2689  162.7123  171.7659  201.6505  207.1963 69.2693 61.6424 0.0993
    9239.5000  0.0000 10.0500   0.0741  78.1577  29.9427  2.5859   2.6219  5.1958 4.2115  149.6585  157.9444  172.4482  187.0461 67.9220 61.8442 0.1007
    9240.0000  0.0000 11.2600   0.0782  85.4557  29.8198  2.5914   2.6163  5.1375 4.1271  129.4979  155.2139  169.2567  159.4218 68.4964 62.4932 0.1053
    9240.5000  0.0000 11.3700   0.0878  80.1663  38.5676  2.5886   2.6038  4.9282 3.9955  122.1078  196.0092  211.7919  146.2067 69.8393 65.1930 0.1244
    9241.0000  0.0000 10.8000   0.0927  79.5642  25.9334  2.5657   2.5988  4.5119 3.9230  113.7204  223.4415  253.6944  135.6187 71.0573 65.0215 0.1232
    9241.5000  0.0000 11.3000   0.0957  81.9211  11.7602  2.5287   2.5979  3.8386 3.8606  100.8417  215.0329  229.2178  120.2911 71.7499 64.9888 0.1230
    9242.0000  0.0000 11.3500   0.1004  83.8550  21.8437  2.5169   2.5960  3.4102 3.7457   87.1424  263.9660  288.1121  103.6364 75.0435 67.1302 0.1381
    9242.5000  0.0000 11.4200   0.1012  86.4550  25.2513  2.5367   2.5999  3.6648 3.6501   69.7353  277.0334  283.2410   84.4178 74.8515 67.5073 0.1408
    9243.0000  0.0000 11.5900   0.0993  87.2437   7.2658  2.5607   2.6049  4.3636 3.6184   60.6838  224.4018  220.9131   75.2395 74.8491 65.8324 0.1289
    9243.5000  0.0000 11.7000   0.1057  87.7990  30.9882  2.5689   2.5931  4.7072 3.5715   72.2128  143.0759  147.4814   88.1331 74.9194 67.4658 0.1405
    9244.0000  0.0000 11.7000   0.1049  87.7990  46.3356  2.5689   2.5876  4.7072 3.6343   88.9528  143.0759  147.4814  106.7891 74.8402 67.8491 0.1432
    9244.5000  0.0000 12.8600   0.0955  88.1597  25.3586  2.5605   2.5930  4.2189 3.8320  101.3987  132.8881  142.9332  122.1995 75.8690 63.9272 0.1155
    9245.0000  0.0000 14.1600   0.0914  91.2485  25.9871  2.5563   2.5944  3.5098 3.9357  106.5848  127.1551  136.5388  127.3695 74.8578 62.9121 0.1083
    9245.5000  0.0000 14.9300   0.0933  97.4157  21.9228  2.5525   2.5896  3.2538 3.9837  121.0073   99.8199  107.5614  142.2967 75.0372 62.3782 0.1045
    9246.0000  0.0000 15.3900   0.1008 108.1411  25.3848  2.5314   2.5795  3.3766 3.9519  145.1505  109.4765  114.5173  167.1463 75.0875 63.9567 0.1157
    9246.5000  0.0000 14.9500   0.1065 116.9406  25.5046  2.5151   2.5741  3.6138 3.9343  171.2734  109.6077  114.6872  195.7015 74.1640 66.3024 0.1323
    9247.0000  0.0120 12.9700   0.1107 107.1547  24.1384  2.5196   2.5718  3.8323 3.9068  186.6469  135.3391  149.3647  213.5068 72.3431 68.3399 0.1467
    9247.5000  0.0000  9.3300   0.1131  79.0048  30.6696  2.5323   2.5709  4.0393 3.8557  181.5660  285.9306  273.3573  208.1282 70.1945 69.4509 0.1545
