###############################################
##         ENVERUS                           ##
##         ESS - Open Hole                   ##
##         PERMIAN / DELAWARE                ##
##         Nov 02 2023  V4.0                 ##
##         42-109-31408-00-00                ##
###############################################
## Copyright 2017-2023  ENVERUS.  All Rights Reserved. 
## Confidential - Property of ENVERUS, use governed by terms and 
## conditions found within the existing Information Services Subscription Agreement 
## (as may be amended, the “ISSA”) between Customer and ENVERUS. 
## 
~VERSION INFORMATION
# MNEM.UNIT                               DATA : DESCRIPTION OF MNEMONIC
#-----.-----     ----------------------------- : -----------------------------
VERS.                                     2.00 : CWLS LOG ASCII STANDARD - VERSION 2.00
WRAP.                                       NO : MULTIPLE LINES PER DEPTH STEP
VEND.                                  ENVERUS : VENDOR
TYPE.                          ESS - OPEN HOLE : ENVERUS ESSENTIAL CURVES – ACCESSIBLE THROUGH ENVERUS PRISM(TM)
DOC.                                  31850517 : ENVERUS HEADER RAW DOCUMENT ID
#___________________________________________________________________________________________________ 
~WELL INFORMATION 
# bqLd+XSZJOn45CI61XVoQu+UOVndmKoY6sdO6/bnbKn7IExcVbobTFa2ZjWyWmdO1mIol927X6bTh1nHm93KmQ== 
# MNEM.UNIT                                              DATA : DESCRIPTION OF MNEMONIC 
#-----.-----                    ----------------------------- : ----------------------------- 
CNTY.                                               CULBERSON : COUNTY 
STATE.                                                  TEXAS : STATE 
CNTRY.                                                    USA : COUNTRY 
API.                                             42-109-31408 : API (10 Digit) 
API_14.                                    42-109-31408-00-00 : API (14 Digits) 
API_14_std.                                 42-109-31408-0000 : API (14 Digits Standard) 
UWI.                                           42109314080000 : UNIQUE WELL ID 
WELL.                                           CASTILE 48  1 : WELL NAME
STRT.FT                                                2207.0 : START DEPTH
STOP.FT                                               11710.0 : STOP DEPTH
STEP.FT                                                   0.5 : STEP BETWEEN DEPTHS
NULL.                                                 -999.25 : NULL VALUE
COMP.                                         TENNECO OIL CO. : COMPANY 
DATE.                                             28-APR-1980 : LOG DATE
#___________________________________________________________________________________________________ 
~CURVE INFORMATION 
# MNEM.UNIT           : CURVE DESCRIPTION 
#-----.-----          : ----------------------------- 
 DEPT.FT               : MEASURED DEPTH 
 CALI.IN               : CALIPER (CAL - CAL) 
 GR.API                : GAMMA RAY (GR) 
 DT.US/FT              : SONIC DELTA TRANSIT TIME (DT) 
 RESS.OHMM             : SHALLOW INDUCTION RESISTIVITY (ILS - ILS) 
 RESD.OHMM             : DEEP INDUCTION RESISTIVITY (ILD - ILD) 
 #___________________________________________________________________________________________________ 
~A         DEPT           CALI             GR             DT           RESS           RESD
# ...
         9159.0         10.897         41.270         57.664         47.896         50.644
         9159.5         10.893         45.784         63.338         42.977         41.274
         9160.0         10.889         52.883         69.011         38.059         30.478
         9160.5         10.885         59.981         71.690         33.140         28.143
         9161.0         10.882         67.079         71.441         28.222         27.498
         9161.5         10.878         69.378         71.191         29.623         26.853
         9162.0         10.874         70.090         70.942         33.729         28.134
         9162.5         10.871         70.802         70.692         37.835         32.188
         9163.0         10.867         71.514         71.088         41.941         36.242
         9163.5         10.863         72.226         71.956         46.048         40.296
         9164.0         10.859         72.939         72.824         49.056         56.198
         9164.5         10.856         73.654         73.693         51.941         77.275
         9165.0         10.852         75.018         74.561         78.838         98.351
         9165.5         10.848         76.383         75.429        107.471        119.428
         9166.0         10.844         77.747         76.297        118.086        140.504
         9166.5         10.844         79.112         77.054        126.983        161.581
         9167.0         10.844         81.756         77.899        131.140        148.334
         9167.5         10.844         85.765         79.206         92.699        120.022
         9168.0         10.844         89.774         80.513         62.912         96.128
         9168.5         10.844         93.784         81.820         65.859         83.129
         9169.0         10.844         89.156         79.411         69.158         77.855
         9169.5         10.843         73.651         76.016         72.778         77.829
         9170.0         10.843         65.490         72.621         76.398         77.802
         9170.5         10.843         66.623         70.671         80.019         77.776
         9171.0         10.843         67.757         71.926         28.609         37.945
         9171.5         10.843         68.891         73.181         29.272         29.864
         9172.0         10.843         70.024         74.058         29.934         31.652
         9172.5         10.843         71.158         74.291         36.064         34.092
         9173.0         10.843         72.292         74.523         45.783         44.937
         9173.5         10.842         73.426         74.755         55.503         55.782
         9174.0         10.842         74.559         74.658         65.222         66.627
         9174.5         10.842         72.648         74.533         58.284         64.107
         9175.0         10.842         70.673         73.623         49.563         58.751
         9175.5         10.842         68.698         72.675         41.946         53.395
         9176.0         10.842         66.722         71.727         40.786         48.039
         9176.5         10.842         64.797         70.779         41.032         50.664
         9177.0         10.842         65.529         69.831         41.743         53.847
         9177.5         10.842         66.260         68.883         42.455         55.556
         9178.0         10.842         66.991         68.878         43.166         57.212
         9178.5         10.841         67.722         69.714         43.627         58.868
         9179.0         10.841         68.454         70.550         43.415         60.016
         9179.5         10.841         68.628         70.770         43.203         60.704
         9180.0         10.841         67.947         70.552         42.992         61.392
         9180.5         10.841         67.266         70.334         42.780         62.080
         9181.0         10.841         66.586         70.115         42.568         62.768
         9181.5         10.841         65.905         70.464         42.356         63.456
         9182.0         10.841         65.224         71.132         42.144         64.576
         9182.5         10.840         64.543         71.800         41.932         65.939
         9183.0         10.840         67.415         72.468         43.999         67.302
         9183.5         10.840         71.701         73.231         46.354         68.665
         9184.0         10.840         75.987         74.332         48.709         70.028
         9184.5         10.840         80.273         75.433         51.063         75.018
         9185.0         10.840         84.259         76.534         53.418         81.342
         9185.5         10.840         85.183         77.635         55.773         87.666
         9186.0         10.840         86.107         78.003         58.128         93.990
         9186.5         10.840         87.031         78.191         61.759        100.314
         9187.0         10.840         88.540         78.378         65.578        105.914
         9187.5         10.839         93.523         78.917         69.396        110.929
         9188.0         10.839         98.507         79.518         73.215        115.945
         9188.5         10.839        107.079         80.119        102.964        120.961
         9189.0         10.839        116.471         80.719        116.053        125.976
         9189.5         10.839        111.996         81.320         98.699        111.687
         9190.0         10.839        107.479         75.879         81.344         82.144
         9190.5         10.839        102.962         69.993         63.990         71.405
         9191.0         10.839         52.125         65.856         46.636         60.666
         9191.5         10.839         53.878         64.215         33.735         49.927
         9192.0         10.838         55.631         63.710         31.686         39.188
         9192.5         10.838         57.385         64.751         30.586         38.523
         9193.0         10.838         59.138         65.791         42.835         39.574
         9193.5         10.838         60.892         66.832         55.084         40.625
         9194.0         10.838         62.645         67.873         67.333         41.676
         9194.5         10.838         64.398         68.913         79.582         47.959
         9195.0         10.838         66.152         69.954         91.830         76.781
         9195.5         10.838         67.905         70.745        104.079         95.664
         9196.0         10.837         69.659         71.343        116.328        109.444
         9196.5         10.837         71.412         71.941        128.577        123.223
         9197.0         10.837         73.165         72.539        125.688        119.928
         9197.5         10.837         74.130         73.136        119.887        115.471
         9198.0         10.837         74.447         73.734        114.086        111.014
         9198.5         10.837         74.764         74.332        108.286        106.556
         9199.0         10.837         75.080         74.930        105.569        104.026
         9199.5         10.837         75.397         75.528        107.790        106.061
         9200.0         10.837         79.526         76.125        110.010        109.057
         9200.5         10.837         87.448         76.723        122.654        112.754
         9201.0         10.838         95.369         77.661        159.214        116.452
         9201.5         10.843        100.670         78.711        195.773        135.605
         9202.0         10.848        103.513         79.762        232.332        156.950
         9202.5         10.853        106.355         80.812        265.678        178.295
