#   WellGreen Tech Inc.   Digitizing Services
#   www.wellgreentech.com
#   email: sales@wellgreentech.com
#
~Version Information Block
 VERS.                2.00:     CWLS LOG ASCII STANDARD - VERSION 2.000000
 WRAP.                  NO:     One Line Per Depth Step
#
~Well Information Block
#MNEM.UNIT                     Data                         Information
#----------   ------------------------------------------   ----------------
 STRT.FT                                      400.0000:     START DEPTH
 STOP.FT                                    10100.0000:     STOP DEPTH
 STEP.FT                                        0.5000:     STEP
 NULL.                                       -999.2500:     NULL VALUE
 COMP.                       ENRON OIL AND GAS COMPANY:     COMPANY
 WELL.                                   TXL "1" NO. 1:     WELL
 FLD .                                         WILDCAT:     FIELD
 LOC .                                              63:     LOCATION
 CNTY.                                       CULBERSON:     COUNTY
 STAT.                                           TEXAS:     STATE
 CTRY.                                             USA:     COUNTRY
 SRVC.                                    SCHLUMBERGER:     SERVICE COMPANY
 DATE.                                      06/28/1989:     DATE
 API .               42109320330000:    API NUMBER
 UWI .               42109320330000:    UWI NUMBER
 TVD .                                              NO:     TVD flag
 MATRIX .G/CC                  :    Matrix Density
#
~Curve Information Block
#MNEM.UNIT       API CODE      Curve Description
#----------    -------------   -------------------
 DEPT.FT                   :   Depth in Feet
 GR  .API      35 310 01 01:   Gamma Ray
 CALI.INCHES   70 280 01 01:   Caliper
 DT  .US/FT    60 520 08 01:   Delta T
 SPHI.V/V      61 890 01 01:   Sonic Porosity
#
~Parameter Information Block
#MNEM.UNIT            Value               Description
#----------    --------------------    -------------------
 RUN .                         ONE:    Run Number
 PDAT.                          GL:    Permanent Datum
 EPD .FT                 3890.3000:    Elevation Of Perm. Datum
 LMF .               KELLY BUSHING:    Log Measured From
 EKB .FT                 3905.1000:    Elevation Of Kelly Bushing
 DF .FT                  3904.1000:    Elevation Of Derrick Floor
 GL .FT                  3890.3000:    Elevation Of Ground Level
 TD .FT                  10100.0000:    Total Depth
 BHT .DEGF               193.00 :  Bottom Hole Temperature
 BLI .FT               10100.0000:   Bottom Log Interval
 CSGSIZE.IN              9.6250:   Casing Size
 BITSIZE.IN               8.750 :  BitSize
 CSGD.FT                      405:    Casing Bottom (Driller) 1
 CSGL.FT                      405:    Casing Bottom (Logger) 1
 MUD .                      SW GEL:    Drilling Fluid Type
 MUDV .CP                  34.0000:    Drilling Fluid Viscosity
 MUDD .LB/USG               9.1000:    Drilling Fluid Density
 FL .ML/30MIN               8.0000:    Drilling Fluid Loss
 PH.                       10.0000:    Drilling Fluid Ph
 MUDS .                  CIRC TANK:    Mud Sample Source
 RM .OHMM                   0.1720:    Resistivity Of Mud Sample
 RMT .DEGF                 75.0000:    Mud Sample Temperature
 RMF .OHMM                  0.1720:    Mud Filtrate Resistivity
 RMFT.DEGF                 75.0000:    Mud Filtrate Sample Temperature
 RMB .OHMM                  0.0710:    Mud Resistivity At Bht
 TMAX .DEGF               193.0000:    Bottom Hole Temperature
#
~Other Information Block
<DescLogPlotStart>   NEURALOG PLOT DEFINITION
PLOTDEFVERSION: 3
LASFILE: D:\nds\projects\20MAY19H\las\42109320330000_BEG_RAS_RS0022815370.las
DEPTHSCALE: 240.000000
RESOLUTION: 400
DEPTHLABELFREQ: 100.000000
HEAVYGRIDFREQ: 100.000000
MEDIUMGRIDFREQ: 50.000000
LIGHTGRIDFREQ: 10.000000
#
#   TRACK 1
#
STARTTRACK: 
 LEFTX: 0.500000 inch
 RIGHTX: 3.000000 inch
 SCALETYPE: Linear
 NUMCHARTDIVISIONS: 10
CURVE: GR    0.000000   125.000000 (0,0,255)      Solid             2     Y    
BACKUP: 125.000000 250.000000 (0,0,255)      Solid             2    
ENDTRACK: 
#
#   TRACK 2
#
STARTTRACK: 
 LEFTX: 0.500000 inch
 RIGHTX: 3.000000 inch
 SCALETYPE: Linear
 NUMCHARTDIVISIONS: 10
CURVE: CALI  6.000000   16.000000  (0,131,131)    Solid             2     N    
ENDTRACK: 
#
#   TRACK 3
#
STARTTRACK: 
 LEFTX: 3.500000 inch
 RIGHTX: 8.500000 inch
 SCALETYPE: Linear
 NUMCHARTDIVISIONS: 10
CURVE: DT    100.000000 40.000000  (255,0,255)    Solid             2     Y    
BACKUP: 160.000000 100.000000 (255,0,255)    Solid             2    
CURVE: SPHI  0.300000   -0.100000  (255,0,0)      Dot               2     Y    
BACKUP: 0.700000   0.300000   (255,0,0)      Dot               2    
BACKUP: -0.100000  -0.500000  (255,0,0)      Dot               2    
ENDTRACK: 
<DescLogPlotEnd>
~A DEPTH     GR               CALI             DT               SPHI            
# ...
    1043.500 138.10           12.93            68.35            0.19            
    1044.000 151.47           12.92            69.50            0.20            
    1044.500 145.77           12.93            69.82            0.20            
    1045.000 132.48           12.96            69.33            0.20            
    1045.500 107.11           12.99            67.83            0.18            
    1046.000 83.35            12.96            65.43            0.17            
    1046.500 61.67            12.91            63.04            0.15            
    1047.000 58.55            12.87            62.62            0.15            
    1047.500 63.03            12.88            63.67            0.16            
    1048.000 73.09            12.89            65.54            0.17            
    1048.500 83.17            12.91            66.96            0.18            
    1049.000 83.49            12.90            67.10            0.18            
    1049.500 79.87            12.88            65.76            0.17            
    1050.000 76.64            12.86            64.74            0.17            
    1050.500 75.73            12.85            64.09            0.16            
    1051.000 81.27            12.86            64.91            0.17            
    1051.500 90.56            12.89            66.66            0.18            
    1052.000 104.65           12.93            68.48            0.19            
    1052.500 123.27           12.96            69.01            0.19            
    1053.000 140.47           12.93            69.58            0.20            
    1053.500 161.05           12.88            70.18            0.20            
    1054.000 173.62           12.84            70.42            0.20            
    1054.500 156.28           12.86            69.49            0.20            
    1055.000 134.80           12.87            67.77            0.19            
    1055.500 101.53           12.87            66.52            0.18            
    1056.000 87.48            12.87            65.38            0.17            
    1056.500 87.48            12.87            65.27            0.17            
    1057.000 90.50            12.86            66.24            0.18            
    1057.500 82.30            12.86            66.30            0.18            
    1058.000 69.90            12.86            65.22            0.17            
    1058.500 57.46            12.86            63.87            0.15            
    1059.000 46.41            12.85            61.82            0.14            
    1059.500 38.06            12.85            60.55            0.13            
    1060.000 38.63            12.85            60.15            0.13            
    1060.500 45.64            12.84            60.95            0.14            
    1061.000 54.99            12.84            61.77            0.15            
    1061.500 61.83            12.84            63.04            0.15            
    1062.000 66.12            12.83            63.98            0.16            
    1062.500 72.34            12.83            64.92            0.17            
    1063.000 88.48            12.83            65.94            0.18            
    1063.500 115.78           12.83            67.15            0.18            
    1064.000 133.07           12.86            68.31            0.19            
    1064.500 141.80           12.89            68.80            0.19            
    1065.000 138.43           12.90            68.44            0.19            
    1065.500 133.49           12.85            67.83            0.19            
    1066.000 130.23           12.81            67.22            0.18            
    1066.500 131.74           12.83            65.94            0.17            
    1067.000 132.76           12.89            64.83            0.17            
    1067.500 130.20           12.95            65.28            0.17            
    1068.000 121.90           13.00            66.12            0.18            
    1068.500 103.63           12.99            69.12            0.20            
    1069.000 80.53            12.99            72.16            0.21            
    1069.500 63.40            12.98            74.25            0.22            
    1070.000 51.79            12.97            75.20            0.23            
    1070.500 49.22            12.99            76.15            0.24            
    1071.000 49.76            13.01            77.50            0.24            
    1071.500 50.77            13.04            78.69            0.25            
    1072.000 50.23            13.06            79.23            0.25            
    1072.500 48.03            13.08            78.67            0.25            
    1073.000 43.88            13.09            77.97            0.24            
    1073.500 39.76            13.10            77.85            0.24            
    1074.000 37.78            13.12            78.14            0.24            
    1074.500 35.85            13.13            78.43            0.25            
    1075.000 33.90            13.14            78.72            0.25            
    1075.500 32.12            13.15            78.99            0.25            
    1076.000 31.66            13.16            78.78            0.25            
    1076.500 33.06            13.16            78.26            0.25            
    1077.000 35.39            13.17            77.71            0.24            
    1077.500 37.72            13.18            77.56            0.24            
    1078.000 39.94            13.18            77.68            0.24            
    1078.500 40.46            13.19            78.37            0.25            
    1079.000 41.02            13.20            79.14            0.25            
    1079.500 42.88            13.21            79.33            0.25            
    1080.000 44.06            13.22            78.76            0.25            
    1080.500 43.13            13.24            77.89            0.24            
    1081.000 41.55            13.23            76.70            0.24            
    1081.500 39.97            13.22            75.97            0.23            
    1082.000 39.59            13.22            75.47            0.23            
    1082.500 39.90            13.21            75.57            0.23            
    1083.000 39.85            13.20            75.68            0.23            
    1083.500 38.08            13.20            76.05            0.23            
    1084.000 36.43            13.19            76.51            0.24            
    1084.500 36.41            13.18            76.75            0.24            
    1085.000 36.87            13.18            76.72            0.24            
    1085.500 37.41            13.19            76.70            0.24            
    1086.000 37.78            13.20            76.73            0.24            
    1086.500 36.61            13.21            76.86            0.24            
    1087.000 35.91            13.22            77.08            0.24            
    1087.500 36.95            13.21            77.10            0.24            
    1088.000 39.00            13.21            77.09            0.24            
    1088.500 39.14            13.20            77.21            0.24            
    1089.000 37.18            13.19            77.96            0.24            
    1089.500 35.21            13.19            78.68            0.25            
    1090.000 33.56            13.18            79.25            0.25            
    1090.500 33.58            13.17            79.37            0.25            
    1091.000 34.50            13.17            79.32            0.25            
    1091.500 35.44            13.16            78.91            0.25            
    1092.000 36.38            13.15            78.49            0.25            
    1092.500 37.03            13.14            78.12            0.24            
