~Version Information Block
 VERS.                2.00:     CWLS LOG ASCII STANDARD - VERSION 2.000000
 WRAP.                  NO:     One Line Per Depth Step
#
~Well Information Block
#MNEM.UNIT                     Data                         Information
#----------   ------------------------------------------   ----------------
 STRT.FT                                     4210.0000:     START DEPTH
 STOP.FT                                    10370.0000:     STOP DEPTH
 STEP.FT                                        0.5000:     STEP
 NULL.                                       -999.2500:     NULL VALUE
 COMP.                       CHESAPEAKE OPERATING INC.:     COMPANY
 WELL.                         UNIVERSITY_LANDS_4627-1:     WELL
 FLD .                                         WILDCAT:     FIELD
 LOC .   1200' FNL & 1995' FEL|Section: 27, Block: 46, Abstract: 2860|University Lands Survey:     LOCATION
 SEC .                                              27:     SECTION
 CNTY.                                       CULBERSON:     COUNTY
 STAT.                                           TEXAS:     STATE
 CTRY.                                             USA:     COUNTRY
 SRVC.                                    SCHLUMBERGER:     SERVICE COMPANY
 DATE.                                      11/15/2016:     DATE
 API .                                  42109322870000:     API NUMBER
 UWI .                                  42109322870000:     UWI NUMBER
 TVD .                                              NO:     TVD flag
 WSTA.                                             LOC:     Well status
#
~Curve Information Block
#MNEM.UNIT       API CODE      Curve Description
#----------    -------------   -------------------
 DEPT.FT                   :   Depth in Feet
 RM_HRLT.OHMM                 :   HRLTB Mud Resistivity
 RXOZ.OHMM                 :   Stan Res MicroCFL Resistivity
 RLA5.OHMM                 :   HRLTB Resistivity 5
 RLA4.OHMM                 :   HRLTB Resistivity 4
 RLA3.OHMM                 :   HRLTB Resistivity 3
 DTCO.US/F                 :   Delta-T Compressional
 DTSM.US/F                 :   Delta-T Shear Measurement
 SPHI.V/V                  :   Sonic Porosity [47.6]
 HSGR.GAPI                 :   HNGS Spectroscopy Gamma Ray
 HCGR.GAPI                 :   HNGS Computed Gamma Ray
 HCAL.IN                   :   HILT Caliper
 DPHI.V/V                  :   Density Porosity
 PEFZ.                     :   Std. Res. Formation PE
 HDRA.G/C3                 :   Density Correction
 RHOB.G/C3                 :   Std. Res. Formation Density
 APLC.V/V                  :   APS Near/Array Corrected Limestone Porosity
 PXND.V/V                  :   Crossplot Porosity For Neutron-Density
#
~Parameter Information Block
#MNEM.UNIT            Value               Description
#----------    --------------------    -------------------
 DATE.                 07-Jun-2007:    Date As Month-Day-Year
 RUN .                         ONE:    Run Number
 PDAT.                         UNK:    Permanent Datum
 EPD .FT                -9999.5000:    Elevation Of Perm. Datum
 LMF .                          KB:    Log Measured From
 FAPD.FT                   40.0000:    Feet Above Perm. Datum
 EKB .FT                 4323.0000:    Elevation Of Kelly Bushing
 TD  .FT                10370.0000:    Total Depth
 DFT .                   Fresh Mud:    Drilling Fluid Type
 DFD .LB/G                  8.6000:    Drilling Fluid Density
 RMS .OHMM                  0.4210:    Resistivity Of Mud Sample
 MST .DEGF                 97.0000:    Mud Sample Temperature
 RMF .OHMM                  0.4210:    Mud Filtrate Resistivity
 MFST.DEGF                 97.0000:    Mud Filtrate Sample Temperature
 MFSS.                        CALC:    Mud Filtrate Sample Source
 MCSS.                        CALC:    Mud Cake Sample Source
 RMB .OHMM                  0.2280:    Mud Resistivity At Bht
 BHT .DEGF                185.0000:    Bottom Hole Temperature
 MRT .DEGF                185.0000:    Maximum Recorded Temperature
 WSTA.                         LOC:    
 LATB.FT                    0.0000:    
 LONB.FT                    0.0000:    
#
~Other Information Block
<DescLogPlotStart>   NEURALOG PLOT DEFINITION
PLOTDEFVERSION: 3
LASFILE: E:\nds\projects\Texas Standard Oil LLC\pdf\42109322870000 D\42-109-322
DEPTHSCALE: 240.000000
RESOLUTION: 196
DEPTHLABELFREQ: 100.000000
HEAVYGRIDFREQ: 100.000000
MEDIUMGRIDFREQ: 50.000000
LIGHTGRIDFREQ: 10.000000
#
#   TRACK 1
#
STARTTRACK: 
 LEFTX: 0.500000 inch
 RIGHTX: 3.000000 inch
 SCALETYPE: Linear
 NUMCHARTDIVISIONS: 10
CURVE: RXOZ  0.200000   2000.000000 (0,0,255)      Solid             2     Y   
BACKUP: 2000.000000 20000000.000000 (0,0,255)      Solid             2    
CURVE: RLA5  0.200000   2000.000000 (0,131,131)    Dot               2     Y   
BACKUP: 2000.000000 20000000.000000 (0,131,131)    Dot               2    
CURVE: RLA4  0.200000   2000.000000 (255,0,255)    Short_Dash        2     Y   
BACKUP: 2000.000000 20000000.000000 (255,0,255)    Short_Dash        2    
CURVE: RLA3  0.200000   2000.000000 (255,0,0)      Medium_Dash       2     Y   
BACKUP: 2000.000000 20000000.000000 (255,0,0)      Medium_Dash       2    
CURVE: DTCO  240.000000 40.000000  (0,0,255)      Solid             2     N    
CURVE: DTSM  240.000000 40.000000  (0,131,131)    Dot               2     Y    
BACKUP: 440.000000 240.000000 (0,131,131)    Dot               2    
CURVE: SPHI  0.300000   -0.100000  (255,0,255)    Short_Dash        2     Y    
BACKUP: 0.700000   0.300000   (255,0,255)    Short_Dash        2    
CURVE: HSGR  0.000000   150.000000 (0,0,255)      Solid             2     Y    
BACKUP: 150.000000 300.000000 (0,0,255)      Solid             2    
CURVE: HCGR  0.000000   150.000000 (0,131,131)    Dot               2     N    
CURVE: HCAL  6.000000   16.000000  (255,0,255)    Short_Dash        2     Y    
BACKUP: -4.000000  6.000000   (255,0,255)    Short_Dash        2    
BACKUP: 16.000000  26.000000  (255,0,255)    Short_Dash        2    
ENDTRACK: 
#
#   TRACK 2
#
STARTTRACK: 
 LEFTX: 3.500000 inch
 RIGHTX: 8.500000 inch
 SCALETYPE: Linear
 NUMCHARTDIVISIONS: 10
CURVE: RM_HRLT 0.020000   200.000000 (255,131,0)    Solid             2     N  
CURVE: DPHI  0.300000   -0.100000  (255,0,0)      Solid             2     Y    
BACKUP: 0.700000   0.300000   (255,0,0)      Solid             2    
BACKUP: -0.100000  -0.500000  (255,0,0)      Solid             2    
CURVE: APLC  0.300000   -0.100000  (255,131,0)    Dot               2     Y    
BACKUP: 0.700000   0.300000   (255,131,0)    Dot               2    
BACKUP: 1.100000   0.700000   (255,131,0)    Dot               2    
CURVE: PXND  0.300000   -0.100000  (255,255,0)    Short_Dash        2     Y    
BACKUP: 0.700000   0.300000   (255,255,0)    Short_Dash        2    
ENDTRACK: 
#
#   TRACK 3
#
STARTTRACK: 
 LEFTX: 0.500000 inch
 RIGHTX: 5.500000 inch
 SCALETYPE: Linear
 NUMCHARTDIVISIONS: 10
ENDTRACK: 
#
#   TRACK 4
#
STARTTRACK: 
 LEFTX: 3.500000 inch
 RIGHTX: 6.000000 inch
 SCALETYPE: Linear
 NUMCHARTDIVISIONS: 10
CURVE: PEFZ  0.000000   10.000000  (0,0,255)      Solid             2     N    
ENDTRACK: 
#
#   TRACK 5
#
STARTTRACK: 
 LEFTX: 3.500000 inch
 RIGHTX: 4.750000 inch
 SCALETYPE: Linear
 NUMCHARTDIVISIONS: 10
CURVE: HDRA  -0.050000  0.200000   (0,131,131)    Solid             2     N    
ENDTRACK: 
#
#   TRACK 6
#
STARTTRACK: 
 LEFTX: 3.500000 inch
 RIGHTX: 8.500000 inch
 SCALETYPE: Linear
 NUMCHARTDIVISIONS: 10
CURVE: RHOB  2.000000   3.000000   (255,0,255)    Solid             2     Y    
BACKUP: 1.000000   2.000000   (255,0,255)    Solid             2    
ENDTRACK: 
<DescLogPlotEnd>
~A DEPTH     RM_HRLT             RXOZ             RLA5             RLA4             RLA3             DTCO             DTSM             SPHI             HSGR             HCGR             HCAL             DPHI             PEFZ             HDRA             RHOB             APLC             PXND            
# ...
    9124.000 0.89248204       46.23271419      61.21082496      72.00245951      81.55946094      57.76251227      108.03806228     0.07369971       95.36000467      77.46562693      10.49846266      0.02830558       3.66985632       -0.00221909      2.66666037       0.06848601       0.06679764      
    9124.500 0.89147004       44.68053751      68.82697669      70.71505381      72.48574014      57.17369971      108.71626298     0.07291462       83.47829576      72.81143633      10.49787825      0.02438786       3.73512891       -0.00295355      2.66662946       0.05449768       0.05383104      
    9125.000 0.89046648       57.50880392      185.65589430     201.35772299     145.94112924     57.56624141      109.39446367     0.07684004       72.80801591      61.80451509      10.49000202      0.01557297       3.85065706       -0.00165763      2.67393401       0.05456968       0.05049116      
    9125.500 0.88994353       70.71505381      168.11781507     177.46801978     145.50165824     59.14655841      110.07266436     0.08449330       66.97097494      55.41861872      10.45952082      0.01144711       3.94711918       -0.00123042      2.68466433       0.05913936       0.05697446      
    9126.000 0.88994183       110.02225308     121.49979334     118.25577431     150.86934487     60.71486760      111.00000000     0.09362684       71.01594436      60.51992520      10.46240539      0.01772772       3.84054766       -0.00093487      2.68329601       0.07235294       0.06994106      
    9126.500 0.88993844       117.19379782     76.69577241      68.82697669      137.85538240     60.91409029      112.84313725     0.09924240       83.01082209      68.00375974      10.41546711      0.04754519       3.68662865       0.00059203       2.65539955       0.08372549       0.08801572      
    9127.000 0.88993837       75.32445016      61.21082496      60.11637394      80.23429930      60.32960734      114.03921569     0.09378120       95.72543175      74.70443595      10.46060968      0.07564242       3.56299682       0.00301512       2.56212707       0.09705882       0.09901768      
    9127.500 0.88993862       41.90671983      59.04149174      51.10621037      57.69975937      60.31403337      113.82352941     0.09489696       104.65456652     83.57768764      10.49643875      0.08707150       3.45722751       0.01533582       2.56525389       0.09843137       0.09351670      
    9128.000 0.88993862       36.27438224      70.08000892      61.76549985      61.61201894      61.29538763      113.00490196     0.09893229       105.51284915     81.43738238      10.49148998      0.07296768       3.37079058       0.04562699       2.57386377       0.08624090       0.08055010      
    9128.500 0.88993862       39.34228449      68.82697669      60.66113124      70.49437133      61.88420020      112.25490196     0.10124043       98.90642088      77.77757291      10.44301303      0.07492654       3.40192668       0.10386608       2.58173441       0.07078431       0.07544204      
    9129.000 0.88993862       30.28624775      92.69231049      97.84757662      97.65997173      61.29538763      111.48692810     0.10117763       93.08010156      74.23474004      10.41883534      0.07962782       3.42476806       0.16209935       2.58318359       0.08019608       0.08094303      
    9129.500 0.88993862       20.54864450      83.93608386      86.23863741      86.23863741      60.31403337      108.24456448     0.09501472       89.44654956      70.46374347      10.40075506      0.08001959       3.42130850       0.19814598       2.56514933       0.07862745       0.07976424      
    9130.000 0.88993862       16.10662437      46.27843601      42.66965427      42.66965427      59.52894995      105.11384356     0.08397716       87.83182166      69.99518270      10.43115487      0.02948090       3.37876176       0.19892974       2.66296243       0.07529412       0.07249509      
    9130.500 0.88993862       25.51576796      75.59673890      59.04149174      59.04149174      57.40922473      102.27258463     0.06754037       83.26979312      68.55419540      10.53258225      0.02595495       3.33449607       0.17347468       2.65960450       0.06443137       0.05776031      
    9131.000 0.88993862       25.05954542      102.36198818     92.69231049      92.69231049      55.01472031      100.66414825     0.05210991       74.30764925      58.16181502      10.46122865      0.04922625       3.32742021       0.08264379       2.60426739       0.04665686       0.05108055      
    9131.500 0.88993862       60.11637394      130.59223692     130.37369322     130.37369322     52.85574092      99.78431373      0.04035877       65.72231240      53.59626837      10.45840151      0.06591577       3.33442130       0.03842008       2.59738325       0.02960869       0.04709992      
    9132.000 0.88993862       60.66113124      190.06179828     189.73294933     189.73294933     52.07065751      98.92156863      0.03461160       60.04149559      48.18117150      10.45846621      0.06395690       3.30068317       0.03047947       2.59741512       0.02435580       0.04204936      
    9132.500 0.88993862       72.65492509      230.53358672     229.94864708     229.94864708     52.26692836      99.11764706      0.03541019       58.13435452      47.48693596      10.45891819      0.06003918       3.26383029       0.02507262       2.60705080       0.01927911       0.03455636      
    9133.000 0.88993862       110.02225308     327.73708620     327.83938711     327.83938711     53.64082434      99.70588235      0.04841696       56.93807024      48.23544217      10.46066718      0.05024486       3.23339809       0.01276041       2.62279430       0.01461526       0.03292692      
    9133.500 0.88993862       203.18236877     429.59322120     429.59322120     429.59322120     55.21099117      100.17647059     0.05975662       56.55671577      48.50740633      10.43886017      0.05421482       3.21381994       0.00310023       2.62030859       0.01431373       0.03222004      
    9134.000 0.88993862       172.72966083     301.32956792     301.32956792     301.32956792     56.97742885      100.68627451     0.07274289       57.42281440      50.30066486      10.43936036      0.06391773       3.18184942       0.00316520       2.61356431       0.01470588       0.03654224      
    9134.500 0.88993862       102.36198818     188.39746271     188.39746271     188.39746271     58.74386654      100.81512605     0.08704612       60.31707761      50.93177053      10.43976010      0.07735553       3.13963732       0.00593714       2.57358571       0.02462745       0.04950884      
    9135.000 0.88993862       61.80301827      117.99175634     117.78998059     117.78998059     59.51951464      100.88076801     0.08704612       64.18267906      52.50386231      10.45342588      0.08785504       3.09415471       0.00834288       2.55140580       0.03519608       0.06424361      
    9135.500 0.88993862       42.45228374      90.97381061      81.69500800      81.69500800      58.92802299      100.96453962     0.08445535       70.30215517      56.89354563      10.46100621      0.09333986       3.14228589       0.01032417       2.55980657       0.05062745       0.07229862      
    9136.000 0.88993862       34.43907453      83.32971154      80.96135945      80.96135945      57.75036233      101.08410107     0.07543997       79.05081912      61.48290342      10.45399245      0.06516161       3.29647791       0.02970925       2.58027651       0.07112418       0.07583497      
    9136.500 0.88993862       27.98532138      77.10572599      75.32445016      75.32445016      57.16879110      101.67003274     0.07252208       86.37682210      67.50626150      10.45784615      0.04324518       3.48104714       0.04633063       2.60661553       0.07723137       0.07347741      
    9137.000 0.88993862       32.50664556      121.52904634     107.92654191     107.92654191     57.36997056      102.39393939     0.07300098       87.70009406      69.56230787      10.45890722      0.03261508       3.54775212       0.04850708       2.64433445       0.06680610       0.06483301      
