~Version Information
 VERS.                  2.0:   CWLS log ASCII Standard -VERSION 2.0
 WRAP.                   NO:   One line per depth step
~Well Information Block
#MNEM.UNIT     VALUE/NAME     DESCRIPTION
#---------     -----------    ---------------------------
 STRT.F              8580.0000: START DEPTH
 STOP.F             14491.0000: STOP DEPTH
 STEP.F                 0.5000: STEP DEPTH
 NULL.               -999.2500: NULL VALUE
 LOC .     1072' FWL & 424' FNL:  LOCATION
 FL2 .     A2085 SEC 12 BLK 113:  LOCATIONLINE2
 FL1 .     1072' FWL & 424' FNL:  LOCATIONLINE1
 CNTY.               CULBERSON:  COUNTY NAME
 FLD .              WOLFCAMP B:  FIELD NAME
 WELL.           DALE STATE 2H:  WELL NAME
 COMP.     CAPITAN ENERGY INC.:  COMPANY
 DMF .                      KB:  DRILL MEAS FROM
 PDAT.                      GL:  PERMANENT DATUM
 DATE.             11-Feb-2020:  DATE
 SVCO.             Halliburton:  SERVICECONAME
 PROV.                      TX:  PROVINCE
 STAT.                      TX:  STATE NAME
 CTRY.                     USA:  COUNTRY NAME
 HIDE.                        :  WELLNAMEOPERAT
 UWI .            42-109-33544:  UNIQUE WELL IDENTIFIER
 API .            42-109-33544:  API NUMBER
 RANG.                     N/A:  RANGE
 TOWN.                     N/A:  TOWNSHIP
 SECT.                     N/A:  SECTION
 SON .               906290231:  JOB NUMBER
 SRVC.             Halliburton:  SERVICE COMPANY
 LMF .                      KB:  LOG MEASURED FROM
 TVDS.ft           3291.000000:  TVDSS CORRECTN
 EGL .ft           3266.000000:  GROUND ELEVATION
 APD .ft             25.000000:  DEPTH ABOVE PD
 EPD .ft           3266.000000:  ELEVATION
 BAP .ft              0.000000:  GL ELEV ONSHORE
 GVFD.g               1.000000:  GRAVITY FIELD
 EKB .ft           3291.000000:  KB ELEVATION
 EDF .ft           3291.000000:  DF ELEVATION
~Parameter Information Block
#MNEM.UNIT       Value        Description
#---------     -----------    ---------------------------
 BARI.                     OFF:  BARITE CORR 
 BRMP.                      No:  BromidePresent 
 CSF5.        Conductor Casing:  Casing Func5 
 CSF6.        Conductor Casing:  Casing Func6 
 DATE.               07-Feb-20:  Run Date 
 DCS .               07-Feb-20:  DateCircEndT 
 DLAB.               07-Feb-20:  LogStartDateT 
 ENGI.                John Doe:  Engineer Name 
 LSRV.             OH WIRELINE:  NameOfService 
 LSTM.ucts  09.26.51 07-Feb-20:  Log Start Time 
 LTYP.                     RAW:  LogDataType 
 LUL .                  ODESSA:  LoggingUnitLoc 
 LUN .                12100315:  LoggingUnitNum 
 SCT1.               07-Feb-20:  StartDateRun1 
 TCS .                   09 26:  Time Ciculation Ended 
 TDCE.ucts  09.26.51 07-Feb-20:  Time Circ End 
 TLAB.                   09 26:  LogStartTimeT 
~Curve Information Block
#MNEM.UNIT                 API CODE     Curve Description
#---------               -----------    ---------------------------
 DEPT.F                 00 000 000 000:  Depth
 CCL .V                 00 000 000 000:  Casing Collar Locator
 NPHI_OH.pu             00 000 000 000:  NPHI_OH
 NPHI_CHI.decp          00 000 000 000:  NPHI_CHI
 GR  .api               00 000 000 000:  Gamma API
 GR_CHI.api             00 000 000 000:  GR_CHI
 RHOB_OH.g/cc           00 000 000 000:  RHOB_OH
 RHOB_CHI.g/cc          00 000 000 000:  RHOB_CHI
 PE_OH.b/e              00 000 000 000:  PE_OH
 PE_CHI.b/e             00 000 000 000:  PE_CHI
 LLS_CHI.ohmm           00 000 000 000:  LLS_CHI
 LLS_OH.ohmm            00 000 000 000:  LLS_OH
 LLD_OH.ohmm            00 000 000 000:  LLD_OH
 LLD_CHI.ohmm           00 000 000 000:  LLD_CHI
 DTC_OH.uspf            00 000 000 000:  DTC_OH
 DTC_CHI.uspf           00 000 000 000:  DTC_CHI
 SPHW_CHI.decp          00 000 000 000:  SPHW_CHI
#Other Information
#
#WARRANTY: Halliburton will use its best efforts to furnish customers with 
#accurate information and interpretations that are part of, and incident to, the services 
#provided.  However, Halliburton cannot and does not warrant the accuracy 
#or correctness of such information and interpretations.  Under no circumstances should any 
#such information or interpretation be relied upon as the sole basis for any drilling, 
#completion, production, or financial decision or any procedure involving any risk to the 
#safety of any drilling venture, drilling rig or its crew or any other third party.  The 
#Customer has full responsibility for all drilling, completion and production operation.  
#Halliburton makes no representations or warranties, either expressed or 
#implied, including, but not limited to, the implied warranties of merchantability or fitness 
#for a particular purpose, with respect to the services rendered.  In no event will 
#Halliburton be liable for failure to obtain any particular results or for 
#any damages, including, but not limited to, indirect, special or consequential damages, 
#resulting from the use of any information or interpretation provided by Halliburton.
#
~A    DEPT       CCL     NPHI_OH  NPHI_CHI    GR      GR_CHI   RHOB_OH  RHOB_CHI   PE_OH   PE_CHI LLS_CHI   LLS_OH     LLD_OH   LLD_CHI   DTC_OH   DTC_CHI SPHW_CHI 
# ...
   14055.0000    0.0000 -999.2500   0.0475 -999.2500  32.9267 -999.2500   2.6423 -999.2500 3.7231  51.3630 -999.2500  -999.2500  63.8594 -999.2500 63.4486 0.1121
   14055.5000  -24.7231 -999.2500   0.0467 -999.2500  31.8293 -999.2500   2.6434 -999.2500 3.6614  46.8087 -999.2500  -999.2500  57.7642 -999.2500 63.4561 0.1121
   14056.0000  -65.3293 -999.2500   0.0529 -999.2500  49.7627 -999.2500   2.6344 -999.2500 3.4866  41.4130 -999.2500  -999.2500  49.4939 -999.2500 64.8483 0.1220
   14056.5000  -23.9564 -999.2500   0.0528 -999.2500  39.8200 -999.2500   2.6358 -999.2500 3.4250  35.2733 -999.2500  -999.2500  42.1116 -999.2500 64.2067 0.1174
   14057.0000    0.0000 -999.2500   0.0552 -999.2500  35.9268 -999.2500   2.6335 -999.2500 3.3811  32.0965 -999.2500  -999.2500  38.1889 -999.2500 63.9878 0.1159
   14057.5000    0.0000 -999.2500   0.0625 -999.2500  49.5616 -999.2500   2.6234 -999.2500 3.2984  30.7401 -999.2500  -999.2500  35.8278 -999.2500 65.0074 0.1231
   14058.0000   15.4890 -999.2500   0.0635 -999.2500  45.1031 -999.2500   2.6221 -999.2500 3.3168  30.6201 -999.2500  -999.2500  35.7059 -999.2500 64.6000 0.1202
   14058.5000    0.0000 -999.2500   0.0652 -999.2500  47.5145 -999.2500   2.6191 -999.2500 3.3076  31.2549 -999.2500  -999.2500  36.1915 -999.2500 64.6560 0.1206
   14059.0000    0.0000 -999.2500   0.0629 -999.2500  46.3496 -999.2500   2.6210 -999.2500 3.3429  33.7112 -999.2500  -999.2500  39.1155 -999.2500 64.4030 0.1188
   14059.5000    0.0000 -999.2500   0.0574 -999.2500  37.2189 -999.2500   2.6277 -999.2500 3.4374  37.4532 -999.2500  -999.2500  44.0915 -999.2500 63.5964 0.1131
   14060.0000  -39.1194 -999.2500   0.0565 -999.2500  50.1818 -999.2500   2.6273 -999.2500 3.4701  42.9720 -999.2500  -999.2500  50.4623 -999.2500 64.4491 0.1192
   14060.5000    0.0000 -999.2500   0.0520 -999.2500  47.0084 -999.2500   2.6333 -999.2500 3.5846  49.2084 -999.2500  -999.2500  58.9741 -999.2500 64.1858 0.1173
   14061.0000    0.0000 -999.2500   0.0502 -999.2500  44.0689 -999.2500   2.6366 -999.2500 3.6594  53.0782 -999.2500  -999.2500  64.7562 -999.2500 63.9986 0.1160
   14061.5000   27.5347 -999.2500   0.0501 -999.2500  40.4879 -999.2500   2.6378 -999.2500 3.7039  54.7449 -999.2500  -999.2500  67.7857 -999.2500 63.7713 0.1144
   14062.0000  -44.7148 -999.2500   0.0514 -999.2500  35.5413 -999.2500   2.6374 -999.2500 3.6957  52.2462 -999.2500  -999.2500  65.1244 -999.2500 63.4534 0.1121
   14062.5000  -27.2176 -999.2500   0.0546 -999.2500  34.0919 -999.2500   2.6338 -999.2500 3.6410  48.2904 -999.2500  -999.2500  59.9178 -999.2500 63.3463 0.1114
   14063.0000    0.0000 -999.2500   0.0551 -999.2500  28.1481 -999.2500   2.6336 -999.2500 3.6176  45.3628 -999.2500  -999.2500  56.2869 -999.2500 62.9369 0.1085
   14063.5000    0.0000 -999.2500   0.0550 -999.2500  23.3255 -999.2500   2.6338 -999.2500 3.6174  44.5047 -999.2500  -999.2500  55.2420 -999.2500 62.5899 0.1060
   14064.0000   18.3409 -999.2500   0.0557 -999.2500  31.8960 -999.2500   2.6318 -999.2500 3.6040  46.0246 -999.2500  -999.2500  56.5742 -999.2500 63.1165 0.1097
   14064.5000  -49.9900 -999.2500   0.0522 -999.2500  34.1420 -999.2500   2.6354 -999.2500 3.6922  52.3915 -999.2500  -999.2500  64.8289 -999.2500 63.2315 0.1105
   14065.0000  -78.6774 -999.2500   0.0478 -999.2500  31.6439 -999.2500   2.6407 -999.2500 3.7911  58.6296 -999.2500  -999.2500  73.4257 -999.2500 63.0418 0.1092
   14065.5000    0.0000 -999.2500   0.0488 -999.2500  40.3175 -999.2500   2.6388 -999.2500 3.7965  62.3245 -999.2500  -999.2500  77.7433 -999.2500 63.6404 0.1134
   14066.0000    0.0000 -999.2500   0.0484 -999.2500  35.3793 -999.2500   2.6401 -999.2500 3.8064  60.9151 -999.2500  -999.2500  76.5462 -999.2500 63.3200 0.1112
   14066.5000   13.0508 -999.2500   0.0524 -999.2500  40.6273 -999.2500   2.6350 -999.2500 3.7110  55.9731 -999.2500  -999.2500  69.5097 -999.2500 63.7034 0.1139
   14067.0000  -30.0263 -999.2500   0.0533 -999.2500  35.9806 -999.2500   2.6347 -999.2500 3.6547  50.5273 -999.2500  -999.2500  62.6710 -999.2500 63.4009 0.1117
   14067.5000  -81.2476 -999.2500   0.0510 -999.2500  24.0386 -999.2500   2.6388 -999.2500 3.6897  49.3314 -999.2500  -999.2500  61.9989 -999.2500 62.6203 0.1062
   14068.0000    0.0000 -999.2500   0.0519 -999.2500  27.1057 -999.2500   2.6378 -999.2500 3.6747  48.8970 -999.2500  -999.2500  61.4463 -999.2500 62.8549 0.1079
   14068.5000    0.0000 -999.2500   0.0542 -999.2500  33.2017 -999.2500   2.6351 -999.2500 3.6880  51.1564 -999.2500  -999.2500  64.3525 -999.2500 63.2849 0.1109
   14069.0000   83.0022 -999.2500   0.0537 -999.2500  32.1910 -999.2500   2.6361 -999.2500 3.7409  54.2767 -999.2500  -999.2500  68.9808 -999.2500 63.2187 0.1105
   14069.5000  -14.8510 -999.2500   0.0548 -999.2500  33.5537 -999.2500   2.6344 -999.2500 3.7595  56.2993 -999.2500  -999.2500  71.5441 -999.2500 63.2638 0.1108
   14070.0000    0.0000 -999.2500   0.0551 -999.2500  38.9817 -999.2500   2.6328 -999.2500 3.7802  60.6440 -999.2500  -999.2500  76.6460 -999.2500 63.5645 0.1129
   14070.5000    0.0000 -999.2500   0.0522 -999.2500  33.7196 -999.2500   2.6362 -999.2500 3.8137  61.4612 -999.2500  -999.2500  77.9391 -999.2500 63.1418 0.1099
   14071.0000   62.2244 -999.2500   0.0488 -999.2500  30.1593 -999.2500   2.6404 -999.2500 3.8299  61.8687 -999.2500  -999.2500  78.7073 -999.2500 62.8806 0.1081
   14071.5000   89.5651 -999.2500   0.0507 -999.2500  37.1298 -999.2500   2.6374 -999.2500 3.7301  57.3557 -999.2500  -999.2500  71.8264 -999.2500 63.3498 0.1114
   14072.0000    0.0000 -999.2500   0.0492 -999.2500  25.2450 -999.2500   2.6405 -999.2500 3.7404  54.1932 -999.2500  -999.2500  68.6076 -999.2500 62.5764 0.1059
   14072.5000    0.0000 -999.2500   0.0514 -999.2500  25.9515 -999.2500   2.6378 -999.2500 3.7278  53.4324 -999.2500  -999.2500  67.5181 -999.2500 62.6138 0.1062
   14073.0000    0.0000 -999.2500   0.0522 -999.2500  28.2244 -999.2500   2.6365 -999.2500 3.7540  55.8794 -999.2500  -999.2500  70.5783 -999.2500 62.7329 0.1070
   14073.5000   23.2128 -999.2500   0.0485 -999.2500  27.5091 -999.2500   2.6407 -999.2500 3.8751  65.0158 -999.2500  -999.2500  83.0809 -999.2500 62.6348 0.1063
   14074.0000  -34.1383 -999.2500   0.0433 -999.2500  21.5779 -999.2500   2.6466 -999.2500 4.0106  75.4636 -999.2500  -999.2500  97.8305 -999.2500 62.1708 0.1030
   14074.5000  -90.7382 -999.2500   0.0419 -999.2500  32.5208 -999.2500   2.6461 -999.2500 4.0402  84.6044 -999.2500  -999.2500 108.4672 -999.2500 62.7462 0.1071
   14075.0000    0.0000 -999.2500   0.0427 -999.2500  32.8381 -999.2500   2.6441 -999.2500 4.0304  84.8937 -999.2500  -999.2500 107.8895 -999.2500 62.6612 0.1065
   14075.5000    0.0000 -999.2500   0.0441 -999.2500  33.9803 -999.2500   2.6416 -999.2500 3.9781  80.8509 -999.2500  -999.2500 101.4346 -999.2500 62.6736 0.1066
   14076.0000    0.0000 -999.2500   0.0438 -999.2500  24.4268 -999.2500   2.6424 -999.2500 3.9600  75.6444 -999.2500  -999.2500  95.0136 -999.2500 62.0615 0.1023
   14076.5000  -15.6970 -999.2500   0.0445 -999.2500  23.3442 -999.2500   2.6421 -999.2500 3.9069  69.9202 -999.2500  -999.2500  87.5161 -999.2500 62.0651 0.1023
   14077.0000  -16.0309 -999.2500   0.0429 -999.2500  24.5296 -999.2500   2.6452 -999.2500 3.9047  68.4610 -999.2500  -999.2500  86.4117 -999.2500 62.2897 0.1039
   14077.5000  -13.6867 -999.2500   0.0416 -999.2500  32.1864 -999.2500   2.6481 -999.2500 3.9218  70.5100 -999.2500  -999.2500  90.0639 -999.2500 62.9956 0.1089
   14078.0000    0.0000 -999.2500   0.0398 -999.2500  34.8521 -999.2500   2.6521 -999.2500 3.9738  74.3786 -999.2500  -999.2500  96.8978 -999.2500 63.4078 0.1118
   14078.5000    0.0000 -999.2500   0.0392 -999.2500  28.6554 -999.2500   2.6548 -999.2500 4.0185  74.0228 -999.2500  -999.2500  98.1248 -999.2500 63.1178 0.1097
   14079.0000   34.3606 -999.2500   0.0449 -999.2500  31.3013 -999.2500   2.6477 -999.2500 3.9304  67.0804 -999.2500  -999.2500  87.7613 -999.2500 63.3135 0.1111
   14079.5000   70.9128 -999.2500   0.0522 -999.2500  36.3759 -999.2500   2.6382 -999.2500 3.7953  58.4182 -999.2500  -999.2500  74.7160 -999.2500 63.6544 0.1135
