# Exported from Transform Software 5.2.0 on 27-Jun-2019 by user brian.umlang
# DI Transform - A Product of Drillinginfo, Inc. - www.drillinginfo.com
#
~VERSION INFORMATION
 VERS.        2.0 : LAS ASCII STANDARD - VERSION 2.0
 WRAP.         NO : ONE LINE PER DEPTH STEP

~WELL INFORMATION
#MNEM.UNIT       DATA TYPE       INFORMATION
#---------       ---------       -----------
 STRT.ft                   0 : Start Depth
 STOP.ft               12430 : Stop Depth
 STEP.ft                 0.5 : Step Length
 NULL.               -999.25 : Null Value
 COMP.                       : Company
 WELL.  42109313590000_API14 : Well Name
 FLD.                        : Field Name
 LOC.                        : Well Location
 CNTY.                       : County
 STAT.                       : State or Province
 CTRY.                       : Country
 SRVC.                       : Service Company
 DATE.                       : Date
 API.         42109313590000 : Well Identifier

~CURVE INFORMATION
#MNEM.UNIT       API CODE       CURVE DESCRIPTION
#---------       --------       -----------------
 DEPT.ft          : <Measured Depth>
 CAL.in           : Caliper
 DPHI.%           : Density Porosity
 DT.us/ft         : Sonic
 GR.gAPI          : Gamma Ray
 ILD.ohmm         : Deep Resistivity
 ILM.ohmm         : Medium Resistivity
 ILS.ohmm         : Shallow Resistivity
 NPHI.%           : Neutron Porosity
 RHOB.g/cm3       : Density
 SP.mV            : Spontaneous Potential

~PARAMETER INFORMATION
#MNEM.UNIT       VALUE       DESCRIPTION
#---------       -----       -----------
 EKB.ft      3771 : Elevation above MSL

~A      DEPT         CAL        DPHI          DT          GR         ILD         ILM         ILS        NPHI        RHOB          SP
# ...
      8692.5      9.5336     16.3216      84.871     76.9876     -999.25     -999.25     -999.25      12.615      2.4167     -999.25
        8693      9.6111     16.5725     89.4807     97.7908     -999.25     -999.25     -999.25     17.5844       2.433     -999.25
      8693.5      9.6111     16.6799     97.6052    102.2818     -999.25     -999.25     -999.25      17.885       2.454     -999.25
        8694      9.6111      16.263     99.0074    102.0605     -999.25     -999.25     -999.25     17.8887      2.4435     -999.25
      8694.5      9.6111     15.9053     99.1587    102.5258     -999.25     -999.25     -999.25     17.7899      2.4495     -999.25
        8695      9.6508     15.4408     99.3988     97.0475     -999.25     -999.25     -999.25     17.6587      2.4648     -999.25
      8695.5      9.6508     14.5921     98.6427     90.2386     -999.25     -999.25     -999.25     15.3059      2.4725     -999.25
        8696       9.631     14.2676     97.0272     83.3859     -999.25     -999.25     -999.25     13.4291      2.4996     -999.25
      8696.5        9.63     13.9587     93.7778     78.7753     -999.25     -999.25     -999.25     13.4226      2.5043     -999.25
        8697      9.5943     14.1752     91.8838     72.9167     -999.25     -999.25     -999.25     13.4353      2.4757     -999.25
      8697.5       9.631     14.4703     91.4297     81.2311     -999.25     -999.25     -999.25     16.3084      2.4815     -999.25
        8698      9.6508     14.7124    125.3707     89.3777     -999.25     -999.25     -999.25     17.9977      2.4612     -999.25
      8698.5      9.6508     14.8753     125.515     90.2778     -999.25     -999.25     -999.25     18.2846      2.4947     -999.25
        8699      9.6508     14.8098    125.9199     92.2535     -999.25     -999.25     -999.25     18.4242      2.4945     -999.25
      8699.5       9.637     14.4445    126.3965     96.4126     -999.25     -999.25     -999.25     18.2315      2.4945     -999.25
        8700       9.631     14.1902    126.5261     97.9172     -999.25     -999.25     -999.25     16.1724      2.4942     -999.25
      8700.5       9.631     14.0274    125.9696     98.2143     -999.25     -999.25     -999.25     15.9699      2.4899     -999.25
        8701      9.6508     10.5901    121.5363     96.9455     -999.25     -999.25     -999.25     14.4305       2.561     -999.25
      8701.5       9.631       8.146    117.9588      85.222     -999.25     -999.25     -999.25      9.9106      2.6277     -999.25
        8702      9.6111      4.9759    106.7039     68.1175     -999.25     -999.25     -999.25      8.6038      2.6185     -999.25
      8702.5      9.6111       4.889      85.737     61.9562     -999.25     -999.25     -999.25      7.5968       2.622     -999.25
        8703      9.6111      6.3428     82.1899      46.505     -999.25     -999.25     -999.25      2.4273      2.6398     -999.25
      8703.5      9.6001      7.5444     75.6579     42.2726     -999.25     -999.25     -999.25      2.1484      2.5486     -999.25
        8704      9.5119     10.3295     72.8746     50.9157     -999.25     -999.25     -999.25       4.052      2.5589     -999.25
      8704.5      9.5119     12.1822     72.2299     62.7875     -999.25     -999.25     -999.25      6.3411      2.5131     -999.25
        8705      9.5913     12.8694      79.752      82.641     -999.25     -999.25     -999.25     15.0066      2.4933     -999.25
      8705.5      9.6508     13.1507     87.8146     90.0269     -999.25     -999.25     -999.25     17.7014      2.4886     -999.25
        8706      9.6508     13.7955     92.0841     90.2778     -999.25     -999.25     -999.25     18.3563      2.4933     -999.25
      8706.5      9.6508     13.9761     97.6483     91.2698     -999.25     -999.25     -999.25     18.4557      2.4927     -999.25
        8707      9.6508     13.3648    100.0991     91.1925     -999.25     -999.25     -999.25     16.3627      2.4766     -999.25
      8707.5      9.6508     11.4812    114.5491     89.4296     -999.25     -999.25     -999.25     15.1862       2.487     -999.25
        8708       9.631      8.4661    111.8658     80.2027     -999.25     -999.25     -999.25     12.1579      2.5934     -999.25
      8708.5       9.631      7.8539     91.1814     73.3804     -999.25     -999.25     -999.25     10.7082      2.5934     -999.25
        8709       9.631       7.367     87.3532     60.7639     -999.25     -999.25     -999.25      8.9495      2.5924     -999.25
      8709.5       9.631      8.3886     84.8366     60.7639     -999.25     -999.25     -999.25      8.4796      2.5802     -999.25
        8710       9.631      9.6804     82.7455     72.0098     -999.25     -999.25     -999.25      8.4786      2.5833     -999.25
      8710.5       9.631     10.0522     82.4609     87.5662     -999.25     -999.25     -999.25     16.0429      2.5925     -999.25
        8711       9.631      8.8994     85.8915     98.0096     -999.25     -999.25     -999.25     15.8266      2.5574     -999.25
      8711.5       9.631      8.2643     90.8322      96.764     -999.25     -999.25     -999.25     15.0494      2.5882     -999.25
        8712      9.6189      8.3761     94.6548     92.2195     -999.25     -999.25     -999.25     14.3402      2.5856     -999.25
      8712.5       9.631      9.0283     94.0429     90.2778     -999.25     -999.25     -999.25      14.212      2.5353     -999.25
        8713      9.6508     11.6854     90.9889     95.6439     -999.25     -999.25     -999.25     15.7632      2.5265     -999.25
      8713.5      9.6706     12.7439     91.3984    100.6231     -999.25     -999.25     -999.25     17.4218      2.4985     -999.25
        8714      9.6905     12.7623     94.7086    101.1463     -999.25     -999.25     -999.25     17.6533      2.4985     -999.25
      8714.5      9.6905     12.6759    118.8919    103.2462     -999.25     -999.25     -999.25     17.9245      2.5074     -999.25
        8715      9.6905     11.5981    122.4196    103.4041     -999.25     -999.25     -999.25      17.392      2.5264     -999.25
      8715.5      9.6905     10.5122    121.1114     96.9881     -999.25     -999.25     -999.25      16.473      2.5407     -999.25
        8716      9.6384      8.3834    120.7924     89.2199     -999.25     -999.25     -999.25     12.6236      2.5515     -999.25
      8716.5       9.631       7.818     99.5862     83.4201     -999.25     -999.25     -999.25     10.7979      2.5676     -999.25
        8717      9.5714      6.3937     89.1556     71.4015     -999.25     -999.25     -999.25      7.7534      2.5862     -999.25
      8717.5      9.5714      5.6426     84.8234     68.3094     -999.25     -999.25     -999.25      6.5251      2.6582     -999.25
        8718       9.515      3.1741     79.8102     61.5268     -999.25     -999.25     -999.25        2.21      2.6673     -999.25
      8718.5      9.5119      3.1615     66.1886     53.7871     -999.25     -999.25     -999.25      0.9818      2.6403     -999.25
        8719      9.5893      5.5362     66.0907     46.6518     -999.25     -999.25     -999.25      1.5758      2.5591     -999.25
      8719.5      9.5913      10.187     67.3615      47.621     -999.25     -999.25     -999.25      3.5627       2.541     -999.25
        8720      9.5913     11.9494      69.885     73.8565     -999.25     -999.25     -999.25     12.6409      2.5357     -999.25
      8720.5      9.5913     12.1694     74.5634      76.617     -999.25     -999.25     -999.25     12.8434      2.5299     -999.25
        8721      9.6111     12.5307     83.1569    101.5207     -999.25     -999.25     -999.25     17.9665      2.4996     -999.25
      8721.5       9.631     11.3338     86.4607    102.7875     -999.25     -999.25     -999.25     16.6991      2.5234     -999.25
        8722       9.631     10.8523     91.3895     102.599     -999.25     -999.25     -999.25     14.5007      2.5528     -999.25
      8722.5       9.631      10.892     92.8882    102.1825     -999.25     -999.25     -999.25      9.1361      2.5924     -999.25
