~Version Information
 VERS.                  2.0:   CWLS log ASCII Standard -VERSION 2.0
 WRAP.                   NO:   One line per depth step
~Well Information Block
#MNEM.UNIT     VALUE/NAME     DESCRIPTION
#---------     -----------    ---------------------------
 STRT.F              8580.0000: START DEPTH
 STOP.F             14491.0000: STOP DEPTH
 STEP.F                 0.5000: STEP DEPTH
 NULL.               -999.2500: NULL VALUE
 LOC .     1072' FWL & 424' FNL:  LOCATION
 FL2 .     A2085 SEC 12 BLK 113:  LOCATIONLINE2
 FL1 .     1072' FWL & 424' FNL:  LOCATIONLINE1
 CNTY.               CULBERSON:  COUNTY NAME
 FLD .              WOLFCAMP B:  FIELD NAME
 WELL.           DALE STATE 2H:  WELL NAME
 COMP.     CAPITAN ENERGY INC.:  COMPANY
 DMF .                      KB:  DRILL MEAS FROM
 PDAT.                      GL:  PERMANENT DATUM
 DATE.             11-Feb-2020:  DATE
 SVCO.             Halliburton:  SERVICECONAME
 PROV.                      TX:  PROVINCE
 STAT.                      TX:  STATE NAME
 CTRY.                     USA:  COUNTRY NAME
 HIDE.                        :  WELLNAMEOPERAT
 UWI .            42-109-33544:  UNIQUE WELL IDENTIFIER
 API .            42-109-33544:  API NUMBER
 RANG.                     N/A:  RANGE
 TOWN.                     N/A:  TOWNSHIP
 SECT.                     N/A:  SECTION
 SON .               906290231:  JOB NUMBER
 SRVC.             Halliburton:  SERVICE COMPANY
 LMF .                      KB:  LOG MEASURED FROM
 TVDS.ft           3291.000000:  TVDSS CORRECTN
 EGL .ft           3266.000000:  GROUND ELEVATION
 APD .ft             25.000000:  DEPTH ABOVE PD
 EPD .ft           3266.000000:  ELEVATION
 BAP .ft              0.000000:  GL ELEV ONSHORE
 GVFD.g               1.000000:  GRAVITY FIELD
 EKB .ft           3291.000000:  KB ELEVATION
 EDF .ft           3291.000000:  DF ELEVATION
~Parameter Information Block
#MNEM.UNIT       Value        Description
#---------     -----------    ---------------------------
 BARI.                     OFF:  BARITE CORR 
 BRMP.                      No:  BromidePresent 
 CSF5.        Conductor Casing:  Casing Func5 
 CSF6.        Conductor Casing:  Casing Func6 
 DATE.               07-Feb-20:  Run Date 
 DCS .               07-Feb-20:  DateCircEndT 
 DLAB.               07-Feb-20:  LogStartDateT 
 ENGI.                John Doe:  Engineer Name 
 LSRV.             OH WIRELINE:  NameOfService 
 LSTM.ucts  09.26.51 07-Feb-20:  Log Start Time 
 LTYP.                     RAW:  LogDataType 
 LUL .                  ODESSA:  LoggingUnitLoc 
 LUN .                12100315:  LoggingUnitNum 
 SCT1.               07-Feb-20:  StartDateRun1 
 TCS .                   09 26:  Time Ciculation Ended 
 TDCE.ucts  09.26.51 07-Feb-20:  Time Circ End 
 TLAB.                   09 26:  LogStartTimeT 
~Curve Information Block
#MNEM.UNIT                 API CODE     Curve Description
#---------               -----------    ---------------------------
 DEPT.F                 00 000 000 000:  Depth
 CCL .V                 00 000 000 000:  Casing Collar Locator
 NPHI_OH.pu             00 000 000 000:  NPHI_OH
 NPHI_CHI.decp          00 000 000 000:  NPHI_CHI
 GR  .api               00 000 000 000:  Gamma API
 GR_CHI.api             00 000 000 000:  GR_CHI
 RHOB_OH.g/cc           00 000 000 000:  RHOB_OH
 RHOB_CHI.g/cc          00 000 000 000:  RHOB_CHI
 PE_OH.b/e              00 000 000 000:  PE_OH
 PE_CHI.b/e             00 000 000 000:  PE_CHI
 LLS_CHI.ohmm           00 000 000 000:  LLS_CHI
 LLS_OH.ohmm            00 000 000 000:  LLS_OH
 LLD_OH.ohmm            00 000 000 000:  LLD_OH
 LLD_CHI.ohmm           00 000 000 000:  LLD_CHI
 DTC_OH.uspf            00 000 000 000:  DTC_OH
 DTC_CHI.uspf           00 000 000 000:  DTC_CHI
 SPHW_CHI.decp          00 000 000 000:  SPHW_CHI
#Other Information
#
#WARRANTY: Halliburton will use its best efforts to furnish customers with 
#accurate information and interpretations that are part of, and incident to, the services 
#provided.  However, Halliburton cannot and does not warrant the accuracy 
#or correctness of such information and interpretations.  Under no circumstances should any 
#such information or interpretation be relied upon as the sole basis for any drilling, 
#completion, production, or financial decision or any procedure involving any risk to the 
#safety of any drilling venture, drilling rig or its crew or any other third party.  The 
#Customer has full responsibility for all drilling, completion and production operation.  
#Halliburton makes no representations or warranties, either expressed or 
#implied, including, but not limited to, the implied warranties of merchantability or fitness 
#for a particular purpose, with respect to the services rendered.  In no event will 
#Halliburton be liable for failure to obtain any particular results or for 
#any damages, including, but not limited to, indirect, special or consequential damages, 
#resulting from the use of any information or interpretation provided by Halliburton.
#
~A    DEPT       CCL     NPHI_OH  NPHI_CHI    GR      GR_CHI   RHOB_OH  RHOB_CHI   PE_OH   PE_CHI LLS_CHI   LLS_OH     LLD_OH   LLD_CHI   DTC_OH   DTC_CHI SPHW_CHI 
# ...
   10155.0000   51.1700   13.9400   0.0899   81.6967 103.4029    2.5830   2.5925    3.5967 3.3062  52.3780   22.0640    39.3589  62.1402   78.4151 71.5620 0.1695
   10155.5000    0.0000   13.1700   0.0850   79.7941  92.8837    2.5948   2.5992    3.5865 3.3163  45.3021   22.5960    40.6094  53.9471   76.5387 70.3981 0.1612
   10156.0000    0.0000   12.8500   0.0857   78.3512  93.6595    2.6049   2.5972    3.5431 3.3261  47.3166   22.5306    39.9762  56.0881   75.8645 70.2772 0.1604
   10156.5000  -27.2500   13.2400   0.0823   80.2648  90.5924    2.6010   2.6007    3.5153 3.3764  49.8942   22.3245    39.6162  59.3486   75.6828 69.8195 0.1571
   10157.0000    0.0000   13.7300   0.0760   82.2112  85.7801    2.5950   2.6087    3.5487 3.4334  51.1919   22.2594    39.4079  61.3617   75.3992 69.2780 0.1533
   10157.5000    0.0000   14.3100   0.0641   81.2993  70.9953    2.5956   2.6256    3.5724 3.4959  44.9968   21.2988    36.5896  54.8577   75.1020 67.9449 0.1439
   10158.0000  173.6245   14.5300   0.0606   80.1017  68.9820    2.5907   2.6296    3.5289 3.5050  44.7024   20.1362    34.6343  54.4770   75.0425 67.6693 0.1419
   10158.5000  514.7008   13.6900   0.0620   81.6880  71.2215    2.5824   2.6268    3.4986 3.4536  42.2795   20.0430    34.4761  50.8421   75.2451 67.7670 0.1426
   10159.0000    0.0000   13.9900   0.0633   85.5228  74.9930    2.5789   2.6236    3.4902 3.4223  41.9596   17.6730    30.0816  49.7539   75.4165 67.9784 0.1441
   10159.5000   77.6783   14.2400   0.0662   88.3516  80.6603    2.5736   2.6181    3.4344 3.3996  43.2060   14.9134    26.4716  50.4097   75.6900 68.3315 0.1466
   10160.0000    0.0000   14.0900   0.0710   85.7954  92.2901    2.5708   2.6094    3.3110 3.3684  48.0807   14.7766    26.2860  55.0395   75.9342 69.2192 0.1529
   10160.5000    0.0000   13.8000   0.0715   82.0744  89.1347    2.5722   2.6084    3.1478 3.3405  43.6658   14.4831    25.8095  49.5735   74.8693 68.8059 0.1500
   10161.0000   66.2241   13.6300   0.0674   83.9891  65.8404    2.5656   2.6163    2.9605 3.3023  31.5074   16.4070    32.4821  36.0238   73.2639 66.7018 0.1351
   10161.5000    0.0000   13.4300   0.0787   84.1358  81.3230    2.5574   2.5994    2.8459 3.2204  32.9385   22.2126    43.3180  36.6251   72.0134 67.8081 0.1429
   10162.0000    0.0000   11.7200   0.0821   71.0077  77.5640    2.5651   2.5950    2.9718 3.1860  30.2384   22.4306    43.9138  33.3879   69.5882 67.3134 0.1394
   10162.5000  -39.2093    7.9900   0.0827   56.8583  74.3597    2.5856   2.5943    3.3850 3.1977  30.3121   31.9670    67.0557  33.5420   66.8691 66.9228 0.1367
   10163.0000  -11.2226    6.9500   0.0825   51.6134  79.6580    2.6026   2.5934    3.8305 3.2713  37.0580  125.7902   396.4916  41.2477   60.0332 67.2659 0.1391
   10163.5000    0.0000    6.3400   0.0749   44.5447  66.3749    2.6128   2.6045    3.9818 3.3854  38.8097  137.3736   440.7126  44.3312   57.0366 66.1080 0.1309
   10164.0000   66.2791    4.8600   0.0678   35.5230  54.5372    2.6268   2.6145    3.9977 3.4907  41.0183  179.0321   558.1276  47.9023   58.2852 65.1062 0.1238
   10164.5000  -73.0876    4.3600   0.0683   34.2739  59.1705    2.6423   2.6128    4.1020 3.4943  43.7727   50.8809    71.6300  50.9326   58.5000 65.3780 0.1257
   10165.0000    0.0000    4.3400   0.0674   43.6930  54.8865    2.6400   2.6142    4.0818 3.4624  40.8981   30.6935    53.7029  47.5010   58.5000 64.9865 0.1230
   10165.5000    0.0000    5.5300   0.0661   56.7806  52.8944    2.6269   2.6157    3.9029 3.4527  40.2667   29.8291    52.3482  46.7482   59.9903 64.7868 0.1215
   10166.0000  -16.9287   11.2800   0.0659   67.7389  51.4632    2.6356   2.6161    3.9036 3.4321  39.0152   25.3414    43.0583  45.2354   67.6480 64.6610 0.1207
   10166.5000    0.0000   11.2100   0.0659   71.3679  57.6112    2.6615   2.6154    4.1259 3.4107  39.9899   37.9162    56.8766  46.1581   69.0900 65.1478 0.1241
   10167.0000    0.0000   10.4600   0.0664   70.4396  62.0178    2.6486   2.6146    4.0739 3.4122  41.6281   41.2767    62.8437  48.0234   70.2919 65.5176 0.1267
   10167.5000    0.0000   10.8100   0.0588   74.4682  48.3378    2.5860   2.6255    3.5561 3.4913  41.6556   45.4179    65.2111  49.0482   71.5417 64.5012 0.1195
   10168.0000  -18.3327   12.9100   0.0530   77.8969  44.6488    2.5330   2.6328    3.1267 3.5918  46.4153   43.7160    56.1108  55.3937   74.2871 64.2338 0.1176
   10168.5000    0.0000   13.3500   0.0524   82.4576  51.3069    2.5252   2.6322    3.1041 3.6226  50.6977   48.8367    54.8181  60.1664   78.0072 64.6911 0.1209
   10169.0000    0.0000   13.0800   0.0488   89.7441  42.1646    2.5361   2.6370    3.1545 3.6754  51.1017   45.8680    53.2183  61.1341   79.9711 63.9882 0.1159
   10169.5000  -52.9554   15.8300   0.0531   95.8527  50.4099    2.5330   2.6305    2.9993 3.6044  49.2151   46.9987    51.1025  57.8292   80.9993 64.5589 0.1199
   10170.0000   43.2035   16.9100   0.0530   97.8911  46.3875    2.5342   2.6310    2.7568 3.5522  44.8667   46.3121    50.3424  52.4457   82.1608 64.2700 0.1179
   10170.5000    0.0000   17.2900   0.0530   92.8597  49.9918    2.5510   2.6310    2.6981 3.5144  43.4219   69.9261    75.4114  50.5574   81.9836 64.6103 0.1203
   10171.0000    0.0000   14.8100   0.0491   89.2197  48.6193    2.5745   2.6364    2.9032 3.5566  45.2128   71.3528    81.2827  53.2469   81.0742 64.5933 0.1202
   10171.5000  -34.1829   13.6100   0.0441   89.8174  40.4344    2.5989   2.6444    3.1290 3.6597  48.5322   73.2287    83.1668  58.6471   81.5463 64.0935 0.1166
   10172.0000  -28.4149   12.7000   0.0395   97.0821  34.8753    2.5959   2.6516    3.1341 3.7934  54.7589   92.8427    96.4632  68.0304   82.0273 63.8007 0.1146
   10172.5000    0.0000   14.1200   0.0432  105.7896  51.3411    2.5607   2.6464    2.9986 3.7757  59.7924   63.2982    66.9687  73.9254   83.1437 65.1265 0.1240
   10173.0000    0.0000   14.8900   0.0475  102.8754  62.9138    2.5446   2.6410    2.8886 3.7275  62.6842   61.3395    66.1750  77.1716   84.7644 66.2097 0.1316
   10173.5000   78.2957   14.6900   0.0468   95.6228  60.1577    2.5591   2.6440    2.7587 3.6920  57.4538   60.6311    66.0201  71.3322   85.7735 66.1910 0.1315
   10174.0000  -48.8789   14.6500   0.0477   93.1991  63.1733    2.5510   2.6437    2.5684 3.6637  57.0747   61.5957    67.2479  71.1103   85.6164 66.6092 0.1344
   10174.5000    0.0000   15.5300   0.0529   97.1215  76.4251    2.5177   2.6362    2.4521 3.6473  67.2479   74.3448    77.8051  83.3332   85.5775 67.8474 0.1432
   10175.0000  -15.8545   15.9800   0.0454  105.8619  64.0180    2.4950   2.6484    2.4751 3.7787  67.7905   75.2539    81.7510  86.4647   84.7736 66.9804 0.1371
   10175.5000    0.0000   16.3200   0.0506  106.8307  76.4961    2.4874   2.6408    2.5376 3.8405  90.1321  118.9606   149.7439 114.9431   81.4051 68.2452 0.1460
   10176.0000  -30.6522   16.2900   0.0579   98.4166  86.8461    2.5175   2.6308    2.6826 3.8277 106.9187  133.2648   145.7072 135.4341   77.2562 69.3766 0.1540
   10176.5000    0.0000   11.0600   0.0628   83.5884  92.9949    2.5744   2.6248    3.0457 3.8154 118.2655  132.2770   144.5684 149.2520   76.3065 70.1682 0.1596
   10177.0000   14.8138    9.6800   0.0670   86.9525  98.1674    2.5889   2.6194    3.2965 3.7547 118.1950  109.1432   115.7554 147.8313   75.5470 70.7698 0.1639
   10177.5000   48.3926   11.2400   0.0701  109.0410 100.5357    2.5588   2.6164    3.1612 3.6768 108.4587   80.0648    95.1688 134.7519   76.3365 71.1560 0.1666
   10178.0000    0.0000   13.1700   0.0688  112.6295  93.5976    2.5436   2.6206    3.0728 3.6122  83.9609   80.1690    93.8029 104.4026   77.8547 70.7224 0.1635
   10178.5000   41.8646   12.8200   0.0795   98.7176 106.8365    2.5713   2.6059    3.3206 3.5544  96.1874   91.2336    97.7820 117.9887   79.3237 72.1209 0.1734
   10179.0000  -21.5788   11.8200   0.0840   92.7776 102.6321    2.5931   2.6029    3.5855 3.4858  76.0155   90.8476    99.4406  93.2314   80.6387 72.0568 0.1730
   10179.5000    0.0000   12.7500   0.0918   99.8332 108.0157    2.5682   2.5940    3.5680 3.4438  73.5001   86.5651    97.0771  89.5242   81.9440 72.8802 0.1788
