~Version Information
 VERS.                  2.0:   CWLS log ASCII Standard -VERSION 2.0
 WRAP.                   NO:   One line per depth step
~Well Information Block
#MNEM.UNIT     VALUE/NAME     DESCRIPTION
#---------     -----------    ---------------------------
 STRT.F              8564.0000: START DEPTH
 STOP.F             14132.0000: STOP DEPTH
 STEP.F                 0.5000: STEP DEPTH
 NULL.                 -999.25: NULL VALUE
 FL6 .       API  42-109-33219:  LOCATIONLINE6
 LOC .     253' FEL & 408' FNL:  LOCATION
 FL4 .           ABSTRACT 1760:  LOCATIONLINE4
 FL3 .        T&P RR CO SURVEY:  LOCATIONLINE3
 FL2 .     SECTION 32, BLOCK 58 T2:  LOCATIONLINE2
 FL1 .     253' FEL & 408' FNL:  LOCATIONLINE1
 DMF .                      KB:  DRILL MEAS FROM
 PDAT.                      GL:  PERMANENT DATUM
 CTRY.                     USA:  COUNTRY NAME
 PROV.                   TEXAS:  PROVINCE
 STAT.                   TEXAS:  STATE NAME
 CNTY.               CULBERSON:  COUNTY NAME
 FLD .     FORD, WEST (WOLFCAMP):  FIELD NAME
 WELL.        MOTHER FEE 28 2H:  WELL NAME
 COMP.     CAPITAN ENERGY INC.:  COMPANY
 DATE.             24-Jan-2018:  DATE
 SVCO.             Halliburton:  SERVICECONAME
 HIDE.                        :  WELLNAMEOPERAT
 BASI.                 PERMIAN:  BASIN
 UWI .            42-109-33219LAT:  UNIQUE WELL IDENTIFIER
 API .            42-109-33219LAT:  API NUMBER
 RANG.                     N/A:  RANGE
 TOWN.                     N/A:  TOWNSHIP
 SECT.                     N/A:  SECTION
 SON .               904563795:  JOB NUMBER
 SRVC.             Halliburton:  SERVICE COMPANY
 LMF .                      KB:  LOG MEASURED FROM
 EGL .ft             3142.0000:  GROUND ELEVATION
 BAP .ft                0.0000:  GL ELEV ONSHORE
 GVFD.g                 1.0000:  GRAVITY FIELD
 EKB .ft             3167.0000:  KB ELEVATION
 EDF .ft             3166.0000:  DF ELEVATION
~Curve Information Block
#MNEM.UNIT                 API CODE     Curve Description
#---------               -----------    ---------------------------
 DEPT.F                 00 000 000 000:  Depth
 CCL .V                 00 000 000 000:  Casing Collar Locator
 NPHI_OH.pu             00 000 000 000:  NPHI_OH
 NPHI_CHI.pu            00 000 000 000:  NPHI_CHI
 GR_OH.api              00 000 000 000:  GR_OH
 GR_CHI.api             00 000 000 000:  GR_CHI
 RHOB_OH.g/cc           00 000 000 000:  RHOB_OH
 RHOB_CHI.g/cc          00 000 000 000:  RHOB_CHI
 PE_OH.b/e              00 000 000 000:  PE_OH
 PE_CHI.b/e             00 000 000 000:  PE_CHI
 DTC_OH.uspf            00 000 000 000:  DTC_OH
 DTC_CHI.uspf           00 000 000 000:  DTC_CHI
 SPHI_CHI.pu            00 000 000 000:  SPHI_CHI
 RT10_OH.ohmm           00 000 000 000:  RT10_OH
 RT10_CHI.ohmm          00 000 000 000:  RT10_CHI
 RT30_OH.ohmm           00 000 000 000:  RT30_OH
 RT30_CHI.ohmm          00 000 000 000:  RT30_CHI
 RT90_OH.ohmm           00 000 000 000:  RT90_OH
 RT90_CHI.ohmm          00 000 000 000:  RT90_CHI
 SGF .cu                00 000 000 000:  Formation Sigma
 CRNF.NONE              00 000 000 000:  CaptMode Capt Ratio
 RIN .NONE              00 000 000 000:  CaptMode Gross Inel Ratio
#Other Information
#
#WARRANTY: Halliburton will use its best efforts to furnish customers with 
#accurate information and interpretations that are part of, and incident to, the services 
#provided.  However, Halliburton cannot and does not warrant the accuracy 
#or correctness of such information and interpretations.  Under no circumstances should any 
#such information or interpretation be relied upon as the sole basis for any drilling, 
#completion, production, or financial decision or any procedure involving any risk to the 
#safety of any drilling venture, drilling rig or its crew or any other third party.  The 
#Customer has full responsibility for all drilling, completion and production operation.  
#Halliburton makes no representations or warranties, either expressed or 
#implied, including, but not limited to, the implied warranties of merchantability or fitness 
#for a particular purpose, with respect to the services rendered.  In no event will 
#Halliburton be liable for failure to obtain any particular results or for 
#any damages, including, but not limited to, indirect, special or consequential damages, 
#resulting from the use of any information or interpretation provided by Halliburton.
#
~A    DEPT       CCL    NPHI_OH NPHI_CHI  GR_OH    GR_CHI  RHOB_OH RHOB_CHI  PE_OH   PE_CHI   DTC_OH  DTC_CHI SPHI_CHI RT10_OH  RT10_CHI RT30_OH  RT30_CHI RT90_OH  RT90_CHI   SGF    CRNF   RIN   
# ...
   14108.0000    0.0000 -999.25  10.4439  -999.25 112.2392 -999.25   2.5770 -999.25    3.4006 -999.25 72.0641  17.3000  -999.25  26.8781  -999.25  24.1932  -999.25  25.5263 29.0196 1.0651 1.0807
   14108.5000    0.0000 -999.25  10.2518  -999.25 103.0043 -999.25   2.5789 -999.25    3.3846 -999.25 72.1234  17.3400  -999.25  27.6095  -999.25  24.9481  -999.25  26.2636 29.2642 1.0840 1.0819
   14109.0000    0.0000 -999.25  10.1502  -999.25  97.7876 -999.25   2.5804 -999.25    3.3743 -999.25 72.0124  17.2600  -999.25  27.4665  -999.25  24.7883  -999.25  25.9998 29.3454 1.1061 1.0817
   14109.5000   36.3129 -999.25  10.1489  -999.25  95.0334 -999.25   2.5809 -999.25    3.3602 -999.25 71.9681  17.2300  -999.25  27.1947  -999.25  24.4713  -999.25  25.5703 29.3822 1.1219 1.0826
   14110.0000   36.9835 -999.25  10.3527  -999.25  96.7565 -999.25   2.5786 -999.25    3.3397 -999.25 72.3790  17.5200  -999.25  27.2824  -999.25  24.4960  -999.25  25.5530 29.2621 1.1247 1.0817
   14110.5000   37.1297 -999.25  10.3740  -999.25  90.4976 -999.25   2.5780 -999.25    3.3141 -999.25 72.6851  17.7400  -999.25  28.7353  -999.25  25.9473  -999.25  27.0625 29.1315 1.1095 1.0829
   14111.0000    0.0000 -999.25  10.8679  -999.25  96.9068 -999.25   2.5736 -999.25    3.3096 -999.25 73.6862  18.4500  -999.25  27.7734  -999.25  24.9745  -999.25  25.9671 28.7600 1.0791 1.0840
   14111.5000    0.0000 -999.25  11.0999  -999.25  98.9221 -999.25   2.5723 -999.25    3.3213 -999.25 74.1776  18.8000  -999.25  26.4253  -999.25  23.6915  -999.25  24.5404 28.2211 1.0530 1.0851
   14112.0000    0.0000 -999.25  11.1499  -999.25 104.1064 -999.25   2.5721 -999.25    3.3526 -999.25 74.1881  18.8000  -999.25  24.5388  -999.25  21.9314  -999.25  22.6979 27.4950 1.0363 1.0873
   14112.5000    0.0000 -999.25  10.9442  -999.25 108.4587 -999.25   2.5738 -999.25    3.3932 -999.25 73.6300  18.4100  -999.25  23.6495  -999.25  21.1650  -999.25  22.0104 26.8084 1.0306 1.0839
   14113.0000    0.0000 -999.25  10.6175  -999.25 108.4040 -999.25   2.5774 -999.25    3.4483 -999.25 72.9951  17.9600  -999.25  23.3392  -999.25  21.0284  -999.25  22.0189 26.0761 1.0253 1.0776
   14113.5000    0.0000 -999.25  10.0571  -999.25 100.5947 -999.25   2.5828 -999.25    3.4742 -999.25 72.1666  17.3700  -999.25  25.9290  -999.25  23.6888  -999.25  25.0482 25.5600 1.0080 1.0672
   14114.0000    0.0000 -999.25   9.8140  -999.25  97.0902 -999.25   2.5845 -999.25    3.4980 -999.25 71.9805  17.2400  -999.25  28.6966  -999.25  26.6504  -999.25  28.4762 25.1886 0.9913 1.0542
   14114.5000    0.0000 -999.25   9.5045  -999.25  91.5817 -999.25   2.5867 -999.25    3.5167 -999.25 71.6548  17.0100  -999.25  33.0052  -999.25  31.2634  -999.25  33.8000 24.9947 0.9868 1.0444
   14115.0000    0.0000 -999.25   9.0956  -999.25  87.8653 -999.25   2.5902 -999.25    3.5368 -999.25 70.6949  16.3300  -999.25  39.4342  -999.25  38.0532  -999.25  41.7049 24.6763 0.9906 1.0361
   14115.5000    0.0000 -999.25   8.8461  -999.25  89.7538 -999.25   2.5928 -999.25    3.5631 -999.25 69.5893  15.5500  -999.25  44.1993  -999.25  43.0207  -999.25  47.6349 24.1794 0.9818 1.0298
   14116.0000    0.0000 -999.25   9.0499  -999.25 101.8052 -999.25   2.5902 -999.25    3.5748 -999.25 68.6505  14.8900  -999.25  46.0914  -999.25  44.8403  -999.25  50.1076 23.5270 0.9560 1.0221
   14116.5000    0.0000 -999.25   8.8910  -999.25  97.8012 -999.25   2.5910 -999.25    3.5828 -999.25 68.3572  14.6800  -999.25  50.8371  -999.25  50.1683  -999.25  56.4732 22.6612 0.9214 1.0123
   14117.0000    0.0000 -999.25   8.7214  -999.25  97.5186 -999.25   2.5939 -999.25    3.6323 -999.25 67.7853  14.2800  -999.25  54.1714  -999.25  54.0480  -999.25  61.3316 22.0839 0.9016 1.0061
   14117.5000    0.0000 -999.25   8.2783  -999.25  96.6495 -999.25   2.6024 -999.25    3.7415 -999.25 66.5241  13.3800  -999.25  60.6190  -999.25  61.4078  -999.25  70.5924 21.6761 0.9006 1.0043
   14118.0000    0.0000 -999.25   7.4487  -999.25  88.8283 -999.25   2.6171 -999.25    3.8762 -999.25 64.8810  12.2200  -999.25  72.0833  -999.25  74.2626  -999.25  86.3587 21.6151 0.9141 1.0084
   14118.5000    0.0000 -999.25   7.6128  -999.25 100.5561 -999.25   2.6187 -999.25    3.9397 -999.25 64.4917  11.9500  -999.25  70.6547  -999.25  72.4127  -999.25  84.7934 21.7242 0.9292 1.0129
   14119.0000    0.0000 -999.25   7.3098  -999.25  93.7959 -999.25   2.6226 -999.25    3.9651 -999.25 64.1973  11.7400  -999.25  74.9438  -999.25  77.4375  -999.25  90.7868 22.1220 0.9395 1.0173
   14119.5000    0.0000 -999.25   7.4857  -999.25  95.7873 -999.25   2.6196 -999.25    3.9419 -999.25 64.5087  11.9600  -999.25  72.2588  -999.25  74.4653  -999.25  87.1628 22.5489 0.9438 1.0219
   14120.0000    0.0000 -999.25   7.7530  -999.25  96.6227 -999.25   2.6138 -999.25    3.8770 -999.25 65.0866  12.3700  -999.25  68.5223  -999.25  70.2795  -999.25  81.8615 22.9720 0.9433 1.0251
   14120.5000    0.0000 -999.25   7.8087  -999.25  92.5950 -999.25   2.6109 -999.25    3.8195 -999.25 65.6034  12.7300  -999.25  66.5750  -999.25  68.0468  -999.25  78.7417 23.5369 0.9577 1.0308
   14121.0000    0.0000 -999.25   7.7561  -999.25  86.6062 -999.25   2.6101 -999.25    3.7733 -999.25 66.0920  13.0800  -999.25  64.9375  -999.25  66.1228  -999.25  75.9376 24.2107 0.9847 1.0377
   14121.5000    0.0000 -999.25   8.4449  -999.25 103.3278 -999.25   2.6025 -999.25    3.7369 -999.25 66.7140  13.5200  -999.25  53.8612  -999.25  53.4452  -999.25  60.9356 25.3153 1.0305 1.0473
   14122.0000    0.0000 -999.25   8.4027  -999.25  96.8633 -999.25   2.6000 -999.25    3.6616 -999.25 67.0742  13.7700  -999.25  54.7459  -999.25  54.2092  -999.25  61.4340 26.3975 1.0660 1.0562
   14122.5000    0.0000 -999.25   8.7384  -999.25  95.4375 -999.25   2.5922 -999.25    3.5348 -999.25 68.0342  14.4500  -999.25  51.1185  -999.25  49.8962  -999.25  55.8453 27.1156 1.0793 1.0608
   14123.0000   -999.25 -999.25   9.0998  -999.25  87.7278 -999.25   2.5848 -999.25    3.4074 -999.25 69.7117  15.6400  -999.25  47.5284  -999.25  45.9198  -999.25  50.5842 27.2384 1.0725 1.0592
   14123.5000   -999.25 -999.25   9.5948  -999.25  87.2873 -999.25   2.5793 -999.25    3.3537 -999.25 71.1809  16.6800  -999.25  43.0956  -999.25  41.1852  -999.25  44.8393 26.9219 1.0531 1.0546
   14124.0000   -999.25 -999.25  10.1349  -999.25  96.6951 -999.25   2.5749 -999.25    3.3402 -999.25 72.0474  17.2900  -999.25  36.9580  -999.25  34.5838  -999.25  37.2094 26.5777 1.0450 1.0503
   14124.5000   -999.25 -999.25  -999.25  -999.25 100.7842 -999.25  -999.25 -999.25 -595.0052 -999.25 -999.25  -999.25  -999.25  -999.25  -999.25  -999.25  -999.25  -999.25 26.5432 1.0428 1.0492
   14125.0000   -999.25 -999.25  -999.25  -999.25  -999.25 -999.25  -999.25 -999.25 -595.0052 -999.25 -999.25  -999.25  -999.25  -999.25  -999.25  -999.25  -999.25  -999.25 26.7584 1.0440 1.0496
   14125.5000   -999.25 -999.25  -999.25  -999.25  -999.25 -999.25  -999.25 -999.25 -595.0052 -999.25 -999.25  -999.25  -999.25  -999.25  -999.25  -999.25  -999.25  -999.25 26.9118 1.0405 1.0504
   14126.0000   -999.25 -999.25  -999.25  -999.25  -999.25 -999.25  -999.25 -999.25 -595.0052 -999.25 -999.25  -999.25  -999.25  -999.25  -999.25  -999.25  -999.25  -999.25 27.0240 1.0307 1.0504
   14126.5000   -999.25 -999.25  -999.25  -999.25  -999.25 -999.25  -999.25 -999.25 -917.7473 -999.25 -999.25  -999.25  -999.25  -999.25  -999.25  -999.25  -999.25  -999.25 27.0012 1.0218 1.0492
   14127.0000   -999.25 -999.25  -999.25  -999.25  -999.25 -999.25  -999.25 -999.25 -917.7473 -999.25 -999.25  -999.25  -999.25  -999.25  -999.25  -999.25  -999.25  -999.25 27.0497 1.0166 1.0513
   14127.5000   -999.25 -999.25  -999.25  -999.25  -999.25 -999.25  -999.25 -999.25 -917.7473 -999.25 -999.25  -999.25  -999.25  -999.25  -999.25  -999.25  -999.25  -999.25 27.1607 1.0225 1.0528
   14128.0000   -999.25 -999.25  -999.25  -999.25  -999.25 -999.25  -999.25 -999.25 -917.7473 -999.25 -999.25  -999.25  -999.25  -999.25  -999.25  -999.25  -999.25  -999.25 27.3818 1.0363 1.0545
   14128.5000   -999.25 -999.25  -999.25  -999.25  -999.25 -999.25  -999.25 -999.25   -999.25 -999.25 -999.25  -999.25  -999.25  -999.25  -999.25  -999.25  -999.25  -999.25 27.4449 1.0547 1.0555
