~VERSION INFORMATION
VERS. 2.0 : CWLS Log ASCII Standard - Version 2.0
WRAP. NO : One line per depth step
#--------------------------------------------------#
#----------------DRILLING INFO, INC.---------------#
#---------------WWW.DRILLINGINFO.COM---------------#
#------------------COPYRIGHT 2015------------------#
#--------------------------------------------------#
#THIS FILE MAY BE USED ONLY IN ACCORDANCE WITH A CURRENT SUBSCRIPTION AGREEMENT BETWEEN
#THE USER AND DRILLING INFO, INC. NO PART OF THIS FILE MAY BE REPRODUCED, USED, COPIED,
#MODIFIED, PROPAGATED, OR DISTRIBUTED EXCEPT IN ACCORDANCE WITH THE SUBSCRIPTION
#AGREEMENT. UNAUTHORIZED USE OR DISTRIBUTION OF ALL OR ANY PART OF THIS FILE MAY VIOLATE
#COPYRIGHT, TRADEMARK, AND/OR OTHER LAWS AND IS SUBJECT TO CIVIL AS WELL AS CRIMINAL
#SANCTIONS.
#--------------------------------------------------#
#THIS FILE IS PROVIDED "AS-IS" AND ALL WARRANTIES ARE EXPRESSLY DISCLAIMED, WHETHER
#EXPRESS, ORAL, IMPLIED, STATUTORY OR OTHERWISE, INCLUDING ANY IMPLIED WARRANTY OF FITNESS
#FOR A PARTICULAR PURPOSE, MERCHANTABILITY, TITLE OR NON-INFRINGEMENT, AND ANY WARRANTIES
#ARISING BY VIRTUE OF CUSTOM OF TRADE OR COURSE OF DEALING.  FURTHER, DRILLING INFO,
#INC. AND ITS LICENSORS DO NOT REPRESENT OR WARRANT THAT THIS FILE WILL MEET USER'S
#REQUIREMENTS OR ARE SUITABLE FOR USER'S NEEDS OR THAT THE DATA OR RESULTS PROVIDED IN
#CONJUNCTION THEREWITH ARE CORRECT, ACCURATE, TIMELY OR RELIABLE. THESE DISCLAIMERS SHALL
#APPLY REGARDLESS OF ANY FAILURE OF ESSENTIAL PURPOSE OF ANY LIMITED REMEDY.  SOME
#JURISDICTIONS DO NOT ALLOW THE EXCLUSION OF CERTAIN WARRANTIES SO SOME OF THE ABOVE
#EXCLUSIONS MAY NOT APPLY. IN NO EVENT SHALL DRILLING INFO, INC. OR ANY OF ITS AFFILIATES
#BE LIABLE UNDER ANY LEGAL THEORY, WHETHER IN TORT (INCLUDING WITHOUT LIMITATION
#NEGLIGENCE), CONTRACT, STRICT LIABILITY, STATUTORY OR OTHERWISE, FOR ANY SPECIAL,
#INCIDENTAL, CONSEQUENTIAL, EXEMPLARY, PUNITIVE OR INDIRECT DAMAGE OF ANY KIND, INCLUDING
#WITHOUT LIMITATION LOSS OF REVENUE, PROFITS, GOODWILL, USE, AND/OR DATA OR THE COST OF
#PROCUREMENT OF SUBSTITUTE GOODS OR SERVICES, EVEN IF APPRISED OF THE POSSIBILITY OF SUCH
#DAMAGES IN ADVANCE.
#--------------------------------------------------#
~WELL INFORMATION
#MNEMONIC     .UNIT              VALUE :DESCRIPTION
#--------------------------------------------------#
STRT       .ft                51.00000 :START DEPTH
STOP       .ft                9476.00000 :STOP DEPTH
STEP       .ft                0.50000 :STEP
NULL       .                -999.25000 :NULL VALUE
COMP       .                 :COMPANY
WELL       .                 :WELL
FLD       .                 :FIELD
LOC       .                 :LOCATION
CNTY       .                 :COUNTY
STAT       .                 :STATE
CTRY       .                 :COUNTRY
SRVC       .                 :SERVICE COMPANY
DATE       .                 :DATE
API       .                42109100520000 :API NUMBER
~CURVE INFORMATION
#MNEMONIC     .UNIT      API CODE :CURVE DESCRIPTION
#--------------------------------------------------#
DEPTH       .ft                      :Measured Depth
CAL       .in        UNKNOWN   :CAL
DT       .us/ft        UNKNOWN   :DT
GR       .gAPI        UNKNOWN   :GR
~A    DEPTH    CAL    DT    GR
# ...
3287.00000    10.24730    58.31796    94.45585
3287.50000    10.25238    60.13510    107.00579
3288.00000    10.25745    61.95224    122.31042
3288.50000    10.26252    63.76937    127.80596
3289.00000    10.26760    63.81070    129.26921
3289.50000    10.27267    62.99768    131.36269
3290.00000    10.27774    63.51899    134.74963
3290.50000    10.28282    64.04031    133.74680
3291.00000    10.28789    63.88270    126.36011
3291.50000    10.29296    63.44898    120.35646
3292.00000    10.29804    63.01526    125.28467
3292.50000    10.30311    62.98904    130.21287
3293.00000    10.30321    63.37797    135.14108
3293.50000    10.30322    63.76690    136.62041
3294.00000    10.30323    63.86867    127.62880
3294.50000    10.30324    63.52030    124.21296
3295.00000    10.30325    63.17193    121.56574
3295.50000    10.30326    62.29937    118.06411
3296.00000    10.30327    61.42006    103.47111
3296.50000    10.30328    60.54076    94.16792
3297.00000    10.30329    60.11966    97.87228
3297.50000    10.30330    59.88618    101.57663
3298.00000    10.30331    59.87503    103.12350
3298.50000    10.30332    60.33804    101.50038
3299.00000    10.30913    60.80105    99.87726
3299.50000    10.31895    61.26406    99.20317
3300.00000    10.32877    61.72707    105.46415
3300.50000    10.33860    62.19007    109.16882
3301.00000    10.34842    62.16094    112.87349
3301.50000    10.35824    62.07695    116.46581
3302.00000    10.36806    61.99295    119.73321
3302.50000    10.37789    61.90895    123.00060
3303.00000    10.38771    61.82496    126.26799
3303.50000    10.39753    61.84621    125.89407
3304.00000    10.40735    62.05733    120.45621
3304.50000    10.41718    62.26846    115.01836
3305.00000    10.42700    62.47959    120.45402
3305.50000    10.43682    62.69072    131.94713
3306.00000    10.44664    62.90185    139.78347
3306.50000    10.45646    63.11297    127.93270
3307.00000    10.46629    63.04050    116.08193
3307.50000    10.47611    62.35377    105.33506
3308.00000    10.48593    61.66705    94.70685
3308.50000    10.49576    60.98033    84.07864
3309.00000    10.50558    60.43814    85.01743
3309.50000    10.51540    60.32078    90.13838
3310.00000    10.52522    60.20341    95.25932
3310.50000    10.53505    60.14245    100.38027
3311.00000    10.54487    60.71532    105.50122
3311.50000    10.54134    61.28820    110.62216
3312.00000    10.53442    61.86109    104.13841
3312.50000    10.52750    61.17586    98.50727
3313.00000    10.52057    60.48935    93.21096
3313.50000    10.51365    60.30787    89.62333
3314.00000    10.50673    60.52170    86.03571
3314.50000    10.49981    60.73553    82.44809
3315.00000    10.49288    60.94936    78.86047
3315.50000    10.48596    60.75489    82.86723
3316.00000    10.47904    60.34131    94.21068
3316.50000    10.47254    59.92773    88.83023
3317.00000    10.46719    59.51415    83.44978
3317.50000    10.46184    59.10057    78.06933
3318.00000    10.45650    58.72611    81.71082
3318.50000    10.45115    59.65259    88.00717
3319.00000    10.44580    60.57906    94.30351
3319.50000    10.44045    61.50554    100.59985
3320.00000    10.43511    62.43201    106.89620
3320.50000    10.42976    63.35849    107.30102
3321.00000    10.42441    62.82678    72.77640
3321.50000    10.41906    61.70386    77.53599
3322.00000    10.41371    60.58094    82.29559
3322.50000    10.40837    59.45802    87.05518
3323.00000    10.40302    59.10266    91.81477
3323.50000    10.39865    59.32337    94.33944
3324.00000    10.39483    59.54409    92.49556
3324.50000    10.39101    59.76481    90.65168
3325.00000    10.38718    59.98553    88.80780
3325.50000    10.38336    60.15781    86.96392
3326.00000    10.37954    59.88591    85.85030
3326.50000    10.37571    59.61400    88.19188
3327.00000    10.37189    60.04541    90.53345
3327.50000    10.36807    60.61729    92.87503
3328.00000    10.36424    60.43340    95.21660
3328.50000    10.36042    60.24952    97.55818
3329.00000    10.35660    60.06564    91.01851
3329.50000    10.35277    59.88176    83.67575
3330.00000    10.34895    59.69787    78.00495
3330.50000    10.34512    59.73551    80.78297
3331.00000    10.34130    59.91739    83.56099
3331.50000    10.33748    60.09927    86.33901
3332.00000    10.33365    60.28115    89.11703
3332.50000    10.32983    60.46303    91.89505
3333.00000    10.32601    60.64491    98.38039
3333.50000    10.32218    60.82679    105.28797
3334.00000    10.31836    61.00867    105.28865
3334.50000    10.31453    61.19054    104.90632
3335.00000    10.31071    61.37242    104.52399
3335.50000    10.30689    61.55430    104.14166
3336.00000    10.30422    61.73618    81.12067
3336.50000    10.30499    60.96121    83.55040
3337.00000    10.30578    60.02672    85.98013
3337.50000    10.30655    59.09222    88.72934
3338.00000    10.30733    59.12113    91.50131
3338.50000    10.30811    59.86731    94.27327
3339.00000    10.30889    60.61349    96.40488
3339.50000    10.30967    61.35967    98.07620
3340.00000    10.31045    62.10585    99.74752
3340.50000    10.31123    62.52246    98.70652
3341.00000    10.31201    61.74317    89.35355
3341.50000    10.31279    60.96388    87.14759
3342.00000    10.31357    60.18459    85.91402
3342.50000    10.31435    59.40530    84.68044
3343.00000    10.31513    58.91611    83.84522
3343.50000    10.31591    59.03438    86.08263
3344.00000    10.31669    59.15265    88.32003
3344.50000    10.31747    58.62045    92.90329
3345.00000    10.31825    59.37995    98.36780
3345.50000    10.31902    60.13945    102.06615
3346.00000    10.31981    60.86234    101.72204
3346.50000    10.32058    61.29447    101.37792
3347.00000    10.32136    61.57001    101.03380
3347.50000    10.32214    61.73598    100.68968
3348.00000    10.32292    61.90196    102.83979
3348.50000    10.32370    62.06793    106.79679
3349.00000    10.32448    62.23390    108.89827
3349.50000    10.32526    62.39988    102.13094
3350.00000    10.32604    62.56585    95.36361
3350.50000    10.32682    62.73182    100.26071
3351.00000    10.32760    62.49597    100.37914
3351.50000    10.32838    62.12171    98.89723
3352.00000    10.33990    62.03772    97.41533
3352.50000    10.35707    61.95372    95.93342
3353.00000    10.37424    61.86973    94.45151
3353.50000    10.39141    61.78573    93.85159
3354.00000    10.40859    61.70174    95.83361
3354.50000    10.42576    60.12887    97.81563
3355.00000    10.44293    60.60948    99.79765
3355.50000    10.46011    61.09009    101.77967
3356.00000    10.47728    61.57069    103.76169
3356.50000    10.49445    61.32403    105.74371
3357.00000    10.51137    60.61836    102.22138
3357.50000    10.52819    59.91268    94.61719
3358.00000    10.54502    59.20701    87.01300
3358.50000    10.56185    58.50133    84.36435
3359.00000    10.57867    59.06105    90.26712
3359.50000    10.59550    60.07380    94.22431
3360.00000    10.61232    61.08654    97.99096
3360.50000    10.62915    61.43361    108.59160
3361.00000    10.64706    61.50439    125.86892
3361.50000    10.68420    61.57518    132.24540
3362.00000    10.72134    61.64596    125.94295
3362.50000    10.75848    63.55769    119.64050
3363.00000    10.79562    63.71006    107.56921
3363.50000    10.83276    63.86244    106.01615
3364.00000    10.86990    64.01481    104.46310
3364.50000    10.90704    64.16718    102.91005
3365.00000    10.94418    64.52487    97.89452
3365.50000    10.98132    65.25310    92.79575
3366.00000    11.01846    64.35373    87.63227
3366.50000    11.05560    63.10768    82.20610
3367.00000    11.08727    61.86164    76.77993
3367.50000    11.10333    60.61560    71.35376
3368.00000    11.11939    59.36955    65.92758
3368.50000    11.13546    58.13101    69.48505
3369.00000    11.15152    59.95340    79.69344
3369.50000    11.16758    61.19196    82.60006
3370.00000    11.18365    62.43053    80.53596
3370.50000    11.19971    63.32504    78.47186
3371.00000    11.21577    63.29280    76.86301
