~Version Information
 VERS.                  2.0:   CWLS log ASCII Standard -VERSION 2.0
 WRAP.                   NO:   One line per depth step
~Well Information Block
#MNEM.UNIT     VALUE/NAME     DESCRIPTION
#---------     -----------    ---------------------------
 STRT.F              8580.0000: START DEPTH
 STOP.F             14491.0000: STOP DEPTH
 STEP.F                 0.5000: STEP DEPTH
 NULL.               -999.2500: NULL VALUE
 LOC .     1072' FWL & 424' FNL:  LOCATION
 FL2 .     A2085 SEC 12 BLK 113:  LOCATIONLINE2
 FL1 .     1072' FWL & 424' FNL:  LOCATIONLINE1
 CNTY.               CULBERSON:  COUNTY NAME
 FLD .              WOLFCAMP B:  FIELD NAME
 WELL.           DALE STATE 2H:  WELL NAME
 COMP.     CAPITAN ENERGY INC.:  COMPANY
 DMF .                      KB:  DRILL MEAS FROM
 PDAT.                      GL:  PERMANENT DATUM
 DATE.             11-Feb-2020:  DATE
 SVCO.             Halliburton:  SERVICECONAME
 PROV.                      TX:  PROVINCE
 STAT.                      TX:  STATE NAME
 CTRY.                     USA:  COUNTRY NAME
 HIDE.                        :  WELLNAMEOPERAT
 UWI .            42-109-33544:  UNIQUE WELL IDENTIFIER
 API .            42-109-33544:  API NUMBER
 RANG.                     N/A:  RANGE
 TOWN.                     N/A:  TOWNSHIP
 SECT.                     N/A:  SECTION
 SON .               906290231:  JOB NUMBER
 SRVC.             Halliburton:  SERVICE COMPANY
 LMF .                      KB:  LOG MEASURED FROM
 TVDS.ft           3291.000000:  TVDSS CORRECTN
 EGL .ft           3266.000000:  GROUND ELEVATION
 APD .ft             25.000000:  DEPTH ABOVE PD
 EPD .ft           3266.000000:  ELEVATION
 BAP .ft              0.000000:  GL ELEV ONSHORE
 GVFD.g               1.000000:  GRAVITY FIELD
 EKB .ft           3291.000000:  KB ELEVATION
 EDF .ft           3291.000000:  DF ELEVATION
~Parameter Information Block
#MNEM.UNIT       Value        Description
#---------     -----------    ---------------------------
 BARI.                     OFF:  BARITE CORR 
 BRMP.                      No:  BromidePresent 
 CSF5.        Conductor Casing:  Casing Func5 
 CSF6.        Conductor Casing:  Casing Func6 
 DATE.               07-Feb-20:  Run Date 
 DCS .               07-Feb-20:  DateCircEndT 
 DLAB.               07-Feb-20:  LogStartDateT 
 ENGI.                John Doe:  Engineer Name 
 LSRV.             OH WIRELINE:  NameOfService 
 LSTM.ucts  09.26.51 07-Feb-20:  Log Start Time 
 LTYP.                     RAW:  LogDataType 
 LUL .                  ODESSA:  LoggingUnitLoc 
 LUN .                12100315:  LoggingUnitNum 
 SCT1.               07-Feb-20:  StartDateRun1 
 TCS .                   09 26:  Time Ciculation Ended 
 TDCE.ucts  09.26.51 07-Feb-20:  Time Circ End 
 TLAB.                   09 26:  LogStartTimeT 
~Curve Information Block
#MNEM.UNIT                 API CODE     Curve Description
#---------               -----------    ---------------------------
 DEPT.F                 00 000 000 000:  Depth
 CCL .V                 00 000 000 000:  Casing Collar Locator
 NPHI_OH.pu             00 000 000 000:  NPHI_OH
 NPHI_CHI.decp          00 000 000 000:  NPHI_CHI
 GR  .api               00 000 000 000:  Gamma API
 GR_CHI.api             00 000 000 000:  GR_CHI
 RHOB_OH.g/cc           00 000 000 000:  RHOB_OH
 RHOB_CHI.g/cc          00 000 000 000:  RHOB_CHI
 PE_OH.b/e              00 000 000 000:  PE_OH
 PE_CHI.b/e             00 000 000 000:  PE_CHI
 LLS_CHI.ohmm           00 000 000 000:  LLS_CHI
 LLS_OH.ohmm            00 000 000 000:  LLS_OH
 LLD_OH.ohmm            00 000 000 000:  LLD_OH
 LLD_CHI.ohmm           00 000 000 000:  LLD_CHI
 DTC_OH.uspf            00 000 000 000:  DTC_OH
 DTC_CHI.uspf           00 000 000 000:  DTC_CHI
 SPHW_CHI.decp          00 000 000 000:  SPHW_CHI
#Other Information
#
#WARRANTY: Halliburton will use its best efforts to furnish customers with 
#accurate information and interpretations that are part of, and incident to, the services 
#provided.  However, Halliburton cannot and does not warrant the accuracy 
#or correctness of such information and interpretations.  Under no circumstances should any 
#such information or interpretation be relied upon as the sole basis for any drilling, 
#completion, production, or financial decision or any procedure involving any risk to the 
#safety of any drilling venture, drilling rig or its crew or any other third party.  The 
#Customer has full responsibility for all drilling, completion and production operation.  
#Halliburton makes no representations or warranties, either expressed or 
#implied, including, but not limited to, the implied warranties of merchantability or fitness 
#for a particular purpose, with respect to the services rendered.  In no event will 
#Halliburton be liable for failure to obtain any particular results or for 
#any damages, including, but not limited to, indirect, special or consequential damages, 
#resulting from the use of any information or interpretation provided by Halliburton.
#
~A    DEPT       CCL     NPHI_OH  NPHI_CHI    GR      GR_CHI   RHOB_OH  RHOB_CHI   PE_OH   PE_CHI LLS_CHI   LLS_OH     LLD_OH   LLD_CHI   DTC_OH   DTC_CHI SPHW_CHI 
# ...
   12880.0000  -21.5805 -999.2500   0.0980 -999.2500 102.7201 -999.2500   2.6028 -999.2500 3.1541  14.9193 -999.2500  -999.2500  17.4901 -999.2500 75.0941 0.1944
   12880.5000  -18.1649 -999.2500   0.1001 -999.2500 109.5765 -999.2500   2.5983 -999.2500 3.1961  18.7211 -999.2500  -999.2500  21.8995 -999.2500 75.5688 0.1978
   12881.0000    0.0000 -999.2500   0.0954 -999.2500  99.8117 -999.2500   2.6053 -999.2500 3.2079  17.8659 -999.2500  -999.2500  20.8487 -999.2500 74.7425 0.1920
   12881.5000    0.0000 -999.2500   0.0964 -999.2500 102.1276 -999.2500   2.6030 -999.2500 3.2533  22.0883 -999.2500  -999.2500  25.7104 -999.2500 74.8985 0.1931
   12882.0000    0.0000 -999.2500   0.0991 -999.2500 102.1357 -999.2500   2.6004 -999.2500 3.2354  22.0677 -999.2500  -999.2500  25.8047 -999.2500 74.9497 0.1934
   12882.5000  -74.7625 -999.2500   0.1046 -999.2500 109.6972 -999.2500   2.5933 -999.2500 3.2227  23.1675 -999.2500  -999.2500  27.1798 -999.2500 75.6659 0.1985
   12883.0000   74.9989 -999.2500   0.1050 -999.2500 108.2103 -999.2500   2.5942 -999.2500 3.1733  18.6260 -999.2500  -999.2500  21.9229 -999.2500 75.6483 0.1984
   12883.5000    0.0000 -999.2500   0.1015 -999.2500 102.1739 -999.2500   2.6002 -999.2500 3.1451  14.6369 -999.2500  -999.2500  17.1935 -999.2500 75.2704 0.1957
   12884.0000    0.0000 -999.2500   0.1066 -999.2500 119.6092 -999.2500   2.5902 -999.2500 3.2214  21.8367 -999.2500  -999.2500  25.5198 -999.2500 76.6222 0.2052
   12884.5000   94.8987 -999.2500   0.1087 -999.2500 126.6810 -999.2500   2.5861 -999.2500 3.2512  26.6799 -999.2500  -999.2500  31.1601 -999.2500 77.1059 0.2087
   12885.0000  -16.6670 -999.2500   0.1043 -999.2500 118.3114 -999.2500   2.5930 -999.2500 3.2367  23.5545 -999.2500  -999.2500  27.4700 -999.2500 76.4746 0.2042
   12885.5000    0.0000 -999.2500   0.1012 -999.2500 111.0105 -999.2500   2.5981 -999.2500 3.2165  20.9949 -999.2500  -999.2500  24.5002 -999.2500 75.8805 0.2000
   12886.0000    0.0000 -999.2500   0.1014 -999.2500 110.5245 -999.2500   2.5974 -999.2500 3.2375  22.7044 -999.2500  -999.2500  26.4532 -999.2500 75.7995 0.1994
   12886.5000    0.0000 -999.2500   0.1046 -999.2500 116.4806 -999.2500   2.5915 -999.2500 3.2825  28.7659 -999.2500  -999.2500  33.4629 -999.2500 76.2158 0.2024
   12887.0000    0.0000 -999.2500   0.1022 -999.2500 108.2407 -999.2500   2.5955 -999.2500 3.2790  26.7195 -999.2500  -999.2500  31.1025 -999.2500 75.5282 0.1975
   12887.5000  -26.0847 -999.2500   0.1037 -999.2500 109.6933 -999.2500   2.5931 -999.2500 3.3051  30.5438 -999.2500  -999.2500  35.5328 -999.2500 75.6297 0.1982
   12888.0000    0.0000 -999.2500   0.1061 -999.2500 110.4922 -999.2500   2.5907 -999.2500 3.3057  31.3786 -999.2500  -999.2500  36.5109 -999.2500 75.7991 0.1994
   12888.5000    0.0000 -999.2500   0.1019 -999.2500  96.3661 -999.2500   2.5995 -999.2500 3.2592  22.3912 -999.2500  -999.2500  26.0485 -999.2500 74.8105 0.1924
   12889.0000   39.8127 -999.2500   0.0987 -999.2500  86.5762 -999.2500   2.6063 -999.2500 3.2064  16.2950 -999.2500  -999.2500  18.9669 -999.2500 74.1312 0.1876
   12889.5000  -32.8035 -999.2500   0.1028 -999.2500  95.4883 -999.2500   2.5997 -999.2500 3.2128  17.7386 -999.2500  -999.2500  20.6810 -999.2500 74.8875 0.1930
   12890.0000  -39.6935 -999.2500   0.1081 -999.2500 110.0890 -999.2500   2.5898 -999.2500 3.2376  22.7252 -999.2500  -999.2500  26.5686 -999.2500 75.9425 0.2004
   12890.5000    0.0000 -999.2500   0.1105 -999.2500 117.3733 -999.2500   2.5848 -999.2500 3.2413  25.2371 -999.2500  -999.2500  29.5767 -999.2500 76.3905 0.2036
   12891.0000  -17.8251 -999.2500   0.1029 -999.2500  98.6173 -999.2500   2.5979 -999.2500 3.1598  15.9115 -999.2500  -999.2500  18.7352 -999.2500 74.8563 0.1928
   12891.5000    0.0000 -999.2500   0.1065 -999.2500 107.8955 -999.2500   2.5919 -999.2500 3.1924  19.4879 -999.2500  -999.2500  22.9020 -999.2500 75.6532 0.1984
   12892.0000   81.7225 -999.2500   0.1136 -999.2500 122.4381 -999.2500   2.5805 -999.2500 3.2505  27.1909 -999.2500  -999.2500  31.8643 -999.2500 76.8368 0.2068
   12892.5000   19.1044 -999.2500   0.1028 -999.2500 101.3089 -999.2500   2.5983 -999.2500 3.2241  18.2666 -999.2500  -999.2500  21.2396 -999.2500 75.3471 0.1962
   12893.0000    0.0000 -999.2500   0.1022 -999.2500 103.6076 -999.2500   2.5981 -999.2500 3.2692  21.1027 -999.2500  -999.2500  24.3549 -999.2500 75.5607 0.1977
   12893.5000    0.0000 -999.2500   0.1039 -999.2500 113.3736 -999.2500   2.5935 -999.2500 3.3289  28.8814 -999.2500  -999.2500  33.1334 -999.2500 76.2702 0.2028
   12894.0000    0.0000 -999.2500   0.1077 -999.2500 128.7348 -999.2500   2.5853 -999.2500 3.3857  42.9936 -999.2500  -999.2500  49.2124 -999.2500 77.3005 0.2100
   12894.5000   19.7798 -999.2500   0.0989 -999.2500 111.0761 -999.2500   2.5998 -999.2500 3.3232  29.4737 -999.2500  -999.2500  33.7111 -999.2500 75.9548 0.2005
   12895.0000  -46.2089 -999.2500   0.0969 -999.2500 106.7979 -999.2500   2.6028 -999.2500 3.3211  28.8155 -999.2500  -999.2500  32.9113 -999.2500 75.5873 0.1979
   12895.5000  -93.9874 -999.2500   0.0974 -999.2500 103.0184 -999.2500   2.6031 -999.2500 3.3042  26.2764 -999.2500  -999.2500  30.1267 -999.2500 75.3119 0.1960
   12896.0000    0.0000 -999.2500   0.0989 -999.2500 100.4547 -999.2500   2.6020 -999.2500 3.2922  24.5995 -999.2500  -999.2500  28.3223 -999.2500 75.1375 0.1947
   12896.5000    0.0000 -999.2500   0.1058 -999.2500 111.7958 -999.2500   2.5913 -999.2500 3.2863  27.9985 -999.2500  -999.2500  32.5480 -999.2500 75.9759 0.2007
   12897.0000    0.0000 -999.2500   0.1043 -999.2500 104.8922 -999.2500   2.5949 -999.2500 3.2196  21.0092 -999.2500  -999.2500  24.6128 -999.2500 75.3894 0.1965
   12897.5000    0.0000 -999.2500   0.1092 -999.2500 110.3558 -999.2500   2.5883 -999.2500 3.1702  19.9867 -999.2500  -999.2500  23.6204 -999.2500 75.7717 0.1992
   12898.0000    0.0000 -999.2500   0.1183 -999.2500 124.5213 -999.2500   2.5748 -999.2500 3.1605  23.7055 -999.2500  -999.2500  28.1392 -999.2500 76.8515 0.2069
   12898.5000    0.0000 -999.2500   0.1210 -999.2500 124.1769 -999.2500   2.5723 -999.2500 3.1239  21.5857 -999.2500  -999.2500  25.7236 -999.2500 76.8928 0.2072
   12899.0000    0.0000 -999.2500   0.1185 -999.2500 114.9381 -999.2500   2.5782 -999.2500 3.0955  17.1451 -999.2500  -999.2500  20.4488 -999.2500 76.3578 0.2034
   12899.5000  -32.7403 -999.2500   0.1130 -999.2500 104.2760 -999.2500   2.5875 -999.2500 3.1320  15.3411 -999.2500  -999.2500  18.1386 -999.2500 75.7693 0.1992
   12900.0000    0.0000 -999.2500   0.1145 -999.2500 108.8167 -999.2500   2.5850 -999.2500 3.2264  20.0876 -999.2500  -999.2500  23.4177 -999.2500 76.3628 0.2034
   12900.5000    0.0000 -999.2500   0.1141 -999.2500 109.5500 -999.2500   2.5851 -999.2500 3.2919  23.6490 -999.2500  -999.2500  27.2095 -999.2500 76.5787 0.2049
   12901.0000    0.0000 -999.2500   0.1089 -999.2500 100.1060 -999.2500   2.5929 -999.2500 3.2914  21.6951 -999.2500  -999.2500  24.8336 -999.2500 75.8259 0.1996
   12901.5000    0.0000 -999.2500   0.1131 -999.2500 113.1496 -999.2500   2.5842 -999.2500 3.3465  33.2823 -999.2500  -999.2500  38.1548 -999.2500 76.6441 0.2054
   12902.0000    0.0000 -999.2500   0.1097 -999.2500 110.6121 -999.2500   2.5881 -999.2500 3.3591  36.3957 -999.2500  -999.2500  41.6528 -999.2500 76.2913 0.2029
   12902.5000    0.0000 -999.2500   0.1104 -999.2500 113.8935 -999.2500   2.5867 -999.2500 3.3573  38.2760 -999.2500  -999.2500  43.8702 -999.2500 76.4951 0.2044
   12903.0000   51.1675 -999.2500   0.1044 -999.2500 100.7985 -999.2500   2.5969 -999.2500 3.3013  26.3149 -999.2500  -999.2500  30.2080 -999.2500 75.4854 0.1972
   12903.5000   20.2063 -999.2500   0.1070 -999.2500 104.9196 -999.2500   2.5931 -999.2500 3.2887  25.5475 -999.2500  -999.2500  29.4672 -999.2500 75.8196 0.1996
   12904.0000    0.0000 -999.2500   0.1087 -999.2500 107.3571 -999.2500   2.5906 -999.2500 3.2732  25.0478 -999.2500  -999.2500  29.0388 -999.2500 75.9714 0.2006
   12904.5000    0.0000 -999.2500   0.1096 -999.2500 108.5504 -999.2500   2.5894 -999.2500 3.2767  26.0277 -999.2500  -999.2500  30.1797 -999.2500 76.0798 0.2014
