###############################################
##         ENVERUS                           ##
##         ESS - Open Hole                   ##
##         PERMIAN / DELAWARE                ##
##         Nov 02 2023  V4.0                 ##
##         42-109-31448-00-00                ##
###############################################
## Copyright 2017-2023  ENVERUS.  All Rights Reserved. 
## Confidential - Property of ENVERUS, use governed by terms and 
## conditions found within the existing Information Services Subscription Agreement 
## (as may be amended, the “ISSA”) between Customer and ENVERUS. 
## 
~VERSION INFORMATION
# MNEM.UNIT                               DATA : DESCRIPTION OF MNEMONIC
#-----.-----     ----------------------------- : -----------------------------
VERS.                                     2.00 : CWLS LOG ASCII STANDARD - VERSION 2.00
WRAP.                                       NO : MULTIPLE LINES PER DEPTH STEP
VEND.                                  ENVERUS : VENDOR
TYPE.                          ESS - OPEN HOLE : ENVERUS ESSENTIAL CURVES – ACCESSIBLE THROUGH ENVERUS PRISM(TM)
DOC.                                  31981796 : ENVERUS HEADER RAW DOCUMENT ID
#___________________________________________________________________________________________________ 
~WELL INFORMATION 
# ZFHslD71edIju97HcKZ52TF5U8X6gSJhIkoGhJkY8ckYnZzQD/y6zifgDis2Hn4asra90GxYkgpqCQaJUi2DCw== 
# MNEM.UNIT                                              DATA : DESCRIPTION OF MNEMONIC 
#-----.-----                    ----------------------------- : ----------------------------- 
CNTY.                                               CULBERSON : COUNTY 
STATE.                                                  TEXAS : STATE 
CNTRY.                                                    USA : COUNTRY 
API.                                             42-109-31448 : API (10 Digit) 
API_14.                                    42-109-31448-00-00 : API (14 Digits) 
API_14_std.                                 42-109-31448-0000 : API (14 Digits Standard) 
UWI.                                           42109314480000 : UNIQUE WELL ID 
WELL.                                               TRIKEN  1 : WELL NAME
STRT.FT                                                   4.0 : START DEPTH
STOP.FT                                               13097.0 : STOP DEPTH
STEP.FT                                                   0.5 : STEP BETWEEN DEPTHS
NULL.                                                 -999.25 : NULL VALUE
COMP.                                             MARALO  LLC : COMPANY 
DATE.                                             04-NOV-1984 : LOG DATE
#___________________________________________________________________________________________________ 
~CURVE INFORMATION 
# MNEM.UNIT           : CURVE DESCRIPTION 
#-----.-----          : ----------------------------- 
 DEPT.FT               : MEASURED DEPTH 
 CALI.IN               : CALIPER (CAL - CAL) 
 GR.API                : GAMMA RAY (GR) 
 DT.US/FT              : SONIC DELTA TRANSIT TIME (DT) 
 #___________________________________________________________________________________________________ 
~A         DEPT           CALI             GR             DT
# ...
         8914.0         10.039         80.080         72.568
         8914.5         10.038         79.996         72.467
         8915.0         10.036         79.911         72.365
         8915.5         10.035         79.827         72.264
         8916.0         10.033         79.061         72.162
         8916.5         10.032         76.283         72.483
         8917.0         10.030         73.505         72.814
         8917.5         10.029         70.726         72.772
         8918.0         10.027         67.948         72.351
         8918.5         10.026         65.170         71.929
         8919.0         10.025         62.885         71.578
         8919.5         10.023         64.653         71.967
         8920.0         10.024         66.421         72.355
         8920.5         10.025         68.190         72.744
         8921.0         10.027         69.958         73.132
         8921.5         10.028         70.144         73.521
         8922.0         10.030         68.755         73.909
         8922.5         10.031         67.366         73.941
         8923.0         10.032         70.329         73.594
         8923.5         10.034         79.095         73.247
         8924.0         10.035         86.318         72.900
         8924.5         10.037         82.973         72.552
         8925.0         10.038         79.628         72.205
         8925.5         10.039         76.283         71.858
         8926.0         10.041         72.938         72.331
         8926.5         10.042         69.593         73.174
         8927.0         10.044         66.248         73.870
         8927.5         10.045         67.954         74.138
         8928.0         10.046         69.758         74.407
         8928.5         10.048         71.563         74.675
         8929.0         10.049         73.367         74.943
         8929.5         10.051         75.171         74.994
         8930.0         10.052         77.516         74.494
         8930.5         10.053         80.212         73.994
         8931.0         10.055         82.908         73.494
         8931.5         10.056         85.603         72.994
         8932.0         10.058         88.291         72.688
         8932.5         10.059         85.514         73.445
         8933.0         10.060         82.736         74.201
         8933.5         10.062         79.959         74.957
         8934.0         10.063         77.182         75.573
         8934.5         10.065         73.861         74.698
         8935.0         10.066         69.696         73.824
         8935.5         10.067         65.531         72.949
         8936.0         10.069         64.421         72.074
         8936.5         10.070         69.836         72.116
         8937.0         10.072         75.251         72.468
         8937.5         10.073         80.666         72.820
         8938.0         10.073         86.081         73.172
         8938.5         10.072         91.496         73.523
         8939.0         10.072         82.307         72.517
         8939.5         10.072         72.294         71.151
         8940.0         10.071         62.282         69.786
         8940.5         10.071         52.269         68.420
         8941.0         10.070         48.613         67.054
         8941.5         10.070         57.455         65.688
         8942.0         10.070         66.297         64.322
         8942.5         10.069         75.139         62.956
         8943.0         10.069         83.982         64.068
         8943.5         10.069         84.876         65.689
         8944.0         10.068         82.856         67.311
         8944.5         10.068         80.836         68.932
         8945.0         10.067         78.816         70.554
         8945.5         10.067         85.511         72.175
         8946.0         10.067         93.266         73.797
         8946.5         10.066         92.862         75.418
         8947.0         10.066         86.805         76.490
         8947.5         10.066         80.749         74.725
         8948.0         10.065         74.692         73.182
         8948.5         10.065         68.636         72.032
         8949.0         10.064         62.579         70.882
         8949.5         10.064         58.966         69.732
         8950.0         10.064         58.419         68.582
         8950.5         10.063         57.872         67.455
         8951.0         10.063         57.325         66.541
         8951.5         10.063         56.779         65.628
         8952.0         10.062         56.232         64.714
         8952.5         10.062         55.685         63.801
         8953.0         10.061         55.138         62.887
         8953.5         10.061         54.591         61.973
         8954.0         10.061         54.077         61.060
         8954.5         10.060         53.673         60.146
         8955.0         10.060         53.269         59.233
         8955.5         10.060         52.866         58.319
         8956.0         10.059         51.112         57.406
         8956.5         10.059         47.251         56.492
         8957.0         10.059         43.391         55.579
         8957.5         10.058         39.530         54.665
         8958.0         10.058         35.670         53.751
         8958.5         10.057         31.809         52.838
         8959.0         10.057         27.949         51.924
         8959.5         10.057         24.088         51.011
         8960.0         10.056         20.228         51.193
         8960.5         10.056         16.367         51.489
         8961.0         10.056         12.507         51.786
         8961.5         10.055         22.123         52.083
         8962.0         10.055         39.139         54.081
         8962.5         10.054         56.154         56.620
         8963.0         10.054         66.356         59.158
         8963.5         10.054         71.407         61.697
         8964.0         10.053         76.458         66.774
         8964.5         10.053         76.649         68.813
         8965.0         10.053         71.953         67.910
         8965.5         10.052         67.257         67.006
         8966.0         10.052         62.562         66.103
         8966.5         10.051         57.866         65.199
         8967.0         10.051         53.170         64.296
         8967.5         10.051         48.475         63.392
         8968.0         10.050         43.779         62.489
         8968.5         10.050         49.702         61.586
         8969.0         10.050         57.950         60.682
         8969.5         10.049         66.198         64.850
         8970.0         10.050         74.446         69.086
         8970.5         10.050         79.616         72.681
         8971.0         10.051         73.457         70.808
         8971.5         10.051         67.298         68.934
         8972.0         10.051         61.139         67.060
         8972.5         10.052         60.078         66.640
         8973.0         10.052         67.555         67.725
         8973.5         10.052         75.032         68.810
         8974.0         10.053         82.509         69.895
         8974.5         10.053         85.283         70.979
         8975.0         10.054         83.993         71.043
         8975.5         10.054         82.702         70.602
         8976.0         10.054         81.412         70.298
         8976.5         10.055         80.122         71.073
         8977.0         10.055         78.832         71.848
         8977.5         10.056         77.542         72.624
         8978.0         10.056         76.270         73.399
         8978.5         10.056         75.008         74.174
         8979.0         10.057         73.746         74.536
         8979.5         10.057         73.323         74.337
