###############################################
##         ENVERUS                           ##
##         ESS - Open Hole                   ##
##         PERMIAN / DELAWARE                ##
##         Nov 03 2023  V4.0                 ##
##         42-109-32572-90-00                ##
###############################################
## Copyright 2017-2023  ENVERUS.  All Rights Reserved. 
## Confidential - Property of ENVERUS, use governed by terms and 
## conditions found within the existing Information Services Subscription Agreement 
## (as may be amended, the “ISSA”) between Customer and ENVERUS. 
## 
~VERSION INFORMATION
# MNEM.UNIT                               DATA : DESCRIPTION OF MNEMONIC
#-----.-----     ----------------------------- : -----------------------------
VERS.                                     2.00 : CWLS LOG ASCII STANDARD - VERSION 2.00
WRAP.                                       NO : MULTIPLE LINES PER DEPTH STEP
VEND.                                  ENVERUS : VENDOR
TYPE.                          ESS - OPEN HOLE : ENVERUS ESSENTIAL CURVES – ACCESSIBLE THROUGH ENVERUS PRISM(TM)
DOC.                                  51093467 : ENVERUS HEADER RAW DOCUMENT ID
#___________________________________________________________________________________________________ 
~WELL INFORMATION 
# 8gl1O6v4swiPFL4GH+dnL3Th7drW/gNnufiOMC39xBbatiyIUGjWQRxOO2UkOAKZqu0QrDKM70MxnzzovQmAYg== 
# MNEM.UNIT                                              DATA : DESCRIPTION OF MNEMONIC 
#-----.-----                    ----------------------------- : ----------------------------- 
CNTY.                                               CULBERSON : COUNTY 
STATE.                                                  TEXAS : STATE 
CNTRY.                                                    USA : COUNTRY 
API.                                             42-109-32572 : API (10 Digit) 
API_14.                                    42-109-32572-90-00 : API (14 Digits) 
API_14_std.                                 42-109-32572-9000 : API (14 Digits Standard) 
UWI.                                           42109325729000 : UNIQUE WELL ID 
WELL.                               42109325720000_PREV_API14 : WELL NAME
STRT.FT                                                2248.5 : START DEPTH
STOP.FT                                               10757.5 : STOP DEPTH
STEP.FT                                                   0.5 : STEP BETWEEN DEPTHS
NULL.                                                 -999.25 : NULL VALUE
PREV_APII.                                     42109325720000 : WELL IDENTIFIER
#___________________________________________________________________________________________________ 
~PARAMETER INFORMATION 
# MNEM.UNIT                                              DATA : DESCRIPTION OF MNEMONIC 
#-----.-----                    ----------------------------- : ----------------------------- 
EKB.FT                                                   3340 : ELEVATION ABOVE MSL
#___________________________________________________________________________________________________ 
~CURVE INFORMATION 
# MNEM.UNIT           : CURVE DESCRIPTION 
#-----.-----          : ----------------------------- 
 DEPT.FT               : MEASURED DEPTH 
 CALI.IN               : CALIPER (CAL - CALIPER) 
 GR.API                : GAMMA RAY (GAMMA RAY) 
 DT.US/FT              : SONIC DELTA TRANSIT TIME (SONIC) 
 #___________________________________________________________________________________________________ 
~A         DEPT           CALI             GR             DT
# ...
         5614.5          9.836         69.718         70.293
         5615.0          9.836         72.618         70.625
         5615.5          9.836         77.227         71.290
         5616.0          9.836         78.918         70.029
         5616.5          9.816         86.814         67.537
         5617.0          9.796         91.781         66.601
         5617.5          9.757         92.668         66.368
         5618.0          9.718         80.093         66.660
         5618.5          9.718         64.001         66.367
         5619.0          9.718         73.468         66.250
         5619.5          9.718         87.396         66.600
         5620.0          9.718         87.087         67.157
         5620.5          9.718         74.804         68.004
         5621.0          9.718         65.282         69.206
         5621.5          9.718         63.014         69.533
         5622.0          9.718         62.608         69.416
         5622.5          9.738         68.094         69.363
         5623.0          9.738         78.269         68.011
         5623.5          9.738        101.369         67.491
         5624.0          9.700        103.385         66.667
         5624.5          9.602        113.180         66.539
         5625.0          9.485        149.683         68.580
         5625.5          9.387        170.289         68.661
         5626.0          9.328        164.434         68.279
         5626.5          9.346        152.079         64.824
         5627.0          9.444        115.755         65.110
         5627.5          9.482         91.797         66.661
         5628.0          9.501         85.237         67.340
         5628.5          9.542         65.193         68.409
         5629.0          9.562         61.274         68.483
         5629.5          9.581         61.034         67.960
         5630.0          9.581         62.011         67.891
         5630.5          9.581         60.057         68.073
         5631.0          9.581         56.778         68.787
         5631.5          9.581         58.752         69.004
         5632.0          9.581         61.224         69.113
         5632.5          9.581         72.097         68.048
         5633.0          9.581         78.248         65.268
         5633.5          9.526         89.159         64.374
         5634.0          9.428         87.508         63.325
         5634.5          9.322         78.480         61.748
         5635.0          9.209         72.486         61.456
         5635.5          9.190         60.779         58.971
         5636.0          9.190         57.020         57.507
         5636.5          9.206         53.121         58.088
         5637.0          9.209         86.447         61.987
         5637.5          9.209        110.137         64.279
         5638.0          9.209        143.436         66.062
         5638.5          9.209        183.276         66.937
         5639.0          9.209        176.140         67.481
         5639.5          9.209        173.038         67.243
         5640.0          9.209        176.223         66.908
         5640.5          9.209        200.276         66.602
         5641.0          9.209        225.524         66.920
         5641.5          9.209        224.043         66.892
         5642.0          9.209        213.602         65.862
         5642.5          9.209        202.007         64.816
         5643.0          9.229        190.480         64.281
         5643.5          9.229        181.395         64.477
         5644.0          9.249        171.090         64.593
         5644.5          9.268        141.142         64.450
         5645.0          9.288        118.711         63.387
         5645.5          9.302        100.089         62.969
         5646.0          9.307         96.339         62.752
         5646.5          9.321         95.420         60.434
         5647.0          9.346         84.461         58.090
         5647.5          9.386         54.167         55.428
         5648.0          9.419         49.011         55.370
         5648.5          9.464         44.814         56.003
         5649.0          9.516         47.722         60.404
         5649.5          9.575         54.342         65.511
         5650.0          9.581         56.946         69.335
         5650.5          9.581         61.950         69.063
         5651.0          9.581         71.362         68.810
         5651.5          9.581         99.753         68.399
         5652.0          9.581        106.905         68.690
         5652.5          9.601         92.048         68.322
         5653.0          9.601         61.397         67.443
         5653.5          9.601         44.445         66.392
         5654.0          9.601         42.333         64.991
         5654.5          9.581         48.066         63.613
         5655.0          9.581         69.807         64.209
         5655.5          9.581         97.027         64.645
         5656.0          9.581        104.227         64.967
         5656.5          9.581        115.590         66.449
         5657.0          9.581        124.841         67.579
         5657.5          9.562        134.557         67.891
         5658.0          9.581        133.815         68.222
         5658.5          9.581        100.480         68.100
         5659.0          9.581         81.885         67.372
         5659.5          9.581         74.829         66.966
         5660.0          9.581         73.668         65.993
         5660.5          9.551         65.051         65.606
         5661.0          9.523         60.504         65.989
         5661.5          9.503         59.450         65.840
         5662.0          9.492         62.336         65.957
         5662.5          9.444         88.805         66.756
         5663.0          9.444        115.534         67.570
         5663.5          9.444        126.219         67.982
         5664.0          9.444        131.292         68.405
         5664.5          9.464        149.732         69.444
         5665.0          9.464        135.503         69.531
         5665.5          9.464         96.493         67.657
         5666.0          9.464         74.268         67.363
         5666.5          9.464         62.914         67.305
         5667.0          9.464         69.997         65.642
         5667.5          9.444         84.767         64.616
         5668.0          9.444         88.510         61.363
         5668.5          9.425         71.533         61.939
         5669.0          9.405         62.478         63.465
         5669.5          9.405         72.126         64.311
         5670.0          9.405         76.605         64.760
         5670.5          9.405         86.900         65.254
         5671.0          9.405         95.980         65.631
         5671.5          9.405        103.331         65.957
         5672.0          9.405        104.921         65.898
         5672.5          9.405        104.892         66.300
         5673.0          9.425        100.820         67.388
         5673.5          9.425         90.492         67.670
         5674.0          9.425         82.855         67.973
         5674.5          9.425         62.738         68.066
         5675.0          9.425         60.583         68.090
         5675.5          9.437         64.711         68.184
         5676.0          9.425         66.258         68.359
         5676.5          9.425         72.431         67.535
         5677.0          9.425         80.312         66.049
         5677.5          9.398         98.322         65.456
         5678.0          9.359         99.249         65.054
         5678.5          9.300         81.988         61.790
         5679.0          9.249         69.884         61.307
         5679.5          9.229         77.801         61.369
         5680.0          9.229         82.170         61.769
