~Version Information
 VERS.                  2.0:   CWLS log ASCII Standard -VERSION 2.0
 WRAP.                   NO:   One line per depth step
~Well Information Block
#MNEM.UNIT       Data Type    Information
#---------     -----------    ---------------------------
 STRT.F              3503.5000:
 STOP.F             12186.0000:
 STEP.F                 0.5000:
 NULL.               -999.2500:
 UWI .            42-109-32278:  API WELLHOLE NUMBER
 COMP.     SAMSON LONE STAR LP:  COMPANY NAME
 COUN.               CULBERSON:  COUNTY
 DAT2.                   02000:  LOGGING DATE 2
 DAT3.                   02000:  LOGGING DATE 3
 DAT4.                   02000:  LOGGING DATE 4
 DATE.                   02000:  LOGGING DATE
 DMF .           KELLY BUSHING:  DRILLING MEASURED
 LOC .    1521' FWL AND 2040' FSL:  FIELD LOCATION
 FL1 .    1521' FWL AND 2040' FSL:  FIELD LOCATION LINE 1
 FL2 .        SEC. 14, BLK. 46:  FIELD LOCATION LINE 2
 FLD .                 WILDCAT:  FIELD NAME
 HDAT.                   02000:  DATUM
 LMF .                    K.B.:  LOG MEASURED FROM
 OS1 .                    XRMI:  OTHER SERVICES LINE 1
 OS2 .               LSS / FWS:  OTHER SERVICES LINE 2
 OS3 .                 SDL/DSN:  OTHER SERVICES LINE 3
 OS4 .                DLL/MGRD:  OTHER SERVICES LINE 4
 PDAT.            GROUND LEVEL:  PERMANENT DATUM
 R1  .    TOOLSTRING: RWCH/D4TS/NGRT/LFS_D2/XRMI/CENT:  REMARKS LINE 1
 R2  .    LOGGING INTERVALS AS PER CUSTOMER REQUEST.:  REMARKS LINE 2
 RDT2.                   02000:  CASING DATE 2
 RDT3.                   02000:  CASING DATE 3
 RDT4.                   02000:  CASING DATE 4
 RDT5.                   02000:  CASING DATE 5
 SON .                 4992511:  SERVICE/TICKET ORDER NUMBER
 PROV.                   TEXAS:  STATE
 WELL.    UNIVERSITY LANDS 46-14 No. 2:  WELL NAME
~Parameter Information Block
#MNEM.UNIT       Value        Description
#---------     -----------    ---------------------------
~Curve Information Block
#MNEM.UNIT                 API CODE     Curve Description
#---------               -----------    ---------------------------
 DEPT.F                 00 000 000 000:  
 LLD .ohmm              00 000 000 000:  LLD                                    
 LLS .ohmm              00 000 000 000:  LLS                                    
 NPHI.decp              00 000 000 000:  Neutron Porosity                       
 GR  .api               00 000 000 000:  Gamma API                              
 MGRD.ohmm              00 000 000 000:  MCGRD                                  
 DRHO.g/cc              00 000 000 000:  DensityCorr                            
 DPHI.decp              00 000 000 000:  DensityPorosity                        
 PE  .b/e               00 000 000 000:  Pe                                     
 RHOB.g/cc              00 000 000 000:  Density                                
 XPHI.decp              00 000 000 000:  CrossplotPhi                           
 CALI.in                00 000 000 000:  Caliper                                
 DTC .                  00 000 000 000:  DELTA-T COMPRESSIONAL - FWS
 GR2 .GAPI              00 000 000 000:  NATURAL GAMMA - FWS
 SPHI.DECP              00 000 000 000:  SONIC POROSITY MTX=47.6 (DTC)
~A  DEPT        LLD        LLS        NPHI       GR         MGRD       DRHO       DPHI       PE         RHOB       XPHI       CALI       DTC        GR2        SPHI   
# ...
 8746.5000    61.7499    67.4773     0.1303    94.9888    28.7136     0.0909     0.0144     3.9462     2.6855     0.0929    10.3878    59.1853    99.5733     0.0819 
 8747.0000    70.5798    76.7350     0.1157    97.7089    31.1834     0.0868     0.0265     3.8799     2.6646     0.0908    10.3725    57.5192    98.6884     0.0702 
 8747.5000    83.5359    92.0198     0.0940    82.2952    47.9985     0.0861     0.0329     3.8836     2.6537     0.0820    10.3573    57.8787    88.3754     0.0727 
 8748.0000   100.1799   110.4055     0.0716    71.6816    55.6091     0.0903     0.0306     3.9509     2.6577     0.0685    10.3573    58.0927    77.7816     0.0742 
 8748.5000   110.5371   117.7079     0.0637    79.7351    50.0978     0.0948     0.0223     3.9958     2.6718     0.0534    10.3573    57.1896    74.5056     0.0678 
 8749.0000   111.1766   114.8839     0.0811    87.3620    58.8594     0.0984     0.0175     3.9505     2.6800     0.0632    10.3802    57.6089    76.4031     0.0708 
 8749.5000    98.1060   100.5990     0.1032    88.2153    67.2836     0.0997     0.0164     3.8097     2.6820     0.0767    10.3725    58.9504    82.7424     0.0803 
 8750.0000    84.7872    87.5320     0.1092    90.7754    49.4413     0.0987     0.0180     3.5977     2.6793     0.0808    10.3802    60.3607    88.5200     0.0902 
 8750.5000    77.2716    80.2739     0.1175    95.8422    40.1310     0.0986     0.0198     3.4526     2.6761     0.0864    10.3878    60.8504    95.2252     0.0937 
 8751.0000    70.4319    73.6046     0.1275    96.7488    36.4831     0.0981     0.0215     3.4769     2.6733     0.0900    10.4031    60.9190   101.1050     0.0942 
 8751.5000    66.6456    71.3086     0.1371   103.0956    37.5822     0.0977     0.0237     3.5723     2.6695     0.0954    10.3878    62.4470   106.0487     0.1050 
 8752.0000    65.6396    71.2064     0.1440   110.8292    36.3935     0.1008     0.0276     3.6446     2.6628     0.1023    10.3878    63.3369   107.5804     0.1113 
 8752.5000    67.0167    73.7173     0.1435   108.1624    37.8599     0.1036     0.0309     3.6769     2.6571     0.1052    10.3954    62.3588   104.2278     0.1044 
 8753.0000    67.3345    75.0812     0.1357   103.4512    44.4086     0.0998     0.0290     3.7440     2.6604     0.1000    10.4031    62.5820    95.7783     0.1060 
 8753.5000    68.3266    75.9493     0.1228    91.9132    56.4694     0.0906     0.0254     3.8625     2.6665     0.0957    10.3954    62.2690    92.7320     0.1037 
 8754.0000    67.7090    74.8490     0.1160    83.2908    44.7130     0.0787     0.0231     3.8033     2.6705     0.0865    10.3954    61.5422    95.5145     0.0986 
 8754.5000    66.8828    71.5350     0.1195    99.0956    34.5891     0.0661     0.0289     3.5743     2.6605     0.0904    10.4107    61.0561   104.2193     0.0952 
 8755.0000    69.0963    73.2231     0.1205   111.6825    38.3521     0.0582     0.0401     3.4494     2.6414     0.0945    10.4107    60.6365   108.1505     0.0922 
 8755.5000    71.7993    75.3987     0.1109   105.7624    46.3992     0.0536     0.0439     3.4372     2.6350     0.0900    10.4031    61.4325   106.7890     0.0978 
 8756.0000    75.3031    79.7891     0.1094   100.4289    47.4116     0.0506     0.0395     3.4761     2.6424     0.0877    10.4031    61.5216   100.0669     0.0985 
 8756.5000    79.9571    83.2959     0.1143    99.2556    45.6885     0.0498     0.0349     3.5857     2.6503     0.0892    10.4031    61.2204    95.5485     0.0963 
 8757.0000    86.8134    89.4154     0.1146   101.7090    43.9905     0.0489     0.0360     3.6554     2.6485     0.0897    10.3954    60.8126    94.5785     0.0934 
 8757.5000    96.0322   102.6201     0.1030    94.8821    58.4010     0.0490     0.0374     3.7296     2.6460     0.0874    10.4031    59.4798    91.8045     0.0840 
 8758.0000   101.9788   111.9376     0.0835    72.1083    81.7908     0.0515     0.0308     4.0117     2.6573     0.0765    10.4107    58.1297    80.6917     0.0745 
 8758.5000    96.2443   109.8424     0.0660    61.6547    65.7194     0.0546     0.0224     4.2315     2.6717     0.0550    10.4107    58.0280    69.7320     0.0737 
 8759.0000    79.6990    90.0681     0.0627    82.3485    37.2857     0.0578     0.0228     4.0106     2.6710     0.0529    10.3954    59.1421    73.8844     0.0816 
 8759.5000    65.4270    71.5455     0.0815   114.9359    27.2676     0.0617     0.0265     3.6903     2.6646     0.0662    10.3878    59.3691    91.0132     0.0832 
 8760.0000    56.9182    60.2463     0.1122   132.0030    31.0235     0.0640     0.0279     3.6425     2.6624     0.0857    10.4031    60.3722   107.2485     0.0903 
 8760.5000    55.3309    58.8223     0.1242   122.9894    34.4607     0.0623     0.0260     3.6480     2.6655     0.0923    10.3878    62.7960   112.6518     0.1075 
 8761.0000    59.9778    64.7935     0.1185   110.6692    38.8144     0.0587     0.0246     3.5262     2.6680     0.0914    10.4107    62.9303   110.8819     0.1084 
 8761.5000    71.8021    78.1708     0.1120   107.2024    50.0647     0.0546     0.0275     3.3572     2.6630     0.0854    10.4107    61.7963   105.4021     0.1004 
 8762.0000    92.1088   104.7786     0.0915    99.6289    73.3153     0.0521     0.0242     3.2754     2.6686     0.0806    10.4031    59.6394    96.7568     0.0851 
 8762.5000   111.5707   125.6260     0.0617    88.6598    73.6410     0.0545     0.0153     3.4213     2.6838     0.0500    10.4031    58.4025    86.3502     0.0764 
 8763.0000   120.3007   135.6919     0.0494    81.3529    56.4670     0.0605     0.0111     3.6887     2.6910     0.0436    10.3954    57.9285    79.9003     0.0730 
 8763.5000   107.4061   119.3266     0.0509    91.4687    41.9921     0.0698     0.0111     3.7218     2.6910     0.0416    10.3878    57.6335    83.6358     0.0710 
 8764.0000    87.8184    95.6398     0.0646   103.3979    34.9613     0.0813     0.0172     3.4862     2.6806     0.0524    10.3725    58.9716    95.5315     0.0804 
 8764.5000    77.4765    81.9715     0.0872   106.7579    35.3714     0.0860     0.0272     3.3011     2.6635     0.0700    10.3725    60.4058   112.1923     0.0906 
 8765.0000    74.0319    78.4964     0.1044   113.8692    33.2753     0.0820     0.0272     3.2922     2.6636     0.0807    10.3878    61.0607   119.8845     0.0952 
 8765.5000    77.0202    82.5620     0.1057   110.7758    42.7368     0.0730     0.0215     3.3697     2.6732     0.0798    10.3954    61.2350   115.7406     0.0964 
 8766.0000    82.3603    90.3409     0.0973    96.3933    60.5448     0.0610     0.0238     3.4119     2.6693     0.0777    10.3954    60.9005   103.9045     0.0941 
 8766.5000    83.3471    93.5024     0.0890    88.1798    42.8407     0.0523     0.0218     3.3943     2.6726     0.0695    10.3878    60.7118    92.3491     0.0927 
 8767.0000    75.4173    85.8530     0.0917    90.8287    28.1164     0.0506     0.0135     3.4473     2.6868     0.0683    10.3573    61.1258    89.8304     0.0957 
 8767.5000    67.4593    76.1079     0.1013    92.4287    26.2887     0.0552     0.0114     3.5625     2.6904     0.0706    10.3649    61.2499    93.8552     0.0965 
 8768.0000    58.2684    64.9955     0.1133    92.9621    26.4443     0.0629     0.0154     3.6195     2.6837     0.0826    10.3878    62.2960    99.4287     0.1039 
 8768.5000    53.3284    57.8218     0.1168    97.3889    30.2128     0.0709     0.0211     3.6778     2.6739     0.0864    10.3802    64.5731   100.8072     0.1200 
 8769.0000    52.9683    57.6688     0.1219    99.0422    22.3340     0.0763     0.0228     3.7613     2.6711     0.0899    10.3878    64.5672   100.2030     0.1200 
 8769.5000    57.2813    60.8431     0.1214   103.8957    22.1786     0.0741     0.0240     3.6935     2.6689     0.0900    10.3954    63.5056   101.4368     0.1125 
 8770.0000    67.7783    74.7588     0.1120   104.3757    39.6669     0.0664     0.0289     3.4675     2.6607     0.0859    10.3954    62.6513    98.1778     0.1064 
 8770.5000    90.9251   103.0494     0.0837    89.4953    57.7293     0.0590     0.0273     3.2801     2.6632     0.0678    10.3878    61.3207    93.6085     0.0970 
