~Version Information
 VERS.                  2.0:   CWLS log ASCII Standard -VERSION 2.0
 WRAP.                   NO:   One line per depth step
~Well Information Block
#MNEM.UNIT     VALUE/NAME     DESCRIPTION
#---------     -----------    ---------------------------
 STRT.F              8400.0000: START DEPTH
 STOP.F             14661.0000: STOP DEPTH
 STEP.F                 0.5000: STEP DEPTH
 NULL.                 -999.25: NULL VALUE
 LOC .            42-109-33545:  LOCATION
 FL1 .            42-109-33545:  LOCATIONLINE1
 DMF .             Drill Floor:  DRILL MEAS FROM
 PDAT.                      GL:  PERMANENT DATUM
 CNTY.               CULBERSON:  COUNTY NAME
 FLD .              WOLFCAMP B:  FIELD NAME
 WELL.           DALE STATE 3H:  WELL NAME
 COMP.     CAPITAN ENERGY INC.:  COMPANY
 DATE.             12-Feb-2020:  DATE
 SVCO.             Halliburton:  SERVICECONAME
 PROV.                      TX:  PROVINCE
 STAT.                      TX:  STATE NAME
 HIDE.                        :  WELLNAMEOPERAT
 BASI.                 PERMIAN:  BASIN
 UWI .            42-109-33545:  UNIQUE WELL IDENTIFIER
 API .            42-109-33545:  API NUMBER
 RANG.                     N/A:  RANGE
 TOWN.                     N/A:  TOWNSHIP
 SECT.                     N/A:  SECTION
 SON .               906290460:  JOB NUMBER
 CTRY.                        :  COUNTRY
 SRVC.             Halliburton:  SERVICE COMPANY
 LMF .             Drill Floor:  LOG MEASURED FROM
 TVDS.ft             3291.0000:  TVDSS CORRECTN
 EGL .ft             3266.0000:  GROUND ELEVATION
 APD .ft               25.0000:  DEPTH ABOVE PD
 EPD .ft             3266.0000:  ELEVATION
 BAP .ft                0.0000:  GL ELEV ONSHORE
 GVFD.g                 1.0000:  GRAVITY FIELD
 EKB .ft             3291.0000:  KB ELEVATION
 EDF .ft             3291.0000:  DF ELEVATION
~Curve Information Block
#MNEM.UNIT                 API CODE     Curve Description
#---------               -----------    ---------------------------
 DEPT.F                 00 000 000 000:  Depth
 CCL .V                 00 000 000 000:  Casing Collar Locator
 NPHI_OH.pu             00 000 000 000:  NPHI_OH
 NPHI_CHI.decp          00 000 000 000:  NPHI_CHI
 GR_OH.api              00 000 000 000:  GR_OH
 GR_CHI.api             00 000 000 000:  GR_CHI
 RHOB_OH.g/cc           00 000 000 000:  RHOB_OH
 RHOB_CHI.g/cc          00 000 000 000:  RHOB_CHI
 PE_OH.NONE             00 000 000 000:  PE_OH
 PE_CHI.NONE            00 000 000 000:  PE_CHI
 LLS_CHI.ohmm           00 000 000 000:  LLS_CHI
 LLS_OH.ohmm            00 000 000 000:  LLS_OH
 LLD_OH.ohmm            00 000 000 000:  LLD_OH
 LLD_CHI.ohmm           00 000 000 000:  LLD_CHI
 DTC_OH.uspf            00 000 000 000:  DTC_OH
 DTC_CHI.uspf           00 000 000 000:  DTC_CHI
 SPHW_CHI.decp          00 000 000 000:  SPHW_CHI
#Other Information
#
#WARRANTY: Halliburton will use its best efforts to furnish customers with 
#accurate information and interpretations that are part of, and incident to, the services 
#provided.  However, Halliburton cannot and does not warrant the accuracy 
#or correctness of such information and interpretations.  Under no circumstances should any 
#such information or interpretation be relied upon as the sole basis for any drilling, 
#completion, production, or financial decision or any procedure involving any risk to the 
#safety of any drilling venture, drilling rig or its crew or any other third party.  The 
#Customer has full responsibility for all drilling, completion and production operation.  
#Halliburton makes no representations or warranties, either expressed or 
#implied, including, but not limited to, the implied warranties of merchantability or fitness 
#for a particular purpose, with respect to the services rendered.  In no event will 
#Halliburton be liable for failure to obtain any particular results or for 
#any damages, including, but not limited to, indirect, special or consequential damages, 
#resulting from the use of any information or interpretation provided by Halliburton.
#
~A    DEPT      CCL   NPHI_OH NPHI_CHI  GR_OH    GR_CHI  RHOB_OH RHOB_CHI  PE_OH  PE_CHI  LLS_CHI   LLS_OH    LLD_OH    LLD_CHI  DTC_OH  DTC_CHI SPHW_CHI 
# ...
   10467.0000  0.0000 -999.25   0.1231  -999.25 100.1727 -999.25   2.5902 -999.25 3.3508   42.4895   -999.25   -999.25   52.6603 -999.25 74.5776 0.1908
   10467.5000 -0.0548 -999.25   0.1257  -999.25 109.1383 -999.25   2.5843 -999.25 3.3432   48.8156   -999.25   -999.25   60.0932 -999.25 74.0658 0.1872
   10468.0000  0.0000 -999.25   0.1242  -999.25 111.1116 -999.25   2.5845 -999.25 3.3238   47.3648   -999.25   -999.25   58.2688 -999.25 73.4891 0.1831
   10468.5000 -0.0529 -999.25   0.1219  -999.25 113.0968 -999.25   2.5866 -999.25 3.3016   43.5680   -999.25   -999.25   53.7206 -999.25 73.0939 0.1803
   10469.0000  0.0000 -999.25   0.1210  -999.25 116.6656 -999.25   2.5864 -999.25 3.2927   43.3952   -999.25   -999.25   53.4175 -999.25 72.9442 0.1792
   10469.5000  0.0610 -999.25   0.1196  -999.25 115.3812 -999.25   2.5878 -999.25 3.3044   43.2986   -999.25   -999.25   53.3086 -999.25 72.8995 0.1789
   10470.0000 -0.7400 -999.25   0.1198  -999.25 117.7812 -999.25   2.5866 -999.25 3.3471   49.0134   -999.25   -999.25   60.1186 -999.25 73.1022 0.1804
   10470.5000  0.0000 -999.25   0.1182  -999.25 112.0874 -999.25   2.5884 -999.25 3.3909   51.8161   -999.25   -999.25   63.4145 -999.25 73.3039 0.1818
   10471.0000  0.0188 -999.25   0.1179  -999.25 109.6270 -999.25   2.5882 -999.25 3.4059   53.4517   -999.25   -999.25   65.2102 -999.25 73.4454 0.1828
   10471.5000 -0.0486 -999.25   0.1234  -999.25 124.2085 -999.25   2.5797 -999.25 3.3766   60.0593   -999.25   -999.25   72.6501 -999.25 73.6020 0.1839
   10472.0000  0.0000 -999.25   0.1265  -999.25 122.2445 -999.25   2.5755 -999.25 3.3311   58.8959   -999.25   -999.25   70.8585 -999.25 73.8152 0.1854
   10472.5000 -0.0385 -999.25   0.1281  -999.25 114.8897 -999.25   2.5736 -999.25 3.3024   57.0861   -999.25   -999.25   68.3609 -999.25 73.9589 0.1864
   10473.0000 -0.0274 -999.25   0.1351  -999.25 128.6514 -999.25   2.5652 -999.25 3.2549   60.5457   -999.25   -999.25   72.4491 -999.25 74.5375 0.1905
   10473.5000  0.0000 -999.25   0.1372  -999.25 131.7127 -999.25   2.5644 -999.25 3.2242   56.8873   -999.25   -999.25   68.4360 -999.25 74.5666 0.1907
   10474.0000 -0.0427 -999.25   0.1325  -999.25 112.6170 -999.25   2.5736 -999.25 3.2091   44.4401   -999.25   -999.25   53.8759 -999.25 73.7414 0.1849
   10474.5000  0.0000 -999.25   0.1313  -999.25 107.0948 -999.25   2.5776 -999.25 3.1888   38.2457   -999.25   -999.25   46.7179 -999.25 73.4028 0.1825
   10475.0000  0.0101 -999.25   0.1303  -999.25 106.3912 -999.25   2.5802 -999.25 3.1738   34.6664   -999.25   -999.25   42.5787 -999.25 73.2751 0.1816
   10475.5000 -0.0212 -999.25   0.1297  -999.25 108.0078 -999.25   2.5812 -999.25 3.1632   33.0920   -999.25   -999.25   40.7752 -999.25 73.2134 0.1811
   10476.0000  0.0000 -999.25   0.1278  -999.25 109.5388 -999.25   2.5830 -999.25 3.1615   32.1816   -999.25   -999.25   39.7093 -999.25 73.1887 0.1810
   10476.5000 -0.0178 -999.25   0.1280  -999.25 118.3079 -999.25   2.5826 -999.25 3.1731   33.5099   -999.25   -999.25   41.4630 -999.25 73.3828 0.1823
   10477.0000  0.0141 -999.25   0.1262  -999.25 119.3851 -999.25   2.5858 -999.25 3.1971   32.9674   -999.25   -999.25   40.9666 -999.25 73.4960 0.1831
   10477.5000  0.0000 -999.25   0.1261  -999.25 123.6671 -999.25   2.5882 -999.25 3.2152   32.1518   -999.25   -999.25   40.2134 -999.25 73.9570 0.1864
   10478.0000  0.0292 -999.25   0.1242  -999.25 116.4870 -999.25   2.5928 -999.25 3.2380   30.0173   -999.25   -999.25   37.7035 -999.25 74.4576 0.1899
   10478.5000 -0.0557 -999.25   0.1278  -999.25 128.0661 -999.25   2.5888 -999.25 3.2323   32.2348   -999.25   -999.25   40.5363 -999.25 74.8699 0.1929
   10479.0000  0.0223 -999.25   0.1262  -999.25 115.4158 -999.25   2.5917 -999.25 3.2393   30.2616   -999.25   -999.25   38.0494 -999.25 74.8184 0.1925
   10479.5000  0.0336 -999.25   0.1266  -999.25 113.5412 -999.25   2.5900 -999.25 3.2378   31.5764   -999.25   -999.25   39.5733 -999.25 74.4512 0.1899
   10480.0000 -0.0282 -999.25   0.1263  -999.25 113.1825 -999.25   2.5896 -999.25 3.2450   32.6494   -999.25   -999.25   40.8553 -999.25 74.3745 0.1894
   10480.5000  0.0000 -999.25   0.1236  -999.25 112.5022 -999.25   2.5919 -999.25 3.2577   32.4683   -999.25   -999.25   40.6036 -999.25 74.2544 0.1885
   10481.0000 -0.0159 -999.25   0.1194  -999.25 107.0306 -999.25   2.5958 -999.25 3.2668   30.9439   -999.25   -999.25   38.6239 -999.25 73.9741 0.1865
   10481.5000 -0.0123 -999.25   0.1205  -999.25 116.7638 -999.25   2.5927 -999.25 3.2861   35.1028   -999.25   -999.25   43.6460 -999.25 74.0825 0.1873
   10482.0000  0.0307 -999.25   0.1237  -999.25 125.4764 -999.25   2.5875 -999.25 3.2872   39.8657   -999.25   -999.25   49.3758 -999.25 74.0751 0.1872
   10482.5000  0.0213 -999.25   0.1296  -999.25 133.8368 -999.25   2.5804 -999.25 3.2768   45.2374   -999.25   -999.25   55.9358 -999.25 74.3534 0.1892
   10483.0000  0.0000 -999.25   0.1295  -999.25 122.9268 -999.25   2.5822 -999.25 3.2816   43.4002   -999.25   -999.25   53.7919 -999.25 74.3980 0.1895
   10483.5000  0.0146 -999.25   0.1285  -999.25 113.6814 -999.25   2.5838 -999.25 3.2905   42.6949   -999.25   -999.25   52.9548 -999.25 74.2604 0.1885
   10484.0000 -0.0926 -999.25   0.1268  -999.25 115.6433 -999.25   2.5844 -999.25 3.3321   47.3169   -999.25   -999.25   58.5718 -999.25 74.3914 0.1895
   10484.5000  0.0000 -999.25   0.1216  -999.25 108.3558 -999.25   2.5890 -999.25 3.3784   48.2005   -999.25   -999.25   59.5615 -999.25 74.1852 0.1880
   10485.0000  0.0282 -999.25   0.1182  -999.25 104.4425 -999.25   2.5922 -999.25 3.4022   47.5740   -999.25   -999.25   58.7621 -999.25 74.0920 0.1874
   10485.5000 -0.0292 -999.25   0.1220  -999.25 124.1770 -999.25   2.5877 -999.25 3.4153   54.2013   -999.25   -999.25   66.9133 -999.25 74.7336 0.1919
   10486.0000  0.0000 -999.25   0.1188  -999.25 117.6965 -999.25   2.5936 -999.25 3.4437   49.8852   -999.25   -999.25   61.9841 -999.25 75.5153 0.1974
   10486.5000  0.0000 -999.25   0.1154  -999.25 108.9256 -999.25   2.5999 -999.25 3.4784   45.7009   -999.25   -999.25   57.2140 -999.25 76.5662 0.2049
   10487.0000  0.0560 -999.25   0.1162  -999.25 119.1992 -999.25   2.5996 -999.25 3.4761   46.0771   -999.25   -999.25   57.8263 -999.25 76.8530 0.2069
   10487.5000  0.0000 -999.25   0.1184  -999.25 128.5834 -999.25   2.5973 -999.25 3.4460   45.9087   -999.25   -999.25   57.6619 -999.25 76.6355 0.2053
   10488.0000  0.0387 -999.25   0.1210  -999.25 131.7828 -999.25   2.5941 -999.25 3.4091   45.4891   -999.25   -999.25   57.0438 -999.25 76.2364 0.2025
   10488.5000  0.0370 -999.25   0.1202  -999.25 121.3380 -999.25   2.5947 -999.25 3.3974   43.1263   -999.25   -999.25   53.9211 -999.25 75.8425 0.1997
   10489.0000  0.0000 -999.25   0.1227  -999.25 126.7053 -999.25   2.5902 -999.25 3.3828   46.5685   -999.25   -999.25   57.9111 -999.25 75.3830 0.1965
   10489.5000 -0.0208 -999.25   0.1222  -999.25 121.0706 -999.25   2.5893 -999.25 3.3807   47.4456   -999.25   -999.25   58.6994 -999.25 74.8745 0.1929
   10490.0000  0.0000 -999.25   0.1224  -999.25 120.6670 -999.25   2.5886 -999.25 3.3766   47.8321   -999.25   -999.25   59.1340 -999.25 74.7287 0.1919
   10490.5000  0.0000 -999.25   0.1199  -999.25 114.2819 -999.25   2.5922 -999.25 3.3817   44.5847   -999.25   -999.25   55.3096 -999.25 74.6964 0.1916
   10491.0000 -0.0769 -999.25   0.1207  -999.25 123.8711 -999.25   2.5912 -999.25 3.3813   45.9018   -999.25   -999.25   57.0080 -999.25 74.7874 0.1923
   10491.5000  0.0000 -999.25   0.1176  -999.25 118.8343 -999.25   2.5951 -999.25 3.3830   42.1493   -999.25   -999.25   52.4755 -999.25 74.6513 0.1913
   10492.0000  0.0298 -999.25   0.1166  -999.25 112.2684 -999.25   2.5963 -999.25 3.3705   39.8660   -999.25   -999.25   49.6394 -999.25 74.3472 0.1892
   10492.5000 -0.0102 -999.25   0.1255  -999.25 127.7768 -999.25   2.5845 -999.25 3.3170   46.1921   -999.25   -999.25   57.1341 -999.25 74.1306 0.1876
   10493.0000  0.0000 -999.25   0.1333  -999.25 137.1736 -999.25   2.5740 -999.25 3.2709   52.1729   -999.25   -999.25   64.1707 -999.25 74.1807 0.1880
