~VERSION INFORMATION
VERS.           1.2   :CWLS Log ASCII Standard - VERSION 1.2
WRAP.           NO    :One Line per depth step
PROD.  Schlumberger   :LAS Producer
PROG.  DLIS to ASCII 10C0-306                          :LAS Program name and version
CREA.        2007/06/08 22:43                          :LAS Creation date {YYYY/MM/DD hh:mm}
SOURCE.     294b92a6-1e54-4f75-8d20-4493e48002f1       :DLIS File Name
#--------------------------------------------------
~WELL INFORMATION
#MNEM.UNIT      DATA             DESCRIPTION
#---- ------ --------------   -----------------------------
STRT .F      4145.5000       :START DEPTH     
STOP .F      10380.0000      :STOP DEPTH     
STEP .F       0.5000         :STEP       
NULL .          -999.25      :NULL VALUE
COMP .                 COMPANY:  Chesapeake Operating Inc.          
WELL .                    WELL:  University Lands 4627-1            
FLD  .                   FIELD:  Wildcat                            
LOC  .                LOCATION:  1200' FNL & 1995; FEL              
CNTY .                  COUNTY:  Culberson                          
STAT .                   STATE:  Texas                              
CTRY .                 COUNTRY:                                     
SRVC .         SERVICE COMPANY:  Schlumberger                       
API  .              API NUMBER:  42-109-32287                       
DATE .                LOG DATE:  7-Jun-2007
UWI  .          UNIQUE WELL ID:  42-109-32287-0000                  
#-----------------------------------------------------------------------------
~PARAMETER INFORMATION
#MNEM.UNIT    VALUE                      DESCRIPTION
#---- -----   --------------------       ------------------------
CN   .        Chesapeake Operating Inc.  :Company Name
WN   .        University Lands 4627-1    :Well Name
FN   .        Wildcat                    :Field Name
FL   .        1200' FNL & 1995  FEL      :Field Location
FL1  .        Secion  27  Block  46  Abstract  2860 :Field Location Line 1
COUN .        Culberson                  :County or Rig Name
STAT .        Texas                      :State or Province
NATI .                                   :Nation
DATE .        7-Jun-2007                 :Date as Month-Day-Year
APIN .        42-109-32287               :API Serial Number
SECT .        27                         :Section
TOWN .        46                         :Township
RANG .        2860                       :Range
DMF  .        Kelly Bushing              :Drilling Measured From
LMF  .        Kelly Bushing              :Log Measured From
PDAT .        Ground Level               :Permanent Datum
ENGI .        Tarek Sheira               :Engineer's Name
WITN .        Wiley Tisdale /Jud Walker  :Witness's Name
LATI .                                   :Latitude
LONG .                                   :Longitude
LUL  .        Midland  TX                :Logging Unit Location
LUN  .              2365                 :Logging Unit Number
RUN  .        2                          :Run Number
SON  .        11592406                   :Service Order Number
BHT  .DEGF     185.00000                 :Bottom Hole Temperature (used in calculations)
BS   .IN         8.75000                 :Bit Size
DFD  .LB/G       8.60000                 :Drilling Fluid Density
DFV  .S         39.00000                 :Drilling Fluid Viscosity
DFL  .C3         8.00000                 :Drilling Fluid Loss
RMFS .OHMM       0.42100                 :Resistivity of Mud Filtrate Sample
EKB  .F       4323.00000                 :Elevation of Kelly Bushing
EGL  .F       4283.00000                 :Elevation of Ground Level
BLI  .F       10360.70020                :Bottom Log Interval
BSAL .PPM      500.00000                 :Borehole Salinity
FLEV .                                   :Fluid Level
MCST .                                   :Mud Cake Sample Temperature
MFST .DEGF      96.90000                 :Mud Filtrate Sample Temperature
MRT  .DEGF     185.00000                 :Maximum Recorded Temperature
MST  .DEGF      96.90000                 :Mud Sample Temperature
RMCS .                                   :Resistivity of Mud Cake Sample
RMS  .OHMM       0.42100                 :Resistivity of Mud Sample
RW   .OHMM       1.00000                 :Resistivity of Connate Water
TDD  .F       10350.00000                :Total Depth - Driller
TDL  .F       10362.00000                :Total Depth - Logger
TLI  .F       4200.00000                 :Top Log Interval
HIDE .        Formation Micro Imager     :Header Identifier
MATR .        LIME                       :Rock Matrix for Neutron Porosity Corrections
FNUM .           1.00000                 :Form Factor Numerator
FEXP .           2.00000                 :Form Factor Exponent
DFT  .        Fresh Mud                  :Drilling Fluid Type
DFPH .           9.00000                 :Drilling Fluid PH
MCSS .        Calculated                 :Mud Cake Sample Source
MFSS .        Calculated                 :Mud Filtrate Sample Source
MSS  .        Circulation Tank           :Mud Sample Source
OS1  .        TLD-APS-HNGS               :Other Services Line 1
OS2  .        HRLA-HNGS                  :Other Services Line 2
OS3  .        FMI-GR                     :Other Services Line 3
OS4  .        DSI-GR                     :Other Services Line 4
OS5  .        HNGS                       :Other Services Line 5
R1   .        -Tool ran as per tool sketch. :Remark Line 1
R2   .        -Hole size & standoff corrections applied to APS porosity. :Remark Line 2
R3   .        -Log performed on a limestone matrix (MDEN = 2.71 g/cc  DTM = 47.6 us/ft) :Remark Line 3
R4   .        -Hole & cement volumes computed using FCD = 7 . :Remark Line 4
R5   .        -Source of max. hole temperature is CTEM = 185 DegF. :Remark Line 5
R6   .        -Source of max. hole deviation is company man = 3 Deg. :Remark Line 6
R7   .        -Repeat performed off bottom for 300' as per client request. :Remark Line 7
R8   .        -Density measurment is affected by washouts. :Remark Line 8
TCS  .        9 00                       :Time Circulation Stopped
TLAB .        22 15                      :Time Logger At Bottom
EPD  .F         4283.000000              :Elevation of Permanent Datum above Mean Sea Level
APD  .F          40.000000               :Elevation of Depth Reference (LMF) above Permanent Datum
#-----------------------------------------------------------------------------
~CURVE INFORMATION
#MNEM.UNIT   API CODE                                  DESCRIPTION
#---- -----  --------                                  -----------------------
DEPT .F                                                :DEPTH (BOREHOLE) {F12.4}
C1   .IN                                               :Caliper 1 {F11.4}
C2   .IN                                               :Caliper 2 {F11.4}
CHRP .                                                 :Label Peak Coherence, Receiver Array, Compressional - Monopole P&S {F11.4}
CHR1 .                                                 :Label Peak Coherence, Receiver Array - Lower Dipole {F11.4}
CHR2 .                                                 :Label Peak Coherence, Receiver Array - Upper Dipole {F11.4}
DCAL .IN                                               :Differential Caliper {F11.4}
DEVI .DEG                                              :Hole Deviation {F11.4}
DT1R .US/F                                             :Delta-T Shear, Receiver Array - Lower Dipole {F11.4}
DT2  .US/F                                             :Delta-T Shear - Upper Dipole {F11.4}
DT2R .US/F                                             :Delta-T Shear, Receiver Array - Upper Dipole {F11.4}
DT4P .US/F                                             :Delta-T Compressional - Monopole P&S {F11.4}
DT4S .US/F                                             :Delta-T Shear - Monopole P&S {F11.4}
DTCO .US/F                                             :Delta-T Compressional {F11.4}
DTRP .US/F                                             :Delta-T Compressional, Receiver Array - Monopole P&S {F11.4}
DTRS .US/F                                             :Delta-T Shear, Receiver Array - Monopole P&S {F11.4}
DTSM .US/F                                             :Delta-T Shear {F11.4}
ED   .F                                                :East Departure {F11.4}
GR_EDTC.GAPI                                           :Gamma Ray {F11.4}
GTEM .DEGF                                             :Generalized Borehole Temperature {F11.4}
HAZI .DEG                                              :Hole Azimuth {F11.4}
ITT  .S                                                :Integrated Transit Time {F11.4}
ND   .F                                                :North Departure {F11.4}
P1AZ .DEG                                              :Pad 1 Azimuth {F11.4}
PR   .                                                 :Poisson's Ratio {F11.4}
RB   .DEG                                              :Relative Bearing {F11.4}
SDEV .DEG                                              :Sonde Deviation {F11.4}
SPHI .CFCF                                             :Sonic Porosity {F11.4}
STIT .F                                                :Stuck Tool Indicator, Total {F11.4}
TENS .LBF                                              :Cable Tension {F11.4}
#-----------------------------------------------------------------------------
# 
#      DEPT         C1         C2        CHRP       CHR1       CHR2       DCAL       DEVI       DT1R       DT2        DT2R       DT4P       DT4S       DTCO       DTRP       DTRS       DTSM        ED      GR_EDTC      GTEM       HAZI       ITT         ND        P1AZ        PR         RB        SDEV       SPHI       STIT       TENS
#
~A  
# ...
   7883.0000    11.1897     9.3489     0.6527     0.9801     0.9682     1.4780     1.7828   116.4862   122.7298   126.2085    73.3649   116.4040    73.3649    73.3649   116.4040   122.7298   135.5081    96.1987   163.7078   269.5515     0.1627   -19.4814   271.6237     0.2220     2.0710     1.7828     0.1822     0.0000  4054.0000
   7883.5000    11.0386     9.4470     0.6482     0.9779     0.9798     1.4618     1.7798   117.3135   121.2192   124.4205    74.5767   115.4104    74.5767    74.5767   115.4104   121.2192   135.4918    86.3442   163.7121   269.6166     0.1627   -19.4814   270.9332     0.1955     1.3158     1.7798     0.1908     0.0000  4023.0000
   7884.0000    10.7364     9.3489     0.4652     0.8020     0.6176     1.2687     1.7942   118.9862   121.9067   126.5428    68.0742   115.2788    68.0742    68.0742   115.2788   121.9067   135.4754    76.0684   163.7164   269.5756     0.1626   -19.4815   268.4073     0.2734   358.8326     1.7942     0.1448     0.0000  3932.0000
   7884.5000    10.6231     9.3489     0.5860     0.9713     0.8259     1.2156     1.7836   120.3114   118.7307   119.4455    66.6493   116.2967    66.6493    66.6493   116.2967   118.7307   135.4589    70.8917   163.7206   269.6147     0.1626   -19.4815   267.7043     0.2700   358.0908     1.7836     0.1347     0.0000  3851.0000
   7885.0000    10.7112     9.4470     0.8397     0.9815     0.9816     1.3093     1.7852   117.6319   117.6510   119.2497    69.4864   115.5150    69.4864    69.4864   115.5150   117.6510   135.4424    73.0851   163.7249   269.7314     0.1626   -19.4815   268.3404     0.2322   358.6098     1.7852     0.1548     0.0000  3803.0000
   7885.5000    10.6105     9.4470     0.7236     0.9804     0.9846     1.2618     1.7855   118.0100   117.4900   119.7250    68.7395   116.0528    68.7395    68.7395   116.0528   117.4900   135.4259    74.1245   163.7292   269.8071     0.1625   -19.4815   270.9370     0.2398     1.1292     1.7855     0.1495     0.0000  3914.0000
   7886.0000    10.6105     9.4470     0.6809     0.9639     0.9846     1.2618     1.7906   118.0814   116.8679   119.8308    71.8642   115.8729    71.8642    71.8642   115.8729   116.8679   135.4093    75.6849   163.7335   269.6935     0.1625   -19.4815   268.1976     0.1960   358.5049     1.7906     0.1716     0.0000  3956.0000
   7886.5000    10.6609     9.3489     0.7110     0.9646     0.9756     1.2333     1.7905   117.9644   118.5763   121.9068    70.9132   123.5559    70.9132    70.9132   123.5559   118.5763   135.3927    72.4512   163.7378   269.7267     0.1624   -19.4814   269.3385     0.2216   359.6120     1.7905     0.1649     0.0000  3868.0000
   7887.0000    10.7112     9.4470     0.7028     0.9490     0.9800     1.3093     1.7899   124.4295   118.5122   122.7962    72.6555   124.6581    72.6555    72.6555   124.6581   118.5122   135.3761    74.1835   163.7421   269.7722     0.1624   -19.4814   270.2971     0.1989     0.5247     1.7899     0.1772     0.0000  3847.0000
   7887.5000    10.9127     9.4470     0.7208     0.9400     0.9765     1.4034     1.7956   125.8920   118.7701   123.7590    76.7102   120.4866    76.7102    76.7102   120.4866   118.7701   135.3594    76.0675   163.7464   269.7607     0.1624   -19.4814   270.3615     0.1421     0.6002     1.7956     0.2059     0.0000  3713.0000
   7888.0000    10.9127     9.4470     0.7010     0.9299     0.9837     1.4034     1.8006   129.6134   121.7128   127.2012    76.6329   120.9658    76.6329    76.6329   120.9658   121.7128   135.3426    84.0684   163.7507   269.7869     0.1623   -19.4813   270.1665     0.1716     0.3795     1.8006     0.2053     0.0000  3991.0000
   7888.5000    10.9127     9.4470     0.6077     0.9415     0.9780     1.4034     1.8073   132.8716   122.1872   126.6972    75.6502   119.9874    75.6502    75.6502   119.9874   122.1872   135.3258    89.9583   163.7550   269.7568     0.1623   -19.4813   269.5598     0.1892   359.8029     1.8073     0.1984     0.0000  4112.0000
   7889.0000    10.8120     9.4470     0.5324     0.9352     0.9777     1.3564     1.8146   133.1424   122.0446   124.7888    74.6063   116.3442    74.6063    74.6063   116.3442   122.0446   135.3090    89.6118   163.7593   269.7706     0.1623   -19.4812   265.6025     0.2017   355.8338     1.8146     0.1910     0.0000  3957.0000
   7889.5000    10.5602     9.4592     0.7260     0.9413     0.9644     1.2445     1.8198   127.0831   122.5469   124.6088    74.5065   118.1254    74.5065    74.5065   118.1254   122.5469   135.2921    82.4582   163.7636   269.8339     0.1622   -19.4811   264.9977     0.2068   355.1663     1.8198     0.1903     0.0000  3875.0000
   7890.0000    10.4091     9.4470     0.6697     0.9754     0.9626     1.1663     1.8245   123.1704   120.8238   124.0398    75.3620   117.8299    75.3620    75.3620   117.8299   120.8238   135.2752    78.3463   163.7679   269.7914     0.1622   -19.4810   262.8724     0.1816   353.0845     1.8245     0.1963     0.0000  3836.0000
   7890.5000    10.4342     9.4470     0.6563     0.9844     0.9744     1.1783     1.8295   123.0723   122.5966   124.0221    73.2875   120.5054    73.2875    73.2875   120.5054   122.5966   135.2583    83.1968   163.7722   269.7487     0.1621   -19.4809   263.0404     0.2220   353.2949     1.8295     0.1817     0.0000  3822.0000
   7891.0000    10.4342     9.5450     0.7020     0.9779     0.9772     1.2297     1.8327   126.0580   125.3803   126.5123    72.7561   124.3372    72.7561    72.7561   124.3372   125.3803   135.2413    91.4034   163.7765   269.7852     0.1621   -19.4808   261.8738     0.2462   352.0924     1.8327     0.1779     0.0000  3815.0000
   7891.5000    10.4342     9.5450     0.7748     0.9749     0.9501     1.2297     1.8379   128.5903   126.0002   128.0046    73.8514   126.9292    73.8514    73.8514   126.9292   126.0002   135.2243   102.6179   163.7808   269.7939     0.1621   -19.4807   260.6262     0.2383   350.8368     1.8379     0.1857     0.0000  3839.0000
   7892.0000    10.4342     9.5450     0.8703     0.9794     0.9914     1.2297     1.8450   128.0642   126.9745   129.3862    74.3782   125.2141    74.3782    74.3782   125.2141   126.9745   135.2072   103.5682   163.7851   269.7465     0.1620   -19.4805   261.7299     0.2388   351.9875     1.8450     0.1894     0.0000  3837.0000
   7892.5000    10.4091     9.5450     0.8637     0.9324     0.9930     1.2177     1.8393   129.0186   125.3813   129.0922    74.5766   125.3698    74.5766    74.5766   125.3698   125.3813   135.1900   108.1807   163.7894   269.7741     0.1620   -19.4804   263.0356     0.2263   353.2650     1.8393     0.1908     0.0000  3824.0000
   7893.0000    10.4091     9.5450     0.7569     0.9404     0.5715     1.2177     1.8566   118.0074   127.6172   134.7159    73.0711   124.4391    73.0711    73.0711   124.4391   127.6172   135.1728   107.1413   163.7937   269.8609     0.1620   -19.4802   263.7429     0.2561   353.8852     1.8566     0.1801     0.0000  3759.0000
   7893.5000    10.4342     9.5450     0.7102     0.9878     0.9430     1.2297     1.8593   120.7485   123.6545   126.0214    71.4112   121.2637    71.4112    71.4112   121.2637   123.6545   135.1555   106.1910   163.7980   269.7962     0.1619   -19.4801   264.6952     0.2498   354.9016     1.8593     0.1684     0.0000  3801.0000
   7894.0000    10.4846     9.5450     0.5450     0.9920     0.9881     1.2538     1.8667   123.0577   124.3285   127.4440    69.3685   119.7439    69.3685    69.3685   119.7439   124.3285   135.1382   100.6990   163.8022   269.7400     0.1619   -19.4799   266.5355     0.2740   356.7974     1.8667     0.1539     0.0000  3905.0000
   7894.5000    10.4846     9.5450     0.5282     0.9918     0.9871     1.2538     1.8706   122.9688   123.9947   127.5598    68.2306   119.7445    68.2306    68.2306   119.7445   123.9947   135.1208   100.0060   163.8065   269.8604     0.1619   -19.4797   267.2687     0.2828   357.4096     1.8706     0.1459     0.0000  3774.0000
   7895.0000    10.4720     9.5450     0.5920     0.9437     0.9864     1.2478     1.8742   125.0724   124.4905   127.5055    72.4632   119.8032    72.4632    72.4632   119.8032   124.4905   135.1034    99.1660   163.8108   269.9326     0.1618   -19.4795   267.4328     0.2438   357.5015     1.8742     0.1758     0.0000  3773.0000
