###############################################
##         ENVERUS                           ##
##         ESS - Open Hole                   ##
##         PERMIAN / DELAWARE                ##
##         Nov 02 2023  V4.0                 ##
##         42-109-31391-00-00                ##
###############################################
## Copyright 2017-2023  ENVERUS.  All Rights Reserved. 
## Confidential - Property of ENVERUS, use governed by terms and 
## conditions found within the existing Information Services Subscription Agreement 
## (as may be amended, the “ISSA”) between Customer and ENVERUS. 
## 
~VERSION INFORMATION
# MNEM.UNIT                               DATA : DESCRIPTION OF MNEMONIC
#-----.-----     ----------------------------- : -----------------------------
VERS.                                     2.00 : CWLS LOG ASCII STANDARD - VERSION 2.00
WRAP.                                       NO : MULTIPLE LINES PER DEPTH STEP
VEND.                                  ENVERUS : VENDOR
TYPE.                          ESS - OPEN HOLE : ENVERUS ESSENTIAL CURVES – ACCESSIBLE THROUGH ENVERUS PRISM(TM)
DOC.                                  31999167 : ENVERUS HEADER RAW DOCUMENT ID
#___________________________________________________________________________________________________ 
~WELL INFORMATION 
# BOC9FSWoKCUsCFcWObZ1iTDYvHtSUwfaSl9bEava01AYiR20s/sWwY1hBaxvFz+VJj0aOQNxXrzxY9t5EPBGbg== 
# MNEM.UNIT                                              DATA : DESCRIPTION OF MNEMONIC 
#-----.-----                    ----------------------------- : ----------------------------- 
CNTY.                                               CULBERSON : COUNTY 
STATE.                                                  TEXAS : STATE 
CNTRY.                                                    USA : COUNTRY 
API.                                             42-109-31391 : API (10 Digit) 
API_14.                                    42-109-31391-00-00 : API (14 Digits) 
API_14_std.                                 42-109-31391-0000 : API (14 Digits Standard) 
UWI.                                           42109313910000 : UNIQUE WELL ID 
WELL.                                            TRES ALAS  1 : WELL NAME
STRT.FT                                                     0 : START DEPTH
STOP.FT                                               15494.0 : STOP DEPTH
STEP.FT                                                   0.5 : STEP BETWEEN DEPTHS
NULL.                                                 -999.25 : NULL VALUE
COMP.                           AMERICAN QUASAR PETROLEUM CO. : COMPANY
#___________________________________________________________________________________________________ 
~CURVE INFORMATION 
# MNEM.UNIT           : CURVE DESCRIPTION 
#-----.-----          : ----------------------------- 
 DEPT.FT               : MEASURED DEPTH 
 CALI.IN               : CALIPER (CAL - CAL) 
 GR.API                : GAMMA RAY (GR) 
 DT.US/FT              : SONIC DELTA TRANSIT TIME (DT) 
 #___________________________________________________________________________________________________ 
~A         DEPT           CALI             GR             DT
# ...
         6798.0         12.580         50.877         75.474
         6798.5         12.585         44.302         75.691
         6799.0         12.589         34.414         74.820
         6799.5         12.594         24.526         70.577
         6800.0         12.599         17.777         66.335
         6800.5         12.603         13.179         62.092
         6801.0         12.560         10.584         58.495
         6801.5         12.508          9.228         55.965
         6802.0         12.456          7.925         54.583
         6802.5         12.404          6.741         53.687
         6803.0         12.351          6.961         53.364
         6803.5         12.299         10.284         53.042
         6804.0         12.305         16.082         53.804
         6804.5         12.338         24.486         56.251
         6805.0         12.372         41.969         62.190
         6805.5         12.405         52.531         68.130
         6806.0         12.433         56.819         74.069
         6806.5         12.433         57.190         79.411
         6807.0         12.440         56.996         81.585
         6807.5         12.465         59.233         80.541
         6808.0         12.491         63.159         79.498
         6808.5         12.516         68.949         79.271
         6809.0         12.541         69.536         81.286
         6809.5         12.554         61.524         81.098
         6810.0         12.539         51.044         77.878
         6810.5         12.524         36.929         72.573
         6811.0         12.509         34.954         67.280
         6811.5         12.495         42.467         62.001
         6812.0         12.480         51.219         65.468
         6812.5         12.465         59.972         71.504
         6813.0         12.450         60.762         77.334
         6813.5         12.436         56.886         82.256
         6814.0         12.421         51.748         82.631
         6814.5         12.406         44.657         81.947
         6815.0         12.391         36.490         75.466
         6815.5         12.392         28.324         69.880
         6816.0         12.400         22.715         65.540
         6816.5         12.408         22.454         61.200
         6817.0         12.416         29.172         58.073
         6817.5         12.423         40.469         63.400
         6818.0         12.431         52.473         69.659
         6818.5         12.439         62.039         75.917
         6819.0         12.447         66.874         82.175
         6819.5         12.454         66.468         83.683
         6820.0         12.462         67.115         83.360
         6820.5         12.482         72.614         85.601
         6821.0         12.505         83.374         88.723
         6821.5         12.529         92.725         89.484
         6822.0         12.553         95.185         89.530
         6822.5         12.558         96.479         89.577
         6823.0         12.546         89.045         87.579
         6823.5         12.533         80.319         82.960
         6824.0         12.521         80.019         83.008
         6824.5         12.508         83.597         84.110
         6825.0         12.496         88.966         86.293
         6825.5         12.483         87.656         88.383
         6826.0         12.471         85.591         88.710
         6826.5         12.475         85.124         89.036
         6827.0         12.487         83.446         89.362
         6827.5         12.499         80.992         88.732
         6828.0         12.511         82.196         88.231
         6828.5         12.543         89.683         88.321
         6829.0         12.602        100.584         88.824
         6829.5         12.661        112.814         89.671
         6830.0         12.720        114.964         89.652
         6830.5         12.779        115.640         89.629
         6831.0         12.839        119.991         89.606
         6831.5         12.865        121.217         89.583
         6832.0         12.860        117.453         89.560
         6832.5         12.856        105.400         89.537
         6833.0         12.851         90.530         89.514
         6833.5         12.847         78.505         83.957
         6834.0         12.842         72.504         80.385
         6834.5         12.838         66.503         78.362
         6835.0         12.833         60.501         77.558
         6835.5         12.829         56.748         77.412
         6836.0         12.824         54.615         76.059
         6836.5         12.816         46.219         74.489
         6837.0         12.772         37.948         68.563
         6837.5         12.728         30.390         62.637
         6838.0         12.684         23.365         57.901
         6838.5         12.640         18.509         55.351
         6839.0         12.596         14.060         54.268
         6839.5         12.552         15.726         54.032
         6840.0         12.529         20.942         55.283
         6840.5         12.507         32.952         56.965
         6841.0         12.486         59.235         71.648
         6841.5         12.465         73.008         76.081
         6842.0         12.444         80.616         80.515
         6842.5         12.422         82.321         84.948
         6843.0         12.401         77.226         87.563
         6843.5         12.380         70.324         84.936
         6844.0         12.358         63.584         79.985
         6844.5         12.370         56.901         75.430
         6845.0         12.398         55.204         74.232
         6845.5         12.426         60.521         76.058
         6846.0         12.453         66.131         78.188
         6846.5         12.481         70.686         80.318
         6847.0         12.498         69.404         82.449
         6847.5         12.483         63.781         83.572
         6848.0         12.468         58.743         82.262
         6848.5         12.453         57.194         78.816
         6849.0         12.437         55.646         74.621
         6849.5         12.422         58.161         73.301
         6850.0         12.407         62.165         75.157
         6850.5         12.414         66.906         79.436
         6851.0         12.425         72.870         83.716
         6851.5         12.437         74.893         87.996
         6852.0         12.448         74.204         88.416
         6852.5         12.460         75.682         87.736
         6853.0         12.471         77.999         86.552
         6853.5         12.483         75.728         85.368
         6854.0         12.494         73.457         84.184
         6854.5         12.506         71.186         82.435
         6855.0         12.517         61.734         80.399
         6855.5         12.529         50.958         74.708
         6856.0         12.540         36.612         56.518
         6856.5         12.552         21.465         58.787
         6857.0         12.559         19.790         63.534
         6857.5         12.563         42.249         68.281
         6858.0         12.567         65.672         75.932
         6858.5         12.571         76.569         84.212
         6859.0         12.576         83.773         87.487
         6859.5         12.580         84.402         89.031
         6860.0         12.584         83.142         89.019
         6860.5         12.588         81.882         89.007
         6861.0         12.592         79.948         88.995
         6861.5         12.596         75.641         88.057
         6862.0         12.600         71.333         86.738
         6862.5         12.604         67.026         85.034
         6863.0         12.608         63.423         82.523
         6863.5         12.612         60.509         80.011
