~Version Information
 VERS.                  2.0:   CWLS log ASCII Standard -VERSION 2.0
 WRAP.                   NO:   One line per depth step
~Well Information Block
#MNEM.UNIT     VALUE/NAME     DESCRIPTION
#---------     -----------    ---------------------------
 STRT.F              8580.0000: START DEPTH
 STOP.F             14491.0000: STOP DEPTH
 STEP.F                 0.5000: STEP DEPTH
 NULL.               -999.2500: NULL VALUE
 LOC .     1072' FWL & 424' FNL:  LOCATION
 FL2 .     A2085 SEC 12 BLK 113:  LOCATIONLINE2
 FL1 .     1072' FWL & 424' FNL:  LOCATIONLINE1
 CNTY.               CULBERSON:  COUNTY NAME
 FLD .              WOLFCAMP B:  FIELD NAME
 WELL.           DALE STATE 2H:  WELL NAME
 COMP.     CAPITAN ENERGY INC.:  COMPANY
 DMF .                      KB:  DRILL MEAS FROM
 PDAT.                      GL:  PERMANENT DATUM
 DATE.             11-Feb-2020:  DATE
 SVCO.             Halliburton:  SERVICECONAME
 PROV.                      TX:  PROVINCE
 STAT.                      TX:  STATE NAME
 CTRY.                     USA:  COUNTRY NAME
 HIDE.                        :  WELLNAMEOPERAT
 UWI .            42-109-33544:  UNIQUE WELL IDENTIFIER
 API .            42-109-33544:  API NUMBER
 RANG.                     N/A:  RANGE
 TOWN.                     N/A:  TOWNSHIP
 SECT.                     N/A:  SECTION
 SON .               906290231:  JOB NUMBER
 SRVC.             Halliburton:  SERVICE COMPANY
 LMF .                      KB:  LOG MEASURED FROM
 TVDS.ft           3291.000000:  TVDSS CORRECTN
 EGL .ft           3266.000000:  GROUND ELEVATION
 APD .ft             25.000000:  DEPTH ABOVE PD
 EPD .ft           3266.000000:  ELEVATION
 BAP .ft              0.000000:  GL ELEV ONSHORE
 GVFD.g               1.000000:  GRAVITY FIELD
 EKB .ft           3291.000000:  KB ELEVATION
 EDF .ft           3291.000000:  DF ELEVATION
~Parameter Information Block
#MNEM.UNIT       Value        Description
#---------     -----------    ---------------------------
 BARI.                     OFF:  BARITE CORR 
 BRMP.                      No:  BromidePresent 
 CSF5.        Conductor Casing:  Casing Func5 
 CSF6.        Conductor Casing:  Casing Func6 
 DATE.               07-Feb-20:  Run Date 
 DCS .               07-Feb-20:  DateCircEndT 
 DLAB.               07-Feb-20:  LogStartDateT 
 ENGI.                John Doe:  Engineer Name 
 LSRV.             OH WIRELINE:  NameOfService 
 LSTM.ucts  09.26.51 07-Feb-20:  Log Start Time 
 LTYP.                     RAW:  LogDataType 
 LUL .                  ODESSA:  LoggingUnitLoc 
 LUN .                12100315:  LoggingUnitNum 
 SCT1.               07-Feb-20:  StartDateRun1 
 TCS .                   09 26:  Time Ciculation Ended 
 TDCE.ucts  09.26.51 07-Feb-20:  Time Circ End 
 TLAB.                   09 26:  LogStartTimeT 
~Curve Information Block
#MNEM.UNIT                 API CODE     Curve Description
#---------               -----------    ---------------------------
 DEPT.F                 00 000 000 000:  Depth
 CCL .V                 00 000 000 000:  Casing Collar Locator
 NPHI_OH.pu             00 000 000 000:  NPHI_OH
 NPHI_CHI.decp          00 000 000 000:  NPHI_CHI
 GR  .api               00 000 000 000:  Gamma API
 GR_CHI.api             00 000 000 000:  GR_CHI
 RHOB_OH.g/cc           00 000 000 000:  RHOB_OH
 RHOB_CHI.g/cc          00 000 000 000:  RHOB_CHI
 PE_OH.b/e              00 000 000 000:  PE_OH
 PE_CHI.b/e             00 000 000 000:  PE_CHI
 LLS_CHI.ohmm           00 000 000 000:  LLS_CHI
 LLS_OH.ohmm            00 000 000 000:  LLS_OH
 LLD_OH.ohmm            00 000 000 000:  LLD_OH
 LLD_CHI.ohmm           00 000 000 000:  LLD_CHI
 DTC_OH.uspf            00 000 000 000:  DTC_OH
 DTC_CHI.uspf           00 000 000 000:  DTC_CHI
 SPHW_CHI.decp          00 000 000 000:  SPHW_CHI
#Other Information
#
#WARRANTY: Halliburton will use its best efforts to furnish customers with 
#accurate information and interpretations that are part of, and incident to, the services 
#provided.  However, Halliburton cannot and does not warrant the accuracy 
#or correctness of such information and interpretations.  Under no circumstances should any 
#such information or interpretation be relied upon as the sole basis for any drilling, 
#completion, production, or financial decision or any procedure involving any risk to the 
#safety of any drilling venture, drilling rig or its crew or any other third party.  The 
#Customer has full responsibility for all drilling, completion and production operation.  
#Halliburton makes no representations or warranties, either expressed or 
#implied, including, but not limited to, the implied warranties of merchantability or fitness 
#for a particular purpose, with respect to the services rendered.  In no event will 
#Halliburton be liable for failure to obtain any particular results or for 
#any damages, including, but not limited to, indirect, special or consequential damages, 
#resulting from the use of any information or interpretation provided by Halliburton.
#
~A    DEPT       CCL     NPHI_OH  NPHI_CHI    GR      GR_CHI   RHOB_OH  RHOB_CHI   PE_OH   PE_CHI LLS_CHI   LLS_OH     LLD_OH   LLD_CHI   DTC_OH   DTC_CHI SPHW_CHI 
# ...
   11705.0000    0.0000 -999.2500   0.1030 -999.2500 102.6515 -999.2500   2.5976 -999.2500 3.2907  24.0030 -999.2500  -999.2500  27.6264 -999.2500 75.5223 0.1975
   11705.5000    0.0000 -999.2500   0.1026 -999.2500 104.8237 -999.2500   2.5977 -999.2500 3.2670  21.9590 -999.2500  -999.2500  25.3559 -999.2500 75.6616 0.1985
   11706.0000   56.5954 -999.2500   0.1111 -999.2500 126.6174 -999.2500   2.5830 -999.2500 3.3055  30.8308 -999.2500  -999.2500  35.7412 -999.2500 77.2590 0.2098
   11706.5000    0.0000 -999.2500   0.1027 -999.2500 111.2612 -999.2500   2.5964 -999.2500 3.2130  18.7545 -999.2500  -999.2500  21.8545 -999.2500 76.0006 0.2009
   11707.0000    0.0000 -999.2500   0.1025 -999.2500 114.6192 -999.2500   2.5956 -999.2500 3.1955  18.0053 -999.2500  -999.2500  21.0260 -999.2500 76.1692 0.2020
   11707.5000   22.0368 -999.2500   0.1035 -999.2500 119.1269 -999.2500   2.5930 -999.2500 3.1905  18.8728 -999.2500  -999.2500  22.0717 -999.2500 76.3972 0.2037
   11708.0000  -65.3288 -999.2500   0.0993 -999.2500 112.0075 -999.2500   2.5993 -999.2500 3.1795  16.6902 -999.2500  -999.2500  19.4975 -999.2500 75.8341 0.1997
   11708.5000   26.4421 -999.2500   0.0968 -999.2500 104.8774 -999.2500   2.6039 -999.2500 3.1832  15.8753 -999.2500  -999.2500  18.5175 -999.2500 75.3152 0.1960
   11709.0000    0.0000 -999.2500   0.0998 -999.2500 112.8872 -999.2500   2.5982 -999.2500 3.2520  21.7079 -999.2500  -999.2500  25.1742 -999.2500 75.9782 0.2007
   11709.5000   26.9517 -999.2500   0.1009 -999.2500 114.3172 -999.2500   2.5965 -999.2500 3.2909  25.1136 -999.2500  -999.2500  28.9768 -999.2500 76.1636 0.2020
   11710.0000   18.9879 -999.2500   0.0998 -999.2500 108.5511 -999.2500   2.5992 -999.2500 3.2836  22.3694 -999.2500  -999.2500  25.7709 -999.2500 75.7877 0.1993
   11710.5000  -35.0181 -999.2500   0.0967 -999.2500  97.3074 -999.2500   2.6053 -999.2500 3.2507  17.6512 -999.2500  -999.2500  20.3594 -999.2500 74.9266 0.1933
   11711.0000    0.0000 -999.2500   0.1039 -999.2500 109.0061 -999.2500   2.5942 -999.2500 3.2665  21.3560 -999.2500  -999.2500  24.7364 -999.2500 75.8673 0.1999
   11711.5000  101.7730 -999.2500   0.1069 -999.2500 113.6876 -999.2500   2.5896 -999.2500 3.2749  23.2515 -999.2500  -999.2500  26.9684 -999.2500 76.2291 0.2025
   11712.0000   34.6639 -999.2500   0.1030 -999.2500 106.3625 -999.2500   2.5958 -999.2500 3.2504  20.1579 -999.2500  -999.2500  23.3997 -999.2500 75.6234 0.1982
   11712.5000   12.2666 -999.2500   0.1021 -999.2500 106.8949 -999.2500   2.5965 -999.2500 3.2504  20.7321 -999.2500  -999.2500  24.0849 -999.2500 75.5858 0.1979
   11713.0000    0.0000 -999.2500   0.1013 -999.2500 106.7633 -999.2500   2.5970 -999.2500 3.2489  21.7522 -999.2500  -999.2500  25.3318 -999.2500 75.4409 0.1969
   11713.5000   43.5192 -999.2500   0.1009 -999.2500 106.4337 -999.2500   2.5972 -999.2500 3.2468  22.2821 -999.2500  -999.2500  25.9916 -999.2500 75.3439 0.1962
   11714.0000   43.1604 -999.2500   0.1022 -999.2500 107.9616 -999.2500   2.5957 -999.2500 3.2487  23.0231 -999.2500  -999.2500  26.8645 -999.2500 75.5064 0.1974
   11714.5000    0.0000 -999.2500   0.1033 -999.2500 109.9267 -999.2500   2.5949 -999.2500 3.2561  23.8570 -999.2500  -999.2500  27.7691 -999.2500 75.7929 0.1994
   11715.0000    0.0000 -999.2500   0.1018 -999.2500 106.9099 -999.2500   2.5979 -999.2500 3.2422  21.5801 -999.2500  -999.2500  25.0786 -999.2500 75.6477 0.1984
   11715.5000   45.4766 -999.2500   0.0980 -999.2500 101.3904 -999.2500   2.6035 -999.2500 3.2204  18.8938 -999.2500  -999.2500  21.9626 -999.2500 75.1480 0.1948
   11716.0000    0.0000 -999.2500   0.0986 -999.2500 104.6614 -999.2500   2.6016 -999.2500 3.2198  20.0671 -999.2500  -999.2500  23.3964 -999.2500 75.2882 0.1958
   11716.5000    0.0000 -999.2500   0.1013 -999.2500 110.5749 -999.2500   2.5967 -999.2500 3.2066  21.2726 -999.2500  -999.2500  24.9400 -999.2500 75.6161 0.1981
   11717.0000    0.0000 -999.2500   0.0949 -999.2500  92.1793 -999.2500   2.6081 -999.2500 3.1036  13.1264 -999.2500  -999.2500  15.5229 -999.2500 74.0062 0.1867
   11717.5000   27.0161 -999.2500   0.0985 -999.2500  99.0207 -999.2500   2.6023 -999.2500 3.0874  13.9179 -999.2500  -999.2500  16.5066 -999.2500 74.4821 0.1901
   11718.0000    0.0000 -999.2500   0.1007 -999.2500 107.8436 -999.2500   2.5972 -999.2500 3.1163  16.9718 -999.2500  -999.2500  20.0869 -999.2500 75.0951 0.1944
   11718.5000    0.0000 -999.2500   0.0888 -999.2500  87.6726 -999.2500   2.6144 -999.2500 3.0989  12.4852 -999.2500  -999.2500  14.7469 -999.2500 73.3298 0.1820
   11719.0000    0.0000 -999.2500   0.0883 -999.2500  98.1210 -999.2500   2.6121 -999.2500 3.1895  17.9661 -999.2500  -999.2500  21.0288 -999.2500 74.1307 0.1876
   11719.5000   76.0759 -999.2500   0.0890 -999.2500 107.9522 -999.2500   2.6085 -999.2500 3.2576  24.6866 -999.2500  -999.2500  28.7041 -999.2500 74.8697 0.1929
   11720.0000  -25.8679 -999.2500   0.0901 -999.2500 111.2003 -999.2500   2.6063 -999.2500 3.2813  27.5055 -999.2500  -999.2500  31.9206 -999.2500 75.1259 0.1947
   11720.5000  -16.9760 -999.2500   0.0846 -999.2500  95.9979 -999.2500   2.6160 -999.2500 3.2374  19.8754 -999.2500  -999.2500  23.1090 -999.2500 73.9099 0.1861
   11721.0000    0.0000 -999.2500   0.0909 -999.2500 110.4101 -999.2500   2.6052 -999.2500 3.2972  27.3267 -999.2500  -999.2500  31.6456 -999.2500 75.1220 0.1946
   11721.5000   12.5703 -999.2500   0.0856 -999.2500  97.2556 -999.2500   2.6143 -999.2500 3.2740  21.1364 -999.2500  -999.2500  24.4502 -999.2500 74.0998 0.1874
   11722.0000  -14.6265 -999.2500   0.0837 -999.2500  91.8019 -999.2500   2.6176 -999.2500 3.2603  18.8189 -999.2500  -999.2500  21.7808 -999.2500 73.6521 0.1842
   11722.5000    0.0000 -999.2500   0.0882 -999.2500 100.8412 -999.2500   2.6103 -999.2500 3.2659  22.1218 -999.2500  -999.2500  25.6859 -999.2500 74.3418 0.1891
   11723.0000  -19.0923 -999.2500   0.0905 -999.2500 102.6653 -999.2500   2.6071 -999.2500 3.2354  22.4287 -999.2500  -999.2500  26.2302 -999.2500 74.3558 0.1892
   11723.5000   12.6237 -999.2500   0.0933 -999.2500 105.8523 -999.2500   2.6026 -999.2500 3.1958  22.6961 -999.2500  -999.2500  26.7136 -999.2500 74.4284 0.1897
   11724.0000    0.0000 -999.2500   0.1031 -999.2500 124.7720 -999.2500   2.5859 -999.2500 3.2036  32.4905 -999.2500  -999.2500  38.2371 -999.2500 75.6973 0.1987
   11724.5000   15.4531 -999.2500   0.0952 -999.2500 108.6700 -999.2500   2.5984 -999.2500 3.1054  20.3163 -999.2500  -999.2500  23.9620 -999.2500 74.2370 0.1884
   11725.0000   53.5360 -999.2500   0.0892 -999.2500  97.5801 -999.2500   2.6067 -999.2500 3.0446  15.1858 -999.2500  -999.2500  17.8819 -999.2500 73.0914 0.1803
   11725.5000   24.8397 -999.2500   0.0899 -999.2500 106.8623 -999.2500   2.6017 -999.2500 3.0730  18.7131 -999.2500  -999.2500  21.7808 -999.2500 73.5251 0.1833
   11726.0000    0.0000 -999.2500   0.0814 -999.2500  95.4086 -999.2500   2.6108 -999.2500 3.0767  17.2189 -999.2500  -999.2500  19.8842 -999.2500 72.0832 0.1731
   11726.5000    0.0000 -999.2500   0.0829 -999.2500 104.0160 -999.2500   2.6037 -999.2500 3.1262  23.5149 -999.2500  -999.2500  26.7589 -999.2500 72.2744 0.1745
   11727.0000    0.0000 -999.2500   0.0850 -999.2500 111.2944 -999.2500   2.5968 -999.2500 3.1572  30.1900 -999.2500  -999.2500  33.9074 -999.2500 72.4205 0.1755
   11727.5000    0.0000 -999.2500   0.0781 -999.2500  90.5884 -999.2500   2.6071 -999.2500 3.1138  22.7155 -999.2500  -999.2500  25.5955 -999.2500 70.2748 0.1604
   11728.0000    0.0000 -999.2500   0.0773 -999.2500  82.8852 -999.2500   2.6076 -999.2500 3.0898  21.4409 -999.2500  -999.2500  24.1140 -999.2500 69.2606 0.1532
   11728.5000   23.3158 -999.2500   0.0772 -999.2500  79.9997 -999.2500   2.6062 -999.2500 3.0943  22.4745 -999.2500  -999.2500  25.1276 -999.2500 68.6257 0.1487
   11729.0000    0.0000 -999.2500   0.0770 -999.2500  78.2026 -999.2500   2.6050 -999.2500 3.1242  24.6281 -999.2500  -999.2500  27.4833 -999.2500 68.1512 0.1453
   11729.5000    0.0000 -999.2500   0.0740 -999.2500  73.6540 -999.2500   2.6083 -999.2500 3.1675  26.2094 -999.2500  -999.2500  29.4030 -999.2500 67.5878 0.1414
