~VERSION INFORMATION
VERS.           1.2   :CWLS Log ASCII Standard - VERSION 1.2
WRAP.           NO    :One Line per depth step
PROD.  Schlumberger   :LAS Producer
PROG.  DLIS to ASCII 10C0-306                          :LAS Program name and version
CREA.        2007/06/08 22:43                          :LAS Creation date {YYYY/MM/DD hh:mm}
SOURCE.     294b92a6-1e54-4f75-8d20-4493e48002f1       :DLIS File Name
#--------------------------------------------------
~WELL INFORMATION
#MNEM.UNIT      DATA             DESCRIPTION
#---- ------ --------------   -----------------------------
STRT .F      4145.5000       :START DEPTH     
STOP .F      10380.0000      :STOP DEPTH     
STEP .F       0.5000         :STEP       
NULL .          -999.25      :NULL VALUE
COMP .                 COMPANY:  Chesapeake Operating Inc.          
WELL .                    WELL:  University Lands 4627-1            
FLD  .                   FIELD:  Wildcat                            
LOC  .                LOCATION:  1200' FNL & 1995; FEL              
CNTY .                  COUNTY:  Culberson                          
STAT .                   STATE:  Texas                              
CTRY .                 COUNTRY:                                     
SRVC .         SERVICE COMPANY:  Schlumberger                       
API  .              API NUMBER:  42-109-32287                       
DATE .                LOG DATE:  7-Jun-2007
UWI  .          UNIQUE WELL ID:  42-109-32287-0000                  
#-----------------------------------------------------------------------------
~PARAMETER INFORMATION
#MNEM.UNIT    VALUE                      DESCRIPTION
#---- -----   --------------------       ------------------------
CN   .        Chesapeake Operating Inc.  :Company Name
WN   .        University Lands 4627-1    :Well Name
FN   .        Wildcat                    :Field Name
FL   .        1200' FNL & 1995  FEL      :Field Location
FL1  .        Secion  27  Block  46  Abstract  2860 :Field Location Line 1
COUN .        Culberson                  :County or Rig Name
STAT .        Texas                      :State or Province
NATI .                                   :Nation
DATE .        7-Jun-2007                 :Date as Month-Day-Year
APIN .        42-109-32287               :API Serial Number
SECT .        27                         :Section
TOWN .        46                         :Township
RANG .        2860                       :Range
DMF  .        Kelly Bushing              :Drilling Measured From
LMF  .        Kelly Bushing              :Log Measured From
PDAT .        Ground Level               :Permanent Datum
ENGI .        Tarek Sheira               :Engineer's Name
WITN .        Wiley Tisdale /Jud Walker  :Witness's Name
LATI .                                   :Latitude
LONG .                                   :Longitude
LUL  .        Midland  TX                :Logging Unit Location
LUN  .              2365                 :Logging Unit Number
RUN  .        2                          :Run Number
SON  .        11592406                   :Service Order Number
BHT  .DEGF     185.00000                 :Bottom Hole Temperature (used in calculations)
BS   .IN         8.75000                 :Bit Size
DFD  .LB/G       8.60000                 :Drilling Fluid Density
DFV  .S         39.00000                 :Drilling Fluid Viscosity
DFL  .C3         8.00000                 :Drilling Fluid Loss
RMFS .OHMM       0.42100                 :Resistivity of Mud Filtrate Sample
EKB  .F       4323.00000                 :Elevation of Kelly Bushing
EGL  .F       4283.00000                 :Elevation of Ground Level
BLI  .F       10360.70020                :Bottom Log Interval
BSAL .PPM      500.00000                 :Borehole Salinity
FLEV .                                   :Fluid Level
MCST .                                   :Mud Cake Sample Temperature
MFST .DEGF      96.90000                 :Mud Filtrate Sample Temperature
MRT  .DEGF     185.00000                 :Maximum Recorded Temperature
MST  .DEGF      96.90000                 :Mud Sample Temperature
RMCS .                                   :Resistivity of Mud Cake Sample
RMS  .OHMM       0.42100                 :Resistivity of Mud Sample
RW   .OHMM       1.00000                 :Resistivity of Connate Water
TDD  .F       10350.00000                :Total Depth - Driller
TDL  .F       10362.00000                :Total Depth - Logger
TLI  .F       4200.00000                 :Top Log Interval
HIDE .        Formation Micro Imager     :Header Identifier
MATR .        LIME                       :Rock Matrix for Neutron Porosity Corrections
FNUM .           1.00000                 :Form Factor Numerator
FEXP .           2.00000                 :Form Factor Exponent
DFT  .        Fresh Mud                  :Drilling Fluid Type
DFPH .           9.00000                 :Drilling Fluid PH
MCSS .        Calculated                 :Mud Cake Sample Source
MFSS .        Calculated                 :Mud Filtrate Sample Source
MSS  .        Circulation Tank           :Mud Sample Source
OS1  .        TLD-APS-HNGS               :Other Services Line 1
OS2  .        HRLA-HNGS                  :Other Services Line 2
OS3  .        FMI-GR                     :Other Services Line 3
OS4  .        DSI-GR                     :Other Services Line 4
OS5  .        HNGS                       :Other Services Line 5
R1   .        -Tool ran as per tool sketch. :Remark Line 1
R2   .        -Hole size & standoff corrections applied to APS porosity. :Remark Line 2
R3   .        -Log performed on a limestone matrix (MDEN = 2.71 g/cc  DTM = 47.6 us/ft) :Remark Line 3
R4   .        -Hole & cement volumes computed using FCD = 7 . :Remark Line 4
R5   .        -Source of max. hole temperature is CTEM = 185 DegF. :Remark Line 5
R6   .        -Source of max. hole deviation is company man = 3 Deg. :Remark Line 6
R7   .        -Repeat performed off bottom for 300' as per client request. :Remark Line 7
R8   .        -Density measurment is affected by washouts. :Remark Line 8
TCS  .        9 00                       :Time Circulation Stopped
TLAB .        22 15                      :Time Logger At Bottom
EPD  .F         4283.000000              :Elevation of Permanent Datum above Mean Sea Level
APD  .F          40.000000               :Elevation of Depth Reference (LMF) above Permanent Datum
#-----------------------------------------------------------------------------
~CURVE INFORMATION
#MNEM.UNIT   API CODE                                  DESCRIPTION
#---- -----  --------                                  -----------------------
DEPT .F                                                :DEPTH (BOREHOLE) {F12.4}
C1   .IN                                               :Caliper 1 {F11.4}
C2   .IN                                               :Caliper 2 {F11.4}
CHRP .                                                 :Label Peak Coherence, Receiver Array, Compressional - Monopole P&S {F11.4}
CHR1 .                                                 :Label Peak Coherence, Receiver Array - Lower Dipole {F11.4}
CHR2 .                                                 :Label Peak Coherence, Receiver Array - Upper Dipole {F11.4}
DCAL .IN                                               :Differential Caliper {F11.4}
DEVI .DEG                                              :Hole Deviation {F11.4}
DT1R .US/F                                             :Delta-T Shear, Receiver Array - Lower Dipole {F11.4}
DT2  .US/F                                             :Delta-T Shear - Upper Dipole {F11.4}
DT2R .US/F                                             :Delta-T Shear, Receiver Array - Upper Dipole {F11.4}
DT4P .US/F                                             :Delta-T Compressional - Monopole P&S {F11.4}
DT4S .US/F                                             :Delta-T Shear - Monopole P&S {F11.4}
DTCO .US/F                                             :Delta-T Compressional {F11.4}
DTRP .US/F                                             :Delta-T Compressional, Receiver Array - Monopole P&S {F11.4}
DTRS .US/F                                             :Delta-T Shear, Receiver Array - Monopole P&S {F11.4}
DTSM .US/F                                             :Delta-T Shear {F11.4}
ED   .F                                                :East Departure {F11.4}
GR_EDTC.GAPI                                           :Gamma Ray {F11.4}
GTEM .DEGF                                             :Generalized Borehole Temperature {F11.4}
HAZI .DEG                                              :Hole Azimuth {F11.4}
ITT  .S                                                :Integrated Transit Time {F11.4}
ND   .F                                                :North Departure {F11.4}
P1AZ .DEG                                              :Pad 1 Azimuth {F11.4}
PR   .                                                 :Poisson's Ratio {F11.4}
RB   .DEG                                              :Relative Bearing {F11.4}
SDEV .DEG                                              :Sonde Deviation {F11.4}
SPHI .CFCF                                             :Sonic Porosity {F11.4}
STIT .F                                                :Stuck Tool Indicator, Total {F11.4}
TENS .LBF                                              :Cable Tension {F11.4}
#-----------------------------------------------------------------------------
# 
#      DEPT         C1         C2        CHRP       CHR1       CHR2       DCAL       DEVI       DT1R       DT2        DT2R       DT4P       DT4S       DTCO       DTRP       DTRS       DTSM        ED      GR_EDTC      GTEM       HAZI       ITT         ND        P1AZ        PR         RB        SDEV       SPHI       STIT       TENS
#
~A  
# ...
   6220.5000     8.8226     9.8147     0.4845     0.9450     0.9820     0.5555     3.2014   105.0709   117.0914   114.4427    67.4677   129.2842    67.4677    67.4677   129.2842   117.0914   209.0144    66.7957   149.4284   260.0355     0.2786    -2.4611   345.3729     0.2515    85.3302     3.2014     0.1405     3.3780  3870.0000
   6221.0000     8.8226     9.8109     0.5360     0.9796     0.9763     0.5536     3.2023   117.8264   118.6935   115.4615    67.7292   130.7175    67.7292    67.7292   130.7175   118.6935   208.9869    65.5421   149.4327   260.0616     0.2786    -2.4661   345.3855     0.2586    85.3168     3.2023     0.1424     2.6811  3703.0000
   6221.5000     8.8383     9.8109     0.4051     0.9783     0.9783     0.5619     3.2120   121.2271   120.0811   118.0621    71.7012   123.2002    71.7012    71.7012   123.2002   120.0811   208.9595    78.5151   149.4370   260.1063     0.2785    -2.4712   345.4023     0.2230    85.2887     3.2120     0.1704     2.0109  3625.0000
   6222.0000     8.8509     9.6186     0.4174     0.9574     0.9764     0.4768     3.2048   124.9620   120.0473   118.4757    71.8344   123.6222    71.8344    71.8344   123.6222   120.0473   208.9319    90.3047   149.4413   260.0742     0.2785    -2.4763   345.3919     0.2211    85.3105     3.2048     0.1714     1.3406  3490.0000
   6222.5000     8.9233     9.4347     0.4689     0.9319     0.9820     0.4254     3.2051   112.2514   122.4380   124.3699    73.8845   118.6424    73.8845    73.8845   118.6424   122.4380   208.9044   100.3139   149.4456   260.0247     0.2785    -2.4814   345.3940     0.2137    85.3622     3.2051     0.1859     0.6703  3381.0000
   6223.0000     8.8792     9.2456     0.5476     0.9598     0.9866     0.3105     3.2050   113.8505   123.8941   126.8114    73.3939   117.5173    73.3939    73.3939   117.5173   123.8941   208.8769    95.5517   149.4499   260.0624     0.2784    -2.4865   345.3140     0.2297    85.2441     3.2050     0.1824     0.0000  3277.0000
   6223.5000     8.9012     9.2456     0.5327     0.9610     0.9960     0.3218     3.2031   115.2399   123.6366   126.5188    70.3866   117.6733    70.3866    70.3866   117.6733   123.6366   208.8495    93.2978   149.4542   259.9846     0.2784    -2.4916   343.8420     0.2602    83.8479     3.2031     0.1611     0.0000  3177.0000
   6224.0000     8.8635     9.4791     0.3656     0.9646     0.9929     0.4161     3.2030   119.6872   124.6060   126.5801    76.3686   117.9233    76.3686    76.3686   117.9233   124.6060   208.8221    81.8308   149.4585   259.9503     0.2784    -2.4967   343.7733     0.1992    83.8134     3.2030     0.2035     0.0000  3265.0000
   6224.5000     8.8383     9.6757     0.0000     0.9757     0.9863     0.4976     3.2082   120.9636   123.3584   124.3802    74.6881   117.7833    74.6881    74.6881   117.7833   123.3584   208.7947    79.5110   149.4628   259.9353     0.2783    -2.5018   343.2470     0.2106    83.3013     3.2082     0.1916     0.0000  3267.0000
   6225.0000     8.8226    10.3762     0.0000     0.9743     0.9905     0.8179     3.2027   120.7682   121.2289   121.2559    73.0075   117.9587    73.0075    73.0075   117.9587   121.2289   208.7673    73.8757   149.4671   259.9310     0.2783    -2.5069   341.8347     0.2155    81.8914     3.2027     0.1797     0.0000  3121.0000
   6225.5000     8.8383    10.1197     0.3401     0.9640     0.9891     0.7074     3.2022   118.2185   118.1658   121.2318    71.3270   116.3321    71.3270    71.3270   116.3321   118.1658   208.7400    70.2115   149.4714   259.8839     0.2782    -2.5120   342.6044     0.2134    82.7091     3.2022     0.1678     0.0000  3315.0000
   6226.0000     8.8667     9.5796     0.3775     0.9683     0.9314     0.4663     3.2044   113.8383   113.9170   115.2197    74.6251   111.1437    74.6251    74.6251   111.1437   113.9170   208.7127    67.2395   149.4757   259.8566     0.2782    -2.5171   341.1325     0.1241    81.2625     3.2044     0.1911     0.0000  3308.0000
   6226.5000     8.8635     9.5182     0.3727     0.9808     0.9957     0.4350     3.2023   112.3936   113.1324   114.0998    72.8172   109.8806    72.8172    72.8172   109.8806   113.1324   208.6854    69.7231   149.4799   259.8167     0.2782    -2.5223   340.7714     0.1463    80.9406     3.2023     0.1783     0.0000  3231.0000
   6227.0000     8.8478     9.4446     0.3512     0.9668     0.9943     0.3913     3.2041   108.2874   112.6731   114.3271    72.6674   109.9180    72.6674    72.6674   109.9180   112.6731   208.6581    73.8670   149.4843   259.7743     0.2781    -2.5274   342.3454     0.1439    82.5597     3.2041     0.1773     0.0000  3334.0000
   6227.5000     8.8635     9.2604     0.4016     0.9599     0.8549     0.3098     3.2020   111.9604   117.2106   122.9060    72.1804   113.4392    72.1804    72.1804   113.4392   117.2106   208.6309    71.8996   149.4885   259.7749     0.2781    -2.5324   341.9930     0.1945    82.2061     3.2020     0.1738     0.0000  3240.0000
   6228.0000     8.8383     9.8128     0.0000     0.9585     0.9957     0.5628     3.2064   112.2456   113.6346   114.9525    72.3164   115.5596    72.3164    72.3164   115.5596   113.6346   208.6038    70.3903   149.4928   259.7586     0.2781    -2.5375   342.1634     0.1597    82.3929     3.2064     0.1748     0.0000  3153.0000
   6228.5000     8.8352     9.7535     0.0000     0.9294     0.9877     0.5330     3.2039   102.1605   113.0610   113.3644    72.4523   115.6281    72.4523    72.4523   115.6281   113.0610   208.5766    69.0895   149.4971   259.6764     0.2780    -2.5426   342.4769     0.1516    82.7895     3.2039     0.1758     0.0000  3331.0000
   6229.0000     8.8478     9.2482     0.4122     0.0000     0.9768     0.2958     3.2041    97.7535   113.0858   113.2578    72.5883   112.4451    72.5883    72.5883   112.4451   113.0858   208.5495    69.0919   149.5014   259.6853     0.2780    -2.5478   343.3136     0.1496    83.6183     3.2041     0.1767     0.0000  3391.0000
   6229.5000     8.8635     9.2508     0.6630     0.9687     0.9801     0.3051     3.2031    93.3465   111.3839   111.6461    64.4562   107.5094    64.4562    64.4562   107.5094   111.3839   208.5223    61.7132   149.5057   259.6590     0.2780    -2.5529   344.6249     0.2483    84.9581     3.2031     0.1192     0.0000  3334.0000
   6230.0000     8.8635     9.2456     0.6469     0.9643     0.9850     0.3025     3.1967    93.1605   108.4898   111.2367    64.0656   105.2567    64.0656    64.0656   105.2567   108.4898   208.4952    58.5931   149.5100   259.5546     0.2779    -2.5580   346.7025     0.2323    87.1435     3.1967     0.1164     0.0000  3300.0000
   6230.5000     8.8478     9.2018     0.6855     0.9645     0.9850     0.2730     3.2060    93.5469   109.3534   111.5121    63.4483   104.9840    63.4483    63.4483   104.9840   109.3534   208.4681    57.9677   149.5143   259.5541     0.2779    -2.5631   349.1104     0.2463    89.5556     3.2060     0.1121     0.0000  3244.0000
   6231.0000     8.8478     9.2018     0.6802     0.9512     0.9832     0.2730     3.2079    94.5571   110.5474   111.4320    64.2808   105.1534    64.2808    64.2808   105.1534   110.5474   208.4411    65.8257   149.5186   259.5734     0.2779    -2.5683   350.5299     0.2446    90.9580     3.2079     0.1180     0.0000  3301.0000
   6231.5000     8.8635     9.1991     0.6941     0.9166     0.9845     0.2797     3.2095    94.6600   111.1185   111.7499    66.5682   110.1427    66.5682    66.5682   110.1427   111.1185   208.4141    74.6933   149.5229   259.4804     0.2778    -2.5734   352.2780     0.2201    92.8021     3.2095     0.1341     0.0000  3333.0000
   6232.0000     8.8478     9.2456     0.6515     0.8839     0.9855     0.2945     3.2077    95.0740   112.0065   112.9247    68.5225   109.3923    68.5225    68.5225   109.3923   112.0065   208.3870    82.7398   149.5272   259.5201     0.2778    -2.5785   353.4216     0.2009    93.9076     3.2077     0.1480     0.0000  3266.0000
   6232.5000     8.9390     9.2482     0.7519     0.9170     0.9808     0.3423     3.2070   101.4492   112.5405   114.6583    67.9331   113.0539    67.9331    67.9331   113.0539   112.5405   208.3599    87.9368   149.5315   259.5238     0.2778    -2.5836   352.7623     0.2134    93.2435     3.2070     0.1438     0.0000  3365.0000
