~VERSION INFORMATION
VERS. 2.0 : CWLS Log ASCII Standard - version 2.0
WRAP.  NO : One line per depth step
#--------------------------------------------------#
#----------------DRILLING INFO, INC.---------------#
#---------------WWW.DRILLINGINFO.COM---------------#
#------------------COPYRIGHT 2015------------------#
#--------------------------------------------------#
#THIS FILE MAY BE USED ONLY IN ACCORDANCE WITH A CURRENT SUBSCRIPTION AGREEMENT BETWEEN
#THE USER AND DRILLING INFO, INC. NO PART OF THIS FILE MAY BE REPRODUCED, USED, COPIED,
#MODIFIED, PROPAGATED, OR DISTRIBUTED EXCEPT IN ACCORDANCE WITH THE SUBSCRIPTION
#AGREEMENT. UNAUTHORIZED USE OR DISTRIBUTION OF ALL OR ANY PART OF THIS FILE MAY VIOLATE
#COPYRIGHT, TRADEMARK, AND/OR OTHER LAWS AND IS SUBJECT TO CIVIL AS WELL AS CRIMINAL
#SANCTIONS.
#--------------------------------------------------#
#THIS FILE IS PROVIDED "AS-IS" AND ALL WARRANTIES ARE EXPRESSLY DISCLAIMED, WHETHER
#EXPRESS, ORAL, IMPLIED, STATUTORY OR OTHERWISE, INCLUDING ANY IMPLIED WARRANTY OF FITNESS
#FOR A PARTICULAR PURPOSE, MERCHANTABILITY, TITLE OR NON-INFRINGEMENT, AND ANY WARRANTIES
#ARISING BY VIRTUE OF CUSTOM OF TRADE OR COURSE OF DEALING.  FURTHER, DRILLING INFO,
#INC. AND ITS LICENSORS DO NOT REPRESENT OR WARRANT THAT THIS FILE WILL MEET USER'S
#REQUIREMENTS OR ARE SUITABLE FOR USER'S NEEDS OR THAT THE DATA OR RESULTS PROVIDED IN
#CONJUNCTION THEREWITH ARE CORRECT, ACCURATE, TIMELY OR RELIABLE. THESE DISCLAIMERS SHALL
#APPLY REGARDLESS OF ANY FAILURE OF ESSENTIAL PURPOSE OF ANY LIMITED REMEDY.  SOME
#JURISDICTIONS DO NOT ALLOW THE EXCLUSION OF CERTAIN WARRANTIES SO SOME OF THE ABOVE
#EXCLUSIONS MAY NOT APPLY. IN NO EVENT SHALL DRILLING INFO, INC. OR ANY OF ITS AFFILIATES
#BE LIABLE UNDER ANY LEGAL THEORY, WHETHER IN TORT (INCLUDING WITHOUT LIMITATION
#NEGLIGENCE), CONTRACT, STRICT LIABILITY, STATUTORY OR OTHERWISE, FOR ANY SPECIAL,
#INCIDENTAL, CONSEQUENTIAL, EXEMPLARY, PUNITIVE OR INDIRECT DAMAGE OF ANY KIND, INCLUDING
#WITHOUT LIMITATION LOSS OF REVENUE, PROFITS, GOODWILL, USE, AND/OR DATA OR THE COST OF
#PROCUREMENT OF SUBSTITUTE GOODS OR SERVICES, EVEN IF APPRISED OF THE POSSIBILITY OF SUCH
#DAMAGES IN ADVANCE.
#--------------------------------------------------#
~WELL INFORMATION
#MNEMONIC     .UNIT              VALUE :DESCRIPTION
#--------------------------------------------------#
STRT       .FT                35 :START DEPTH
STOP       .FT                15948 :STOP DEPTH
STEP       .FT                   0.500 :STEP
NULL       .                  -999.250 :NULL
API        .                421093136200 :API NUMBER
COMP       .         ARRINGTON DAVID H. OIL & GAS INC :COMPANY
WELL       .        SCOTT UNIT  1 :WELL
DATE       .                17-Jun-1991 :LOG DATE
~CURVE INFORMATION
#MNEMONIC     .UNIT      API CODE :CURVE DESCRIPTION
#--------------------------------------------------#
DEPTH       .FT                      :Measured Depth
CAL.INCH        UNKNOWN   :CAL
DT.US/FT        UNKNOWN   :DT
GR.API        UNKNOWN   :GR
~A    DEPTH    CAL    DT    GR
# ...
 14949     7.568   93.53   136.638
 14949.5     7.568   92.428   137.044
 14950     7.563   89.891   135.48
 14950.5     7.558   89.607   133.631
 14951     7.528   89.463   131.781
 14951.5     7.492   87.53   129.931
 14952     7.456   85.348   128.082
 14952.5     7.355   85.143   126.353
 14953     7.261   86.032   125.569
 14953.5     7.232   84.979   124.786
 14954     7.268   83.794   124.003
 14954.5     7.328   85.188   125.629
 14955     7.364   88.695   129.58
 14955.5     7.36   90.956   131.447
 14956     7.357   90.282   131.499
 14956.5     7.353   88.8   131.55
 14957     7.349   89.161   128.704
 14957.5     7.431   90.675   126.266
 14958     7.461   90.947   126.028
 14958.5     7.433   91.5   134.282
 14959     7.397   91.826   135.126
 14959.5     7.34   91.467   135.361
 14960     7.284   91.108   133.154
 14960.5     7.256   90.749   134.61
 14961     7.263   90.938   137.705
 14961.5     7.288   91.964   139.054
 14962     7.368   93.1   137.558
 14962.5     7.427   93.199   134.421
 14963     7.463   90.838   131.283
 14963.5     7.421   88.347   128.146
 14964     7.346   86.034   125.374
 14964.5     7.271   85.298   123.824
 14965     7.258   84.991   122.274
 14965.5     7.267   85.311   124.39
 14966     7.276   85.949   128.621
 14966.5     7.285   86.468   129.393
 14967     7.294   86.66   129.59
 14967.5     7.327   87.119   129.787
 14968     7.393   89.888   130.498
 14968.5     7.425   92.17   131.656
 14969     7.424   92.054   132.814
 14969.5     7.444   90.788   129.239
 14970     7.486   91.674   127.997
 14970.5     7.484   93.583   128.425
 14971     7.339   93.301   128.853
 14971.5     7.285   89.58   127.188
 14972     7.291   87.104   124.539
 14972.5     7.297   86.252   122.405
 14973     7.302   87.293   120.271
 14973.5     7.308   88.228   120.993
 14974     7.304   88.647   125.428
 14974.5     7.274   89.318   128.243
 14975     7.245   88.235   128.641
 14975.5     7.218   88.263   127.467
 14976     7.234   88.321   126.293
 14976.5     7.251   88.379   126.664
 14977     7.257   88.409   128.684
 14977.5     7.225   88.18   130.705
 14978     7.193   87.992   131.494
 14978.5     7.162   87.821   131.165
 14979     7.13   87.65   131.071
 14979.5     7.107   87.499   130.978
 14980     7.114   84.304   130.884
 14980.5     7.121   81.622   130.094
 14981     7.129   80.599   128.341
 14981.5     7.136   80.528   126.588
 14982     7.17   82.583   122.689
 14982.5     7.207   87.009   119.931
 14983     7.244   89.387   120.567
 14983.5     7.28   91.134   121.203
 14984     7.317   91.285   120.836
 14984.5     7.298   89.744   120.203
 14985     7.262   86.844   120.403
 14985.5     7.226   84.99   124.408
 14986     7.19   83.786   127.244
 14986.5     7.207   83.897   125.301
 14987     7.243   85.32   125.554
 14987.5     7.285   86.007   125.807
 14988     7.328   86.425   127.631
 14988.5     7.329   84.244   128.434
 14989     7.255   82.225   129.362
 14989.5     7.213   82.922   131.157
 14990     7.213   83.625   129.313
 14990.5     7.213   82.736   125.853
 14991     7.213   81.117   124.965
 14991.5     7.212   80.716   122.804
 14992     7.212   80.476   121.245
 14992.5     7.192   80.498   124.372
 14993     7.172   81.012   127.221
 14993.5     7.151   81.901   127.992
 14994     7.131   82.413   128.576
 14994.5     7.11   83.634   129.161
 14995     7.09   84.028   129.746
 14995.5     7.093   82.511   128.598
 14996     7.104   81.291   127.342
 14996.5     7.114   81.755   129.908
 14997     7.125   82.866   133.324
 14997.5     7.19   84.339   136.488
 14998     7.363   85.192   137.172
 14998.5     7.436   86.024   132.891
 14999     7.496   86.859   129.139
 14999.5     7.519   87.38   127.147
 15000     7.419   87.243   128.577
 15000.5     7.319   85.36   133.77
 15001     7.272   83.67   136.305
 15001.5     7.247   82.725   136.419
 15002     7.223   83.12   136.533
 15002.5     7.209   83.522   136.9
 15003     7.207   82.421   137.395
 15003.5     7.206   80.793   137.89
 15004     7.204   79.846   133.433
 15004.5     7.203   80.007   125.64
 15005     7.201   80.527   124.782
 15005.5     7.2   80.804   123.324
 15006     7.198   80.276   121.932
 15006.5     7.197   80.427   121.985
 15007     7.195   80.039   122.037
 15007.5     7.194   79.41   123.711
 15008     7.192   79.65   129.214
 15008.5     7.188   79.561   133.541
 15009     7.184   79.388   131.617
 15009.5     7.18   80.078   128.532
 15010     7.176   80.952   127.438
 15010.5     7.18   81.763   127.793
 15011     7.187   81.523   128.149
 15011.5     7.193   81.293   128.504
 15012     7.199   81.287   132.322
 15012.5     7.205   82.324   136.734
 15013     7.211   82.768   133.05
 15013.5     7.217   82.576   128.409
 15014     7.223   82.384   127.217
 15014.5     7.229   82.444   129.704
 15015     7.235   81.725   133.03
 15015.5     7.241   81.005   136.357
 15016     7.247   80.855   136.029
 15016.5     7.253   81.212   134.785
 15017     7.259   81.569   133.541
 15017.5     7.265   81.875   132.053
 15018     7.266   81.099   125.979
 15018.5     7.259   80.691   124.027
 15019     7.253   80.926   122.075
 15019.5     7.246   79.44   125.065
 15020     7.24   79.025   128.613
 15020.5     7.234   80.356   130.393
 15021     7.229   80.948   128.456
 15021.5     7.224   81.64   126.519
 15022     7.218   80.648   124.877
 15022.5     7.21   80.099   124.402
 15023     7.203   79.92   125.073
 15023.5     7.195   79.773   126.955
 15024     7.188   79.736   129.718
 15024.5     7.196   79.128   132.48
 15025     7.203   79.409   132.49
 15025.5     7.21   81.689   132.095
 15026     7.217   82.961   131.701
 15026.5     7.224   82.296   131.306
 15027     7.231   80.352   129.396
 15027.5     7.223   78.761   126.618
 15028     7.203   76.539   123.176
 15028.5     7.182   75.243   114.832
 15029     7.174   72.956   115.062
 15029.5     7.182   73.532   116.887
 15030     7.189   74.052   120.118
 15030.5     7.197   74.401   123.35
 15031     7.204   75.542   128.597
 15031.5     7.212   75.901   130.541
 15032     7.217   76.259   130.382
 15032.5     7.213   78.972   130.422
 15033     7.21   80.451   130.618
 15033.5     7.207   81.306   130.814
 15034     7.203   81.329   130.383
 15034.5     7.2   79.671   127.49
 15035     7.197   78.29   124.004
 15035.5     7.193   76.373   117.989
 15036     7.19   74.301   111.974
 15036.5     7.187   74.418   114.894
 15037     7.183   75.243   125.899
 15037.5     7.18   76.9   130.862
 15038     7.177   78.29   134.077
 15038.5     7.173   78.868   134.409
 15039     7.17   79.29   132.144
 15039.5     7.167   78.966   129.547
 15040     7.163   78.374   126.95
 15040.5     7.16   77.781   124.97
 15041     7.157   77.843   123.199
 15041.5     7.153   78.524   122.96
 15042     7.13   78.564   121.383
 15042.5     7.094   78.405   122.156
 15043     7.059   78.085   125.577
 15043.5     7.075   76.817   128.315
 15044     7.094   74.895   127.515
 15044.5     7.112   74.685   128.966
 15045     7.131   74.337   130.631
 15045.5     7.149   76.213   132.297
 15046     7.167   78.342   130.903
 15046.5     7.167   79.295   128.846
 15047     7.167   80.52   127.646
 15047.5     7.167   80.04   128.313
 15048     7.166   80.511   127.831
 15048.5     7.166   81.245   125.724
 15049     7.166   80.687   125.079
 15049.5     7.166   79.227   124.434
 15050     7.166   78.185   123.789
 15050.5     7.166   78.883   129.435
 15051     7.166   78.9   130.655
 15051.5     7.166   78.887   125.422
 15052     7.166   78.567   125.42
 15052.5     7.165   78.853   119.778
 15053     7.165   79.146   119.925
 15053.5     7.165   79.438   122.401
 15054     7.165   79.187   124.95
 15054.5     7.165   78.404   129.193
 15055     7.161   78.679   133.992
 15055.5     7.152   79.045   138.429
 15056     7.144   79.169   135.426
 15056.5     7.135   77.728   130.788
 15057     7.127   76.192   128.299
 15057.5     7.118   75.957   128.862
 15058     7.123   75.958   129.241
