###############################################
##         ENVERUS                           ##
##         ESS - Open Hole                   ##
##         PERMIAN / DELAWARE                ##
##         Nov 02 2023  V4.0                 ##
##         42-109-30915-00-00                ##
###############################################
## Copyright 2017-2023  ENVERUS.  All Rights Reserved. 
## Confidential - Property of ENVERUS, use governed by terms and 
## conditions found within the existing Information Services Subscription Agreement 
## (as may be amended, the “ISSA”) between Customer and ENVERUS. 
## 
~VERSION INFORMATION
# MNEM.UNIT                               DATA : DESCRIPTION OF MNEMONIC
#-----.-----     ----------------------------- : -----------------------------
VERS.                                     2.00 : CWLS LOG ASCII STANDARD - VERSION 2.00
WRAP.                                       NO : MULTIPLE LINES PER DEPTH STEP
VEND.                                  ENVERUS : VENDOR
TYPE.                          ESS - OPEN HOLE : ENVERUS ESSENTIAL CURVES – ACCESSIBLE THROUGH ENVERUS PRISM(TM)
DOC.                                  32305988 : ENVERUS HEADER RAW DOCUMENT ID
#___________________________________________________________________________________________________ 
~WELL INFORMATION 
# YiEbrulvYUtXh1D3opxUtnvhUVpPAvxlEBgV2kjbCTHvWrxGcz1+vOa1jEIuqGtoxi0rQ+ZQV9RU/rHAPCAAKQ== 
# MNEM.UNIT                                              DATA : DESCRIPTION OF MNEMONIC 
#-----.-----                    ----------------------------- : ----------------------------- 
CNTY.                                               CULBERSON : COUNTY 
STATE.                                                  TEXAS : STATE 
CNTRY.                                                    USA : COUNTRY 
API.                                             42-109-30915 : API (10 Digit) 
API_14.                                    42-109-30915-00-00 : API (14 Digits) 
API_14_std.                                 42-109-30915-0000 : API (14 Digits Standard) 
UWI.                                           42109309150000 : UNIQUE WELL ID 
WELL.                             VELMA CASEY ROUNSAVILLE A 1 : WELL NAME
STRT.FT                                                  82.0 : START DEPTH
STOP.FT                                               11225.0 : STOP DEPTH
STEP.FT                                                   0.5 : STEP BETWEEN DEPTHS
NULL.                                                 -999.25 : NULL VALUE
#___________________________________________________________________________________________________ 
~CURVE INFORMATION 
# MNEM.UNIT           : CURVE DESCRIPTION 
#-----.-----          : ----------------------------- 
 DEPT.FT               : MEASURED DEPTH 
 CALI.IN               : CALIPER (CAL - CAL) 
 GR.API                : GAMMA RAY (GR) 
 DT.US/FT              : SONIC DELTA TRANSIT TIME (DT) 
 NPHI.V/V              : NEUTRON POROSITY (NPHI) 
 RHOB.G/CC             : BULK DENSITY (RHOB) 
 #___________________________________________________________________________________________________ 
~A         DEPT           CALI             GR             DT           NPHI           RHOB
# ...
         9630.0          7.490         92.304         60.977        0.11206         2.6261
         9630.5          7.490         99.497         61.118        0.12973         2.6489
         9631.0          7.489        110.509         61.258        0.14739         2.6672
         9631.5          7.489        116.118         61.372        0.15478         2.6632
         9632.0          7.489        114.838         61.326        0.15086         2.6592
         9632.5          7.489        113.558         61.280        0.14694         2.6552
         9633.0          7.489        112.277         61.234        0.14303         2.6512
         9633.5          7.489        110.997         61.345        0.13911         2.6472
         9634.0          7.489        109.716         61.607        0.13948         2.6431
         9634.5          7.489        105.927         61.869        0.14522         2.6362
         9635.0          7.489        101.607         61.965        0.15096         2.6291
         9635.5          7.489         97.287         61.698        0.15670         2.6220
         9636.0          7.488         94.102         61.431        0.10458         2.6149
         9636.5          7.488         91.677         60.855        0.07648         2.6077
         9637.0          7.488         89.253         60.076        0.05982         2.6006
         9637.5          7.488         86.828         59.296        0.06783         2.5935
         9638.0          7.488         84.404         58.559        0.07585         2.5969
         9638.5          7.488         84.600         59.344        0.08387         2.6065
         9639.0          7.488         87.396         60.129        0.09189         2.6162
         9639.5          7.488         90.193         60.913        0.09990         2.6130
         9640.0          7.488         92.989         61.698        0.10792         2.6011
         9640.5          7.488         94.635         61.878        0.11594         2.5893
         9641.0          7.488         91.539         61.179        0.05815         2.5881
         9641.5          7.487         88.443         60.480        0.06198         2.6010
         9642.0          7.487         85.348         59.781        0.06582         2.6139
         9642.5          7.487         82.252         59.082        0.06965         2.6268
         9643.0          7.487         79.688         58.382        0.07348         2.6398
         9643.5          7.487         83.430         58.464        0.08003         2.6527
         9644.0          7.487         87.173         59.092        0.09729         2.6656
         9644.5          7.487         90.915         59.720        0.11455         2.6785
         9645.0          7.487         94.658         60.347        0.12412         2.6914
         9645.5          7.487         98.400         60.975        0.10549         2.7043
         9646.0          7.487         99.421         61.047        0.08687         2.6917
         9646.5          7.486         98.417         60.614        0.08369         2.6765
         9647.0          7.486         97.413         60.181        0.09657         2.6612
         9647.5          7.486         96.408         59.503        0.10944         2.6460
         9648.0          7.486         95.404         58.773        0.12075         2.6351
         9648.5          7.486         85.130         58.043        0.09408         2.6549
         9649.0          7.486         82.491         60.470        0.06741         2.6748
         9649.5          7.486         83.567         60.824        0.04143         2.6947
         9650.0          7.486         84.642         59.704        0.04660         2.6920
         9650.5          7.486         85.717         58.584        0.05178         2.6777
         9651.0          7.486         86.793         57.464        0.05695         2.6635
         9651.5          7.486         86.118         56.344        0.06213         2.6493
         9652.0          7.485         78.893         56.521        0.06730         2.6350
         9652.5          7.485         73.796         56.973        0.07248         2.6208
         9653.0          7.485         75.550         57.424        0.07765         2.6076
         9653.5          7.485         77.304         57.665        0.08283         2.5969
         9654.0          7.485         79.058         57.772        0.06954         2.5862
         9654.5          7.485         80.812         57.880        0.05471         2.5970
         9655.0          7.485         82.566         57.987        0.04625         2.6186
         9655.5          7.485         84.320         59.107        0.08285         2.6323
         9656.0          7.485         86.074         60.257        0.09034         2.6147
         9656.5          7.485         87.828         61.408        0.08487         2.5972
         9657.0          7.485         86.956         62.017        0.07939         2.5796
         9657.5          7.484         84.042         60.908        0.07392         2.5684
         9658.0          7.484         81.127         59.799        0.06845         2.5646
         9658.5          7.484         78.212         58.690        0.07957         2.5607
         9659.0          7.484         75.297         57.581        0.09747         2.5569
         9659.5          7.484         76.724         57.407        0.11537         2.5531
         9660.0          7.484         83.410         58.854        0.11849         2.5493
         9660.5          7.484         86.519         60.301        0.11563         2.5631
         9661.0          7.484         87.709         61.747        0.11276         2.5825
         9661.5          7.484         88.898         63.194        0.10990         2.6020
         9662.0          7.484         90.088         63.556        0.10703         2.6215
         9662.5          7.483         91.277         63.371        0.10417         2.6156
         9663.0          7.483         92.116         63.187        0.10131         2.6033
         9663.5          7.483         86.748         63.002        0.09928         2.5910
         9664.0          7.483         81.380         62.863        0.10517         2.5786
         9664.5          7.483         76.012         63.001        0.11105         2.5882
         9665.0          7.483         78.063         63.139        0.11693         2.6140
         9665.5          7.483         81.900         63.276        0.12282         2.6398
         9666.0          7.483         85.736         62.881        0.12870         2.6656
         9666.5          7.483         89.572         61.941        0.13459         2.6836
         9667.0          7.483         93.408         61.001        0.13990         2.6642
         9667.5          7.483         97.245         60.864        0.13241         2.6448
         9668.0          7.482         94.949         60.895        0.12491         2.6253
         9668.5          7.482         89.916         60.926        0.11741         2.6059
         9669.0          7.482         84.883         61.049        0.10991         2.5865
         9669.5          7.482         79.849         61.564        0.12024         2.5737
         9670.0          7.482         78.285         62.079        0.14132         2.5786
         9670.5          7.482         95.313         62.594        0.14039         2.5835
         9671.0          7.482        102.112         62.932        0.13303         2.5885
         9671.5          7.482         97.056         63.099        0.12567         2.5934
         9672.0          7.482         92.000         63.265        0.11830         2.5968
         9672.5          7.482         86.944         63.432        0.12036         2.5933
         9673.0          7.481         81.888         63.599        0.12416         2.5898
         9673.5          7.481         76.832         63.766        0.12797         2.5862
