# Exported from Transform Software 5.2.0 on 25-May-2018 by user brian.umlang
# DI Transform - A Product of Drillinginfo, Inc. - www.drillinginfo.com
#
~VERSION INFORMATION
 VERS.        2.0 : LAS ASCII STANDARD - VERSION 2.0
 WRAP.         NO : ONE LINE PER DEPTH STEP

~WELL INFORMATION
#MNEM.UNIT       DATA TYPE       INFORMATION
#---------       ---------       -----------
# Enverus has updated the API/UWI.  The previous names are renamed to  PREV_API / PREV_UWI
API.         42-109-32508-00-00 : API (14 Digits with Dashes)
UWI.             42109325080000 : UNIQUE WELL ID

 STRT.ft                1970 : Start Depth
 STOP.ft                8730 : Stop Depth
 STEP.ft                 0.5 : Step Length
 NULL.               -999.25 : Null Value
 COMP.                       : Company
 WELL.  42109325080000_API14 : Well Name
 FLD.                        : Field Name
 LOC.                        : Well Location
 CNTY.                       : County
 STAT.                       : State or Province
 CTRY.                       : Country
 SRVC.                       : Service Company
 DATE.                       : Date
PREV_APII.         42109325080000 : Well Identifier

~CURVE INFORMATION
#MNEM.UNIT       API CODE       CURVE DESCRIPTION
#---------       --------       -----------------
 DEPT.ft        : <Measured Depth>
 CAL.in         : Caliper
 DT.us/ft       : Pressure Wave Sonic
 GR.gAPI        : Gamma Ray

~PARAMETER INFORMATION
#MNEM.UNIT       VALUE       DESCRIPTION
#---------       -----       -----------
 EKB.ft      3552 : Elevation above MSL

~A      DEPT         CAL          DT          GR
# ...
        8612      8.3438     75.7895     87.8789
      8612.5      8.3438     76.1988     87.6953
        8613      8.3438     76.7311     85.0766
      8613.5      8.3438     76.1332     81.6406
        8614      8.3438     74.7705       82.45
      8614.5      8.3438     75.1558     82.6172
        8615      8.3633     75.4038     82.0312
      8615.5      8.3633     76.2079     82.9739
        8616      8.3633     76.5727     86.0439
      8616.5      8.3633     76.6986     82.4777
        8617       8.358     60.9109     64.5727
      8617.5      8.3242     60.2584     53.5913
        8618      8.3242     60.3691     48.6458
      8618.5      8.3242     63.6443     47.3954
        8619      8.3242     66.1232     51.9768
      8619.5      8.3242     66.1404     54.0524
        8620      8.3242     66.0234     54.2197
      8620.5      8.3242     66.2035     54.1828
        8621      8.3328     69.1881     55.3228
      8621.5      8.3438     71.0209     61.1727
        8622      8.3438     71.3145     65.9055
      8622.5      8.3633     71.9005     69.2378
        8623      8.3828      74.386      76.493
      8623.5      8.3828     73.3773     80.7536
        8624      8.3438     72.5658     75.5982
      8624.5      8.3242     72.2905     72.5911
        8625      8.3242      73.582     73.0511
      8625.5      8.3242      75.848     78.7845
        8626      8.3242     75.9064     81.0547
      8626.5      8.3633      75.848     79.7525
        8627      8.3633     75.6323     78.5766
      8627.5      8.3438     75.4556     76.9852
        8628      8.3438     74.6357       72.92
      8628.5      8.3438      74.386     70.7031
        8629      8.3633     72.0563     69.6204
      8629.5      8.3633     69.1834     66.6492
        8630      8.3633      71.009     64.0989
      8630.5      8.3633     72.4174     65.6264
        8631      8.3633     73.5666     76.3344
      8631.5      8.3633     75.5122     86.7451
        8632      8.3633     74.8538     85.7622
      8632.5      8.3633     75.1999     85.1084
        8633      8.3438     75.4386     87.2928
      8633.5      8.3438     75.5509     84.3984
        8634      8.3438      76.948     89.2208
      8634.5      8.3242     79.3581     101.182
        8635      8.3242     81.5299    112.7267
      8635.5      8.3242      84.704    123.7956
        8636      8.3242     87.5249    144.3739
      8636.5      8.3242      83.614    156.6127
        8637      8.3242     80.1903    157.9818
      8637.5      8.3242      78.874    155.3691
        8638      8.3242     77.7019    140.3349
      8638.5      8.3242     73.9995    121.8587
        8639      8.3242     70.3714    107.3197
      8639.5      8.3242     71.0617    101.8706
        8640      8.3242     71.4714    104.4783
      8640.5      8.3242     73.8182    124.6688
        8641      8.3242     75.0453    132.2613
      8641.5      8.3242     75.3389    128.5605
        8642      8.3242      75.574    128.5984
      8642.5      8.3242     78.6969     149.694
        8643      8.3242     79.3519    178.1595
      8643.5      8.3438     76.4026    176.3436
        8644      8.3633     75.9064    162.5009
      8644.5      8.3633     76.4235    138.0673
        8645      8.3547     77.7914    126.9988
      8645.5      8.3047     77.2427    130.1392
        8646      8.3047      77.806    129.3978
      8646.5      8.3047     78.1871    123.4324
        8647      8.3047     78.0761    130.8556
      8647.5      8.3047     80.6064    145.5275
        8648      8.3047      82.505    150.5597
      8648.5      8.3047      83.746    148.8281
        8649      8.3047     86.8096      164.76
      8649.5      8.3047     88.9059    177.3085
        8650      8.3047      84.488    174.6279
      8650.5      8.3047     82.8253    161.0355
        8651      8.3047     76.7065    136.2811
      8651.5      8.3047     74.3025    117.0781
        8652      8.3047       75.33    109.4509
      8652.5      8.3047     77.0331    110.5469
        8653      8.3047     77.6017     116.188
      8653.5      8.3047      80.889     125.309
        8654      8.3242     73.9818    129.1016
      8654.5      8.3242      71.509    120.1974
        8655      8.3242     71.2362     98.1204
      8655.5      8.3242     70.6502     82.7237
        8656      8.3242     72.2406     79.1207
      8656.5      8.3062     73.4998     79.0865
        8657      8.3047     73.7979     82.7577
      8657.5      8.3047     74.4968     90.5564
        8658      8.3047     75.7268     98.6134
      8658.5      8.3047     75.8483    102.7331
        8659      8.3047     75.9665    102.3383
      8659.5      8.3047     75.9621    102.1484
        8660      8.3242     75.4971     102.748
      8660.5      8.3242     75.4333    104.3322
        8661      8.3242     75.2566    105.9464
      8661.5      8.3242     75.3449    105.5607
        8662      8.3212     75.6725    102.1484
      8662.5      8.2852      77.399    104.2124
        8663      8.3047     77.2985     108.165
      8663.5      8.3047     76.9085    105.8172
        8664      8.3047     74.6013    103.6748
      8664.5      8.3047     66.4007     99.3009
        8665      8.3242     63.7427     92.2607
      8665.5      8.3242     63.5088      78.243
        8666      8.3242     64.8306     62.6623
      8666.5      8.3242     70.5478     61.5526
        8667      8.3242     74.7953     86.6582
      8667.5      8.3242     74.7953    115.8602
        8668      8.3242     74.6534    128.2457
      8668.5      8.3047     74.5776    128.6031
        8669      8.3047     76.3752    121.7426
      8669.5      8.2852     77.7155    117.8135
        8670      8.2852     83.7574    123.6189
      8670.5      8.2852     83.6215    129.7976
        8671      8.3047     78.7432    132.5254
      8671.5      8.2852     73.8215    132.7926
        8672      8.2852     72.4812    127.4261
      8672.5      8.2852     71.3601     119.661
        8673      8.2656      69.164    107.7722
      8673.5      8.2852     68.8889     95.0682
        8674      8.2852     68.6751     77.6387
      8674.5      8.2852     68.7428     73.8913
        8675      8.2852     71.2605     75.1723
      8675.5      8.3047     74.2196     82.7935
        8676      8.3047     74.7496      94.846
      8676.5      8.3047     75.5275    102.3518
        8677      8.3242     77.9148    107.2753
      8677.5      8.3242     79.4987    115.8224
        8678      8.2852     80.8084    127.7224
      8678.5      8.2852      79.798    129.5531
        8679      8.2656     81.3121    129.4658
      8679.5      8.2656     81.3648    129.6875
        8680      8.2833     75.7671    129.8601
      8680.5      8.3047     75.6225     -999.25
        8681      8.3232     71.6241     -999.25
      8681.5      8.3438     64.4869     -999.25
        8682      8.3438     65.9644     -999.25
      8682.5      8.3242     66.3158     -999.25
        8683      8.2852     68.2118     -999.25
      8683.5      8.2656     69.5649     -999.25
        8684      8.2852     67.8753     -999.25
      8684.5      8.2852     68.5965     -999.25
        8685      8.2656     70.6214     -999.25
      8685.5      8.2656     83.8042     -999.25
        8686      8.2687     78.6069     -999.25
      8686.5      8.2852     77.5237     -999.25
        8687      8.2852     73.9183     -999.25
      8687.5      8.2808     71.8189     -999.25
        8688      8.2656      72.807     -999.25
      8688.5      8.2656     71.8282     -999.25
        8689      8.2656     72.0712     -999.25
      8689.5      8.2656        71.5     -999.25
        8690      8.2656     73.8378     -999.25
      8690.5      8.2656     76.1832     -999.25
        8691      8.2656     77.0724     -999.25
      8691.5      8.2852       83.31     -999.25
        8692      8.2852     83.6895     -999.25
      8692.5      8.2852     80.7596     -999.25
        8693      8.2852     80.1491     -999.25
      8693.5      8.2852     80.4922     -999.25
