###############################################
##         ENVERUS                           ##
##         ESS - Open Hole                   ##
##         PERMIAN / DELAWARE                ##
##         Nov 03 2023  V4.0                 ##
##         42-109-33144-00-00                ##
###############################################
## Copyright 2017-2023  ENVERUS.  All Rights Reserved. 
## Confidential - Property of ENVERUS, use governed by terms and 
## conditions found within the existing Information Services Subscription Agreement 
## (as may be amended, the “ISSA”) between Customer and ENVERUS. 
## 
~VERSION INFORMATION
# MNEM.UNIT                               DATA : DESCRIPTION OF MNEMONIC
#-----.-----     ----------------------------- : -----------------------------
VERS.                                     2.00 : CWLS LOG ASCII STANDARD - VERSION 2.00
WRAP.                                       NO : MULTIPLE LINES PER DEPTH STEP
VEND.                                  ENVERUS : VENDOR
TYPE.                          ESS - OPEN HOLE : ENVERUS ESSENTIAL CURVES – ACCESSIBLE THROUGH ENVERUS PRISM(TM)
DOC.                                  44408038 : ENVERUS HEADER RAW DOCUMENT ID
#___________________________________________________________________________________________________ 
~WELL INFORMATION 
# jhvnPe+1QU9E4rmF00QVhgJB4IQXrbTj+4JQBaOQ+xeerJB1ro+a2ny8/YeKPBUHGPa8yPZn1kHe7+9ZkyRs1A== 
# MNEM.UNIT                                              DATA : DESCRIPTION OF MNEMONIC 
#-----.-----                    ----------------------------- : ----------------------------- 
CNTY.                                               CULBERSON : COUNTY 
STATE.                                                  TEXAS : STATE 
CNTRY.                                                    USA : COUNTRY 
API.                                             42-109-33144 : API (10 Digit) 
API_14.                                    42-109-33144-00-00 : API (14 Digits) 
API_14_std.                                 42-109-33144-0000 : API (14 Digits Standard) 
UWI.                                           42109331440000 : UNIQUE WELL ID 
WELL.                                        PAT FEE 4 NO. 3H : WELL NAME
STRT.FT                                                8880.0 : START DEPTH
STOP.FT                                               14320.0 : STOP DEPTH
STEP.FT                                                   0.5 : STEP BETWEEN DEPTHS
NULL.                                                 -999.25 : NULL VALUE
LOC.                                     API  42-109-33144LAT : LOCATION 
FL1.                                     API  42-109-33144LAT : LOCATIONLINE1 
DMF.                                                       KB : DRILL MEAS FROM 
PDAT.                                                      GL : PERMANENT DATUM 
FLD.                                    FORD, WEST (WOLFCAMP) : FIELD NAME 
COMP.                            CAPITAN ENERGY, INCORPORATED : COMPANY 
DATE.                                             21-SEP-2017 : DATE 
SVCO.                                             HALLIBURTON : SERVICECONAME 
PROV.                                                   TEXAS : PROVINCE 
BASI.                                                 PERMIAN : BASIN 
RANG.                                                     N/A : RANGE 
TOWN.                                                     N/A : TOWNSHIP 
SECT.                                                     N/A : SECTION 
SON.                                                      N/A : JOB NUMBER 
SRVC.                                             HALLIBURTON : SERVICE COMPANY 
LMF.                                                       KB : LOG MEASURED FROM 
EGL.FT                                              3093.0000 : GROUND ELEVATION 
BAP.FT                                                 0.0000 : GL ELEV ONSHORE 
GVFD.G                                                 1.0000 : GRAVITY FIELD 
EKB.FT                                              3114.0000 : KB ELEVATION 
EDF.FT                                              3113.0000 : DF ELEVATION
#___________________________________________________________________________________________________ 
~CURVE INFORMATION 
# MNEM.UNIT           : CURVE DESCRIPTION 
#-----.-----          : ----------------------------- 
 DEPT.FT               : MEASURED DEPTH 
 GR.API                : GAMMA RAY (GR_CHI - GR_CHI) 
 GR__01.API            : GAMMA RAY (GR_OH - GR_OH) 
 DT.US/FT              : SONIC DELTA TRANSIT TIME (DTC_CHI - DTC_CHI) 
 DT__01.US/FT          : SONIC DELTA TRANSIT TIME (DTC_OH - DTC_OH) 
 PE.B/E                : PHOTOELECTRIC EFFECT/FACTOR (PE_CHI - PE_CHI) 
 PE__01.B/E            : PHOTOELECTRIC EFFECT/FACTOR (PE_OH - PE_OH) 
 RESS_LL.OHMM          : SHALLOW LATEROLOG (LLS_CHI - LLS_CHI) 
 RESS_LL__01.OHMM      : SHALLOW LATEROLOG (LLS_OH - LLS_OH) 
 RESD_LL.OHMM          : DEEP LATEROLOG (LLD_CHI - LLD_CHI) 
 RESD_LL__01.OHMM      : DEEP LATEROLOG (LLD_OH - LLD_OH) 
 NPHI.V/V              : NEUTRON POROSITY (NPHI_CHI - NPHI_CHI) 
 NPHI__01.V/V          : NEUTRON POROSITY (NPHI_OH - NPHI_OH) 
 SPHI.V/V              : SONIC POROSITY (SPHI_CHI - SPHI_CHI) 
 RHOB.G/CC             : BULK DENSITY (RHOB_CHI - RHOB_CHI) 
 RHOB__01.G/CC         : BULK DENSITY (RHOB_OH - RHOB_OH) 
 #___________________________________________________________________________________________________ 
~A         DEPT             GR         GR__01             DT         DT__01             PE         PE__01        RESS_LL    RESS_LL__01        RESD_LL    RESD_LL__01           NPHI       NPHI__01           SPHI           RHOB       RHOB__01
# ...
        12858.0         86.575       -999.250         66.399       -999.250         3.9002      -999.2500       112.5183      -999.2500       120.4247      -999.2500        0.12010     -999.25000        0.13290         2.5877      -999.2500
        12858.5         95.150       -999.250         67.278       -999.250         3.8438      -999.2500       115.3806      -999.2500       125.0650      -999.2500        0.12355     -999.25000        0.13920         2.5822      -999.2500
        12859.0         96.193       -999.250         67.506       -999.250         3.8304      -999.2500       114.0361      -999.2500       124.1874      -999.2500        0.12435     -999.25000        0.14080         2.5806      -999.2500
        12859.5         90.331       -999.250         66.928       -999.250         3.8668      -999.2500       108.4657      -999.2500       117.5268      -999.2500        0.12115     -999.25000        0.13670         2.5833      -999.2500
        12860.0         92.155       -999.250         66.478       -999.250         3.8751      -999.2500       104.0296      -999.2500       112.2495      -999.2500        0.11777     -999.25000        0.13350         2.5847      -999.2500
        12860.5         87.098       -999.250         65.690       -999.250         3.9262      -999.2500        99.7482      -999.2500       107.0005      -999.2500        0.11321     -999.25000        0.12790         2.5888      -999.2500
        12861.0         84.317       -999.250         65.285       -999.250         3.9623      -999.2500        98.4901      -999.2500       105.4864      -999.2500        0.11038     -999.25000        0.12510         2.5908      -999.2500
        12861.5         85.604       -999.250         65.481       -999.250         3.9600      -999.2500       101.6619      -999.2500       109.0567      -999.2500        0.11097     -999.25000        0.12650         2.5899      -999.2500
        12862.0         81.803       -999.250         65.408       -999.250         3.9792      -999.2500       102.4605      -999.2500       109.8602      -999.2500        0.11107     -999.25000        0.12590         2.5909      -999.2500
        12862.5         85.856       -999.250         65.746       -999.250         3.9568      -999.2500       106.2715      -999.2500       114.1330      -999.2500        0.11251     -999.25000        0.12830         2.5892      -999.2500
        12863.0         95.681       -999.250         66.285       -999.250         3.9129      -999.2500       111.7817      -999.2500       120.5487      -999.2500        0.11395     -999.25000        0.13210         2.5860      -999.2500
        12863.5         82.764       -999.250         65.312       -999.250         4.0049      -999.2500       110.5810      -999.2500       118.0592      -999.2500        0.10997     -999.25000        0.12530         2.5925      -999.2500
        12864.0         82.550       -999.250         65.116       -999.250         4.0202      -999.2500       113.7613      -999.2500       120.8700      -999.2500        0.10914     -999.25000        0.12390         2.5942      -999.2500
        12864.5         87.351       -999.250         65.211       -999.250         4.0049      -999.2500       117.8431      -999.2500       124.9373      -999.2500        0.10936     -999.25000        0.12450         2.5938      -999.2500
        12865.0         91.123       -999.250         65.415       -999.250         3.9748      -999.2500       118.2017      -999.2500       125.2989      -999.2500        0.11084     -999.25000        0.12600         2.5924      -999.2500
        12865.5         90.418       -999.250         65.537       -999.250         3.9592      -999.2500       114.9545      -999.2500       122.0849      -999.2500        0.11206     -999.25000        0.12690         2.5916      -999.2500
        12866.0         90.788       -999.250         65.810       -999.250         3.9354      -999.2500       112.1212      -999.2500       119.5848      -999.2500        0.11378     -999.25000        0.12880         2.5897      -999.2500
        12866.5         88.838       -999.250         65.901       -999.250         3.9308      -999.2500       108.8857      -999.2500       116.5194      -999.2500        0.11443     -999.25000        0.12940         2.5890      -999.2500
        12867.0         82.481       -999.250         65.535       -999.250         3.9695      -999.2500       106.8732      -999.2500       114.1589      -999.2500        0.11281     -999.25000        0.12680         2.5913      -999.2500
        12867.5         79.602       -999.250         65.374       -999.250         3.9943      -999.2500       107.0308      -999.2500       114.3380      -999.2500        0.11168     -999.25000        0.12570         2.5923      -999.2500
        12868.0         89.239       -999.250         65.986       -999.250         3.9536      -999.2500       113.5688      -999.2500       122.0542      -999.2500        0.11311     -999.25000        0.13000         2.5885      -999.2500
        12868.5         87.144       -999.250         65.906       -999.250         3.9772      -999.2500       115.2537      -999.2500       124.0080      -999.2500        0.11215     -999.25000        0.12950         2.5890      -999.2500
        12869.0         89.414       -999.250         66.095       -999.250         3.9692      -999.2500       116.5484      -999.2500       125.8643      -999.2500        0.11234     -999.25000        0.13080         2.5876      -999.2500
        12869.5         85.431       -999.250         65.900       -999.250         3.9864      -999.2500       113.4577      -999.2500       122.4304      -999.2500        0.11175     -999.25000        0.12940         2.5885      -999.2500
        12870.0         78.083       -999.250         65.442       -999.250         4.0201      -999.2500       107.5467      -999.2500       115.7155      -999.2500        0.11037     -999.25000        0.12620         2.5909      -999.2500
        12870.5         75.866       -999.250         65.169       -999.250         4.0283      -999.2500       103.1599      -999.2500       110.7774      -999.2500        0.10938     -999.25000        0.12420         2.5922      -999.2500
        12871.0         83.725       -999.250         65.537       -999.250         3.9831      -999.2500       104.6814      -999.2500       112.6107      -999.2500        0.11052     -999.25000        0.12690         2.5897      -999.2500
        12871.5         92.790       -999.250         65.874       -999.250         3.9508      -999.2500       108.7519      -999.2500       117.2646      -999.2500        0.11058     -999.25000        0.12920         2.5874      -999.2500
        12872.0         90.719       -999.250         65.664       -999.250         3.9722      -999.2500       109.2839      -999.2500       117.5916      -999.2500        0.10946     -999.25000        0.12780         2.5888      -999.2500
        12872.5         91.640       -999.250         65.818       -999.250         3.9713      -999.2500       111.2043      -999.2500       119.9796      -999.2500        0.10973     -999.25000        0.12880         2.5879      -999.2500
        12873.0         87.403       -999.250         65.866       -999.250         3.9868      -999.2500       111.5855      -999.2500       120.6782      -999.2500        0.11045     -999.25000        0.12920         2.5878      -999.2500
        12873.5         95.870       -999.250         66.585       -999.250         3.9272      -999.2500       113.8792      -999.2500       124.1557      -999.2500        0.11329     -999.25000        0.13430         2.5836      -999.2500
        12874.0         98.414       -999.250         66.880       -999.250         3.9008      -999.2500       113.6589      -999.2500       124.3161      -999.2500        0.11488     -999.25000        0.13640         2.5820      -999.2500
        12874.5         91.508       -999.250         66.335       -999.250         3.9322      -999.2500       110.4104      -999.2500       119.7056      -999.2500        0.11379     -999.25000        0.13250         2.5854      -999.2500
