###############################################
##         ENVERUS                           ##
##         ESS - Open Hole                   ##
##         PERMIAN / DELAWARE                ##
##         Nov 02 2023  V4.0                 ##
##         42-109-31408-00-00                ##
###############################################
## Copyright 2017-2023  ENVERUS.  All Rights Reserved. 
## Confidential - Property of ENVERUS, use governed by terms and 
## conditions found within the existing Information Services Subscription Agreement 
## (as may be amended, the “ISSA”) between Customer and ENVERUS. 
## 
~VERSION INFORMATION
# MNEM.UNIT                               DATA : DESCRIPTION OF MNEMONIC
#-----.-----     ----------------------------- : -----------------------------
VERS.                                     2.00 : CWLS LOG ASCII STANDARD - VERSION 2.00
WRAP.                                       NO : MULTIPLE LINES PER DEPTH STEP
VEND.                                  ENVERUS : VENDOR
TYPE.                          ESS - OPEN HOLE : ENVERUS ESSENTIAL CURVES – ACCESSIBLE THROUGH ENVERUS PRISM(TM)
DOC.                                  31850517 : ENVERUS HEADER RAW DOCUMENT ID
#___________________________________________________________________________________________________ 
~WELL INFORMATION 
# bqLd+XSZJOn45CI61XVoQu+UOVndmKoY6sdO6/bnbKn7IExcVbobTFa2ZjWyWmdO1mIol927X6bTh1nHm93KmQ== 
# MNEM.UNIT                                              DATA : DESCRIPTION OF MNEMONIC 
#-----.-----                    ----------------------------- : ----------------------------- 
CNTY.                                               CULBERSON : COUNTY 
STATE.                                                  TEXAS : STATE 
CNTRY.                                                    USA : COUNTRY 
API.                                             42-109-31408 : API (10 Digit) 
API_14.                                    42-109-31408-00-00 : API (14 Digits) 
API_14_std.                                 42-109-31408-0000 : API (14 Digits Standard) 
UWI.                                           42109314080000 : UNIQUE WELL ID 
WELL.                                           CASTILE 48  1 : WELL NAME
STRT.FT                                                2207.0 : START DEPTH
STOP.FT                                               11710.0 : STOP DEPTH
STEP.FT                                                   0.5 : STEP BETWEEN DEPTHS
NULL.                                                 -999.25 : NULL VALUE
COMP.                                         TENNECO OIL CO. : COMPANY 
DATE.                                             28-APR-1980 : LOG DATE
#___________________________________________________________________________________________________ 
~CURVE INFORMATION 
# MNEM.UNIT           : CURVE DESCRIPTION 
#-----.-----          : ----------------------------- 
 DEPT.FT               : MEASURED DEPTH 
 CALI.IN               : CALIPER (CAL - CAL) 
 GR.API                : GAMMA RAY (GR) 
 DT.US/FT              : SONIC DELTA TRANSIT TIME (DT) 
 RESS.OHMM             : SHALLOW INDUCTION RESISTIVITY (ILS - ILS) 
 RESD.OHMM             : DEEP INDUCTION RESISTIVITY (ILD - ILD) 
 #___________________________________________________________________________________________________ 
~A         DEPT           CALI             GR             DT           RESS           RESD
# ...
         6607.0         11.165         35.534         61.088        107.321        151.137
         6607.5         11.165         38.028         60.074        170.562        216.076
         6608.0         11.164         40.522         59.060        233.804        281.015
         6608.5         11.164         41.421         58.045        200.302        345.954
         6609.0         11.163         38.918         57.031        163.090        349.533
         6609.5         11.163         36.415         56.017        125.879        305.724
         6610.0         11.162         33.912         55.002        111.075        250.610
         6610.5         11.161         31.409         57.522        106.102        185.489
         6611.0         11.161         28.906         60.808        102.215        126.465
         6611.5         11.160         27.473         64.094         99.768        116.034
         6612.0         11.160         34.034         67.379         97.321        105.604
         6612.5         11.159         40.595         68.501         94.874         94.626
         6613.0         11.159         47.156         69.014         67.272         78.303
         6613.5         11.158         53.717         69.526         48.177         69.537
         6614.0         11.158         57.055         70.039         46.866         67.183
         6614.5         11.157         59.061         72.103         45.555         65.455
         6615.0         11.157         61.067         74.504         44.244         64.218
         6615.5         11.156         64.029         76.282         40.299         62.980
         6616.0         11.156         68.675         76.686         35.734         56.003
         6616.5         11.155         73.321         77.091         31.170         45.262
         6617.0         11.155         77.967         77.495         29.110         44.015
         6617.5         11.154         82.613         77.899         28.536         45.295
         6618.0         11.154         82.948         78.304         27.963         46.576
         6618.5         11.153         82.946         77.328         27.389         47.856
         6619.0         11.152         82.945         74.081         26.815         49.137
         6619.5         11.152         82.901         70.835         26.564         45.950
         6620.0         11.151         75.433         71.212         26.561         41.757
         6620.5         11.151         67.964         71.687         26.558         34.519
         6621.0         11.156         61.559         72.161         26.556         27.282
         6621.5         11.215         61.041         72.636         26.289         24.443
         6622.0         11.274         60.524         73.111         25.878         25.013
         6622.5         11.333         60.007         71.990         25.467         33.208
         6623.0         11.392         59.489         69.468         25.056         46.207
         6623.5         11.451         56.729         66.946         24.645         48.229
         6624.0         11.510         52.838         65.151         24.072         43.350
         6624.5         11.569         48.947         67.635         18.029         38.884
         6625.0         11.628         45.056         70.118         14.899         34.418
         6625.5         11.681         41.887         72.602         14.632         30.861
         6626.0         11.655         43.129         73.295         14.365         29.479
         6626.5         11.630         44.371         72.938         14.098         28.097
         6627.0         11.605         45.613         72.581         13.698         26.715
         6627.5         11.580         46.092         72.407         12.972         25.333
         6628.0         11.554         46.366         73.012         12.246         23.950
         6628.5         11.529         46.641         73.618         11.520         24.494
         6629.0         11.504         46.620         74.223         11.654         28.968
         6629.5         11.479         46.205         74.339         13.712         33.441
         6630.0         11.453         45.791         72.801         15.769         37.914
         6630.5         11.428         45.377         71.263         17.826         39.358
         6631.0         11.403         44.963         71.388         17.032         34.122
         6631.5         11.377         44.549         71.952         15.550         28.886
         6632.0         11.352         49.990         72.516         14.067         24.880
         6632.5         11.327         49.838         73.080         12.700         24.783
         6633.0         11.310         49.687         73.645         12.819         24.686
         6633.5         11.324         49.535         74.209         12.937         24.589
         6634.0         11.338         49.384         74.577         13.055         24.492
         6634.5         11.351         49.232         74.593         13.174         24.395
         6635.0         11.365         49.309         74.609         12.801         23.998
         6635.5         11.379         51.273         74.625         12.364         23.037
         6636.0         11.392         53.236         74.720         12.310         22.076
         6636.5         11.406         55.199         74.928         12.481         21.504
         6637.0         11.405         57.163         75.136         12.653         23.652
         6637.5         11.390         59.126         75.344         14.168         25.800
         6638.0         11.374         61.090         75.551         15.938         27.948
         6638.5         11.358         63.053         74.787         17.707         30.095
         6639.0         11.342         65.017         73.993         21.490         31.544
         6639.5         11.326         66.051         73.199         25.618         31.541
         6640.0         11.311         66.760         72.405         29.745         33.119
         6640.5         11.295         67.468         72.137         33.777         35.718
         6641.0         11.279         68.176         72.283         37.800         43.465
         6641.5         11.263         66.858         72.428         41.076         71.549
         6642.0         11.247         65.107         70.921         41.284         99.633
         6642.5         11.232         63.356         68.310         41.492        124.357
         6643.0         11.216         61.605         65.698         44.088        111.425
         6643.5         11.200         58.869         63.928         47.807         97.212
         6644.0         11.184         54.079         65.315         51.525         82.351
         6644.5         11.168         49.289         66.701         52.519         78.134
         6645.0         11.153         44.499         68.088         53.340         76.185
         6645.5         11.137         43.304         69.475         54.160         76.178
         6646.0         11.121         48.528         69.777         54.981         77.761
         6646.5         11.112         53.753         69.681         56.871         80.511
         6647.0         11.105         58.812         69.585         59.098         83.262
         6647.5         11.099         59.379         69.490         61.325         86.013
         6648.0         11.092         59.947         69.394         61.958         88.250
         6648.5         11.085         60.515         69.298         61.952         88.447
         6649.0         11.079         61.082         69.181         61.947         88.644
         6649.5         11.072         60.576         69.018         61.941         88.842
         6650.0         11.065         59.221         68.855         61.935         89.039
         6650.5         11.059         57.865         68.692         61.929         92.642
