###############################################
##         ENVERUS                           ##
##         ESS - Open Hole                   ##
##         PERMIAN / DELAWARE                ##
##         Nov 02 2023  V4.0                 ##
##         42-109-31448-00-00                ##
###############################################
## Copyright 2017-2023  ENVERUS.  All Rights Reserved. 
## Confidential - Property of ENVERUS, use governed by terms and 
## conditions found within the existing Information Services Subscription Agreement 
## (as may be amended, the “ISSA”) between Customer and ENVERUS. 
## 
~VERSION INFORMATION
# MNEM.UNIT                               DATA : DESCRIPTION OF MNEMONIC
#-----.-----     ----------------------------- : -----------------------------
VERS.                                     2.00 : CWLS LOG ASCII STANDARD - VERSION 2.00
WRAP.                                       NO : MULTIPLE LINES PER DEPTH STEP
VEND.                                  ENVERUS : VENDOR
TYPE.                          ESS - OPEN HOLE : ENVERUS ESSENTIAL CURVES – ACCESSIBLE THROUGH ENVERUS PRISM(TM)
DOC.                                  31981796 : ENVERUS HEADER RAW DOCUMENT ID
#___________________________________________________________________________________________________ 
~WELL INFORMATION 
# ZFHslD71edIju97HcKZ52TF5U8X6gSJhIkoGhJkY8ckYnZzQD/y6zifgDis2Hn4asra90GxYkgpqCQaJUi2DCw== 
# MNEM.UNIT                                              DATA : DESCRIPTION OF MNEMONIC 
#-----.-----                    ----------------------------- : ----------------------------- 
CNTY.                                               CULBERSON : COUNTY 
STATE.                                                  TEXAS : STATE 
CNTRY.                                                    USA : COUNTRY 
API.                                             42-109-31448 : API (10 Digit) 
API_14.                                    42-109-31448-00-00 : API (14 Digits) 
API_14_std.                                 42-109-31448-0000 : API (14 Digits Standard) 
UWI.                                           42109314480000 : UNIQUE WELL ID 
WELL.                                               TRIKEN  1 : WELL NAME
STRT.FT                                                   4.0 : START DEPTH
STOP.FT                                               13097.0 : STOP DEPTH
STEP.FT                                                   0.5 : STEP BETWEEN DEPTHS
NULL.                                                 -999.25 : NULL VALUE
COMP.                                             MARALO  LLC : COMPANY 
DATE.                                             04-NOV-1984 : LOG DATE
#___________________________________________________________________________________________________ 
~CURVE INFORMATION 
# MNEM.UNIT           : CURVE DESCRIPTION 
#-----.-----          : ----------------------------- 
 DEPT.FT               : MEASURED DEPTH 
 CALI.IN               : CALIPER (CAL - CAL) 
 GR.API                : GAMMA RAY (GR) 
 DT.US/FT              : SONIC DELTA TRANSIT TIME (DT) 
 #___________________________________________________________________________________________________ 
~A         DEPT           CALI             GR             DT
# ...
         2380.0         14.492          7.947         48.497
         2380.5         14.493          7.691         48.476
         2381.0         14.494          7.435         48.455
         2381.5         14.495          7.179         48.434
         2382.0         14.497          6.924         48.413
         2382.5         14.498          6.668         48.392
         2383.0         14.499          6.412         48.371
         2383.5         14.500          7.002         48.350
         2384.0         14.501          7.680         48.329
         2384.5         14.502          8.359         48.308
         2385.0         14.503          9.037         48.287
         2385.5         14.500          9.716         48.266
         2386.0         14.496         10.394         48.245
         2386.5         14.492         11.072         48.224
         2387.0         14.489         11.751         48.203
         2387.5         14.485         11.508         47.196
         2388.0         14.481         10.921         44.486
         2388.5         14.478         10.334         41.777
         2389.0         14.474          9.747         39.569
         2389.5         14.471          9.161         39.571
         2390.0         14.467          8.574         39.573
         2390.5         14.463          7.987         39.574
         2391.0         14.460          7.401         39.576
         2391.5         14.456          7.037         39.578
         2392.0         14.452          7.037         39.579
         2392.5         14.449          7.037         39.581
         2393.0         14.445          7.037         39.583
         2393.5         14.441          7.036         39.584
         2394.0         14.438          7.036         39.586
         2394.5         14.434          7.036         39.588
         2395.0         14.430          7.036         39.589
         2395.5         14.427          7.036         39.591
         2396.0         14.423          7.035         39.592
         2396.5         14.419          8.652         39.594
         2397.0         14.416         10.571         39.596
         2397.5         14.413         12.490         39.597
         2398.0         14.409         14.409         39.599
         2398.5         14.406         16.328         39.601
         2399.0         14.403         15.039         39.602
         2399.5         14.399         13.440         39.604
         2400.0         14.396         11.841         39.606
         2400.5         14.393         10.848         80.572
         2401.0         14.388         10.188         88.989
         2401.5         14.378          9.528         97.406
         2402.0         14.367          8.868        151.068
         2402.5         14.357          8.208        160.047
         2403.0         14.347          7.548        160.047
         2403.5         14.336          8.395        160.047
         2404.0         14.326         14.617        160.047
         2404.5         14.315         20.840        160.047
         2405.0         14.305         27.062        160.047
         2405.5         14.295         33.285        160.047
         2406.0         14.284         36.055        160.047
         2406.5         14.274         36.572        160.046
         2407.0         14.263         37.089        160.046
         2407.5         14.253         34.719        160.046
         2408.0         14.245         28.862        160.046
         2408.5         14.238         23.006        160.046
         2409.0         14.230         17.149        160.046
         2409.5         14.222         11.293        160.046
         2410.0         14.215          5.436        160.046
         2410.5         14.207          4.632        147.755
         2411.0         14.200          4.889        129.284
         2411.5         14.192          5.146        110.813
         2412.0         14.184          5.404         91.495
         2412.5         14.177          5.661         62.430
         2413.0         14.169          5.919         49.324
         2413.5         14.162          6.176         49.312
         2414.0         14.154          6.292         49.301
         2414.5         14.147          5.935         49.289
         2415.0         14.139          5.578         49.277
         2415.5         14.131          5.220         49.265
         2416.0         14.124          4.863         49.253
         2416.5         14.116          4.506         49.242
         2417.0         14.109          4.148         49.230
         2417.5         14.101          4.399         49.218
         2418.0         14.093          4.767         49.206
         2418.5         14.086          5.136         49.194
         2419.0         14.081          5.504         49.182
         2419.5         14.077          5.873         49.171
         2420.0         14.072          6.241         49.159
         2420.5         14.068          6.610         49.147
         2421.0         14.063          6.978         49.135
         2421.5         14.059          7.346         49.123
         2422.0         14.054          7.835         49.111
         2422.5         14.050          8.325         49.100
         2423.0         14.045          8.814         49.088
         2423.5         14.041          9.304         49.076
         2424.0         14.036          9.794         49.064
         2424.5         14.032         10.283         48.915
         2425.0         14.027         10.773         48.241
         2425.5         14.023         11.263         47.566
         2426.0         14.018         11.752         46.891
         2426.5         14.013         12.242         46.216
         2427.0         14.009         12.732         45.542
         2427.5         14.004         13.204         44.867
         2428.0         13.996         12.030         44.192
         2428.5         13.984         10.855         44.190
         2429.0         13.972          9.680         44.585
         2429.5         13.960          8.741         44.980
         2430.0         13.948          9.483         45.374
         2430.5         13.936         10.224         48.619
         2431.0         13.924         10.966         56.326
         2431.5         13.912         11.707        102.513
         2432.0         13.900         11.072        104.618
         2432.5         13.888          9.920        106.723
         2433.0         13.876          8.769        108.828
         2433.5         13.864          7.617        110.932
         2434.0         13.852          7.002        113.037
         2434.5         13.840          8.580         93.939
         2435.0         13.828         10.158         84.895
         2435.5         13.816         11.735         48.535
         2436.0         13.804         13.313         48.252
         2436.5         13.792         12.543         48.292
         2437.0         13.779         11.385         48.332
         2437.5         13.767         10.226         48.372
         2438.0         13.755          9.068         48.412
         2438.5         13.749          7.909         48.452
         2439.0         13.744          6.750         48.493
         2439.5         13.738          6.159         48.533
         2440.0         13.733          6.471         48.573
         2440.5         13.727          6.784         48.613
         2441.0         13.721          7.097         48.653
         2441.5         13.716          7.410         48.693
         2442.0         13.710          7.722         48.734
         2442.5         13.705          8.035         48.774
         2443.0         13.699          8.348         48.799
         2443.5         13.751          8.661         48.823
         2444.0         13.803          8.973         48.847
         2444.5         13.855          9.286         48.871
         2445.0         13.907          9.599         48.895
         2445.5         13.958          9.912         48.919
