###############################################
##         ENVERUS                           ##
##         ESS - Open Hole                   ##
##         PERMIAN / DELAWARE                ##
##         Nov 02 2023  V4.0                 ##
##         42-109-10071-00-00                ##
###############################################
## Copyright 2017-2023  ENVERUS.  All Rights Reserved. 
## Confidential - Property of ENVERUS, use governed by terms and 
## conditions found within the existing Information Services Subscription Agreement 
## (as may be amended, the “ISSA”) between Customer and ENVERUS. 
## 
~VERSION INFORMATION
# MNEM.UNIT                               DATA : DESCRIPTION OF MNEMONIC
#-----.-----     ----------------------------- : -----------------------------
VERS.                                     2.00 : CWLS LOG ASCII STANDARD - VERSION 2.00
WRAP.                                       NO : MULTIPLE LINES PER DEPTH STEP
VEND.                                  ENVERUS : VENDOR
TYPE.                          ESS - OPEN HOLE : ENVERUS ESSENTIAL CURVES – ACCESSIBLE THROUGH ENVERUS PRISM(TM)
DOC.                                  31950413 : ENVERUS HEADER RAW DOCUMENT ID
#___________________________________________________________________________________________________ 
~WELL INFORMATION 
# OfUh2+mdeFjroaXzMJDg/lRWUsinBwpBr+LWp9Jgnw936lSgPWOOCrYxw0Bz1A8ekYSC2IJg55FhS+cGr4hs3w== 
# MNEM.UNIT                                              DATA : DESCRIPTION OF MNEMONIC 
#-----.-----                    ----------------------------- : ----------------------------- 
CNTY.                                               CULBERSON : COUNTY 
STATE.                                                  TEXAS : STATE 
CNTRY.                                                    USA : COUNTRY 
API.                                             42-109-10071 : API (10 Digit) 
API_14.                                    42-109-10071-00-00 : API (14 Digits) 
API_14_std.                                 42-109-10071-0000 : API (14 Digits Standard) 
UWI.                                           42109100710000 : UNIQUE WELL ID 
WELL.                                                  DRD_55 : WELL NAME
STRT.FT                                                 320.5 : START DEPTH
STOP.FT                                               12359.5 : STOP DEPTH
STEP.FT                                                   0.5 : STEP BETWEEN DEPTHS
NULL.                                                 -999.25 : NULL VALUE
#___________________________________________________________________________________________________ 
~PARAMETER INFORMATION 
# MNEM.UNIT                                              DATA : DESCRIPTION OF MNEMONIC 
#-----.-----                    ----------------------------- : -----------------------------
#___________________________________________________________________________________________________ 
~CURVE INFORMATION 
# MNEM.UNIT           : CURVE DESCRIPTION 
#-----.-----          : ----------------------------- 
 DEPT.FT               : MEASURED DEPTH 
 GR.API                : GAMMA RAY (GAMMA RAY) 
 DT.US/FT              : SONIC DELTA TRANSIT TIME (SONIC) 
 #___________________________________________________________________________________________________ 
~A         DEPT             GR             DT
# ...
         9020.5         70.868         57.972
         9021.0         72.597         58.801
         9021.5         75.142         59.231
         9022.0         80.124         59.342
         9022.5         84.323         60.330
         9023.0         85.243         60.555
         9023.5         85.076         61.315
         9024.0         84.875         61.807
         9024.5         85.012         62.268
         9025.0         87.926         62.485
         9025.5         88.407         62.454
         9026.0         83.015         62.246
         9026.5         79.694         61.576
         9027.0         78.280         61.044
         9027.5         77.342         60.294
         9028.0         77.312         59.545
         9028.5         76.621         58.866
         9029.0         74.863         58.688
         9029.5         72.045         58.249
         9030.0         75.014         57.735
         9030.5         78.462         57.114
         9031.0         79.326         56.253
         9031.5         80.607         57.836
         9032.0         82.851         59.707
         9032.5         80.481         60.295
         9033.0         77.094         60.516
         9033.5         69.324         61.375
         9034.0         68.015         61.039
         9034.5         66.906         58.645
         9035.0         67.239         58.329
         9035.5         68.809         57.957
         9036.0         70.574         57.882
         9036.5         79.006         58.558
         9037.0         81.351         59.609
         9037.5         83.602         60.660
         9038.0         80.040         61.662
         9038.5         75.239         61.973
         9039.0         71.467         62.069
         9039.5         67.986         60.826
         9040.0         61.317         59.007
         9040.5         49.803         57.187
         9041.0         44.070         55.368
         9041.5         41.242         53.548
         9042.0         41.575         51.728
         9042.5         46.262         50.722
         9043.0         55.687         51.671
         9043.5         63.573         54.001
         9044.0         71.103         56.330
         9044.5         79.162         58.660
         9045.0         83.499         60.890
         9045.5         81.959         61.310
         9046.0         76.332         60.823
         9046.5         75.521         60.702
         9047.0         79.674         60.828
         9047.5         81.730         59.762
         9048.0         84.082         60.587
         9048.5         83.609         60.854
         9049.0         81.505         60.464
         9049.5         79.929         60.102
         9050.0         76.746         60.305
         9050.5         68.696         60.011
         9051.0         68.981         59.438
         9051.5         71.221         59.437
         9052.0         78.340         60.630
         9052.5         84.319         61.446
         9053.0         88.447         62.565
         9053.5         86.907         62.826
         9054.0         84.275         62.957
         9054.5         73.669         63.670
         9055.0         72.020         62.944
         9055.5         76.606         61.806
         9056.0         80.029         59.281
         9056.5         70.299         58.125
         9057.0         60.569         56.839
         9057.5         52.864         54.751
         9058.0         56.789         52.956
         9058.5         64.164         53.812
         9059.0         69.010         56.131
         9059.5         75.272         57.471
         9060.0         86.542         58.028
         9060.5         84.455         60.436
         9061.0         81.985         62.784
         9061.5         85.882         63.307
         9062.0         87.693         63.210
         9062.5         88.278         63.476
         9063.0         87.031         63.219
         9063.5         81.752         60.581
         9064.0         77.346         60.870
         9064.5         71.867         62.190
         9065.0         75.215         61.879
         9065.5         75.774         58.668
         9066.0         65.063         58.083
         9066.5         49.332         57.767
         9067.0         40.208         55.457
         9067.5         39.983         52.993
         9068.0         43.274         54.159
         9068.5         57.815         55.944
         9069.0         68.560         57.047
         9069.5         69.803         58.844
         9070.0         72.841         62.311
         9070.5         78.980         62.434
         9071.0         81.679         62.754
         9071.5         86.294         64.018
         9072.0         84.742         65.281
         9072.5         82.985         64.792
         9073.0         81.074         63.119
         9073.5         76.908         61.417
         9074.0         72.696         60.692
         9074.5         72.696         62.529
         9075.0         81.366         67.081
         9075.5         97.925         68.973
         9076.0        109.111         75.033
         9076.5        106.955         75.221
         9077.0        101.826         74.206
         9077.5         95.405         70.163
         9078.0         81.908         64.776
         9078.5         79.699         63.440
         9079.0         77.848         62.719
         9079.5         76.676         60.139
         9080.0         70.800         61.521
         9080.5         71.653         63.405
         9081.0         73.617         63.325
         9081.5         67.654         62.788
         9082.0         62.084         61.593
         9082.5         60.908         60.642
         9083.0         62.296         59.826
         9083.5         65.020         59.982
         9084.0         67.684         61.344
         9084.5         70.335         61.496
         9085.0         72.081         61.304
         9085.5         71.840         62.477
         9086.0         70.679         62.065
         9086.5         69.228         61.776
         9087.0         66.493         61.313
         9087.5         64.068         60.366
         9088.0         60.199         58.915
         9088.5         55.803         57.636
         9089.0         54.233         58.421
         9089.5         58.750         58.999
         9090.0         66.370         59.651
         9090.5         73.989         61.470
         9091.0         75.466         62.597
         9091.5         74.954         63.083
         9092.0         71.328         63.569
         9092.5         67.737         63.721
         9093.0         67.584         63.287
         9093.5         73.538         60.576
         9094.0         70.720         59.154
         9094.5         65.917         60.602
         9095.0         66.193         61.834
         9095.5         75.132         61.365
         9096.0         82.476         61.942
         9096.5         79.870         63.304
         9097.0         76.881         64.666
         9097.5         77.289         65.485
         9098.0         78.551         65.003
         9098.5         79.859         63.889
         9099.0         80.082         64.087
         9099.5         80.082         64.802
         9100.0         83.099         64.632
         9100.5         88.390         63.661
         9101.0         88.968         62.412
         9101.5         83.333         61.837
         9102.0         79.695         61.165
         9102.5         80.088         61.080
         9103.0         81.076         61.783
         9103.5         84.059         62.199
         9104.0         85.580         63.576
         9104.5         86.544         64.663
         9105.0         85.820         64.431
         9105.5         85.470         63.846
         9106.0         82.907         62.414
         9106.5         78.252         60.982
         9107.0         69.301         59.551
