###############################################
##         ENVERUS                           ##
##         ESS - Open Hole                   ##
##         PERMIAN / DELAWARE                ##
##         Nov 03 2023  V4.0                 ##
##         42-109-32538-90-00                ##
###############################################
## Copyright 2017-2023  ENVERUS.  All Rights Reserved. 
## Confidential - Property of ENVERUS, use governed by terms and 
## conditions found within the existing Information Services Subscription Agreement 
## (as may be amended, the “ISSA”) between Customer and ENVERUS. 
## 
~VERSION INFORMATION
# MNEM.UNIT                               DATA : DESCRIPTION OF MNEMONIC
#-----.-----     ----------------------------- : -----------------------------
VERS.                                     2.00 : CWLS LOG ASCII STANDARD - VERSION 2.00
WRAP.                                       NO : MULTIPLE LINES PER DEPTH STEP
VEND.                                  ENVERUS : VENDOR
TYPE.                          ESS - OPEN HOLE : ENVERUS ESSENTIAL CURVES – ACCESSIBLE THROUGH ENVERUS PRISM(TM)
DOC.                                  51093252 : ENVERUS HEADER RAW DOCUMENT ID
#___________________________________________________________________________________________________ 
~WELL INFORMATION 
# oCCetX3e+0pvkDd8h//i1tmWwvIHyfHqsQII3M49Y6eU5HggNAlLoqtwY+vCuZvzOG9Fr+Tv1xe2vto6NUMufQ== 
# MNEM.UNIT                                              DATA : DESCRIPTION OF MNEMONIC 
#-----.-----                    ----------------------------- : ----------------------------- 
CNTY.                                               CULBERSON : COUNTY 
STATE.                                                  TEXAS : STATE 
CNTRY.                                                    USA : COUNTRY 
API.                                             42-109-32538 : API (10 Digit) 
API_14.                                    42-109-32538-90-00 : API (14 Digits) 
API_14_std.                                 42-109-32538-9000 : API (14 Digits Standard) 
UWI.                                           42109325389000 : UNIQUE WELL ID 
WELL.                                                  DRD_55 : WELL NAME
STRT.FT                                                2546.5 : START DEPTH
STOP.FT                                               11260.0 : STOP DEPTH
STEP.FT                                                   0.5 : STEP BETWEEN DEPTHS
NULL.                                                 -999.25 : NULL VALUE
PREV_APII.                                     42109325380000 : WELL IDENTIFIER
#___________________________________________________________________________________________________ 
~PARAMETER INFORMATION 
# MNEM.UNIT                                              DATA : DESCRIPTION OF MNEMONIC 
#-----.-----                    ----------------------------- : ----------------------------- 
EKB.FT                                                   3182 : ELEVATION ABOVE MSL
#___________________________________________________________________________________________________ 
~CURVE INFORMATION 
# MNEM.UNIT           : CURVE DESCRIPTION 
#-----.-----          : ----------------------------- 
 DEPT.FT               : MEASURED DEPTH 
 CALI.IN               : CALIPER (CAL - CALIPER) 
 GR.API                : GAMMA RAY (GAMMA RAY) 
 DT.US/FT              : SONIC DELTA TRANSIT TIME (SONIC) 
 RESS.OHMM             : SHALLOW INDUCTION RESISTIVITY (ILS - SHALLOW RESISTIVITY) 
 RESD.OHMM             : DEEP INDUCTION RESISTIVITY (ILD - DEEP RESISTIVITY) 
 DPHI.V/V              : DENSITY POROSITY (DENSITY POROSITY) 
 NPHI.V/V              : NEUTRON POROSITY (NEUTRON POROSITY) 
 RHOB.G/CC             : BULK DENSITY (DENSITY) 
 #___________________________________________________________________________________________________ 
~A         DEPT           CALI             GR             DT           RESS           RESD           DPHI           NPHI           RHOB
# ...
         9685.5          6.154         69.907         65.767         42.743         53.019        0.13974        0.14428         2.5284
         9686.0          6.151         66.234         65.767         40.953         56.838        0.13843        0.15134         2.5068
         9686.5          6.149         64.738         65.255         48.409         62.567        0.11009        0.15599         2.4813
         9687.0          6.146         62.996         64.540         56.837         76.839        0.05871        0.16161         2.4788
         9687.5          6.146         64.089         64.131         58.644         79.533        0.04044        0.13178         2.5455
         9688.0          6.146         63.696         64.131         59.689         75.584        0.06608        0.09488         2.6080
         9688.5          6.146         48.985         65.144         59.836         78.266        0.07952        0.08969         2.6422
         9689.0          6.158         47.962         66.688         59.784         78.894        0.07525        0.08609         2.6067
         9689.5          6.164         51.910         69.060         57.691         68.139        0.06030        0.07931         2.5812
         9690.0          6.164         67.169         71.029         49.140         54.377        0.08562        0.06959         2.5959
         9690.5          6.164         78.326         72.468         41.239         43.420        0.11172        0.05964         2.6088
         9691.0          6.159         95.221         73.497         36.275         38.205        0.11779        0.06628         2.6123
         9691.5          6.163         87.954         73.777         35.545         39.034        0.12204        0.09737         2.5374
         9692.0          6.164         77.350         73.538         42.573         43.457        0.13056        0.11227         2.5203
         9692.5          6.164         83.127         73.538         43.675         44.172        0.12814        0.11413         2.5105
         9693.0          6.164         84.042         73.538         42.162         46.695        0.11275        0.12034         2.5011
         9693.5          6.164         84.507         74.144         43.403         48.249        0.11055        0.12528         2.5138
         9694.0          6.164         84.064         75.173         43.870         47.941        0.11724        0.13523         2.5274
         9694.5          6.164         87.136         75.583         44.972         50.372        0.12049        0.15861         2.5380
         9695.0          6.164         85.332         75.992         48.351         53.775        0.13973        0.19119         2.5230
         9695.5          6.164         81.058         75.992         51.216         58.257        0.16643        0.18470         2.5150
         9696.0          6.164         77.538         75.992         54.295         60.662        0.16735        0.16725         2.4745
         9696.5          6.164         76.736         75.583         55.152         60.856        0.16427        0.16310         2.4350
         9697.0          6.155         80.883         75.544         50.540         53.041        0.15941        0.16394         2.4442
         9697.5          6.155         84.461         75.174         44.195         45.150        0.14931        0.16000         2.4498
         9698.0          6.155         86.135         74.356         40.829         44.100        0.12888        0.14638         2.4588
         9698.5          6.155         79.874         73.947         42.027         47.080        0.11219        0.13277         2.4780
         9699.0          6.164         70.552         73.947         48.463         54.389        0.08363        0.12007         2.5055
         9699.5          6.164         72.247         74.633         49.010         52.746        0.06995        0.10795         2.5574
         9700.0          6.164         86.646         75.253         49.303         54.701        0.08379        0.08647         2.5978
         9700.5          6.164         85.764         76.283         50.407         53.601        0.10218        0.11590         2.5769
         9701.0          6.177         86.063         77.312         50.136         56.052        0.13643        0.14642         2.5388
         9701.5          6.182         87.309         78.341         55.463         59.685        0.14142        0.15508         2.4989
         9702.0          6.182         91.750         79.264         53.541         56.332        0.14559        0.16479         2.4826
         9702.5          6.182        100.404         79.990         48.913         50.175        0.14890        0.17483         2.4754
         9703.0          6.182        101.177         80.202         44.921         43.031        0.12962        0.19333         2.4709
         9703.5          6.179        108.757         80.822         38.718         34.778        0.10946        0.20161         2.5156
         9704.0          6.164        111.903         81.309         31.152         30.130        0.10767        0.20570         2.5423
         9704.5          6.161        123.738         81.309         25.030         25.196        0.11673        0.20245         2.5265
         9705.0          6.155        144.917         80.753         20.762         19.162        0.12020        0.19485         2.5222
         9705.5          6.155        154.879         79.724         18.265         17.572        0.12256        0.19152         2.5161
         9706.0          6.155        131.147         78.695         17.991         17.376        0.12861        0.20752         2.5109
         9706.5          6.155        114.573         77.090         19.219         18.779        0.12788        0.21462         2.5048
         9707.0          6.155         91.110         75.527         26.700         23.788        0.12110        0.16940         2.5016
         9707.5          6.164         78.238         74.380         36.148         33.787        0.11120        0.13283         2.5189
         9708.0          6.164         69.492         73.351         49.455         44.340        0.08545        0.11818         2.5443
         9708.5          6.182         64.239         73.129         67.988         56.889        0.07676        0.12515         2.5734
         9709.0          6.182         71.587         73.129         64.849         60.308        0.07302        0.12275         2.5876
         9709.5          6.164         97.972         73.129         37.090         30.167        0.08267        0.13114         2.5896
         9710.0          6.164        106.155         72.506         25.701         25.309        0.10415        0.16290         2.5692
         9710.5          6.164        102.673         71.265         24.494         22.003        0.11221        0.17606         2.5445
         9711.0          6.164         88.698         69.494         27.105         25.885        0.08815        0.18172         2.5360
         9711.5          6.164         60.425         67.359         44.079         42.871        0.03186        0.13485         2.5887
         9712.0          6.182         26.433         64.847        100.633         76.804        0.00000        0.06479         2.6658
         9712.5          6.172         22.998         64.949        152.765        256.544        0.00000        0.06808         2.7380
         9713.0          6.164         28.864         65.739        330.371        405.298        0.00000        0.06323         2.7618
         9713.5          6.164         55.519         67.394        203.221        184.450        0.00000        0.05861         2.7602
         9714.0          6.164         70.284         70.934         76.716         60.108        0.02950        0.08298         2.7215
         9714.5          6.164         83.310         73.711         52.294         41.387        0.09750        0.10258         2.6435
