###############################################
##         ENVERUS                           ##
##         ESS - Open Hole                   ##
##         PERMIAN / DELAWARE                ##
##         Nov 03 2023  V4.0                 ##
##         42-109-32538-90-00                ##
###############################################
## Copyright 2017-2023  ENVERUS.  All Rights Reserved. 
## Confidential - Property of ENVERUS, use governed by terms and 
## conditions found within the existing Information Services Subscription Agreement 
## (as may be amended, the “ISSA”) between Customer and ENVERUS. 
## 
~VERSION INFORMATION
# MNEM.UNIT                               DATA : DESCRIPTION OF MNEMONIC
#-----.-----     ----------------------------- : -----------------------------
VERS.                                     2.00 : CWLS LOG ASCII STANDARD - VERSION 2.00
WRAP.                                       NO : MULTIPLE LINES PER DEPTH STEP
VEND.                                  ENVERUS : VENDOR
TYPE.                          ESS - OPEN HOLE : ENVERUS ESSENTIAL CURVES – ACCESSIBLE THROUGH ENVERUS PRISM(TM)
DOC.                                  51093252 : ENVERUS HEADER RAW DOCUMENT ID
#___________________________________________________________________________________________________ 
~WELL INFORMATION 
# oCCetX3e+0pvkDd8h//i1tmWwvIHyfHqsQII3M49Y6eU5HggNAlLoqtwY+vCuZvzOG9Fr+Tv1xe2vto6NUMufQ== 
# MNEM.UNIT                                              DATA : DESCRIPTION OF MNEMONIC 
#-----.-----                    ----------------------------- : ----------------------------- 
CNTY.                                               CULBERSON : COUNTY 
STATE.                                                  TEXAS : STATE 
CNTRY.                                                    USA : COUNTRY 
API.                                             42-109-32538 : API (10 Digit) 
API_14.                                    42-109-32538-90-00 : API (14 Digits) 
API_14_std.                                 42-109-32538-9000 : API (14 Digits Standard) 
UWI.                                           42109325389000 : UNIQUE WELL ID 
WELL.                                                  DRD_55 : WELL NAME
STRT.FT                                                2546.5 : START DEPTH
STOP.FT                                               11260.0 : STOP DEPTH
STEP.FT                                                   0.5 : STEP BETWEEN DEPTHS
NULL.                                                 -999.25 : NULL VALUE
PREV_APII.                                     42109325380000 : WELL IDENTIFIER
#___________________________________________________________________________________________________ 
~PARAMETER INFORMATION 
# MNEM.UNIT                                              DATA : DESCRIPTION OF MNEMONIC 
#-----.-----                    ----------------------------- : ----------------------------- 
EKB.FT                                                   3182 : ELEVATION ABOVE MSL
#___________________________________________________________________________________________________ 
~CURVE INFORMATION 
# MNEM.UNIT           : CURVE DESCRIPTION 
#-----.-----          : ----------------------------- 
 DEPT.FT               : MEASURED DEPTH 
 CALI.IN               : CALIPER (CAL - CALIPER) 
 GR.API                : GAMMA RAY (GAMMA RAY) 
 DT.US/FT              : SONIC DELTA TRANSIT TIME (SONIC) 
 RESS.OHMM             : SHALLOW INDUCTION RESISTIVITY (ILS - SHALLOW RESISTIVITY) 
 RESD.OHMM             : DEEP INDUCTION RESISTIVITY (ILD - DEEP RESISTIVITY) 
 DPHI.V/V              : DENSITY POROSITY (DENSITY POROSITY) 
 NPHI.V/V              : NEUTRON POROSITY (NEUTRON POROSITY) 
 RHOB.G/CC             : BULK DENSITY (DENSITY) 
 #___________________________________________________________________________________________________ 
~A         DEPT           CALI             GR             DT           RESS           RESD           DPHI           NPHI           RHOB
# ...
        11042.5          6.133         97.505         73.087         33.375         33.139        0.06712        0.02966         2.5602
        11043.0          6.134         98.330         74.644         22.155         20.272        0.09727        0.03097         2.5711
        11043.5          6.135        103.753         74.590         15.790         14.679        0.09032        0.03398         2.5823
        11044.0          6.136        107.075         73.437         14.735         13.743        0.07923        0.09231         2.5856
        11044.5          6.137        106.005         72.251         14.656         13.601        0.07607        0.11506         2.5800
        11045.0          6.146        105.150         70.241         15.132         13.601        0.08416        0.02507         2.5888
        11045.5          6.147        105.150         68.387         15.554         13.784        0.07623        0.04549         2.5803
        11046.0          6.147        104.451         66.124         15.970         14.667        0.07522        0.02901         2.5859
        11046.5          6.135         86.700         64.066         16.430         15.854        0.08099        0.02836         2.6067
        11047.0          6.121         60.098         62.078         18.540         17.566        0.07464        0.02899         2.6689
        11047.5          6.122         36.023         60.915         20.385         25.313        0.04283        0.02912         2.7535
        11048.0          6.123         28.157         60.041         36.450         38.098        0.00000        0.02874         2.8025
        11048.5          6.125         24.906         60.407         68.050         84.217        0.00000        0.02866         2.8141
        11049.0          6.127         44.709         61.520        329.688        732.052        0.00000        0.03028         2.7685
        11049.5          6.128         47.480         63.648        567.237       1325.716        0.00000        0.03065         2.6910
        11050.0          6.130         51.146         67.562        493.353       1119.697        0.00000        0.03279         2.6216
        11050.5          6.132         67.710         69.620        107.713        161.590        0.01525        0.09018         2.6167
        11051.0          6.133         90.838         71.581         52.768         51.483        0.06198        0.18186         2.6212
        11051.5          6.135         97.946         72.717         25.691         22.023        0.05398        0.16926         2.6243
        11052.0          6.137         98.226         73.129         16.742         14.816        0.05222        0.15269         2.6045
        11052.5          6.138        100.278         73.129         15.393         14.331        0.06138        0.15288         2.5909
        11053.0          6.140        102.041         72.907         15.518         15.121        0.07433        0.16607         2.5839
        11053.5          6.142        103.566         72.696         16.832         16.047        0.07498        0.16650         2.5786
        11054.0          6.144         97.699         72.311         20.849         17.965        0.07795        0.16411         2.5793
        11054.5          6.145         96.459         71.455         24.982         22.140        0.08354        0.16851         2.5829
        11055.0          6.147         89.757         70.426         28.611         27.337        0.08369        0.13892         2.5838
        11055.5          6.149         89.757         68.477         32.453         30.430        0.07780        0.12706         2.5819
        11056.0          6.150         88.631         65.856         34.359         31.888        0.07797        0.13392         2.5813
        11056.5          6.152         86.792         63.120         37.840         35.735        0.08023        0.14308         2.6066
        11057.0          6.154         73.100         60.650         40.179         43.333        0.07398        0.14702         2.6352
        11057.5          6.155         63.371         59.554         43.521         76.778        0.04987        0.10816         2.6121
        11058.0          6.155         57.003         59.045         71.247        149.228        0.05474        0.05900         2.6067
        11058.5          6.147         41.350         60.178        115.598        285.067        0.06647        0.04536         2.6064
        11059.0          6.137         72.620         61.926        218.801        290.667        0.06153        0.04772         2.6064
        11059.5          6.126        102.871         63.470        116.596         93.581        0.06706        0.04165         2.6084
        11060.0          6.130        100.475         64.856         34.553         30.205        0.06843        0.03792         2.6104
        11060.5          6.134         98.779         65.885         26.317         20.062        0.05996        0.08258         2.6125
        11061.0          6.136        103.066         66.176         25.312         19.771        0.06156        0.22159         2.6214
        11061.5          6.129        105.478         66.176         25.911         20.613        0.06335        0.20261         2.6267
        11062.0          6.141        104.451         66.176         30.924         25.146        0.05038        0.19132         2.6179
        11062.5          6.154        105.325         66.176         34.944         30.049        0.05094        0.18994         2.6117
        11063.0          6.138         80.891         66.176         44.585         36.341        0.05887        0.17546         2.6024
        11063.5          6.138         52.486         66.585         60.524         52.068        0.06289        0.13660         2.5932
        11064.0          6.138         47.362         67.363         81.619         76.854        0.07162        0.13145         2.5901
        11064.5          6.138         47.354         67.403         85.902         80.462        0.07374        0.15361         2.5943
        11065.0          6.138         76.178         67.403         77.478         63.374        0.07042        0.13973         2.6038
        11065.5          6.138         94.263         66.501         50.820         38.082        0.07277        0.15399         2.6284
        11066.0          6.138         88.653         65.458         32.303         25.413        0.05916        0.16839         2.6453
        11066.5          6.138         64.062         64.421         30.584         25.187        0.04293        0.13473         2.6445
        11067.0          6.138         65.340         63.117         34.238         30.272        0.03935        0.13888         2.6431
        11067.5          6.138         67.629         63.031         41.583         34.605        0.04370        0.09921         2.6154
        11068.0          6.138         84.355         63.031         49.903         39.557        0.04794        0.09486         2.5876
        11068.5          6.138        100.724         63.634         57.083         43.077        0.06986        0.11592         2.5617
        11069.0          6.138        110.947         64.621         53.002         37.506        0.08679        0.11982         2.5600
        11069.5          6.138        112.916         65.515         43.631         34.637        0.09345        0.14374         2.5612
        11070.0          6.129        108.394         66.210         43.152         35.827        0.08895        0.18871         2.5746
        11070.5          6.130        104.771         67.217         43.563         37.797        0.08586        0.18788         2.5859
        11071.0          6.130         88.649         67.403         47.261         44.015        0.08245        0.18737         2.6152
        11071.5          6.131         79.508         67.403         51.583         53.421        0.07075        0.19226         2.6357
