###############################################
##         ENVERUS                           ##
##         ESS - Open Hole                   ##
##         PERMIAN / DELAWARE                ##
##         Nov 03 2023  V4.0                 ##
##         42-109-32572-90-00                ##
###############################################
## Copyright 2017-2023  ENVERUS.  All Rights Reserved. 
## Confidential - Property of ENVERUS, use governed by terms and 
## conditions found within the existing Information Services Subscription Agreement 
## (as may be amended, the “ISSA”) between Customer and ENVERUS. 
## 
~VERSION INFORMATION
# MNEM.UNIT                               DATA : DESCRIPTION OF MNEMONIC
#-----.-----     ----------------------------- : -----------------------------
VERS.                                     2.00 : CWLS LOG ASCII STANDARD - VERSION 2.00
WRAP.                                       NO : MULTIPLE LINES PER DEPTH STEP
VEND.                                  ENVERUS : VENDOR
TYPE.                          ESS - OPEN HOLE : ENVERUS ESSENTIAL CURVES – ACCESSIBLE THROUGH ENVERUS PRISM(TM)
DOC.                                  51093105 : ENVERUS HEADER RAW DOCUMENT ID
#___________________________________________________________________________________________________ 
~WELL INFORMATION 
# JLMmoJa/ja/TVcwAQvDk33OYEn4U2aLD16xKSNtVAxpK3Y/5Eg5lhKgsZNDQ5ZP0fRHfEZLFMAnipg5oeA7W3g== 
# MNEM.UNIT                                              DATA : DESCRIPTION OF MNEMONIC 
#-----.-----                    ----------------------------- : ----------------------------- 
CNTY.                                               CULBERSON : COUNTY 
STATE.                                                  TEXAS : STATE 
CNTRY.                                                    USA : COUNTRY 
API.                                             42-109-32572 : API (10 Digit) 
API_14.                                    42-109-32572-90-00 : API (14 Digits) 
API_14_std.                                 42-109-32572-9000 : API (14 Digits Standard) 
UWI.                                           42109325729000 : UNIQUE WELL ID 
WELL.                               42109325720000_PREV_API14 : WELL NAME
STRT.FT                                                2248.5 : START DEPTH
STOP.FT                                               10721.5 : STOP DEPTH
STEP.FT                                                   0.5 : STEP BETWEEN DEPTHS
NULL.                                                 -999.25 : NULL VALUE
PREV_APII.                                     42109325720000 : WELL IDENTIFIER
#___________________________________________________________________________________________________ 
~PARAMETER INFORMATION 
# MNEM.UNIT                                              DATA : DESCRIPTION OF MNEMONIC 
#-----.-----                    ----------------------------- : ----------------------------- 
EKB.FT                                                   3340 : ELEVATION ABOVE MSL
#___________________________________________________________________________________________________ 
~CURVE INFORMATION 
# MNEM.UNIT           : CURVE DESCRIPTION 
#-----.-----          : ----------------------------- 
 DEPT.FT               : MEASURED DEPTH 
 GR__A.API             : GAMMA RAY (GAMMA RAY) 
 DT__A.US/FT           : SONIC DELTA TRANSIT TIME (SONIC) 
 #___________________________________________________________________________________________________ 
~A         DEPT          GR__A          DT__A
# ...
         5554.5        125.028         73.984
         5555.0        143.635         76.346
         5555.5        192.722         79.719
         5556.0        235.487         81.960
         5556.5        251.927         83.619
         5557.0        236.443         83.117
         5557.5        219.204         82.773
         5558.0        203.661         82.481
         5558.5        159.695         82.320
         5559.0        125.851         82.250
         5559.5        116.634         82.861
         5560.0        117.270         84.135
         5560.5        122.356         86.057
         5561.0        122.264         86.131
         5561.5        113.800         85.682
         5562.0        110.918         84.579
         5562.5        112.172         82.618
         5563.0        113.735         81.581
         5563.5        113.273         84.135
         5564.0        111.709         85.662
         5564.5        114.098         88.376
         5565.0        117.641         89.079
         5565.5        120.548         89.316
         5566.0        118.653         90.235
         5566.5        113.285         89.653
         5567.0        116.458         89.512
         5567.5        133.339         89.157
         5568.0        140.751         87.870
         5568.5        157.156         86.914
         5569.0        161.851         85.870
         5569.5        175.334         84.589
         5570.0        209.972         83.895
         5570.5        204.104         82.576
         5571.0        167.571         81.746
         5571.5        147.941         80.404
         5572.0        146.961         79.014
         5572.5        180.373         79.111
         5573.0        213.963         81.178
         5573.5        221.918         84.114
         5574.0        218.443         84.629
         5574.5        204.041         84.462
         5575.0        191.389         82.240
         5575.5        137.704         78.527
         5576.0        127.625         77.401
         5576.5        138.968         78.716
         5577.0        168.030         79.637
         5577.5        206.893         81.459
         5578.0        214.716         82.573
         5578.5        218.981         83.597
         5579.0        222.866         83.791
         5579.5        225.212         83.612
         5580.0        225.279         83.555
         5580.5        213.722         83.712
         5581.0        184.225         84.199
         5581.5        138.932         82.689
         5582.0        131.401         81.186
         5582.5        123.362         78.048
         5583.0        154.730         79.100
         5583.5        198.159         82.584
         5584.0        207.574         84.142
         5584.5        223.234         86.156
         5585.0        221.146         85.508
         5585.5        211.454         85.554
         5586.0        210.448         84.722
         5586.5        214.358         83.912
         5587.0        206.126         83.521
         5587.5        202.415         82.774
         5588.0        198.375         82.351
         5588.5        173.103         82.707
         5589.0        160.560         82.804
         5589.5        170.882         83.164
         5590.0        178.798         83.487
         5590.5        196.119         82.915
         5591.0        168.124         81.208
         5591.5        153.955         79.842
         5592.0        156.492         78.949
         5592.5        187.574         79.551
         5593.0        197.296         80.359
         5593.5        212.618         81.797
         5594.0        216.541         82.239
         5594.5        213.006         83.970
         5595.0        203.962         84.422
         5595.5        201.174         84.434
         5596.0        202.928         84.360
         5596.5        215.748         85.313
         5597.0        218.305         85.433
         5597.5        209.193         85.714
         5598.0        199.380         86.213
         5598.5        162.539         85.700
         5599.0        142.775         78.826
         5599.5        133.855         78.261
         5600.0        133.386         78.594
         5600.5        131.582         81.598
         5601.0        140.716         84.159
         5601.5        174.600         86.209
         5602.0        190.898         87.381
         5602.5        206.547         87.151
         5603.0        177.109         86.452
         5603.5        148.022         85.590
         5604.0        144.192         85.410
         5604.5        162.955         87.633
         5605.0        183.294         88.145
         5605.5        196.086         87.413
         5606.0        195.509         86.452
         5606.5        179.580         86.584
         5607.0        162.606         88.840
         5607.5        142.327         89.219
         5608.0        137.852         89.943
         5608.5        129.188         89.111
         5609.0        141.775         87.264
         5609.5        168.076         82.131
         5610.0        172.176         80.616
         5610.5        157.745         78.956
         5611.0        143.217         80.178
         5611.5        136.888         83.633
         5612.0        153.855         84.858
         5612.5        179.551         85.823
         5613.0        165.419         87.564
         5613.5        144.031         87.955
         5614.0        144.003         88.505
         5614.5        139.436         90.488
         5615.0        145.235         91.042
         5615.5        154.454         92.150
         5616.0        157.837         90.049
         5616.5        173.628         85.894
         5617.0        183.562         84.334
         5617.5        185.336         83.946
         5618.0        160.187         84.434
         5618.5        128.001         83.945
         5619.0        146.936         83.750
         5619.5        174.792         84.334
         5620.0        174.174         85.261
         5620.5        149.609         86.674
         5621.0        130.564         88.677
         5621.5        126.027         89.222
         5622.0        125.216         89.027
         5622.5        136.187         88.938
         5623.0        156.537         86.684
         5623.5        202.738         85.819
         5624.0        206.770         84.445
         5624.5        226.359         84.232
         5625.0        299.367         87.633
         5625.5        340.579         87.768
         5626.0        328.867         87.131
         5626.5        304.158         81.374
         5627.0        231.509         81.851
         5627.5        183.593         84.436
         5628.0        170.474         85.566
         5628.5        130.387         87.348
         5629.0        122.549         87.472
         5629.5        122.068         86.599
         5630.0        124.023         86.484
         5630.5        120.115         86.789
         5631.0        113.555         87.979
         5631.5        117.504         88.340
         5632.0        122.449         88.521
         5632.5        144.193         86.747
         5633.0        156.495         82.113
         5633.5        178.317         80.623
         5634.0        175.016         78.875
         5634.5        156.960         76.247
         5635.0        144.973         75.759
         5635.5        121.559         71.618
         5636.0        114.040         69.178
         5636.5        106.241         70.146
         5637.0        172.893         76.645
         5637.5        220.273         80.465
         5638.0        286.871         83.437
         5638.5        366.552         84.895
         5639.0        352.280         85.801
         5639.5        346.076         85.405
         5640.0        352.446         84.847
         5640.5        400.553         84.336
         5641.0        451.048         84.867
