~Version Information
 VERS.                  2.0:   CWLS log ASCII Standard -VERSION 2.0
 WRAP.                   NO:   One line per depth step
~Well Information Block
#MNEM.UNIT     VALUE/NAME     DESCRIPTION
#---------     -----------    ---------------------------
 STRT.F              8580.0000: START DEPTH
 STOP.F             14491.0000: STOP DEPTH
 STEP.F                 0.5000: STEP DEPTH
 NULL.               -999.2500: NULL VALUE
 LOC .     1072' FWL & 424' FNL:  LOCATION
 FL2 .     A2085 SEC 12 BLK 113:  LOCATIONLINE2
 FL1 .     1072' FWL & 424' FNL:  LOCATIONLINE1
 CNTY.               CULBERSON:  COUNTY NAME
 FLD .              WOLFCAMP B:  FIELD NAME
 WELL.           DALE STATE 2H:  WELL NAME
 COMP.     CAPITAN ENERGY INC.:  COMPANY
 DMF .                      KB:  DRILL MEAS FROM
 PDAT.                      GL:  PERMANENT DATUM
 DATE.             11-Feb-2020:  DATE
 SVCO.             Halliburton:  SERVICECONAME
 PROV.                      TX:  PROVINCE
 STAT.                      TX:  STATE NAME
 CTRY.                     USA:  COUNTRY NAME
 HIDE.                        :  WELLNAMEOPERAT
 UWI .            42-109-33544:  UNIQUE WELL IDENTIFIER
 API .            42-109-33544:  API NUMBER
 RANG.                     N/A:  RANGE
 TOWN.                     N/A:  TOWNSHIP
 SECT.                     N/A:  SECTION
 SON .               906290231:  JOB NUMBER
 SRVC.             Halliburton:  SERVICE COMPANY
 LMF .                      KB:  LOG MEASURED FROM
 TVDS.ft           3291.000000:  TVDSS CORRECTN
 EGL .ft           3266.000000:  GROUND ELEVATION
 APD .ft             25.000000:  DEPTH ABOVE PD
 EPD .ft           3266.000000:  ELEVATION
 BAP .ft              0.000000:  GL ELEV ONSHORE
 GVFD.g               1.000000:  GRAVITY FIELD
 EKB .ft           3291.000000:  KB ELEVATION
 EDF .ft           3291.000000:  DF ELEVATION
~Parameter Information Block
#MNEM.UNIT       Value        Description
#---------     -----------    ---------------------------
 BARI.                     OFF:  BARITE CORR 
 BRMP.                      No:  BromidePresent 
 CSF5.        Conductor Casing:  Casing Func5 
 CSF6.        Conductor Casing:  Casing Func6 
 DATE.               07-Feb-20:  Run Date 
 DCS .               07-Feb-20:  DateCircEndT 
 DLAB.               07-Feb-20:  LogStartDateT 
 ENGI.                John Doe:  Engineer Name 
 LSRV.             OH WIRELINE:  NameOfService 
 LSTM.ucts  09.26.51 07-Feb-20:  Log Start Time 
 LTYP.                     RAW:  LogDataType 
 LUL .                  ODESSA:  LoggingUnitLoc 
 LUN .                12100315:  LoggingUnitNum 
 SCT1.               07-Feb-20:  StartDateRun1 
 TCS .                   09 26:  Time Ciculation Ended 
 TDCE.ucts  09.26.51 07-Feb-20:  Time Circ End 
 TLAB.                   09 26:  LogStartTimeT 
~Curve Information Block
#MNEM.UNIT                 API CODE     Curve Description
#---------               -----------    ---------------------------
 DEPT.F                 00 000 000 000:  Depth
 CCL .V                 00 000 000 000:  Casing Collar Locator
 NPHI_OH.pu             00 000 000 000:  NPHI_OH
 NPHI_CHI.decp          00 000 000 000:  NPHI_CHI
 GR  .api               00 000 000 000:  Gamma API
 GR_CHI.api             00 000 000 000:  GR_CHI
 RHOB_OH.g/cc           00 000 000 000:  RHOB_OH
 RHOB_CHI.g/cc          00 000 000 000:  RHOB_CHI
 PE_OH.b/e              00 000 000 000:  PE_OH
 PE_CHI.b/e             00 000 000 000:  PE_CHI
 LLS_CHI.ohmm           00 000 000 000:  LLS_CHI
 LLS_OH.ohmm            00 000 000 000:  LLS_OH
 LLD_OH.ohmm            00 000 000 000:  LLD_OH
 LLD_CHI.ohmm           00 000 000 000:  LLD_CHI
 DTC_OH.uspf            00 000 000 000:  DTC_OH
 DTC_CHI.uspf           00 000 000 000:  DTC_CHI
 SPHW_CHI.decp          00 000 000 000:  SPHW_CHI
#Other Information
#
#WARRANTY: Halliburton will use its best efforts to furnish customers with 
#accurate information and interpretations that are part of, and incident to, the services 
#provided.  However, Halliburton cannot and does not warrant the accuracy 
#or correctness of such information and interpretations.  Under no circumstances should any 
#such information or interpretation be relied upon as the sole basis for any drilling, 
#completion, production, or financial decision or any procedure involving any risk to the 
#safety of any drilling venture, drilling rig or its crew or any other third party.  The 
#Customer has full responsibility for all drilling, completion and production operation.  
#Halliburton makes no representations or warranties, either expressed or 
#implied, including, but not limited to, the implied warranties of merchantability or fitness 
#for a particular purpose, with respect to the services rendered.  In no event will 
#Halliburton be liable for failure to obtain any particular results or for 
#any damages, including, but not limited to, indirect, special or consequential damages, 
#resulting from the use of any information or interpretation provided by Halliburton.
#
~A    DEPT       CCL     NPHI_OH  NPHI_CHI    GR      GR_CHI   RHOB_OH  RHOB_CHI   PE_OH   PE_CHI LLS_CHI   LLS_OH     LLD_OH   LLD_CHI   DTC_OH   DTC_CHI SPHW_CHI 
# ...
   10930.0000    0.0000 -999.2500   0.0973 -999.2500  94.0524 -999.2500   2.6003 -999.2500 3.1060  16.7911 -999.2500  -999.2500  19.9971 -999.2500 73.4196 0.1826
   10930.5000    0.0000 -999.2500   0.0995 -999.2500  98.2869 -999.2500   2.5966 -999.2500 3.1201  18.4235 -999.2500  -999.2500  21.9058 -999.2500 73.7621 0.1850
   10931.0000   18.8085 -999.2500   0.1010 -999.2500 102.1421 -999.2500   2.5937 -999.2500 3.1292  19.5516 -999.2500  -999.2500  23.1887 -999.2500 74.0793 0.1873
   10931.5000  -77.1361 -999.2500   0.1004 -999.2500  98.0219 -999.2500   2.5955 -999.2500 3.0952  16.8213 -999.2500  -999.2500  19.9697 -999.2500 73.7408 0.1849
   10932.0000    0.0000 -999.2500   0.1037 -999.2500 106.5019 -999.2500   2.5897 -999.2500 3.1254  20.1053 -999.2500  -999.2500  23.7895 -999.2500 74.4636 0.1900
   10932.5000    0.0000 -999.2500   0.1033 -999.2500 107.0977 -999.2500   2.5903 -999.2500 3.1339  20.4142 -999.2500  -999.2500  24.1531 -999.2500 74.5658 0.1907
   10933.0000   39.2589 -999.2500   0.1097 -999.2500 121.3288 -999.2500   2.5803 -999.2500 3.1789  27.5266 -999.2500  -999.2500  32.4909 -999.2500 75.7937 0.1994
   10933.5000  -27.8887 -999.2500   0.1088 -999.2500 120.0772 -999.2500   2.5822 -999.2500 3.1801  26.5686 -999.2500  -999.2500  31.3756 -999.2500 75.7804 0.1993
   10934.0000    0.0000 -999.2500   0.1020 -999.2500 102.7937 -999.2500   2.5950 -999.2500 3.1023  16.4623 -999.2500  -999.2500  19.5176 -999.2500 74.5036 0.1903
   10934.5000    0.0000 -999.2500   0.1058 -999.2500 114.1950 -999.2500   2.5880 -999.2500 3.1577  21.7717 -999.2500  -999.2500  25.7182 -999.2500 75.4683 0.1971
   10935.0000   33.2413 -999.2500   0.0994 -999.2500 103.5833 -999.2500   2.5982 -999.2500 3.1519  17.5857 -999.2500  -999.2500  20.7332 -999.2500 74.7111 0.1917
   10935.5000  -33.3243 -999.2500   0.0995 -999.2500 104.7633 -999.2500   2.5988 -999.2500 3.1678  17.3598 -999.2500  -999.2500  20.3952 -999.2500 74.9904 0.1937
   10936.0000    0.0000 -999.2500   0.1036 -999.2500 115.2574 -999.2500   2.5921 -999.2500 3.2192  22.0479 -999.2500  -999.2500  25.7978 -999.2500 75.9499 0.2005
   10936.5000   62.1269 -999.2500   0.1073 -999.2500 121.7136 -999.2500   2.5870 -999.2500 3.2290  24.3635 -999.2500  -999.2500  28.5224 -999.2500 76.5253 0.2046
   10937.0000   19.8441 -999.2500   0.1034 -999.2500 108.7670 -999.2500   2.5947 -999.2500 3.1615  17.6047 -999.2500  -999.2500  20.7170 -999.2500 75.5144 0.1974
   10937.5000    0.0000 -999.2500   0.1056 -999.2500 113.1664 -999.2500   2.5906 -999.2500 3.1790  20.9092 -999.2500  -999.2500  24.6456 -999.2500 75.7440 0.1990
   10938.0000  -18.7865 -999.2500   0.1068 -999.2500 111.0097 -999.2500   2.5891 -999.2500 3.1724  20.8726 -999.2500  -999.2500  24.6601 -999.2500 75.5276 0.1975
   10938.5000   74.7669 -999.2500   0.1056 -999.2500 108.2823 -999.2500   2.5905 -999.2500 3.2139  23.5239 -999.2500  -999.2500  27.7534 -999.2500 75.2947 0.1959
   10939.0000    0.0000 -999.2500   0.1061 -999.2500 107.3861 -999.2500   2.5902 -999.2500 3.2625  27.1361 -999.2500  -999.2500  31.9090 -999.2500 75.3293 0.1961
   10939.5000    0.0000 -999.2500   0.1063 -999.2500 103.4043 -999.2500   2.5918 -999.2500 3.2566  25.3745 -999.2500  -999.2500  29.8069 -999.2500 75.1745 0.1950
   10940.0000  -44.5533 -999.2500   0.1151 -999.2500 122.7475 -999.2500   2.5776 -999.2500 3.3233  39.9554 -999.2500  -999.2500  46.7526 -999.2500 76.7668 0.2063
   10940.5000    0.0000 -999.2500   0.1129 -999.2500 116.9753 -999.2500   2.5818 -999.2500 3.2765  31.3076 -999.2500  -999.2500  36.7326 -999.2500 76.3539 0.2034
   10941.0000    0.0000 -999.2500   0.1082 -999.2500 112.0538 -999.2500   2.5881 -999.2500 3.2574  26.7014 -999.2500  -999.2500  31.2892 -999.2500 75.9019 0.2002
   10941.5000   10.4671 -999.2500   0.1049 -999.2500 111.9303 -999.2500   2.5911 -999.2500 3.2758  27.3704 -999.2500  -999.2500  31.9629 -999.2500 75.7675 0.1992
   10942.0000    0.0000 -999.2500   0.0974 -999.2500 101.2052 -999.2500   2.6019 -999.2500 3.2530  21.3987 -999.2500  -999.2500  24.9179 -999.2500 74.8616 0.1928
   10942.5000    0.0000 -999.2500   0.0976 -999.2500 102.9034 -999.2500   2.6012 -999.2500 3.2528  21.5101 -999.2500  -999.2500  25.0465 -999.2500 74.9685 0.1936
   10943.0000    0.0000 -999.2500   0.1080 -999.2500 124.5919 -999.2500   2.5837 -999.2500 3.2946  32.1218 -999.2500  -999.2500  37.4551 -999.2500 76.5998 0.2051
   10943.5000  -53.5857 -999.2500   0.1129 -999.2500 130.2495 -999.2500   2.5762 -999.2500 3.2658  33.5407 -999.2500  -999.2500  39.3013 -999.2500 76.8890 0.2071
   10944.0000   26.5657 -999.2500   0.1032 -999.2500 105.3382 -999.2500   2.5932 -999.2500 3.1713  19.0376 -999.2500  -999.2500  22.4427 -999.2500 74.9362 0.1933
   10944.5000    0.0000 -999.2500   0.1075 -999.2500 112.9945 -999.2500   2.5869 -999.2500 3.1790  21.9451 -999.2500  -999.2500  25.9017 -999.2500 75.5821 0.1979
   10945.0000    0.0000 -999.2500   0.1107 -999.2500 118.6056 -999.2500   2.5833 -999.2500 3.1709  22.3392 -999.2500  -999.2500  26.3899 -999.2500 76.1593 0.2020
   10945.5000   34.9359 -999.2500   0.1103 -999.2500 117.3583 -999.2500   2.5855 -999.2500 3.1247  17.8339 -999.2500  -999.2500  21.0967 -999.2500 76.2129 0.2024
   10946.0000    0.0000 -999.2500   0.1050 -999.2500 103.8587 -999.2500   2.5954 -999.2500 3.0404  11.3643 -999.2500  -999.2500  13.4852 -999.2500 75.2075 0.1952
   10946.5000  -57.5282 -999.2500   0.1055 -999.2500 106.7564 -999.2500   2.5940 -999.2500 3.0435  11.8227 -999.2500  -999.2500  14.0168 -999.2500 75.3853 0.1965
   10947.0000    0.0000 -999.2500   0.1078 -999.2500 118.3517 -999.2500   2.5870 -999.2500 3.1280  18.4129 -999.2500  -999.2500  21.7288 -999.2500 76.0795 0.2014
   10947.5000    0.0000 -999.2500   0.1057 -999.2500 120.3965 -999.2500   2.5880 -999.2500 3.1989  23.8216 -999.2500  -999.2500  27.9942 -999.2500 76.1469 0.2019
   10948.0000    0.0000 -999.2500   0.1000 -999.2500 114.4707 -999.2500   2.5957 -999.2500 3.2311  23.9915 -999.2500  -999.2500  28.0667 -999.2500 75.6858 0.1986
   10948.5000  -21.1300 -999.2500   0.1003 -999.2500 119.9222 -999.2500   2.5943 -999.2500 3.2914  30.0336 -999.2500  -999.2500  34.8909 -999.2500 76.1897 0.2022
   10949.0000    0.0000 -999.2500   0.0964 -999.2500 109.4786 -999.2500   2.6020 -999.2500 3.2341  21.6554 -999.2500  -999.2500  25.2181 -999.2500 75.4532 0.1970
   10949.5000    0.0000 -999.2500   0.0950 -999.2500 100.6334 -999.2500   2.6061 -999.2500 3.1680  16.0891 -999.2500  -999.2500  18.8522 -999.2500 74.7722 0.1922
   10950.0000   12.2490 -999.2500   0.1037 -999.2500 113.3859 -999.2500   2.5932 -999.2500 3.1494  18.1900 -999.2500  -999.2500  21.4361 -999.2500 75.7575 0.1991
   10950.5000  -38.9367 -999.2500   0.1089 -999.2500 120.4184 -999.2500   2.5854 -999.2500 3.1545  20.5565 -999.2500  -999.2500  24.2516 -999.2500 76.2904 0.2029
   10951.0000    0.0000 -999.2500   0.1098 -999.2500 122.3121 -999.2500   2.5843 -999.2500 3.1766  21.5734 -999.2500  -999.2500  25.3969 -999.2500 76.5331 0.2046
   10951.5000  218.0018 -999.2500   0.1009 -999.2500 102.6447 -999.2500   2.5994 -999.2500 3.1401  14.2439 -999.2500  -999.2500  16.7302 -999.2500 75.1416 0.1948
   10952.0000  134.9122 -999.2500   0.0968 -999.2500  88.8363 -999.2500   2.6074 -999.2500 3.1079  10.7607 -999.2500  -999.2500  12.6395 -999.2500 74.1183 0.1875
   10952.5000  -25.1249 -999.2500   0.1100 -999.2500 115.2762 -999.2500   2.5861 -999.2500 3.1751  18.4067 -999.2500  -999.2500  21.6164 -999.2500 76.2355 0.2025
   10953.0000   11.7696 -999.2500   0.1088 -999.2500 112.3344 -999.2500   2.5879 -999.2500 3.1648  17.5389 -999.2500  -999.2500  20.6164 -999.2500 75.9738 0.2007
   10953.5000  -56.6215 -999.2500   0.1043 -999.2500 105.5573 -999.2500   2.5950 -999.2500 3.1291  14.2347 -999.2500  -999.2500  16.7475 -999.2500 75.4239 0.1968
   10954.0000  -37.3273 -999.2500   0.1044 -999.2500 114.1388 -999.2500   2.5931 -999.2500 3.1536  16.4196 -999.2500  -999.2500  19.2693 -999.2500 76.0207 0.2010
   10954.5000    0.0000 -999.2500   0.0950 -999.2500  96.2931 -999.2500   2.6082 -999.2500 3.1002  10.9107 -999.2500  -999.2500  12.8048 -999.2500 74.6280 0.1911
