# Exported from Transform Software 5.2.0 on 30-Oct-2019 by user kathryn.gehrke
# DI Transform - A Product of Drillinginfo, Inc. - www.drillinginfo.com
#
~VERSION INFORMATION
 VERS.        2.0 : LAS ASCII STANDARD - VERSION 2.0
 WRAP.         NO : ONE LINE PER DEPTH STEP

~WELL INFORMATION
#MNEM.UNIT       DATA TYPE       INFORMATION
#---------       ---------       -----------
 STRT.ft                  40 : Start Depth
 STOP.ft                9358 : Stop Depth
 STEP.ft                 0.5 : Step Length
 NULL.               -999.25 : Null Value
 COMP.                       : Company
 WELL.  42109330610000_API14 : Well Name
 FLD.                        : Field Name
 LOC.                        : Well Location
 CNTY.                       : County
 STAT.                       : State or Province
 CTRY.                       : Country
 SRVC.                       : Service Company
 DATE.                       : Date
 API.         42109330610000 : Well Identifier

~CURVE INFORMATION
#MNEM.UNIT       API CODE       CURVE DESCRIPTION
#---------       --------       -----------------
 DEPT.ft        : <Measured Depth>
 DT.us/ft       : Sonic
 GR.gAPI        : Gamma Ray

~PARAMETER INFORMATION
#MNEM.UNIT       VALUE       DESCRIPTION
#---------       -----       -----------
 EKB.ft      3200.5 : Elevation above MSL

~A      DEPT          DT          GR
# ...
      8611.5     243.487     34.8697
        8612     243.487     35.0913
      8612.5     243.487     30.4842
        8613    242.6854     27.1743
      8613.5    242.6854     27.6742
        8614    242.6854      27.858
      8614.5    241.8194     23.7887
        8615    240.2806     22.3647
      8615.5    240.2806     25.5665
        8616    240.2806     27.8958
      8616.5    241.0822      25.359
        8617    241.0822     19.8657
      8617.5    241.0822     17.0741
        8618    241.1462     16.8337
      8618.5    241.8838     18.2954
        8619    241.8838     19.7382
      8619.5    241.8838     21.8838
        8620    241.8838     23.8639
      8620.5    241.8838     26.7496
        8621    242.6854     28.3768
      8621.5     243.487     27.7835
        8622     243.487     23.9733
      8622.5     243.487     19.9225
        8623    242.6854      20.016
      8623.5    242.6854     27.9705
        8624    242.6854     36.3873
      8624.5    241.8838     40.4008
        8625    241.8838     39.4016
      8625.5    241.8838     34.2957
        8626    241.8838     28.5428
      8626.5    241.0822     25.7129
        8627    241.0822     25.7315
      8627.5    241.8838     26.0091
        8628    241.8838     27.4519
      8628.5    241.8838     30.5596
        8629    241.0822      33.242
      8629.5    241.0822     35.0732
        8630    241.0822     33.4269
      8630.5    241.0822     33.9078
        8631    241.0822     34.3703
      8631.5    241.0822     33.3715
        8632    241.0822     35.7941
      8632.5    241.0822     45.2465
        8633    241.0822     52.9058
      8633.5    241.0822     51.3893
        8634    241.0822     47.5968
      8634.5    240.2806     45.4325
        8635    240.2806      45.987
      8635.5    241.0822     50.5561
        8636    241.0822     51.3712
      8636.5    241.0822     42.7894
        8637    241.0822     34.6293
      8637.5    241.0822     36.4591
        8638    241.0822     40.2152
      8638.5    241.0199     41.6215
        8639    240.2806     41.8437
      8639.5    240.2806     39.1436
        8640     239.479     34.3888
      8640.5     239.479     35.9046
        8641     239.479     45.2833
      8641.5     239.479     50.0018
        8642     239.479     47.0797
      8642.5     239.479      42.066
        8643     239.479     40.8091
      8643.5    240.2806     37.7011
        8644    240.3424     33.8897
      8644.5    241.0822     33.4269
        8645    241.0822     32.4468
      8645.5    241.0822      29.543
        8646    241.0822     26.4529
      8646.5    241.0822     29.4471
        8647    241.0822      35.441
      8647.5    240.2806     40.2686
        8648    240.2806     43.8577
      8648.5    240.2806     47.4829
        8649    240.2806     51.7214
      8649.5    240.2806     52.5753
        8650    240.2806     47.0443
      8650.5    240.3418     39.1265
        8651    241.0822     33.7033
      8651.5    241.0822     36.3844
        8652    241.0822     43.6526
      8652.5    240.2806     50.3143
        8653    240.2806     52.9058
      8653.5    240.2806     52.1486
        8654    241.0822     51.9618
      8654.5    241.8838     53.1463
        8655    242.6854     46.9914
      8655.5     243.487     38.3164
        8656    242.6854     34.6293
      8656.5    242.6854     36.8114
        8657    242.6854     37.0163
      8657.5    241.8838     36.0366
        8658    241.0822     34.6293
      8658.5    240.2806      34.371
        8659    241.0822     34.9052
      8659.5    241.0822     40.6945
        8660    241.0822     46.4483
      8660.5    241.0822     47.5798
        8661    240.2806     42.6817
      8661.5    240.2806     36.2596
        8662    240.2203     32.6877
      8662.5     239.479     34.9581
        8663     239.479     40.4714
      8663.5     239.479     42.2365
        8664     239.479     38.4417
      8664.5    240.2806     38.0312
        8665    240.2806     39.1984
      8665.5    240.2806      37.996
        8666    240.2806     37.2745
      8666.5    240.2806      37.515
        8667    240.2806      38.477
      8667.5    240.2806     37.9785
        8668    240.2806     35.2981
      8668.5    240.2806     34.7343
        8669    240.2209     40.3178
      8669.5     239.479     49.3685
        8670    238.6774     54.3312
      8670.5    238.6774     52.0796
        8671    238.7368     43.3875
      8671.5    240.2806     33.8207
        8672    240.2806     25.9023
      8672.5    240.2806     22.3647
        8673    240.2806     22.3647
      8673.5    240.2806     23.6019
        8674    240.2806     28.4809
      8674.5    240.3397      31.984
        8675    241.0822      28.771
      8675.5    240.2806     23.0515
        8676    240.2806     22.3647
      8676.5     239.479     23.3613
        8677     239.479     25.9719
      8677.5    240.2806     27.1743
        8678    240.2806     26.9339
      8678.5    241.8211     26.6934
        8679    240.2806     26.9166
      8679.5    240.2806     26.4357
        8680    240.2806     28.4284
      8680.5    240.2806     36.3986
        8681    241.0822     44.5577
      8681.5    241.0822     46.6533
        8682    241.0822     42.7027
      8682.5    241.0822     32.6197
        8683    241.8838     25.1477
      8683.5    241.8838     22.3647
        8684    241.8838     22.3818
      8684.5    241.8838     24.6145
        8685    241.0822      29.407
      8685.5    241.0822       32.98
        8686    241.0822     35.1273
      8686.5    241.0822     37.5321
        8687    241.0822     37.2575
      8687.5    241.8838     35.8146
        8688    241.8838     34.6123
      8688.5    241.8838     32.6374
        8689    241.8838     30.5071
      8689.5    241.8838     28.3598
        8690    241.0822     26.6934
      8690.5    241.0822     27.6722
        8691    240.2806     30.0601
      8691.5    241.0822     28.8577
        8692    241.0822     26.9339
      8692.5    241.0822     26.6934
        8693    241.8838     25.9213
      8693.5    241.8838     24.5291
        8694    241.8263     26.0562
      8694.5    241.8838     31.4477
        8695    241.9412     37.5823
      8695.5     243.487       41.43
        8696     243.487     45.4845
      8696.5     243.487     47.6152
        8697    244.2886     43.6837
      8697.5    244.2886     38.9579
        8698    244.2886     39.4724
      8698.5    244.2886     41.5363
        8699     243.487     37.4314
      8699.5    241.8838     35.6246
        8700    241.8838     41.4295
      8700.5    241.8838     45.9986
        8701    241.8838     45.8985
      8701.5    241.0822     41.5866
        8702    241.0822     40.6246
      8702.5    241.0822     39.9032
        8703    241.0822     37.7721
      8703.5    241.0822     39.7126
        8704    241.0822     43.8007
      8704.5    241.0822     45.2104
        8705    241.0822     42.1921
      8705.5    241.0822     37.7059
        8706    241.0822     34.8532
      8706.5    241.0822     31.9674
        8707    241.0822     28.8247
      8707.5    241.0822     30.1591
        8708    241.0822     40.0847
      8708.5    241.0822     51.5453
        8709    241.0822     57.2345
      8709.5    241.0822     55.0208
        8710    241.0822     48.9102
      8710.5    241.0822     41.7616
        8711    241.0822     37.4986
      8711.5    241.0822     37.7883
        8712    240.2806     37.9796
      8712.5    240.2806     32.8804
        8713    240.2806     25.6497
      8713.5    240.2806     23.3267
        8714    240.2806     26.2614
      8714.5    240.2806     29.0982
        8715    240.2806     27.6553
      8715.5    240.2806      30.109
        8716    240.2806     36.1535
      8716.5    241.0822     40.4496
        8717    241.0822     41.8599
      8717.5    241.8838     44.4727
        8718    241.8284     48.4503
      8718.5    241.0822     56.1131
        8719    241.0822     61.0984
      8719.5    240.2806     57.8426
