# Exported from Transform Software 5.2.0 on 21-Oct-2019 by user kathryn.gehrke
# DI Transform - A Product of Drillinginfo, Inc. - www.drillinginfo.com
#
~VERSION INFORMATION
 VERS.        2.0 : LAS ASCII STANDARD - VERSION 2.0
 WRAP.         NO : ONE LINE PER DEPTH STEP

~WELL INFORMATION
#MNEM.UNIT       DATA TYPE       INFORMATION
#---------       ---------       -----------
 STRT.ft                  30 : Start Depth
 STOP.ft                9000 : Stop Depth
 STEP.ft                 0.5 : Step Length
 NULL.               -999.25 : Null Value
 COMP.                       : Company
 WELL.  42109330470000_API14 : Well Name
 FLD.                        : Field Name
 LOC.                        : Well Location
 CNTY.                       : County
 STAT.                       : State or Province
 CTRY.                       : Country
 SRVC.                       : Service Company
 DATE.                       : Date
 API.         42109330470000 : Well Identifier

~CURVE INFORMATION
#MNEM.UNIT       API CODE       CURVE DESCRIPTION
#---------       --------       -----------------
 DEPT.ft        : <Measured Depth>
 DT.us/ft       : Sonic
 GR.gAPI        : Gamma Ray

~PARAMETER INFORMATION
#MNEM.UNIT       VALUE       DESCRIPTION
#---------       -----       -----------
 EKB.ft      3201 : Elevation above MSL

~A      DEPT          DT          GR
# ...
        1766    338.2715     20.5667
      1766.5    338.2715     19.1769
        1767    338.2715     23.0764
      1767.5    338.2715     30.8468
        1768    338.2715     31.4119
      1768.5    338.2715     27.9965
        1769    338.2715     23.2675
      1769.5    338.2715      23.493
        1770    338.2715     28.7473
      1770.5    338.2715     30.2102
        1771    338.2715     27.9202
      1771.5    338.2715     25.1043
        1772    338.2715     21.3523
      1772.5    338.2715     21.6565
        1773    338.2715     31.2722
      1773.5    338.2715     43.9285
        1774    338.2715     46.4974
      1774.5    338.2715     36.6892
        1775    338.2715     26.2975
      1775.5    338.2715     22.0076
        1776    338.2715     20.2999
      1776.5    338.2715     18.0074
        1777    338.2715     19.4868
      1777.5    338.2715     28.9924
        1778    338.2715     37.8769
      1778.5    338.2715       33.91
        1779    338.2715     28.4423
      1779.5    338.2715      28.634
        1780    338.2715     27.2695
      1780.5    338.2715     20.3074
        1781    338.2715     15.3768
      1781.5    338.2715     14.9737
        1782    338.2715     17.0055
      1782.5    338.2715     20.2895
        1783    338.2715      23.504
      1783.5    338.2715     24.7557
        1784    338.2715     25.9381
      1784.5    338.2715     29.2846
        1785    338.2715     33.2255
      1785.5    338.2715     36.1155
        1786    338.2715     35.4058
      1786.5    338.2715     24.5756
        1787    338.2715     14.1938
      1787.5    338.2715      12.936
        1788    338.2715      18.645
      1788.5    338.2715     23.9697
        1789    338.2715     22.9215
      1789.5    338.2715     23.8367
        1790    338.2715     31.4539
      1790.5    338.2715     36.7776
        1791    338.2715     36.7776
      1791.5    338.2715     40.9145
        1792    338.2715     48.1393
      1792.5    338.2715     47.6132
        1793    338.2715     39.9282
      1793.5    338.2715     36.2522
        1794    338.2715     35.9895
      1794.5    338.2715     35.1347
        1795    338.2715     29.4171
      1795.5    338.2715     24.0339
        1796    338.2715     22.8546
      1796.5    338.2715     24.2357
        1797    338.2715     26.1425
      1797.5    338.2715     30.0833
        1798    338.2715     32.8371
      1798.5    338.2715     27.5725
        1799    338.2715     16.1386
      1799.5    338.2715      9.3196
        1800    338.2715     11.8345
      1800.5    338.2715     17.5455
        1801    338.2715     22.2673
      1801.5    338.2715     23.1869
        1802    338.2715     25.0958
      1802.5    338.2715     29.8248
        1803    338.2715      32.049
      1803.5    338.2715     31.2609
        1804    338.2715     29.7455
      1804.5    338.2715     27.7751
        1805    338.2715     26.5324
      1805.5    338.2715     27.6544
        1806    338.2715     31.8693
      1806.5    338.2715     36.9209
        1807    338.2715      34.914
      1807.5    338.2715     28.4178
        1808    338.2715     27.9313
      1808.5    338.2715     34.5582
        1809    338.2715     34.7934
      1809.5    338.2715     27.5544
        1810    338.2715     20.1398
      1810.5    338.2715     19.6594
        1811    338.2715     29.2797
      1811.5    338.2715     34.3396
        1812    338.2715     25.7689
      1812.5    338.2715     21.5412
        1813    338.2715     23.2659
      1813.5    338.2715     26.0815
        1814    338.2715       28.84
      1814.5    338.2715     31.5986
        1815    338.2715     32.5744
      1815.5    338.2715     30.3222
        1816    338.2715     25.0679
      1816.5    338.2715     23.9812
        1817    338.2715     28.2051
      1817.5    338.2715     30.9221
        1818    338.2715     24.4431
      1818.5    338.2715     19.0238
        1819    338.2715      18.805
      1819.5    338.2715     22.0347
        1820    338.2715     25.4274
      1820.5    338.2715     24.6161
        1821    338.2715     22.9084
      1821.5    338.2715     23.1951
        1822    338.2715     26.6884
      1822.5    338.2715     28.8967
        1823    338.2715     28.8967
      1823.5    338.2715      29.238
        1824    338.2715     31.4186
      1824.5    338.2715     33.2835
        1825    338.2715     30.5771
      1825.5    338.2715     28.1086
        1826    338.2715      28.634
      1826.5    338.2715     27.7661
        1827    338.2715      26.007
      1827.5    338.2715     24.6133
        1828    338.2715     22.1683
      1828.5    338.2715     19.8843
        1829    338.2715     18.3888
      1829.5    338.2715     18.1261
        1830    338.2715     22.1289
      1830.5    338.2715     29.0596
        1831    338.2715     30.0468
      1831.5    338.2715     26.1878
        1832    338.2715     23.9547
      1832.5    338.2715     22.5096
        1833    338.2715     21.5412
      1833.5    338.2715     20.7531
        1834    338.2715      19.965
      1834.5    338.2715     20.2277
        1835    338.2715     23.4986
      1835.5    338.2715     29.9353
        1836    338.2424     31.4038
      1836.5    338.2715     24.0112
        1837    338.2715     16.6915
      1837.5    338.2715     15.3208
        1838    338.2715     18.9897
      1838.5    338.2715     24.6851
        1839    338.2715     28.1086
      1839.5    338.2715     29.7699
        1840    338.2715     30.5188
      1840.5    338.2715      26.013
        1841    338.2715     21.1525
      1841.5    338.2715     17.5147
        1842    338.2715     19.5216
      1842.5    338.2715     31.2539
        1843    338.2715     38.3538
      1843.5    338.2715     30.5665
        1844    338.2715      17.604
      1844.5    338.2715     15.0609
        1845    338.2715     19.0451
      1845.5    338.2715     20.7531
        1846    338.2715     20.7531
      1846.5    338.2715     23.0307
        1847    338.2715     27.4539
      1847.5    338.2715     31.6121
        1848    338.2715     32.5744
      1848.5    338.2715      32.049
        1849    338.2715     31.7863
      1849.5    338.2715     28.1035
        1850    338.2715     21.6668
      1850.5    338.0963     19.0872
        1851    338.0963     18.9142
      1851.5    338.0963     19.8824
        1852    338.2715     26.8525
      1852.5    338.2715      34.857
        1853    338.2715      37.525
      1853.5    338.2715     37.4748
        1854    338.2715      35.767
      1854.5    338.2715     31.1584
        1855    338.2715     20.9522
      1855.5    338.2715     13.6478
        1856    338.2715     11.0333
      1856.5    338.2715     11.1254
        1857    338.2715     15.3431
      1857.5    338.2715     23.5801
        1858    338.2715     30.6198
      1858.5    338.2715     26.9487
        1859    338.0963     20.0795
      1859.5    338.0963     18.6515
        1860    338.0963     23.2667
      1860.5    338.2715     29.9661
        1861    338.2715     29.7969
      1861.5    338.2715     22.8348
        1862    338.2715     23.0065
      1862.5    338.2715     29.9685
        1863    338.2715     31.0713
      1863.5    338.2715     26.7728
        1864    338.2715     22.3654
      1864.5    338.2715     21.8039
        1865    338.0963     21.8039
      1865.5    338.0963     22.4251
        1866    338.0963     25.1836
      1866.5    338.0963     27.0578
        1867    338.0963       26.83
      1867.5    338.0963     23.5189
        1868    338.0963     16.3907
      1868.5    338.0963     13.6602
        1869    338.0963     15.9223
      1869.5    338.0963     19.0117
        1870    338.0963     18.1935
      1870.5    338.0963     15.4012
        1871    338.0963      14.711
      1871.5    338.0963     15.5974
        1872    338.0963     15.7618
      1872.5    338.0963      15.039
        1873    338.0963     11.6236
      1873.5    338.0963     11.3951
        1874    338.0963     13.6282
