###############################################
##         ENVERUS                           ##
##         ESS - Open Hole                   ##
##         PERMIAN / DELAWARE                ##
##         Nov 02 2023  V4.0                 ##
##         42-109-31448-00-00                ##
###############################################
## Copyright 2017-2023  ENVERUS.  All Rights Reserved. 
## Confidential - Property of ENVERUS, use governed by terms and 
## conditions found within the existing Information Services Subscription Agreement 
## (as may be amended, the “ISSA”) between Customer and ENVERUS. 
## 
~VERSION INFORMATION
# MNEM.UNIT                               DATA : DESCRIPTION OF MNEMONIC
#-----.-----     ----------------------------- : -----------------------------
VERS.                                     2.00 : CWLS LOG ASCII STANDARD - VERSION 2.00
WRAP.                                       NO : MULTIPLE LINES PER DEPTH STEP
VEND.                                  ENVERUS : VENDOR
TYPE.                          ESS - OPEN HOLE : ENVERUS ESSENTIAL CURVES – ACCESSIBLE THROUGH ENVERUS PRISM(TM)
DOC.                                  31981796 : ENVERUS HEADER RAW DOCUMENT ID
#___________________________________________________________________________________________________ 
~WELL INFORMATION 
# ZFHslD71edIju97HcKZ52TF5U8X6gSJhIkoGhJkY8ckYnZzQD/y6zifgDis2Hn4asra90GxYkgpqCQaJUi2DCw== 
# MNEM.UNIT                                              DATA : DESCRIPTION OF MNEMONIC 
#-----.-----                    ----------------------------- : ----------------------------- 
CNTY.                                               CULBERSON : COUNTY 
STATE.                                                  TEXAS : STATE 
CNTRY.                                                    USA : COUNTRY 
API.                                             42-109-31448 : API (10 Digit) 
API_14.                                    42-109-31448-00-00 : API (14 Digits) 
API_14_std.                                 42-109-31448-0000 : API (14 Digits Standard) 
UWI.                                           42109314480000 : UNIQUE WELL ID 
WELL.                                               TRIKEN  1 : WELL NAME
STRT.FT                                                   4.0 : START DEPTH
STOP.FT                                               13097.0 : STOP DEPTH
STEP.FT                                                   0.5 : STEP BETWEEN DEPTHS
NULL.                                                 -999.25 : NULL VALUE
COMP.                                             MARALO  LLC : COMPANY 
DATE.                                             04-NOV-1984 : LOG DATE
#___________________________________________________________________________________________________ 
~CURVE INFORMATION 
# MNEM.UNIT           : CURVE DESCRIPTION 
#-----.-----          : ----------------------------- 
 DEPT.FT               : MEASURED DEPTH 
 CALI.IN               : CALIPER (CAL - CAL) 
 GR.API                : GAMMA RAY (GR) 
 DT.US/FT              : SONIC DELTA TRANSIT TIME (DT) 
 #___________________________________________________________________________________________________ 
~A         DEPT           CALI             GR             DT
# ...
        13006.0          9.632         18.325         48.539
        13006.5          9.636         19.491         48.544
        13007.0          9.649         21.921         48.549
        13007.5          9.662         24.351         48.553
        13008.0          9.674         26.781         48.562
        13008.5          9.687         29.211         48.571
        13009.0          9.699         28.001         48.581
        13009.5          9.712         25.784         48.590
        13010.0          9.724         23.568         48.600
        13010.5          9.737         21.351         48.609
        13011.0          9.749         20.480         48.618
        13011.5          9.762         22.066         48.628
        13012.0          9.774         23.652         48.637
        13012.5          9.782         25.238         48.647
        13013.0          9.747         26.824         48.656
        13013.5          9.712         28.410         48.666
        13014.0          9.677         26.714         48.675
        13014.5          9.642         23.968         48.701
        13015.0          9.607         22.366         48.761
        13015.5          9.572         24.822         48.822
        13016.0          9.537         27.278         48.882
        13016.5          9.501         29.734         48.943
        13017.0          9.466         32.190         49.004
        13017.5          9.431         34.646         49.064
        13018.0          9.396         36.941         49.125
        13018.5          9.430         33.274         49.185
        13019.0          9.466         29.607         49.246
        13019.5          9.503         25.940         49.219
        13020.0          9.539         22.273         49.124
        13020.5          9.576         18.606         49.029
        13021.0          9.613         19.127         48.935
        13021.5          9.649         19.964         48.840
        13022.0          9.686         20.801         48.746
        13022.5          9.722         21.639         48.651
        13023.0          9.737         22.476         48.638
        13023.5          9.701         23.313         48.686
        13024.0          9.666         24.150         48.735
        13024.5          9.631         24.987         48.783
        13025.0          9.595         25.824         48.831
        13025.5          9.560         26.662         48.880
        13026.0          9.525         26.675         48.928
        13026.5          9.489         24.969         48.977
        13027.0          9.479         23.263         49.025
        13027.5          9.487         22.211         49.074
        13028.0          9.495         24.401         49.122
        13028.5          9.503         26.591         49.012
        13029.0          9.511         28.782         48.890
        13029.5          9.519         30.972         49.042
        13030.0          9.528         33.211         49.193
        13030.5          9.536         35.460         49.345
        13031.0          9.544         37.709         49.496
        13031.5          9.552         38.738         49.648
        13032.0          9.560         39.310         49.799
        13032.5          9.568         39.881         49.951
        13033.0          9.576         40.452         50.102
        13033.5          9.585         41.023         50.114
        13034.0          9.593         38.996         49.948
        13034.5          9.601         36.004         49.781
        13035.0          9.609         33.011         49.615
        13035.5          9.617         30.019         49.449
        13036.0          9.625         27.026         49.283
        13036.5          9.634         24.069         49.117
        13037.0          9.642         23.666         48.951
        13037.5          9.650         23.262         48.784
        13038.0          9.658         22.859         48.618
        13038.5          9.666         21.830         48.452
        13039.0          9.663         20.712         48.422
        13039.5          9.644         19.595         48.451
        13040.0          9.625         18.477         48.480
        13040.5          9.606         17.360         48.509
        13041.0          9.586         17.563         48.537
        13041.5          9.567         22.742         48.566
        13042.0          9.548         27.057         48.595
        13042.5          9.529         29.927         48.623
        13043.0          9.510         32.797         48.652
        13043.5          9.490         33.320         48.681
        13044.0          9.481         27.895         48.710
        13044.5          9.504         22.470         48.720
        13045.0          9.526         20.139         48.695
        13045.5          9.548         19.049         48.670
        13046.0          9.570         17.959         48.646
        13046.5          9.592         16.869         48.621
        13047.0          9.614         15.779         48.596
        13047.5          9.637         14.689         48.588
        13048.0          9.659         13.599         48.581
        13048.5          9.681         13.295         48.574
        13049.0          9.703         17.069         48.567
        13049.5          9.705         19.131         48.560
        13050.0          9.695         17.458         48.553
        13050.5          9.685         15.786         48.546
        13051.0          9.675         14.113         48.538
        13051.5          9.665         14.168         48.531
        13052.0          9.655         15.770         48.521
        13052.5          9.645         17.372         48.502
        13053.0          9.635         18.974         48.482
        13053.5          9.646         19.881         48.463
        13054.0          9.661         17.505         48.443
        13054.5          9.676         15.129         48.423
        13055.0          9.690         14.794         48.404
        13055.5          9.705         15.599         48.384
        13056.0          9.719         16.404         48.365
        13056.5          9.732         17.208         48.345
        13057.0          9.733         18.013         48.325
        13057.5          9.734         18.817         48.383
        13058.0          9.735         19.622         48.444
        13058.5          9.737         20.200         48.504
        13059.0          9.738         19.529         48.565
        13059.5          9.739         18.857         48.626
        13060.0          9.740         18.185         48.686
        13060.5          9.741         17.514         48.747
        13061.0          9.742         16.842         48.807
        13061.5          9.744         17.299         48.908
        13062.0          9.745         18.892         49.099
        13062.5          9.746         20.485         49.291
        13063.0          9.747         22.078         49.483
        13063.5          9.748         23.671         49.675
        13064.0          9.749         25.063         49.866
        13064.5          9.751         26.271         50.058
        13065.0          9.752         27.480         50.324
        13065.5          9.753         28.689         50.612
        13066.0          9.754         29.898         50.900
        13066.5          9.755         29.034         51.188
        13067.0          9.756         26.411         51.475
        13067.5          9.758         23.787         51.763
        13068.0          9.759         21.163         52.051
        13068.5          9.760         18.539         52.044
        13069.0          9.761         18.389         51.894
        13069.5          9.762         21.022         51.743
        13070.0          9.763         23.656         51.593
        13070.5          9.765         26.289         51.442
        13071.0          9.766         28.145         51.885
        13071.5          9.767         25.152         52.285
