~Version Information
 VERS.                  2.0:   CWLS log ASCII Standard -VERSION 2.0
 WRAP.                   NO:   One line per depth step
~Well Information Block
#MNEM.UNIT     VALUE/NAME     DESCRIPTION
#---------     -----------    ---------------------------
 STRT.F              8400.0000: START DEPTH
 STOP.F             14661.0000: STOP DEPTH
 STEP.F                 0.5000: STEP DEPTH
 NULL.                 -999.25: NULL VALUE
 LOC .            42-109-33545:  LOCATION
 FL1 .            42-109-33545:  LOCATIONLINE1
 DMF .             Drill Floor:  DRILL MEAS FROM
 PDAT.                      GL:  PERMANENT DATUM
 CNTY.               CULBERSON:  COUNTY NAME
 FLD .              WOLFCAMP B:  FIELD NAME
 WELL.           DALE STATE 3H:  WELL NAME
 COMP.     CAPITAN ENERGY INC.:  COMPANY
 DATE.             12-Feb-2020:  DATE
 SVCO.             Halliburton:  SERVICECONAME
 PROV.                      TX:  PROVINCE
 STAT.                      TX:  STATE NAME
 HIDE.                        :  WELLNAMEOPERAT
 BASI.                 PERMIAN:  BASIN
 UWI .            42-109-33545:  UNIQUE WELL IDENTIFIER
 API .            42-109-33545:  API NUMBER
 RANG.                     N/A:  RANGE
 TOWN.                     N/A:  TOWNSHIP
 SECT.                     N/A:  SECTION
 SON .               906290460:  JOB NUMBER
 CTRY.                        :  COUNTRY
 SRVC.             Halliburton:  SERVICE COMPANY
 LMF .             Drill Floor:  LOG MEASURED FROM
 TVDS.ft             3291.0000:  TVDSS CORRECTN
 EGL .ft             3266.0000:  GROUND ELEVATION
 APD .ft               25.0000:  DEPTH ABOVE PD
 EPD .ft             3266.0000:  ELEVATION
 BAP .ft                0.0000:  GL ELEV ONSHORE
 GVFD.g                 1.0000:  GRAVITY FIELD
 EKB .ft             3291.0000:  KB ELEVATION
 EDF .ft             3291.0000:  DF ELEVATION
~Curve Information Block
#MNEM.UNIT                 API CODE     Curve Description
#---------               -----------    ---------------------------
 DEPT.F                 00 000 000 000:  Depth
 CCL .V                 00 000 000 000:  Casing Collar Locator
 NPHI_OH.pu             00 000 000 000:  NPHI_OH
 NPHI_CHI.decp          00 000 000 000:  NPHI_CHI
 GR_OH.api              00 000 000 000:  GR_OH
 GR_CHI.api             00 000 000 000:  GR_CHI
 RHOB_OH.g/cc           00 000 000 000:  RHOB_OH
 RHOB_CHI.g/cc          00 000 000 000:  RHOB_CHI
 PE_OH.NONE             00 000 000 000:  PE_OH
 PE_CHI.NONE            00 000 000 000:  PE_CHI
 LLS_CHI.ohmm           00 000 000 000:  LLS_CHI
 LLS_OH.ohmm            00 000 000 000:  LLS_OH
 LLD_OH.ohmm            00 000 000 000:  LLD_OH
 LLD_CHI.ohmm           00 000 000 000:  LLD_CHI
 DTC_OH.uspf            00 000 000 000:  DTC_OH
 DTC_CHI.uspf           00 000 000 000:  DTC_CHI
 SPHW_CHI.decp          00 000 000 000:  SPHW_CHI
#Other Information
#
#WARRANTY: Halliburton will use its best efforts to furnish customers with 
#accurate information and interpretations that are part of, and incident to, the services 
#provided.  However, Halliburton cannot and does not warrant the accuracy 
#or correctness of such information and interpretations.  Under no circumstances should any 
#such information or interpretation be relied upon as the sole basis for any drilling, 
#completion, production, or financial decision or any procedure involving any risk to the 
#safety of any drilling venture, drilling rig or its crew or any other third party.  The 
#Customer has full responsibility for all drilling, completion and production operation.  
#Halliburton makes no representations or warranties, either expressed or 
#implied, including, but not limited to, the implied warranties of merchantability or fitness 
#for a particular purpose, with respect to the services rendered.  In no event will 
#Halliburton be liable for failure to obtain any particular results or for 
#any damages, including, but not limited to, indirect, special or consequential damages, 
#resulting from the use of any information or interpretation provided by Halliburton.
#
~A    DEPT      CCL   NPHI_OH NPHI_CHI  GR_OH    GR_CHI  RHOB_OH RHOB_CHI  PE_OH  PE_CHI  LLS_CHI   LLS_OH    LLD_OH    LLD_CHI  DTC_OH  DTC_CHI SPHW_CHI 
# ...
   12136.5000  0.0126 -999.25   0.0943  -999.25  53.1137 -999.25   2.5895 -999.25 3.9561  144.3033   -999.25   -999.25  179.0085 -999.25 67.1682 0.1384
   12137.0000  0.0000 -999.25   0.0964  -999.25  54.2782 -999.25   2.5855 -999.25 3.9463  147.7071   -999.25   -999.25  181.8599 -999.25 67.1913 0.1386
   12137.5000  0.0000 -999.25   0.0974  -999.25  48.8549 -999.25   2.5830 -999.25 3.9560  150.6052   -999.25   -999.25  185.5938 -999.25 66.5150 0.1338
   12138.0000  0.0000 -999.25   0.0967  -999.25  49.8478 -999.25   2.5846 -999.25 3.9577  151.0342   -999.25   -999.25  186.5279 -999.25 66.6650 0.1348
   12138.5000  0.0000 -999.25   0.0979  -999.25  44.3119 -999.25   2.5818 -999.25 3.9703  158.0156   -999.25   -999.25  195.4145 -999.25 65.9445 0.1297
   12139.0000  0.0000 -999.25   0.0989  -999.25  55.8466 -999.25   2.5808 -999.25 3.9546  164.7451   -999.25   -999.25  201.5302 -999.25 67.1315 0.1381
   12139.5000  0.0000 -999.25   0.0984  -999.25  55.2050 -999.25   2.5808 -999.25 3.9834  170.2908   -999.25   -999.25  208.4850 -999.25 67.0931 0.1379
   12140.0000  0.0100 -999.25   0.0949  -999.25  43.0711 -999.25   2.5855 -999.25 4.0585  172.8563   -999.25   -999.25  215.9888 -999.25 66.0596 0.1305
   12140.5000 -0.0722 -999.25   0.0924  -999.25  45.8860 -999.25   2.5892 -999.25 4.0995  172.8041   -999.25   -999.25  216.3496 -999.25 66.6050 0.1344
   12141.0000  0.0000 -999.25   0.0903  -999.25  49.2193 -999.25   2.5930 -999.25 4.1167  171.7690   -999.25   -999.25  215.5708 -999.25 67.1577 0.1383
   12141.5000  0.0000 -999.25   0.0891  -999.25  58.8446 -999.25   2.5963 -999.25 4.1025  169.6833   -999.25   -999.25  212.0322 -999.25 68.3174 0.1465
   12142.0000 -0.0202 -999.25   0.0892  -999.25  62.3986 -999.25   2.5968 -999.25 4.0912  171.3920   -999.25   -999.25  213.7261 -999.25 68.6399 0.1488
   12142.5000  0.0938 -999.25   0.0892  -999.25  58.5935 -999.25   2.5964 -999.25 4.1087  177.6041   -999.25   -999.25  222.2578 -999.25 68.1998 0.1457
   12143.0000  0.0000 -999.25   0.0900  -999.25  60.6174 -999.25   2.5941 -999.25 4.1235  187.0063   -999.25   -999.25  232.4548 -999.25 68.3718 0.1469
   12143.5000  0.0000 -999.25   0.0896  -999.25  45.1516 -999.25   2.5927 -999.25 4.1867  200.0080   -999.25   -999.25  252.0956 -999.25 66.6423 0.1347
   12144.0000  0.0000 -999.25   0.0905  -999.25  53.7070 -999.25   2.5909 -999.25 4.1867  207.2341   -999.25   -999.25  257.8148 -999.25 67.5836 0.1413
   12144.5000 -0.0212 -999.25   0.0898  -999.25  48.5630 -999.25   2.5918 -999.25 4.2073  210.2001   -999.25   -999.25  263.5294 -999.25 67.0421 0.1375
   12145.0000  0.0000 -999.25   0.0895  -999.25  46.7435 -999.25   2.5923 -999.25 4.2176  211.7176   -999.25   -999.25  266.4241 -999.25 66.8716 0.1363
   12145.5000  0.0000 -999.25   0.0881  -999.25  46.7126 -999.25   2.5950 -999.25 4.2219  207.3089   -999.25   -999.25  262.2980 -999.25 66.9932 0.1372
   12146.0000 -0.0165 -999.25   0.0882  -999.25  48.2078 -999.25   2.5949 -999.25 4.2243  204.6105   -999.25   -999.25  258.5110 -999.25 67.2249 0.1388
   12146.5000 -0.0303 -999.25   0.0904  -999.25  50.4667 -999.25   2.5901 -999.25 4.2238  207.8074   -999.25   -999.25  259.8864 -999.25 67.3162 0.1394
   12147.0000 -0.0203 -999.25   0.0916  -999.25  45.9479 -999.25   2.5870 -999.25 4.2446  211.7448   -999.25   -999.25  265.0305 -999.25 66.6946 0.1350
   12147.5000  0.0000 -999.25   0.0947  -999.25  46.4129 -999.25   2.5802 -999.25 4.2535  220.8506   -999.25   -999.25  273.2179 -999.25 66.3776 0.1328
   12148.0000  0.0815 -999.25   0.0969  -999.25  63.3745 -999.25   2.5765 -999.25 4.2229  224.0648   -999.25   -999.25  270.1543 -999.25 67.8188 0.1430
   12148.5000  0.0793 -999.25   0.0956  -999.25  53.3705 -999.25   2.5783 -999.25 4.2563  228.7567   -999.25   -999.25  279.5796 -999.25 67.0052 0.1372
   12149.0000  0.0000 -999.25   0.0938  -999.25  43.7914 -999.25   2.5812 -999.25 4.2866  231.4234   -999.25   -999.25  287.2121 -999.25 66.1991 0.1315
   12149.5000 -0.0188 -999.25   0.0920  -999.25  47.7562 -999.25   2.5848 -999.25 4.2834  226.9508   -999.25   -999.25  281.7362 -999.25 66.8333 0.1360
   12150.0000  0.0259 -999.25   0.0911  -999.25  44.9104 -999.25   2.5864 -999.25 4.2875  224.1776   -999.25   -999.25  279.5890 -999.25 66.6085 0.1344
   12150.5000 -0.0311 -999.25   0.0906  -999.25  56.0968 -999.25   2.5882 -999.25 4.2524  214.5014   -999.25   -999.25  264.4136 -999.25 67.9683 0.1440
   12151.0000  0.0000 -999.25   0.0898  -999.25  58.4996 -999.25   2.5906 -999.25 4.2284  206.9830   -999.25   -999.25  255.1882 -999.25 68.3368 0.1467
   12151.5000  0.0370 -999.25   0.0886  -999.25  53.3954 -999.25   2.5933 -999.25 4.2161  202.8418   -999.25   -999.25  252.6063 -999.25 67.7587 0.1426
   12152.0000 -0.0345 -999.25   0.0878  -999.25  52.2358 -999.25   2.5958 -999.25 4.1991  200.2451   -999.25   -999.25  250.8507 -999.25 67.5631 0.1412
   12152.5000  0.0317 -999.25   0.0880  -999.25  48.0034 -999.25   2.5956 -999.25 4.1965  203.1652   -999.25   -999.25  255.7356 -999.25 66.9462 0.1368
   12153.0000  0.0000 -999.25   0.0893  -999.25  55.1462 -999.25   2.5936 -999.25 4.1773  204.1591   -999.25   -999.25  254.1312 -999.25 67.7405 0.1424
   12153.5000  0.0137 -999.25   0.0888  -999.25  46.4298 -999.25   2.5937 -999.25 4.2015  206.1128   -999.25   -999.25  259.0009 -999.25 66.7349 0.1353
   12154.0000  0.0357 -999.25   0.0900  -999.25  57.4217 -999.25   2.5921 -999.25 4.1714  200.8041   -999.25   -999.25  248.5223 -999.25 68.0280 0.1445
   12154.5000  0.0000 -999.25   0.0886  -999.25  50.7595 -999.25   2.5947 -999.25 4.1784  194.3726   -999.25   -999.25  243.3148 -999.25 67.3106 0.1394
   12155.0000  0.0000 -999.25   0.0873  -999.25  51.5036 -999.25   2.5974 -999.25 4.1693  187.3907   -999.25   -999.25  235.2346 -999.25 67.4125 0.1401
   12155.5000 -0.0155 -999.25   0.0869  -999.25  56.0172 -999.25   2.5987 -999.25 4.1580  184.4836   -999.25   -999.25  230.5109 -999.25 67.8971 0.1435
   12156.0000 -0.1344 -999.25   0.0847  -999.25  51.2203 -999.25   2.6022 -999.25 4.1817  184.2950   -999.25   -999.25  232.4426 -999.25 67.2476 0.1390
   12156.5000 -0.0267 -999.25   0.0836  -999.25  51.0992 -999.25   2.6042 -999.25 4.1930  186.5580   -999.25   -999.25  235.9000 -999.25 67.1297 0.1381
   12157.0000 -0.0117 -999.25   0.0831  -999.25  54.8911 -999.25   2.6066 -999.25 4.1767  186.8929   -999.25   -999.25  237.0529 -999.25 67.3742 0.1398
   12157.5000  0.0000 -999.25   0.0842  -999.25  59.1385 -999.25   2.6062 -999.25 4.1487  188.2489   -999.25   -999.25  238.5580 -999.25 67.7459 0.1425
   12158.0000 -0.0728 -999.25   0.0839  -999.25  47.8557 -999.25   2.6070 -999.25 4.1542  191.6103   -999.25   -999.25  247.1507 -999.25 66.3202 0.1324
   12158.5000 -0.0242 -999.25   0.0840  -999.25  41.7273 -999.25   2.6062 -999.25 4.1729  195.3362   -999.25   -999.25  254.0368 -999.25 65.8786 0.1293
   12159.0000  0.0126 -999.25   0.0850  -999.25  54.2777 -999.25   2.6043 -999.25 4.1674  195.0981   -999.25   -999.25  249.4535 -999.25 67.6716 0.1419
   12159.5000  0.0983 -999.25   0.0841  -999.25  53.5446 -999.25   2.6047 -999.25 4.2077  194.6645   -999.25   -999.25  249.1572 -999.25 67.9926 0.1442
   12160.0000 -0.0119 -999.25   0.0834  -999.25  56.3668 -999.25   2.6050 -999.25 4.2310  191.7534   -999.25   -999.25  244.5641 -999.25 68.5762 0.1483
   12160.5000  0.0139 -999.25   0.0823  -999.25  49.1136 -999.25   2.6060 -999.25 4.2613  187.7350   -999.25   -999.25  241.6245 -999.25 67.9214 0.1437
   12161.0000  0.0576 -999.25   0.0826  -999.25  39.2902 -999.25   2.6047 -999.25 4.2767  183.9502   -999.25   -999.25  238.9300 -999.25 66.8068 0.1358
   12161.5000  0.5817 -999.25   0.0853  -999.25  42.9072 -999.25   2.6000 -999.25 4.2407  179.3926   -999.25   -999.25  230.1427 -999.25 67.0448 0.1375
   12162.0000  0.0000 -999.25   0.0887  -999.25  52.6727 -999.25   2.5943 -999.25 4.1942  177.3268   -999.25   -999.25  223.0642 -999.25 67.8194 0.1430
   12162.5000 -0.0100 -999.25   0.0912  -999.25  49.4791 -999.25   2.5890 -999.25 4.2007  181.7008   -999.25   -999.25  227.6339 -999.25 67.1585 0.1383
