###############################################
##         ENVERUS                           ##
##         ESS - Open Hole                   ##
##         PERMIAN / DELAWARE                ##
##         Nov 02 2023  V4.0                 ##
##         42-109-00406-00-00                ##
###############################################
## Copyright 2017-2023  ENVERUS.  All Rights Reserved. 
## Confidential - Property of ENVERUS, use governed by terms and 
## conditions found within the existing Information Services Subscription Agreement 
## (as may be amended, the “ISSA”) between Customer and ENVERUS. 
## 
~VERSION INFORMATION
# MNEM.UNIT                               DATA : DESCRIPTION OF MNEMONIC
#-----.-----     ----------------------------- : -----------------------------
VERS.                                     2.00 : CWLS LOG ASCII STANDARD - VERSION 2.00
WRAP.                                       NO : MULTIPLE LINES PER DEPTH STEP
VEND.                                  ENVERUS : VENDOR
TYPE.                          ESS - OPEN HOLE : ENVERUS ESSENTIAL CURVES – ACCESSIBLE THROUGH ENVERUS PRISM(TM)
DOC.                                  31976272 : ENVERUS HEADER RAW DOCUMENT ID
#___________________________________________________________________________________________________ 
~WELL INFORMATION 
# f03iSNYnaQ7mQXX2RIaOYtiytuBBABKYYIB1smJtyZkBcGMChrfvYQpeE0DESEj4BN+caz3q2IoGlEPFhwFUwg== 
# MNEM.UNIT                                              DATA : DESCRIPTION OF MNEMONIC 
#-----.-----                    ----------------------------- : ----------------------------- 
CNTY.                                               CULBERSON : COUNTY 
STATE.                                                  TEXAS : STATE 
CNTRY.                                                    USA : COUNTRY 
API.                                             42-109-00406 : API (10 Digit) 
API_14.                                    42-109-00406-00-00 : API (14 Digits) 
API_14_std.                                 42-109-00406-0000 : API (14 Digits Standard) 
UWI.                                           42109004060000 : UNIQUE WELL ID 
WELL.                                                  DRD_55 : WELL NAME
STRT.FT                                                 100.5 : START DEPTH
STOP.FT                                               12629.5 : STOP DEPTH
STEP.FT                                                   0.5 : STEP BETWEEN DEPTHS
NULL.                                                 -999.25 : NULL VALUE
#___________________________________________________________________________________________________ 
~PARAMETER INFORMATION 
# MNEM.UNIT                                              DATA : DESCRIPTION OF MNEMONIC 
#-----.-----                    ----------------------------- : -----------------------------
#___________________________________________________________________________________________________ 
~CURVE INFORMATION 
# MNEM.UNIT           : CURVE DESCRIPTION 
#-----.-----          : ----------------------------- 
 DEPT.FT               : MEASURED DEPTH 
 GR__A.API             : GAMMA RAY (GAMMA RAY) 
 DT__A.US/FT           : SONIC DELTA TRANSIT TIME (SONIC) 
 #___________________________________________________________________________________________________ 
~A         DEPT          GR__A          DT__A
# ...
         8365.5         42.457         66.673
         8366.0         43.629         68.130
         8366.5         48.828         67.823
         8367.0         54.007         66.670
         8367.5         53.942         64.936
         8368.0         52.312         63.825
         8368.5         44.942         62.180
         8369.0         41.558         60.707
         8369.5         39.727         60.480
         8370.0         38.586         60.787
         8370.5         39.025         61.295
         8371.0         40.339         62.120
         8371.5         42.438         63.033
         8372.0         44.309         64.379
         8372.5         47.186         64.790
         8373.0         49.334         64.682
         8373.5         51.373         64.790
         8374.0         54.035         64.669
         8374.5         55.996         64.225
         8375.0         57.105         63.458
         8375.5         56.093         63.265
         8376.0         54.803         63.147
         8376.5         53.929         63.147
         8377.0         53.677         68.261
         8377.5         54.167         69.679
         8378.0         54.305         70.052
         8378.5         54.167         70.542
         8379.0         54.167         70.659
         8379.5         54.207         69.924
         8380.0         54.464         69.701
         8380.5         53.313         70.283
         8381.0         52.976         71.079
         8381.5         53.934         72.062
         8382.0         56.719         72.565
         8382.5         60.295         72.554
         8383.0         62.516         70.999
         8383.5         61.409         69.157
         8384.0         59.168         68.197
         8384.5         55.765         66.668
         8385.0         52.899         66.018
         8385.5         48.947         67.766
         8386.0         45.644         70.256
         8386.5         43.488         76.623
         8387.0         42.857         83.675
         8387.5         43.784         83.801
         8388.0         46.245         78.933
         8388.5         49.236         76.166
         8389.0         50.595         71.705
         8389.5         50.034         66.077
         8390.0         48.651         64.019
         8390.5         47.251         55.977
         8391.0         45.867         58.846
         8391.5         45.977         61.218
         8392.0         47.035         62.160
         8392.5         46.968         62.466
         8393.0         45.789         62.988
         8393.5         44.923         63.558
         8394.0         43.970         63.442
         8394.5         43.209         63.571
         8395.0         42.857         63.526
         8395.5         43.570         62.835
         8396.0         45.009         62.250
         8396.5         44.177         61.345
         8397.0         43.185         62.359
         8397.5         41.621         62.893
         8398.0         41.158         63.079
         8398.5         43.265         63.617
         8399.0         46.919         64.956
         8399.5         49.035         64.865
         8400.0         45.901         64.559
         8400.5         44.204         63.654
         8401.0         43.637         63.713
         8401.5         45.449         63.785
         8402.0         46.798         64.161
         8402.5         47.832         64.431
         8403.0         47.836         64.584
         8403.5         47.075         64.691
         8404.0         45.959         64.344
         8404.5         44.381         63.248
         8405.0         43.602         63.473
         8405.5         42.857         64.438
         8406.0         43.038         64.744
         8406.5         43.799         64.810
         8407.0         45.180         65.306
         8407.5         47.776         67.272
         8408.0         50.521         68.244
         8408.5         50.711         68.264
         8409.0         50.893         68.497
         8409.5         51.340         68.323
         8410.0         52.644         67.954
         8410.5         51.603         67.518
         8411.0         50.842         66.845
         8411.5         49.973         66.173
         8412.0         48.153         65.954
         8412.5         46.774         65.768
         8413.0         46.131         65.629
         8413.5         45.550         65.395
         8414.0         45.238         65.028
         8414.5         45.238         65.760
         8415.0         45.720         66.182
         8415.5         46.481         66.488
         8416.0         47.242         66.674
         8416.5         46.938         67.135
         8417.0         46.429         67.526
         8417.5         46.845         67.784
         8418.0         47.891         67.665
         8418.5         49.862         67.665
         8419.0         55.648         67.784
         8419.5         62.647         67.784
         8420.0         69.885         67.529
         8420.5         71.758         66.826
         8421.0         73.476         67.256
         8421.5         74.747         67.545
         8422.0         71.658         67.487
         8422.5         66.003         67.545
         8423.0         62.623         67.966
         8423.5         56.863         68.015
         8424.0         53.847         67.634
         8424.5         53.274         70.231
         8425.0         53.495         71.091
         8425.5         54.300         71.240
         8426.0         55.590         71.734
         8426.5         56.941         73.251
         8427.0         58.462         73.537
         8427.5         59.382         73.497
         8428.0         59.500         74.589
         8428.5         58.740         75.981
         8429.0         58.333         78.652
         8429.5         58.333         80.389
         8430.0         59.407         79.004
         8430.5         60.375         77.415
         8431.0         60.838         73.619
         8431.5         60.425         69.863
         8432.0         57.337         68.229
         8432.5         53.719         65.847
         8433.0         49.536         63.485
         8433.5         46.134         63.891
         8434.0         44.493         64.656
         8434.5         45.971         66.035
         8435.0         47.390         67.420
         8435.5         49.694         68.953
         8436.0         51.914         71.135
         8436.5         53.512         71.138
         8437.0         54.964         71.388
         8437.5         56.730         71.891
         8438.0         58.126         71.353
         8438.5         59.416         70.808
         8439.0         57.998         69.135
         8439.5         56.088         67.771
         8440.0         51.279         66.691
         8440.5         47.797         66.110
         8441.0         45.124         65.859
         8441.5         43.424         65.258
         8442.0         43.155         65.228
         8442.5         43.155         65.389
         8443.0         43.679         65.252
         8443.5         43.655         64.673
         8444.0         43.192         64.446
         8444.5         42.431         63.797
         8445.0         41.375         63.296
         8445.5         40.612         62.809
         8446.0         41.279         62.371
         8446.5         43.047         63.766
         8447.0         45.513         64.781
         8447.5         47.297         65.288
         8448.0         48.805         66.996
         8448.5         50.357         68.175
         8449.0         51.942         68.555
         8449.5         54.161         68.743
         8450.0         56.048         68.623
         8450.5         57.025         68.730
         8451.0         56.649         68.424
         8451.5         55.888         68.238
         8452.0         54.748         68.024
