###############################################
##         ENVERUS                           ##
##         ESS - Open Hole                   ##
##         PERMIAN / DELAWARE                ##
##         Nov 02 2023  V4.0                 ##
##         42-109-32255-00-00                ##
###############################################
## Copyright 2017-2023  ENVERUS.  All Rights Reserved. 
## Confidential - Property of ENVERUS, use governed by terms and 
## conditions found within the existing Information Services Subscription Agreement 
## (as may be amended, the “ISSA”) between Customer and ENVERUS. 
## 
~VERSION INFORMATION
# MNEM.UNIT                               DATA : DESCRIPTION OF MNEMONIC
#-----.-----     ----------------------------- : -----------------------------
VERS.                                     2.00 : CWLS LOG ASCII STANDARD - VERSION 2.00
WRAP.                                       NO : MULTIPLE LINES PER DEPTH STEP
VEND.                                  ENVERUS : VENDOR
TYPE.                          ESS - OPEN HOLE : ENVERUS ESSENTIAL CURVES – ACCESSIBLE THROUGH ENVERUS PRISM(TM)
DOC.                                  31869427 : ENVERUS HEADER RAW DOCUMENT ID
#___________________________________________________________________________________________________ 
~WELL INFORMATION 
# Kns/CyAZPDgS4fEM5w0azv9tYcXlBSx1nHSqICrpKgQv6F2hlFUFpw+R1SAxYfM92i4ks6BDNpB+WhJDZXFO5Q== 
# MNEM.UNIT                                              DATA : DESCRIPTION OF MNEMONIC 
#-----.-----                    ----------------------------- : ----------------------------- 
CNTY.                                               CULBERSON : COUNTY 
STATE.                                                  TEXAS : STATE 
CNTRY.                                                    USA : COUNTRY 
API.                                             42-109-32255 : API (10 Digit) 
API_14.                                    42-109-32255-00-00 : API (14 Digits) 
API_14_std.                                 42-109-32255-0000 : API (14 Digits Standard) 
UWI.                                           42109322550000 : UNIQUE WELL ID 
WELL.                             MELISSA TAYLOR STATE 27  1H : WELL NAME
STRT.FT                                                  94.0 : START DEPTH
STOP.FT                                               13828.0 : STOP DEPTH
STEP.FT                                                   0.5 : STEP BETWEEN DEPTHS
NULL.                                                 -999.25 : NULL VALUE
COMP.                              CHESAPEAKE OPERATING  INC. : COMPANY 
DATE.                                             29-NOV-2005 : LOG DATE
#___________________________________________________________________________________________________ 
~CURVE INFORMATION 
# MNEM.UNIT           : CURVE DESCRIPTION 
#-----.-----          : ----------------------------- 
 DEPT.FT               : MEASURED DEPTH 
 CALI__B.IN            : CALIPER (CAL - CAL) 
 GR__B.API             : GAMMA RAY (GR) 
 DT__B.US/FT           : SONIC DELTA TRANSIT TIME (DT) 
 DPHI__B.V/V           : DENSITY POROSITY (DPHI) 
 NPHI__B.V/V           : NEUTRON POROSITY (NPHI) 
 RHOB__B.G/CC          : BULK DENSITY (RHOB) 
 #___________________________________________________________________________________________________ 
~A         DEPT        CALI__B          GR__B          DT__B        DPHI__B        NPHI__B        RHOB__B
# ...
        11722.0          8.986         82.917         68.213        0.04582        0.12460         2.6340
        11722.5          8.986         82.020         68.229        0.03854        0.13111         2.6460
        11723.0          8.986         83.544         68.999        0.03036        0.14178         2.6590
        11723.5          8.986         85.959         69.698        0.02301        0.15122         2.6720
        11724.0          8.986         88.401         70.115        0.02080        0.15172         2.6710
        11724.5          8.986         90.843         70.510        0.02519        0.14792         2.6620
        11725.0          8.986         90.088         70.825        0.03289        0.14377         2.6540
        11725.5          8.986         88.702         71.129        0.04037        0.14582         2.6450
        11726.0          8.978         92.333         71.154        0.04750        0.14808         2.6370
        11726.5          8.968         95.891         70.873        0.05269        0.14861         2.6280
        11727.0          8.958         93.682         70.676        0.05544        0.14448         2.6270
        11727.5          8.948         91.448         70.596        0.05223        0.13653         2.6330
        11728.0          8.938         84.790         70.223        0.04569        0.12916         2.6370
        11728.5          8.929         78.131         69.851        0.04596        0.12623         2.6320
        11729.0          8.919         79.713         69.814        0.04566        0.12367         2.6270
        11729.5          8.909         82.356         69.990        0.05284        0.12407         2.6210
        11730.0          8.899         93.265         70.619        0.05552        0.12750         2.6240
        11730.5          8.889         99.989         71.837        0.05028        0.12903         2.6260
        11731.0          8.885         98.979         73.054        0.04801        0.12629         2.6280
        11731.5          8.909         97.969         74.272        0.04734        0.12301         2.6290
        11732.0          8.934        102.170         75.204        0.05016        0.12949         2.6270
        11732.5          8.958        108.678         77.446        0.05273        0.14135         2.6250
        11733.0          8.982        119.235         78.687        0.05855        0.15410         2.6070
        11733.5          9.006        131.759         78.713        0.07395        0.17230         2.5870
        11734.0          9.030        143.609         77.365        0.09608        0.19065         2.5680
        11734.5          9.055        141.498         75.093        0.10126        0.19509         2.5490
        11735.0          9.072        130.911         72.733        0.09201        0.18985         2.6140
        11735.5          9.067        118.395         69.858        0.07469        0.17063         2.6470
        11736.0          9.062        105.880         66.996        0.04997        0.15141         2.6740
        11736.5          9.057         94.059         66.491        0.02047        0.14186         2.7020
        11737.0          9.079         83.438         68.250       -0.00175        0.13665         2.7290
        11737.5          9.129         81.625         70.229       -0.01216        0.13144         2.7250
        11738.0          9.214         88.614         70.859       -0.00755        0.14463         2.7120
        11738.5          9.299        100.642         70.978        0.00669        0.15832         2.7000
        11739.0          9.335        108.307         70.996        0.02049        0.17112         2.6880
        11739.5          9.124        105.545         70.312        0.01870        0.16684         2.6760
        11740.0          9.007         99.439         69.401        0.01893        0.15520         2.6640
        11740.5          9.015         98.492         68.667        0.02413        0.14697         2.6660
        11741.0          9.023        103.103         68.304        0.02916        0.14740         2.6740
        11741.5          9.031        107.714         67.942        0.02707        0.14783         2.6810
        11742.0          9.039        106.199         67.645        0.02279        0.14763         2.6850
        11742.5          9.046        103.295         67.544        0.01912        0.14576         2.6790
        11743.0          9.054         98.689         68.055        0.01911        0.14861         2.6730
        11743.5          9.053         94.082         68.673        0.02032        0.15395         2.6670
        11744.0          9.049         92.156         69.474        0.02619        0.15928         2.6600
        11744.5          9.046         93.597         70.275        0.03716        0.16224         2.6540
        11745.0          9.043         95.779         70.856        0.03885        0.16426         2.6560
        11745.5          9.040         96.678         70.553        0.03349        0.16073         2.6620
        11746.0          9.036         96.539         69.506        0.02802        0.14780         2.6680
        11746.5          9.033         96.400         68.366        0.02241        0.14059         2.6740
        11747.0          9.030         95.965         67.339        0.02056        0.14142         2.6840
        11747.5          9.027         91.820         67.362        0.00946        0.14206         2.6960
        11748.0          9.024         86.373         67.714        0.00668        0.14186         2.6880
        11748.5          9.021         85.455         68.066        0.00913        0.13745         2.6810
        11749.0          9.051         88.516         68.401        0.02134        0.13866         2.6730
        11749.5          9.080         94.128         68.715        0.03207        0.14564         2.6650
        11750.0          9.109        101.192         69.105        0.03689        0.15286         2.6570
        11750.5          9.139        108.255         69.792        0.03936        0.15990         2.6490
        11751.0          9.168        112.521         70.479        0.04183        0.16057         2.6420
        11751.5          9.181        113.056         70.591        0.04186        0.16117         2.6430
        11752.0          9.187        110.818         70.176        0.04151        0.16576         2.6450
        11752.5          9.193        105.572         69.688        0.03787        0.17311         2.6470
        11753.0          9.168        100.327         69.801        0.03736        0.18076         2.6480
        11753.5          9.122         94.200         69.915        0.03546        0.18782         2.6500
        11754.0          9.076         93.928         69.974        0.03361        0.18664         2.6520
        11754.5          9.030         96.730         69.985        0.03300        0.18492         2.6490
        11755.0          9.023         98.852         69.991        0.03635        0.17660         2.6450
        11755.5          9.027         99.404         69.950        0.04320        0.16866         2.6420
        11756.0          9.030         98.386         69.902        0.04509        0.16073         2.6380
        11756.5          9.034         96.309         69.820        0.04479        0.15364         2.6450
        11757.0          9.038         94.169         69.711        0.04300        0.15052         2.6530
        11757.5          9.041         91.065         69.515        0.03924        0.15321         2.6620
        11758.0          9.045         87.960         69.462        0.03073        0.15715         2.6700
        11758.5          9.048         86.798         69.560        0.01979        0.15974         2.6790
        11759.0          9.052         89.048         69.657        0.01463        0.15660         2.6870
        11759.5          9.055         91.298         69.022        0.01006        0.14583         2.6920
