~Version Information Block
 VERS.                2.00:     CWLS LOG ASCII STANDARD - VERSION 2.000000
 WRAP.                  NO:     One Line Per Depth Step
#
~Well Information Block
#MNEM.UNIT                     Data                         Information
#----------   ------------------------------------------   ----------------
 STRT.FT                                     4210.0000:     START DEPTH
 STOP.FT                                    10370.0000:     STOP DEPTH
 STEP.FT                                        0.5000:     STEP
 NULL.                                       -999.2500:     NULL VALUE
 COMP.                       CHESAPEAKE OPERATING INC.:     COMPANY
 WELL.                         UNIVERSITY_LANDS_4627-1:     WELL
 FLD .                                         WILDCAT:     FIELD
 LOC .   1200' FNL & 1995' FEL|Section: 27, Block: 46, Abstract: 2860|University Lands Survey:     LOCATION
 SEC .                                              27:     SECTION
 CNTY.                                       CULBERSON:     COUNTY
 STAT.                                           TEXAS:     STATE
 CTRY.                                             USA:     COUNTRY
 SRVC.                                    SCHLUMBERGER:     SERVICE COMPANY
 DATE.                                      11/15/2016:     DATE
 API .                                  42109322870000:     API NUMBER
 UWI .                                  42109322870000:     UWI NUMBER
 TVD .                                              NO:     TVD flag
 WSTA.                                             LOC:     Well status
#
~Curve Information Block
#MNEM.UNIT       API CODE      Curve Description
#----------    -------------   -------------------
 DEPT.FT                   :   Depth in Feet
 RM_HRLT.OHMM                 :   HRLTB Mud Resistivity
 RXOZ.OHMM                 :   Stan Res MicroCFL Resistivity
 RLA5.OHMM                 :   HRLTB Resistivity 5
 RLA4.OHMM                 :   HRLTB Resistivity 4
 RLA3.OHMM                 :   HRLTB Resistivity 3
 DTCO.US/F                 :   Delta-T Compressional
 DTSM.US/F                 :   Delta-T Shear Measurement
 SPHI.V/V                  :   Sonic Porosity [47.6]
 HSGR.GAPI                 :   HNGS Spectroscopy Gamma Ray
 HCGR.GAPI                 :   HNGS Computed Gamma Ray
 HCAL.IN                   :   HILT Caliper
 DPHI.V/V                  :   Density Porosity
 PEFZ.                     :   Std. Res. Formation PE
 HDRA.G/C3                 :   Density Correction
 RHOB.G/C3                 :   Std. Res. Formation Density
 APLC.V/V                  :   APS Near/Array Corrected Limestone Porosity
 PXND.V/V                  :   Crossplot Porosity For Neutron-Density
#
~Parameter Information Block
#MNEM.UNIT            Value               Description
#----------    --------------------    -------------------
 DATE.                 07-Jun-2007:    Date As Month-Day-Year
 RUN .                         ONE:    Run Number
 PDAT.                         UNK:    Permanent Datum
 EPD .FT                -9999.5000:    Elevation Of Perm. Datum
 LMF .                          KB:    Log Measured From
 FAPD.FT                   40.0000:    Feet Above Perm. Datum
 EKB .FT                 4323.0000:    Elevation Of Kelly Bushing
 TD  .FT                10370.0000:    Total Depth
 DFT .                   Fresh Mud:    Drilling Fluid Type
 DFD .LB/G                  8.6000:    Drilling Fluid Density
 RMS .OHMM                  0.4210:    Resistivity Of Mud Sample
 MST .DEGF                 97.0000:    Mud Sample Temperature
 RMF .OHMM                  0.4210:    Mud Filtrate Resistivity
 MFST.DEGF                 97.0000:    Mud Filtrate Sample Temperature
 MFSS.                        CALC:    Mud Filtrate Sample Source
 MCSS.                        CALC:    Mud Cake Sample Source
 RMB .OHMM                  0.2280:    Mud Resistivity At Bht
 BHT .DEGF                185.0000:    Bottom Hole Temperature
 MRT .DEGF                185.0000:    Maximum Recorded Temperature
 WSTA.                         LOC:    
 LATB.FT                    0.0000:    
 LONB.FT                    0.0000:    
#
~Other Information Block
<DescLogPlotStart>   NEURALOG PLOT DEFINITION
PLOTDEFVERSION: 3
LASFILE: E:\nds\projects\Texas Standard Oil LLC\pdf\42109322870000 D\42-109-322
DEPTHSCALE: 240.000000
RESOLUTION: 196
DEPTHLABELFREQ: 100.000000
HEAVYGRIDFREQ: 100.000000
MEDIUMGRIDFREQ: 50.000000
LIGHTGRIDFREQ: 10.000000
#
#   TRACK 1
#
STARTTRACK: 
 LEFTX: 0.500000 inch
 RIGHTX: 3.000000 inch
 SCALETYPE: Linear
 NUMCHARTDIVISIONS: 10
CURVE: RXOZ  0.200000   2000.000000 (0,0,255)      Solid             2     Y   
BACKUP: 2000.000000 20000000.000000 (0,0,255)      Solid             2    
CURVE: RLA5  0.200000   2000.000000 (0,131,131)    Dot               2     Y   
BACKUP: 2000.000000 20000000.000000 (0,131,131)    Dot               2    
CURVE: RLA4  0.200000   2000.000000 (255,0,255)    Short_Dash        2     Y   
BACKUP: 2000.000000 20000000.000000 (255,0,255)    Short_Dash        2    
CURVE: RLA3  0.200000   2000.000000 (255,0,0)      Medium_Dash       2     Y   
BACKUP: 2000.000000 20000000.000000 (255,0,0)      Medium_Dash       2    
CURVE: DTCO  240.000000 40.000000  (0,0,255)      Solid             2     N    
CURVE: DTSM  240.000000 40.000000  (0,131,131)    Dot               2     Y    
BACKUP: 440.000000 240.000000 (0,131,131)    Dot               2    
CURVE: SPHI  0.300000   -0.100000  (255,0,255)    Short_Dash        2     Y    
BACKUP: 0.700000   0.300000   (255,0,255)    Short_Dash        2    
CURVE: HSGR  0.000000   150.000000 (0,0,255)      Solid             2     Y    
BACKUP: 150.000000 300.000000 (0,0,255)      Solid             2    
CURVE: HCGR  0.000000   150.000000 (0,131,131)    Dot               2     N    
CURVE: HCAL  6.000000   16.000000  (255,0,255)    Short_Dash        2     Y    
BACKUP: -4.000000  6.000000   (255,0,255)    Short_Dash        2    
BACKUP: 16.000000  26.000000  (255,0,255)    Short_Dash        2    
ENDTRACK: 
#
#   TRACK 2
#
STARTTRACK: 
 LEFTX: 3.500000 inch
 RIGHTX: 8.500000 inch
 SCALETYPE: Linear
 NUMCHARTDIVISIONS: 10
CURVE: RM_HRLT 0.020000   200.000000 (255,131,0)    Solid             2     N  
CURVE: DPHI  0.300000   -0.100000  (255,0,0)      Solid             2     Y    
BACKUP: 0.700000   0.300000   (255,0,0)      Solid             2    
BACKUP: -0.100000  -0.500000  (255,0,0)      Solid             2    
CURVE: APLC  0.300000   -0.100000  (255,131,0)    Dot               2     Y    
BACKUP: 0.700000   0.300000   (255,131,0)    Dot               2    
BACKUP: 1.100000   0.700000   (255,131,0)    Dot               2    
CURVE: PXND  0.300000   -0.100000  (255,255,0)    Short_Dash        2     Y    
BACKUP: 0.700000   0.300000   (255,255,0)    Short_Dash        2    
ENDTRACK: 
#
#   TRACK 3
#
STARTTRACK: 
 LEFTX: 0.500000 inch
 RIGHTX: 5.500000 inch
 SCALETYPE: Linear
 NUMCHARTDIVISIONS: 10
ENDTRACK: 
#
#   TRACK 4
#
STARTTRACK: 
 LEFTX: 3.500000 inch
 RIGHTX: 6.000000 inch
 SCALETYPE: Linear
 NUMCHARTDIVISIONS: 10
CURVE: PEFZ  0.000000   10.000000  (0,0,255)      Solid             2     N    
ENDTRACK: 
#
#   TRACK 5
#
STARTTRACK: 
 LEFTX: 3.500000 inch
 RIGHTX: 4.750000 inch
 SCALETYPE: Linear
 NUMCHARTDIVISIONS: 10
CURVE: HDRA  -0.050000  0.200000   (0,131,131)    Solid             2     N    
ENDTRACK: 
#
#   TRACK 6
#
STARTTRACK: 
 LEFTX: 3.500000 inch
 RIGHTX: 8.500000 inch
 SCALETYPE: Linear
 NUMCHARTDIVISIONS: 10
CURVE: RHOB  2.000000   3.000000   (255,0,255)    Solid             2     Y    
BACKUP: 1.000000   2.000000   (255,0,255)    Solid             2    
ENDTRACK: 
<DescLogPlotEnd>
~A DEPTH     RM_HRLT             RXOZ             RLA5             RLA4             RLA3             DTCO             DTSM             SPHI             HSGR             HCGR             HCAL             DPHI             PEFZ             HDRA             RHOB             APLC             PXND            
# ...
    4615.000 1.24377882       80.23429930      105.06036063     105.17000529     114.99433212     72.67909715      114.21568627     0.18007851       127.12978493     49.70473511      11.18699662      0.11524097       2.74679459       0.00032488       2.52557676       0.11705882       0.11316306      
    4615.500 1.24915727       82.48493316      112.08434757     112.02526754     124.18396758     71.50147203      113.43137255     0.16955839       130.08011573     51.09492663      11.18698081      0.12099887       2.81161498       -0.00229712      2.51338673       0.11399841       0.11827112      
    4616.000 1.24066649       97.43463105      131.95359681     131.77562621     122.97461448     69.93130520      112.84313725     0.16280667       122.41407851     47.87952239      11.18697767      0.12318146       2.84760320       -0.00466672      2.50406338       0.10186986       0.11434185      
    4616.500 1.23257651       115.32602806     116.65408944     116.14135824     122.72233137     70.71638862      112.45098039     0.17222767       114.19665843     45.74302790      11.18700787      0.11596568       2.83239176       -0.00627050      2.50212115       0.09720654       0.10962672      
    4617.000 1.23912556       97.84757662      97.84757662      97.84757662      97.84757662      71.89322107      111.66666667     0.17536801       109.40382529     44.70841771      11.18700787      0.11589129       2.80303584       -0.00793946      2.51313167       0.10396962       0.11277014      
    4617.500 1.24699815       83.18230969      80.96135945      81.69500800      81.69500800      70.31895202      113.43137255     0.16633955       110.84181827     44.15525862      11.18700787      0.12037218       2.76273860       -0.00651478      2.51011417       0.12307911       0.12102161      
    4618.000 1.25508296       73.31330312      71.35585329      68.82697669      68.82697669      68.13387747      117.94117647     0.15063788       108.88542753     43.84478917      11.18700787      0.12664055       2.76935177       -0.00454271      2.50436484       0.12260988       0.12337917      
    4618.500 1.28961552       62.88997410      69.45066695      60.11637394      60.11637394      67.51580002      124.41176471     0.14396467       103.07840636     44.26438651      11.18700787      0.12193928       2.78179019       -0.00354846      2.50004163       0.10618905       0.12062868      
    4619.000 1.30635672       69.45066695      97.84757662      90.21744522      90.21744522      69.14622179      127.74509804     0.15413150       99.64471569      45.35414420      11.18700708      0.11730857       2.80577353       -0.00445097      2.51639589       0.09470588       0.10451866      
    4619.500 1.31319562       76.69577241      95.23506682      87.80865833      87.80865833      70.52011776      131.07843137     0.16759568       98.81664210      48.55408339      11.18700692      0.11526897       2.82593948       -0.00521324      2.50526449       0.11149244       0.11457606      
    4620.000 1.31593187       74.31207336      98.73424322      92.69231049      92.69231049      71.50147203      139.50980392     0.17968597       112.08900559     54.78465882      11.18701719      0.12460213       2.84678508       -0.00521750      2.50322952       0.14731373       0.13504631      
    4620.500 1.31985067       67.59634869      92.69231049      85.46418554      85.46418554      73.26790972      139.50980392     0.18574232       117.11050926     58.96860265      11.18702701      0.13085562       2.84213262       -0.00523705      2.49554944       0.16947184       0.15551656      
    4621.000 1.32377067       61.76549985      87.02010714      80.96135945      80.96135945      74.27231271      137.67723123     0.19204499       113.56924813     59.37946640      11.18882569      0.13284587       2.72647647       -0.00412518      2.48504150       0.18395615       0.16880443      
    4621.500 1.32513206       56.43761898      88.60435514      83.93608386      83.93608386      72.70469484      134.57650586     0.17780350       104.16415531     54.97346446      11.19268665      0.13614008       2.65526110       -0.00252661      2.49166626       0.20686275       0.17789677      
    4622.000 1.31321121       61.21082496      93.53226155      91.03496976      91.03496976      69.16057712      130.47165462     0.15023752       93.70766555      51.75460587      11.19653326      0.11691990       2.70518934       -0.00091936      2.50536382       0.19980392       0.18349705      
    4622.500 1.30137980       86.23863741      124.82220420     114.06474797     114.06474797     65.21735306      122.96539024     0.13068230       87.67462221      48.98562242      11.20039553      0.10101336       2.79142630       0.00068943       2.52885491       0.16514216       0.14387411      
    4623.000 1.30133624       93.53226155      111.06145735     103.28956308     103.28956308     63.24560294      114.60784314     0.11413150       84.20585772      49.53233191      11.20426471      0.08406501       2.87833589       0.00229378       2.56922163       0.12579020       0.11028895      
    4623.500 1.30478237       72.65492509      79.18232769      79.25596433      74.64801135      63.04469767      112.84313725     0.11138371       83.95369360      52.11243326      11.20978645      0.08076492       2.81529093       0.00359218       2.56758117       0.08215686       0.08290766      
    4624.000 1.30923955       56.94904045      55.31868997      55.42851300      57.46509628      63.42878982      112.64705882     0.11717370       84.60606103      53.74497714      11.21869914      0.08064373       2.62894494       0.00479726       2.57160259       0.07980392       0.08661297      
    4624.500 1.31316348       51.10621037      52.98398135      51.13333334      51.07563678      64.40616597      115.00000000     0.12254596       86.11141444      55.56862747      11.23572117      0.09510490       2.66965227       0.00600335       2.56119462       0.10098039       0.09194499      
    4625.000 1.30133624       47.54795649      67.59634869      59.60578421      59.60059509      66.97322723      119.31372549     0.13280485       87.28136046      57.13203995      11.30896841      0.08823538       2.71702648       0.00722827       2.55707463       0.09980392       0.09115914      
    4625.500 1.32509822       47.54795649      55.93079024      50.60903913      50.60844599      69.94199273      123.23529412     0.16283689       86.58576624      57.38731240      11.38364592      0.08653251       2.75423879       0.00840744       2.56194863       0.09627451       0.08801572      
    4626.000 1.34929408       48.85230274      43.44647834      50.54890340      50.54890340      72.89147712      124.41176471     0.18977139       83.90897776      55.95425893      11.42759545      0.09093262       2.76983127       0.00963903       2.55937397       0.08764706       0.09273084      
    4626.500 1.33665760       51.10621037      50.19243011      59.04149174      59.04149174      76.80078508      125.78431373     0.21713445       80.56733137      53.40668364      11.38442216      0.09245598       2.71266538       0.01138095       2.55554677       0.08254902       0.09115914      
    4627.000 1.32485846       54.93074638      69.45066695      66.38772436      66.38772436      80.33366045      129.11764706     0.24249264       81.58720858      53.51608503      11.30174359      0.09412341       2.72462309       0.01497846       2.55147897       0.09274510       0.09199337      
    4627.500 1.31316348       61.21082496      59.68409254      68.82697669      68.82697669      80.72620216      131.47058824     0.23778214       86.69433223      56.49085167      11.25157626      0.08903036       2.83752195       0.02365393       2.55391211       0.10676560       0.10524801      
    4628.000 1.28961552       57.98582845      49.57146554      52.50816744      52.50816744      79.35230618      131.47058824     0.22953876       95.25103716      60.33781129      11.22042910      0.08942214       2.90569716       0.02982218       2.55763755       0.12725490       0.12773165      
