###############################################
##         ENVERUS                           ##
##         ESS - Open Hole                   ##
##         PERMIAN / DELAWARE                ##
##         Nov 02 2023  V4.0                 ##
##         42-109-30915-00-00                ##
###############################################
## Copyright 2017-2023  ENVERUS.  All Rights Reserved. 
## Confidential - Property of ENVERUS, use governed by terms and 
## conditions found within the existing Information Services Subscription Agreement 
## (as may be amended, the “ISSA”) between Customer and ENVERUS. 
## 
~VERSION INFORMATION
# MNEM.UNIT                               DATA : DESCRIPTION OF MNEMONIC
#-----.-----     ----------------------------- : -----------------------------
VERS.                                     2.00 : CWLS LOG ASCII STANDARD - VERSION 2.00
WRAP.                                       NO : MULTIPLE LINES PER DEPTH STEP
VEND.                                  ENVERUS : VENDOR
TYPE.                          ESS - OPEN HOLE : ENVERUS ESSENTIAL CURVES – ACCESSIBLE THROUGH ENVERUS PRISM(TM)
DOC.                                  32305988 : ENVERUS HEADER RAW DOCUMENT ID
#___________________________________________________________________________________________________ 
~WELL INFORMATION 
# YiEbrulvYUtXh1D3opxUtnvhUVpPAvxlEBgV2kjbCTHvWrxGcz1+vOa1jEIuqGtoxi0rQ+ZQV9RU/rHAPCAAKQ== 
# MNEM.UNIT                                              DATA : DESCRIPTION OF MNEMONIC 
#-----.-----                    ----------------------------- : ----------------------------- 
CNTY.                                               CULBERSON : COUNTY 
STATE.                                                  TEXAS : STATE 
CNTRY.                                                    USA : COUNTRY 
API.                                             42-109-30915 : API (10 Digit) 
API_14.                                    42-109-30915-00-00 : API (14 Digits) 
API_14_std.                                 42-109-30915-0000 : API (14 Digits Standard) 
UWI.                                           42109309150000 : UNIQUE WELL ID 
WELL.                             VELMA CASEY ROUNSAVILLE A 1 : WELL NAME
STRT.FT                                                  82.0 : START DEPTH
STOP.FT                                               11225.0 : STOP DEPTH
STEP.FT                                                   0.5 : STEP BETWEEN DEPTHS
NULL.                                                 -999.25 : NULL VALUE
#___________________________________________________________________________________________________ 
~CURVE INFORMATION 
# MNEM.UNIT           : CURVE DESCRIPTION 
#-----.-----          : ----------------------------- 
 DEPT.FT               : MEASURED DEPTH 
 CALI.IN               : CALIPER (CAL - CAL) 
 GR.API                : GAMMA RAY (GR) 
 DT.US/FT              : SONIC DELTA TRANSIT TIME (DT) 
 NPHI.V/V              : NEUTRON POROSITY (NPHI) 
 RHOB.G/CC             : BULK DENSITY (RHOB) 
 #___________________________________________________________________________________________________ 
~A         DEPT           CALI             GR             DT           NPHI           RHOB
# ...
         8134.0          7.510        104.559         62.834        0.09221         2.6662
         8134.5          7.510        110.460         64.767        0.10775         2.6673
         8135.0          7.509        116.360         64.979        0.13120         2.6530
         8135.5          7.509        122.261         65.124        0.15466         2.6388
         8136.0          7.509        129.991         64.828        0.17812         2.6283
         8136.5          7.509        135.104         64.290        0.19481         2.6335
         8137.0          7.509        131.810         63.752        0.18790         2.6388
         8137.5          7.509        128.516         63.214        0.18100         2.6441
         8138.0          7.509        125.221         62.787        0.17450         2.6493
         8138.5          7.509        121.927         62.569        0.17053         2.6536
         8139.0          7.509        118.632         62.351        0.16657         2.6457
         8139.5          7.509        115.338         61.944        0.16260         2.6378
         8140.0          7.509         94.362         60.910        0.15864         2.6299
         8140.5          7.509         83.322         59.876        0.12794         2.6220
         8141.0          7.509         82.135         58.842        0.07057         2.6141
         8141.5          7.509         80.949         57.808        0.04595         2.6062
         8142.0          7.509         79.762         56.969        0.05250         2.5983
         8142.5          7.509         78.576         56.537        0.05906         2.5904
         8143.0          7.509         77.390         56.105        0.06562         2.5825
         8143.5          7.508         76.203         55.353        0.06265         2.5955
         8144.0          7.508         75.017         54.471        0.05839         2.6110
         8144.5          7.508         73.830         53.590        0.05412         2.6264
         8145.0          7.508         72.644         52.708        0.04986         2.6419
         8145.5          7.508         74.346         53.952        0.05056         2.6463
         8146.0          7.508         79.086         56.902        0.05278         2.6206
         8146.5          7.508         83.825         59.853        0.06776         2.5949
         8147.0          7.508         88.564         62.334        0.08826         2.5692
         8147.5          7.508         93.303         62.620        0.10877         2.5682
         8148.0          7.508         98.042         62.906        0.12845         2.5768
         8148.5          7.508        102.781         62.946        0.12099         2.5855
         8149.0          7.508        104.735         62.933        0.11354         2.5941
         8149.5          7.508        100.891         62.920        0.10608         2.6027
         8150.0          7.508         97.048         62.907        0.09315         2.6113
         8150.5          7.508         93.204         62.718        0.07991         2.6200
         8151.0          7.508         89.360         62.054        0.06667         2.6293
         8151.5          7.508         64.733         61.390        0.05343         2.6638
         8152.0          7.507         63.095         55.055        0.04020         2.6984
         8152.5          7.507         61.457         52.973        0.02696         2.7168
         8153.0          7.507         59.818         52.746        0.02719         2.7155
         8153.5          7.507         58.180         52.519        0.03031         2.7141
         8154.0          7.507         59.665         52.293        0.03342         2.7076
         8154.5          7.507         63.134         52.066        0.03654         2.6927
         8155.0          7.507         66.603         51.839        0.03965         2.6778
         8155.5          7.507         70.074         53.355        0.04276         2.6630
         8156.0          7.507         73.582         56.342        0.04588         2.6481
         8156.5          7.507         77.089         59.329        0.05347         2.6332
         8157.0          7.507         80.597         61.833        0.06434         2.6183
         8157.5          7.507         84.105         61.937        0.07520         2.6034
         8158.0          7.507         87.613         62.040        0.08606         2.5928
         8158.5          7.507         91.120         62.144        0.09692         2.5958
         8159.0          7.507         94.628         62.812        0.10779         2.5989
         8159.5          7.507         98.136         63.515        0.10093         2.6002
         8160.0          7.507        101.644         64.218        0.09086         2.5928
         8160.5          7.506        104.597         63.720        0.08079         2.5854
         8161.0          7.506         99.330         63.197        0.07071         2.5780
         8161.5          7.506         94.063         63.313        0.06541         2.5706
         8162.0          7.506         88.796         63.568        0.07504         2.5633
         8162.5          7.506         83.529         63.822        0.08467         2.5642
         8163.0          7.506         86.061         64.014        0.09185         2.5720
         8163.5          7.506         89.453         63.408        0.09765         2.5797
         8164.0          7.506         92.844         62.801        0.10345         2.5874
         8164.5          7.506         96.236         62.195        0.10925         2.5951
         8165.0          7.506         96.121         61.589        0.11505         2.6028
         8165.5          7.506         93.908         61.571        0.11448         2.5927
         8166.0          7.506         91.694         61.707        0.10616         2.5809
         8166.5          7.506         89.481         61.844        0.09784         2.5754
         8167.0          7.506         87.268         61.842        0.08952         2.5807
         8167.5          7.506         85.054         60.479        0.08120         2.5860
         8168.0          7.506         82.841         59.116        0.08045         2.5913
         8168.5          7.506         80.627         57.753        0.09513         2.5940
         8169.0          7.505         78.414         58.809        0.10982         2.5894
         8169.5          7.505         80.746         60.112        0.11373         2.5848
         8170.0          7.505         87.264         61.415        0.11327         2.5803
         8170.5          7.505         93.783         62.717        0.11281         2.5757
         8171.0          7.505         94.227         62.983        0.11150         2.5711
         8171.5          7.505         91.330         62.745        0.10259         2.5686
         8172.0          7.505         88.434         62.507        0.09369         2.5781
         8172.5          7.505         85.537         62.312        0.08478         2.5876
         8173.0          7.505         82.641         62.453        0.07587         2.5971
         8173.5          7.505         79.744         62.594        0.06697         2.6066
         8174.0          7.505         76.848         62.039        0.07155         2.6160
         8174.5          7.505         73.951         60.124        0.07632         2.6255
         8175.0          7.505         78.540         58.209        0.08109         2.6273
         8175.5          7.505         83.484         56.294        0.08586         2.6208
         8176.0          7.505         88.428         57.170        0.09064         2.6144
         8176.5          7.505         93.372         58.272        0.09541         2.6079
         8177.0          7.505         98.316         59.374        0.09799         2.6015
         8177.5          7.504         96.076         60.476        0.09376         2.5950
