~Version Information
 VERS.                  2.0:   CWLS log ASCII Standard -VERSION 2.0
 WRAP.                   NO:   One line per depth step
~Well Information Block
#MNEM.UNIT     VALUE/NAME     DESCRIPTION
#---------     -----------    ---------------------------
 STRT.F              8683.0000: START DEPTH
 STOP.F             14089.5000: STOP DEPTH
 STEP.F                 0.5000: STEP DEPTH
 NULL.                 -999.25: NULL VALUE
 LOC .       API  42-109-32906:  LOCATION
 FL1 .       API  42-109-32906:  LOCATIONLINE1
 DMF .                      KB:  DRILL MEAS FROM
 PDAT.                      GL:  PERMANENT DATUM
 PROV.                   TEXAS:  PROVINCE
 STAT.                   TEXAS:  STATE NAME
 CNTY.               CULBERSON:  COUNTY NAME
 LUL .                  ODESSA:  LOGGINGUNITLOC
 FLD .     FORD, WEST (WOLFCAMP):  FIELD NAME
 WELL.     SHELLY FEE 40 No. 2H:  WELL NAME
 COMP.     CAPITAN ENERGY, INC.:  COMPANY
 DATE.             08-Jun-2018:  DATE
 SVCO.             Halliburton:  SERVICECONAME
 HIDE.                        :  WELLNAMEOPERAT
 BASI.                   BACIA:  BASIN
 UWI .            42-109-32906Lat:  UNIQUE WELL IDENTIFIER
 API .            42-109-32906Lat:  API NUMBER
 RANG.                     N/A:  RANGE
 TOWN.                     N/A:  TOWNSHIP
 SECT.                     N/A:  SECTION
 SON .               902848974:  JOB NUMBER
 CTRY.                        :  COUNTRY
 SRVC.             Halliburton:  SERVICE COMPANY
 LMF .                      KB:  LOG MEASURED FROM
 BAP .ft                0.0000:  GL ELEV ONSHORE
 GVFD.g                 1.0000:  GRAVITY FIELD
~Curve Information Block
#MNEM.UNIT                 API CODE     Curve Description
#---------               -----------    ---------------------------
 DEPT.F                 00 000 000 000:  Depth
 CCL .mV                00 000 000 000:  Casing Collar Locator
 DTC_CHI.uspf           00 000 000 000:  DTC_CHI
 DTC_OH.uspf            00 000 000 000:  DTC_OH
 GR_CHI.api             00 000 000 000:  GR_CHI
 GR_OH.api              00 000 000 000:  GR_OH
 LLD_CHI.ohmm           00 000 000 000:  LLD_CHI
 LLD_OH.ohmm            00 000 000 000:  LLD_OH
 LLS_CHI.ohmm           00 000 000 000:  LLS_CHI
 LLS_OH.ohmm            00 000 000 000:  LLS_OH
 MSFL_CHI.ohmm          00 000 000 000:  MSFL_CHI
 MSFL_OH.ohmm           00 000 000 000:  MSFL_OH
 NPHI_CHI.pu            00 000 000 000:  NPHI_CHI
 NPHI_OH.pu             00 000 000 000:  NPHI_OH
 PE_CHI.b/e             00 000 000 000:  PE_CHI
 PE_OH.NONE             00 000 000 000:  Pe_OH
 RHOB_CHI.g/cc          00 000 000 000:  RHOB_CHI
 RHOB_OH.g/cc           00 000 000 000:  RHOB_OH
 SPHI_CHI.pu            00 000 000 000:  SPHI_CHI
#Other Information
#
#WARRANTY: Halliburton will use its best efforts to furnish customers with 
#accurate information and interpretations that are part of, and incident to, the services 
#provided.  However, Halliburton cannot and does not warrant the accuracy 
#or correctness of such information and interpretations.  Under no circumstances should any 
#such information or interpretation be relied upon as the sole basis for any drilling, 
#completion, production, or financial decision or any procedure involving any risk to the 
#safety of any drilling venture, drilling rig or its crew or any other third party.  The 
#Customer has full responsibility for all drilling, completion and production operation.  
#Halliburton makes no representations or warranties, either expressed or 
#implied, including, but not limited to, the implied warranties of merchantability or fitness 
#for a particular purpose, with respect to the services rendered.  In no event will 
#Halliburton be liable for failure to obtain any particular results or for 
#any damages, including, but not limited to, indirect, special or consequential damages, 
#resulting from the use of any information or interpretation provided by Halliburton.
#
~A    DEPT       CCL    DTC_CHI DTC_OH   GR_CHI   GR_OH   LLD_CHI   LLD_OH   LLS_CHI   LLS_OH   MSFL_CHI  MSFL_OH     NPHI_CHI   NPHI_OH   PE_CHI    PE_OH   RHOB_CHI  RHOB_OH SPHI_CHI 
# ...
   10465.0000   82.5626 66.5037 -999.25  82.0325  -999.25  76.0624   -999.25  71.1785   -999.25  36.2803    -999.25      11.9363 -999.25     3.7003 -999.25     2.5899 -999.25 13.3700
   10465.5000    0.0000 66.6738 -999.25  84.5285  -999.25  73.5588   -999.25  68.7337   -999.25  35.3023    -999.25      12.2825 -999.25     3.6553 -999.25     2.5846 -999.25 13.4900
   10466.0000    0.0000 65.9347 -999.25  70.9346  -999.25  74.8519   -999.25  69.6965   -999.25  36.1286    -999.25      11.5999 -999.25     3.7085 -999.25     2.6019 -999.25 12.9700
   10466.5000   48.5627 65.8032 -999.25  70.8226  -999.25  75.3316   -999.25  70.0264   -999.25  36.3823    -999.25      11.4529 -999.25     3.7241 -999.25     2.6047 -999.25 12.8700
   10467.0000   32.0061 66.5700 -999.25  89.6091  -999.25  74.2969   -999.25  69.1869   -999.25  35.6667    -999.25      12.1125 -999.25     3.6826 -999.25     2.5864 -999.25 13.4200
   10467.5000    0.0000 66.1080 -999.25  82.3600  -999.25  76.7133   -999.25  71.3937   -999.25  36.8226    -999.25      11.5586 -999.25     3.7438 -999.25     2.5984 -999.25 13.0900
   10468.0000    0.0000 65.9154 -999.25  75.9938  -999.25  80.5086   -999.25  75.3525   -999.25  38.4931    -999.25      11.2393 -999.25     3.8192 -999.25     2.6057 -999.25 12.9500
   10468.5000    0.0000 65.8523 -999.25  73.3925  -999.25  83.2195   -999.25  78.2326   -999.25  39.6914    -999.25      11.0897 -999.25     3.8735 -999.25     2.6093 -999.25 12.9100
   10469.0000    0.0000 66.2879 -999.25  84.7325  -999.25  81.2849   -999.25  76.5472   -999.25  38.9116    -999.25      11.5411 -999.25     3.8497 -999.25     2.5988 -999.25 13.2200
   10469.5000    0.0000 65.7907 -999.25  78.2875  -999.25  81.5511   -999.25  76.4080   -999.25  39.3064    -999.25      11.1172 -999.25     3.8790 -999.25     2.6098 -999.25 12.8600
   10470.0000    0.0000 65.9069 -999.25  81.0264  -999.25  80.9601   -999.25  76.0160   -999.25  39.2304    -999.25      11.2916 -999.25     3.8865 -999.25     2.6074 -999.25 12.9500
   10470.5000    0.0000 65.6523 -999.25  75.5531  -999.25  82.9478   -999.25  77.9286   -999.25  40.1507    -999.25      10.9853 -999.25     3.9284 -999.25     2.6145 -999.25 12.7700
   10471.0000   53.8268 65.4854 -999.25  70.8227  -999.25  86.0051   -999.25  80.9617   -999.25  41.3745    -999.25      10.6938 -999.25     3.9755 -999.25     2.6200 -999.25 12.6500
   10471.5000    0.0000 65.5867 -999.25  72.2190  -999.25  87.4042   -999.25  82.3938   -999.25  41.7364    -999.25      10.6641 -999.25     3.9812 -999.25     2.6184 -999.25 12.7200
   10472.0000    0.0000 65.5582 -999.25  73.1014  -999.25  87.5176   -999.25  82.3741   -999.25  41.7287    -999.25      10.5944 -999.25     3.9798 -999.25     2.6188 -999.25 12.7000
   10472.5000    0.0000 65.7899 -999.25  78.5397  -999.25  85.9979   -999.25  80.8601   -999.25  40.8958    -999.25      10.7955 -999.25     3.9391 -999.25     2.6124 -999.25 12.8600
   10473.0000   20.2107 65.7658 -999.25  77.7502  -999.25  85.6562   -999.25  80.4715   -999.25  40.7344    -999.25      10.7955 -999.25     3.9298 -999.25     2.6126 -999.25 12.8500
   10473.5000    0.0000 65.4812 -999.25  72.6811  -999.25  86.3555   -999.25  80.8343   -999.25  40.9980    -999.25      10.5148 -999.25     3.9358 -999.25     2.6186 -999.25 12.6500
   10474.0000   37.1974 65.5844 -999.25  75.5448  -999.25  85.9202   -999.25  80.2806   -999.25  40.5734    -999.25      10.5430 -999.25     3.9087 -999.25     2.6155 -999.25 12.7200
   10474.5000    0.0000 65.4566 -999.25  74.2581  -999.25  85.8930   -999.25  80.1007   -999.25  40.6155    -999.25      10.4329 -999.25     3.9129 -999.25     2.6181 -999.25 12.6300
   10475.0000    0.0000 66.0752 -999.25  86.4499  -999.25  82.7600   -999.25  77.3532   -999.25  39.1137    -999.25      11.0530 -999.25     3.8476 -999.25     2.6028 -999.25 13.0700
   10475.5000   83.3118 65.9831 -999.25  77.8870  -999.25  83.6592   -999.25  78.6208   -999.25  39.6952    -999.25      11.0954 -999.25     3.8703 -999.25     2.6063 -999.25 13.0000
   10476.0000    0.0000 66.1767 -999.25  76.2523  -999.25  83.9801   -999.25  79.3266   -999.25  39.7551    -999.25      11.3089 -999.25     3.8642 -999.25     2.6028 -999.25 13.1400
   10476.5000    0.0000 66.5112 -999.25  76.9712  -999.25  84.9015   -999.25  80.8767   -999.25  40.1028    -999.25      11.6372 -999.25     3.8743 -999.25     2.5969 -999.25 13.3700
   10477.0000    0.0000 66.5577 -999.25  77.0259  -999.25  84.9540   -999.25  81.0449   -999.25  40.1575    -999.25      11.6996 -999.25     3.8777 -999.25     2.5962 -999.25 13.4100
   10477.5000    0.0000 66.2976 -999.25  71.5989  -999.25  86.0118   -999.25  82.0494   -999.25  40.7845    -999.25      11.4880 -999.25     3.9101 -999.25     2.6027 -999.25 13.2200
   10478.0000    0.0000 66.6399 -999.25  81.2582  -999.25  83.5873   -999.25  79.6679   -999.25  39.7237    -999.25      11.8450 -999.25     3.8691 -999.25     2.5936 -999.25 13.4700
   10478.5000    0.0000 66.1176 -999.25  74.8872  -999.25  83.3194   -999.25  78.7721   -999.25  39.7420    -999.25      11.3766 -999.25     3.8739 -999.25     2.6042 -999.25 13.1000
   10479.0000   16.3205 66.1459 -999.25  78.2226  -999.25  81.8617   -999.25  77.1110   -999.25  39.0854    -999.25      11.4182 -999.25     3.8463 -999.25     2.6022 -999.25 13.1200
   10479.5000    0.0000 66.3772 -999.25  85.0835  -999.25  80.4289   -999.25  75.5996   -999.25  38.3094    -999.25      11.6116 -999.25     3.8094 -999.25     2.5957 -999.25 13.2800
   10480.0000    0.0000 66.4269 -999.25  86.8754  -999.25  80.4312   -999.25  75.5186   -999.25  38.1713    -999.25      11.5974 -999.25     3.7993 -999.25     2.5943 -999.25 13.3100
   10480.5000   54.5793 66.1189 -999.25  78.7816  -999.25  83.2945   -999.25  78.3635   -999.25  39.4271    -999.25      11.2225 -999.25     3.8523 -999.25     2.6031 -999.25 13.1000
   10481.0000    0.0000 66.1983 -999.25  76.9763  -999.25  86.1142   -999.25  81.3839   -999.25  40.3683    -999.25      11.1414 -999.25     3.8806 -999.25     2.6032 -999.25 13.1500
   10481.5000   12.2921 66.5728 -999.25  78.7678  -999.25  88.0443   -999.25  83.9789   -999.25  41.0223    -999.25      11.4247 -999.25     3.9013 -999.25     2.5970 -999.25 13.4200
   10482.0000    0.0000 66.8820 -999.25  78.9840  -999.25  89.0137   -999.25  85.6836   -999.25  41.4777    -999.25      11.7603 -999.25     3.9211 -999.25     2.5919 -999.25 13.6400
   10482.5000   22.3637 67.0973 -999.25  72.3901  -999.25  91.9228   -999.25  89.5800   -999.25  42.6758    -999.25      12.0022 -999.25     3.9625 -999.25     2.5901 -999.25 13.7900
   10483.0000    0.0000 67.3415 -999.25  75.0106  -999.25  90.8671   -999.25  88.8817   -999.25  42.2987    -999.25      12.3040 -999.25     3.9499 -999.25     2.5848 -999.25 13.9600
   10483.5000   65.9923 67.3333 -999.25  72.8406  -999.25  92.0500   -999.25  90.2316   -999.25  42.7504    -999.25      12.2725 -999.25     3.9656 -999.25     2.5857 -999.25 13.9600
   10484.0000    0.0000 67.1487 -999.25  76.5834  -999.25  91.1699   -999.25  88.6726   -999.25  42.3474    -999.25      12.0190 -999.25     3.9531 -999.25     2.5884 -999.25 13.8300
   10484.5000   31.3923 66.7489 -999.25  77.7762  -999.25  91.3897   -999.25  87.8866   -999.25  42.2965    -999.25      11.4826 -999.25     3.9501 -999.25     2.5957 -999.25 13.5400
   10485.0000    0.0000 66.2234 -999.25  72.6608  -999.25  92.7298   -999.25  88.4362   -999.25  42.8766    -999.25      10.9177 -999.25     3.9730 -999.25     2.6068 -999.25 13.1700
   10485.5000  -12.8688 66.4618 -999.25  76.6426  -999.25  91.1490   -999.25  86.9131   -999.25  42.0132    -999.25      11.1247 -999.25     3.9300 -999.25     2.6005 -999.25 13.3400
   10486.0000    0.0000 67.2138 -999.25  83.7277  -999.25  88.0085   -999.25  84.8890   -999.25  40.8583    -999.25      12.0558 -999.25     3.8878 -999.25     2.5841 -999.25 13.8700
   10486.5000   62.9033 66.8729 -999.25  79.7125  -999.25  87.0966   -999.25  83.6085   -999.25  40.7442    -999.25      11.8375 -999.25     3.8914 -999.25     2.5908 -999.25 13.6300
