~VERSION INFORMATION
VERS. 2.0 : CWLS Log ASCII Standard - version 2.0
WRAP.  NO : One line per depth step
#--------------------------------------------------#
#----------------DRILLING INFO, INC.---------------#
#---------------WWW.DRILLINGINFO.COM---------------#
#------------------COPYRIGHT 2015------------------#
#--------------------------------------------------#
#THIS FILE MAY BE USED ONLY IN ACCORDANCE WITH A CURRENT SUBSCRIPTION AGREEMENT BETWEEN
#THE USER AND DRILLING INFO, INC. NO PART OF THIS FILE MAY BE REPRODUCED, USED, COPIED,
#MODIFIED, PROPAGATED, OR DISTRIBUTED EXCEPT IN ACCORDANCE WITH THE SUBSCRIPTION
#AGREEMENT. UNAUTHORIZED USE OR DISTRIBUTION OF ALL OR ANY PART OF THIS FILE MAY VIOLATE
#COPYRIGHT, TRADEMARK, AND/OR OTHER LAWS AND IS SUBJECT TO CIVIL AS WELL AS CRIMINAL
#SANCTIONS.
#--------------------------------------------------#
#THIS FILE IS PROVIDED "AS-IS" AND ALL WARRANTIES ARE EXPRESSLY DISCLAIMED, WHETHER
#EXPRESS, ORAL, IMPLIED, STATUTORY OR OTHERWISE, INCLUDING ANY IMPLIED WARRANTY OF FITNESS
#FOR A PARTICULAR PURPOSE, MERCHANTABILITY, TITLE OR NON-INFRINGEMENT, AND ANY WARRANTIES
#ARISING BY VIRTUE OF CUSTOM OF TRADE OR COURSE OF DEALING.  FURTHER, DRILLING INFO,
#INC. AND ITS LICENSORS DO NOT REPRESENT OR WARRANT THAT THIS FILE WILL MEET USER'S
#REQUIREMENTS OR ARE SUITABLE FOR USER'S NEEDS OR THAT THE DATA OR RESULTS PROVIDED IN
#CONJUNCTION THEREWITH ARE CORRECT, ACCURATE, TIMELY OR RELIABLE. THESE DISCLAIMERS SHALL
#APPLY REGARDLESS OF ANY FAILURE OF ESSENTIAL PURPOSE OF ANY LIMITED REMEDY.  SOME
#JURISDICTIONS DO NOT ALLOW THE EXCLUSION OF CERTAIN WARRANTIES SO SOME OF THE ABOVE
#EXCLUSIONS MAY NOT APPLY. IN NO EVENT SHALL DRILLING INFO, INC. OR ANY OF ITS AFFILIATES
#BE LIABLE UNDER ANY LEGAL THEORY, WHETHER IN TORT (INCLUDING WITHOUT LIMITATION
#NEGLIGENCE), CONTRACT, STRICT LIABILITY, STATUTORY OR OTHERWISE, FOR ANY SPECIAL,
#INCIDENTAL, CONSEQUENTIAL, EXEMPLARY, PUNITIVE OR INDIRECT DAMAGE OF ANY KIND, INCLUDING
#WITHOUT LIMITATION LOSS OF REVENUE, PROFITS, GOODWILL, USE, AND/OR DATA OR THE COST OF
#PROCUREMENT OF SUBSTITUTE GOODS OR SERVICES, EVEN IF APPRISED OF THE POSSIBILITY OF SUCH
#DAMAGES IN ADVANCE.
#--------------------------------------------------#
~WELL INFORMATION
#MNEMONIC     .UNIT              VALUE :DESCRIPTION
#--------------------------------------------------#
STRT       .FT                35 :START DEPTH
STOP       .FT                15948 :STOP DEPTH
STEP       .FT                   0.500 :STEP
NULL       .                  -999.250 :NULL
API        .                421093136200 :API NUMBER
COMP       .         ARRINGTON DAVID H. OIL & GAS INC :COMPANY
WELL       .        SCOTT UNIT  1 :WELL
DATE       .                17-Jun-1991 :LOG DATE
~CURVE INFORMATION
#MNEMONIC     .UNIT      API CODE :CURVE DESCRIPTION
#--------------------------------------------------#
DEPTH       .FT                      :Measured Depth
CAL.INCH        UNKNOWN   :CAL
DT.US/FT        UNKNOWN   :DT
GR.API        UNKNOWN   :GR
~A    DEPTH    CAL    DT    GR
# ...
 6572.5     10.39   77.526   111.29
 6573     10.385   71.496   79.233
 6573.5     10.381   71.786   65.954
 6574     10.377   72.076   68.942
 6574.5     10.372   72.367   71.267
 6575     10.368   72.025   67.585
 6575.5     10.363   70.725   61.358
 6576     10.359   68.44   50.589
 6576.5     10.355   66.236   46.908
 6577     10.35   64.308   46.426
 6577.5     10.346   64.344   49.993
 6578     10.342   66.157   56.598
 6578.5     10.337   67.969   61.434
 6579     10.352   69.781   61.921
 6579.5     10.373   71.492   58.833
 6580     10.395   69.898   55.357
 6580.5     10.416   68.305   49.384
 6581     10.438   66.712   42.974
 6581.5     10.459   64.501   33.321
 6582     10.461   61.008   26.238
 6582.5     10.438   58.881   21.089
 6583     10.415   57.449   16.753
 6583.5     10.393   56.017   13.07
 6584     10.37   53.983   12.26
 6584.5     10.347   52.733   14.256
 6585     10.325   53.5   16.733
 6585.5     10.306   54.267   18.252
 6586     10.33   55.034   17.147
 6586.5     10.354   53.944   13.017
 6587     10.368   52.55   10.923
 6587.5     10.353   52.975   15.407
 6588     10.338   54.746   23.997
 6588.5     10.324   56.518   37.511
 6589     10.309   63.213   48.438
 6589.5     10.334   68.201   52.493
 6590     10.374   65.658   48.979
 6590.5     10.404   63.115   45.411
 6591     10.396   61.274   38.843
 6591.5     10.388   59.435   30.09
 6592     10.379   57.28   24.403
 6592.5     10.371   55.917   24.292
 6593     10.363   56.316   27.588
 6593.5     10.348   56.715   30.88
 6594     10.314   60.189   32.051
 6594.5     10.281   60.287   36.873
 6595     10.271   61.424   43.71
 6595.5     10.321   63.925   62.315
 6596     10.372   66.283   69.157
 6596.5     10.388   67.72   73.996
 6597     10.324   70.053   81.988
 6597.5     10.26   72.543   90.938
 6598     10.286   73.358   94.243
 6598.5     10.316   73.667   92.86
 6599     10.346   73.149   88.844
 6599.5     10.374   75.09   84.827
 6600     10.353   75.41   79.708
 6600.5     10.332   75.729   73.174
 6601     10.345   73.811   61.105
 6601.5     10.375   68.436   58.384
 6602     10.405   69.056   67.567
 6602.5     10.388   71.444   89.269
 6603     10.364   84.72   108.782
 6603.5     10.34   87.194   119.097
 6604     10.317   87.655   122.293
 6604.5     10.293   88.065   118.051
 6605     10.269   83.483   103.989
 6605.5     10.245   80.426   92.036
 6606     10.224   80.85   86.544
 6606.5     10.22   82.966   90.702
 6607     10.215   81.839   92.654
 6607.5     10.211   78.659   84.841
 6608     10.207   75.48   78.648
 6608.5     10.202   75.262   76.574
 6609     10.198   77.481   81.934
 6609.5     10.193   79.361   97.579
 6610     10.211   80.806   99.359
 6610.5     10.233   78.873   93.866
 6611     10.255   76.761   85.393
 6611.5     10.278   77.076   84.636
 6612     10.299   78.491   90.757
 6612.5     10.319   83.039   99.692
 6613     10.338   87.188   111.919
 6613.5     10.358   89.842   112.086
 6614     10.378   88.998   111.328
 6614.5     10.397   87.353   105.041
 6615     10.417   85.707   99.322
 6615.5     10.392   85.184   99.241
 6616     10.292   84.475   103.134
 6616.5     10.211   82.586   107.323
 6617     10.214   75.264   97.425
 6617.5     10.217   69.133   79.546
 6618     10.22   66.693   61.424
 6618.5     10.223   64.253   52.047
 6619     10.226   65.152   45.723
 6619.5     10.229   67.415   50.179
 6620     10.243   69.912   58.814
 6620.5     10.257   72.346   62.952
 6621     10.271   72.316   63.354
 6621.5     10.285   72.287   62.366
 6622     10.299   72.257   63.339
 6622.5     10.313   72.393   64.952
 6623     10.327   72.553   68.14
 6623.5     10.341   72.304   69.523
 6624     10.325   71.702   64.747
 6624.5     10.29   70.389   59.302
 6625     10.297   68.404   53.952
 6625.5     10.32   67.393   50.253
 6626     10.343   66.604   49.472
 6626.5     10.366   67.476   51.753
 6627     10.389   68.771   54.035
 6627.5     10.412   69.789   53.942
 6628     10.424   68.812   50.145
 6628.5     10.368   67.834   46.222
 6629     10.312   63.17   41.427
 6629.5     10.256   63.648   40.954
 6630     10.249   64.126   43.307
 6630.5     10.283   65.298   46.318
 6631     10.316   66.823   49.33
 6631.5     10.35   67.209   49.281
 6632     10.384   66.756   49.092
 6632.5     10.412   66.303   48.001
 6633     10.335   65.85   46.502
 6633.5     10.259   65.518   43.156
 6634     10.183   65.589   42.363
 6634.5     10.246   65.66   42.056
 6635     10.353   66.025   42.003
 6635.5     10.422   66.582   42.349
 6636     10.436   66.964   43.153
 6636.5     10.45   66.825   43.422
 6637     10.465   66.267   39.703
 6637.5     10.467   64.186   34.969
 6638     10.467   61.355   27.752
 6638.5     10.474   56.097   19.828
 6639     10.517   54.485   11.709
 6639.5     10.522   53.36   11.172
 6640     10.501   52.716   13.126
 6640.5     10.48   53.194   18.101
 6641     10.474   54.565   24.92
 6641.5     10.486   56.702   31.554
 6642     10.498   58.707   34.794
 6642.5     10.511   59.815   34.931
 6643     10.506   58.252   30.974
 6643.5     10.47   56.532   25.261
 6644     10.435   54.97   19.935
 6644.5     10.399   53.661   15.053
 6645     10.363   52.352   11.116
 6645.5     10.328   51.917   11.117
 6646     10.292   52.282   11.269
 6646.5     10.271   52.424   12.058
 6647     10.282   52.317   12.847
 6647.5     10.292   53.001   15.916
 6648     10.302   53.985   21.6
 6648.5     10.313   55.52   30.787
 6649     10.323   65.467   52.271
 6649.5     10.334   71.268   72.144
 6650     10.344   75.26   80.167
 6650.5     10.35   79.252   84.027
 6651     10.335   81.258   78.971
 6651.5     10.32   81.939   78.021
 6652     10.313   82.621   79
 6652.5     10.306   83.302   86.101
 6653     10.281   84.603   96.07
 6653.5     10.233   86.578   104.077
 6654     10.186   88.552   106.011
 6654.5     10.188   89.611   102.42
 6655     10.217   89.177   98.829
 6655.5     10.247   87.916   96.502
 6656     10.277   87.05   98.196
 6656.5     10.3   86.455   101.018
 6657     10.268   87.506   100.65
 6657.5     10.236   86.976   90.277
 6658     10.204   83.309   77.055
 6658.5     10.193   80.062   71.96
 6659     10.183   77.115   71.653
 6659.5     10.173   77.611   75.179
 6660     10.199   78.107   74.104
 6660.5     10.244   77.561   71.43
 6661     10.287   76.625   74.263
 6661.5     10.234   79.101   83.514
 6662     10.18   81.578   92.039
 6662.5     10.127   84.354   99.091
 6663     10.151   88.082   102.426
 6663.5     10.187   91.45   103.234
 6664     10.223   90.604   100.766
 6664.5     10.259   89.758   97.754
 6665     10.294   88.643   94.783
 6665.5     10.33   86.455   94.425
 6666     10.366   85.99   99.038
 6666.5     10.369   85.99   105.018
 6667     10.364   85.99   108.1
 6667.5     10.36   85.359   110.333
 6668     10.355   84.645   111.247
 6668.5     10.351   84.077   109.865
 6669     10.346   83.209   102.645
 6669.5     10.342   81.554   93.039
 6670     10.358   78.92   83.006
 6670.5     10.398   76.286   74.262
 6671     10.438   71.644   66.928
 6671.5     10.429   67.122   63.404
 6672     10.418   63.929   63.07
 6672.5     10.407   63.989   58.531
 6673     10.395   64.096   53.696
 6673.5     10.384   62.101   43.6
 6674     10.378   58.994   34.364
 6674.5     10.41   55.888   26.98
 6675     10.441   54.556   23.972
 6675.5     10.436   54.49   24.095
 6676     10.39   55.75   30.327
 6676.5     10.366   57.011   37.347
 6677     10.395   58.272   46.886
 6677.5     10.424   60.969   61.738
 6678     10.454   67.652   70.284
 6678.5     10.475   70.266   74.905
 6679     10.495   72.779   75.645
 6679.5     10.515   73.45   73.564
 6680     10.534   72.637   74.796
 6680.5     10.554   73.214   79.502
 6681     10.574   74.086   83.122
 6681.5     10.505   74.958   74.312
 6682     10.476   74.832   61.155
 6682.5     10.476   72.164   53.491
 6683     10.476   69.673   57.038
 6683.5     10.476   72.052   67.433
 6684     10.471   74.431   74.15
