~Version Information
 VERS.                  2.0:   CWLS log ASCII Standard -VERSION 2.0
 WRAP.                   NO:   One line per depth step
~Well Information Block
#MNEM.UNIT     VALUE/NAME     DESCRIPTION
#---------     -----------    ---------------------------
 STRT.F              8830.0000: START DEPTH
 STOP.F             14230.0000: STOP DEPTH
 STEP.F                 0.5000: STEP DEPTH
 NULL.                 -999.25: NULL VALUE
 LOC .       API  42-109-33374Lat:  LOCATION
 FL1 .       API  42-109-33374Lat:  LOCATIONLINE1
 DMF .                      KB:  DRILL MEAS FROM
 PDAT.                      GL:  PERMANENT DATUM
 CTRY.                     USA:  COUNTRY NAME
 CNTY.               CULBERSON:  COUNTY NAME
 FLD .     FORD, WEST (WOLFCAMP):  FIELD NAME
 WELL.        MOTHER FEE 28 4H:  WELL NAME
 COMP.          CAPITAN ENERGY:  COMPANY
 DATE.             02-May-2019:  DATE
 SVCO.             Halliburton:  SERVICECONAME
 PROV.                   TEXAS:  PROVINCE
 STAT.                   TEXAS:  STATE NAME
 HIDE.                        :  WELLNAMEOPERAT
 BASI.                 PERMIAN:  BASIN
 UWI .            42-109-33374Lat:  UNIQUE WELL IDENTIFIER
 API .            42-109-33374Lat:  API NUMBER
 RANG.                     N/A:  RANGE
 TOWN.                     N/A:  TOWNSHIP
 SECT.                     N/A:  SECTION
 SON .               905631317:  JOB NUMBER
 SRVC.             Halliburton:  SERVICE COMPANY
 LMF .                      KB:  LOG MEASURED FROM
 BAP .ft                0.0000:  GL ELEV ONSHORE
 GVFD.g                 1.0000:  GRAVITY FIELD
~Curve Information Block
#MNEM.UNIT                 API CODE     Curve Description
#---------               -----------    ---------------------------
 DEPT.F                 00 000 000 000:  Depth
 CCL .V                 00 000 000 000:  Casing Collar Locator
 NPHI_OH.pu             00 000 000 000:  NPHI_OH
 NPHI_CHI.pu            00 000 000 000:  NPHI_CHI
 GR_OH.api              00 000 000 000:  GR_OH
 GR_CHI.api             00 000 000 000:  GR_CHI
 RHOB_OH.g/cc           00 000 000 000:  RHOB_OH
 RHOB_CHI.g/cc          00 000 000 000:  RHOB_CHI
 PE_OH.b/e              00 000 000 000:  PE_OH
 PE_CHI.b/e             00 000 000 000:  PE_CHI
 RT10_OH.ohmm           00 000 000 000:  RT10_OH
 RT10_CHI.ohmm          00 000 000 000:  RT10_CHI
 RT30_OH.ohmm           00 000 000 000:  RT30_OH
 RT30_CHI.ohmm          00 000 000 000:  RT30_CHI
 RT90_OH.ohmm           00 000 000 000:  RT90_OH
 RT90_CHI.ohmm          00 000 000 000:  RT90_CHI
 SPHI_CHI.pu            00 000 000 000:  SPHI_CHI
 DTC_CHI.uspf           00 000 000 000:  DTC_CHI
 DTC_OH.uspf            00 000 000 000:  DTC_OH
 SGF .cu                00 000 000 000:  Formation Sigma
 CRNF.NONE              00 000 000 000:  CM GrsCaptRatio
 RIN .NONE              00 000 000 000:  CM GrsInelRatio
#Other Information
#
#WARRANTY: Halliburton will use its best efforts to furnish customers with 
#accurate information and interpretations that are part of, and incident to, the services 
#provided.  However, Halliburton cannot and does not warrant the accuracy 
#or correctness of such information and interpretations.  Under no circumstances should any 
#such information or interpretation be relied upon as the sole basis for any drilling, 
#completion, production, or financial decision or any procedure involving any risk to the 
#safety of any drilling venture, drilling rig or its crew or any other third party.  The 
#Customer has full responsibility for all drilling, completion and production operation.  
#Halliburton makes no representations or warranties, either expressed or 
#implied, including, but not limited to, the implied warranties of merchantability or fitness 
#for a particular purpose, with respect to the services rendered.  In no event will 
#Halliburton be liable for failure to obtain any particular results or for 
#any damages, including, but not limited to, indirect, special or consequential damages, 
#resulting from the use of any information or interpretation provided by Halliburton.
#
~A    DEPT      CCL   NPHI_OH NPHI_CHI  GR_OH    GR_CHI  RHOB_OH RHOB_CHI  PE_OH  PE_CHI RT10_OH RT10_CHI RT30_OH RT30_CHI RT90_OH  RT90_CHI SPHI_CHI DTC_CHI DTC_OH    SGF    CRNF   RIN   
# ...
   10614.5000 17.4099 -999.25  17.0965  -999.25 113.0660 -999.25   2.5175 -999.25 2.7555 -999.25  25.6979 -999.25  26.4000  -999.25  28.0851  22.0800 78.8203 -999.25 35.4235 1.2530 1.0921
   10615.0000 17.4292 -999.25  16.9854  -999.25 114.8177 -999.25   2.5213 -999.25 2.7798 -999.25  25.6549 -999.25  26.3558  -999.25  28.0381  21.9000 78.5627 -999.25 35.8335 1.2562 1.0866
   10615.5000 17.4299 -999.25  16.9842  -999.25 115.8072 -999.25   2.5213 -999.25 2.7660 -999.25  25.3201 -999.25  26.0119  -999.25  27.6722  21.8900 78.5474 -999.25 36.0779 1.2515 1.0845
   10616.0000 17.3669 -999.25  17.0458  -999.25 115.3945 -999.25   2.5192 -999.25 2.7316 -999.25  24.7350 -999.25  25.4108  -999.25  27.0328  21.9600 78.6564 -999.25 36.5628 1.2487 1.0854
   10616.5000 17.4080 -999.25  17.2886  -999.25 114.4899 -999.25   2.5128 -999.25 2.6654 -999.25  24.0911 -999.25  24.7493  -999.25  26.3291  22.2900 79.1204 -999.25 36.8658 1.2441 1.0898
   10617.0000 17.4281 -999.25  17.5034  -999.25 114.2079 -999.25   2.5068 -999.25 2.5961 -999.25  23.4136 -999.25  24.0533  -999.25  25.5886  22.5900 79.5354 -999.25 37.2510 1.2490 1.0933
   10617.5000 17.4334 -999.25  17.3720  -999.25 114.0166 -999.25   2.5093 -999.25 2.5912 -999.25  22.8382 -999.25  23.4622  -999.25  24.9598  22.3900 79.2565 -999.25 37.3025 1.2636 1.0964
   10618.0000 17.4279 -999.25  17.1807  -999.25 113.2945 -999.25   2.5136 -999.25 2.6072 -999.25  22.4503 -999.25  23.0637  -999.25  24.5358  22.1100 78.8605 -999.25 36.8882 1.2654 1.0964
   10618.5000 17.4566 -999.25  17.0645  -999.25 112.5374 -999.25   2.5165 -999.25 2.6288 -999.25  22.4088 -999.25  23.0211  -999.25  24.4905  21.9400 78.6210 -999.25 36.7909 1.2655 1.0970
   10619.0000 17.4081 -999.25  17.3366  -999.25 112.8574 -999.25   2.5132 -999.25 2.6247 -999.25  22.6606 -999.25  23.2798  -999.25  24.7657  22.2700 79.0890 -999.25 36.3905 1.2440 1.0954
   10619.5000 17.4318 -999.25  17.4561  -999.25 114.4361 -999.25   2.5114 -999.25 2.6263 -999.25  23.0320 -999.25  23.6613  -999.25  25.1716  22.4300 79.3190 -999.25 36.2655 1.2269 1.0933
   10620.0000 17.4133 -999.25  17.6136  -999.25 116.7386 -999.25   2.5088 -999.25 2.6232 -999.25  23.5116 -999.25  24.1540  -999.25  25.6957  22.6500 79.6325 -999.25 35.7082 1.2126 1.0891
   10620.5000 17.4219 -999.25  17.3714  -999.25 118.0899 -999.25   2.5104 -999.25 2.6354 -999.25  23.9883 -999.25  24.6438  -999.25  26.2168  22.4200 79.2963 -999.25 35.4102 1.2071 1.0833
   10621.0000 17.4320 -999.25  17.0917  -999.25 117.6730 -999.25   2.5143 -999.25 2.6734 -999.25  24.5170 -999.25  25.1869  -999.25  26.7946  22.1000 78.8466 -999.25 35.4761 1.2122 1.0790
   10621.5000 17.4368 -999.25  16.6975  -999.25 116.3782 -999.25   2.5211 -999.25 2.7298 -999.25  24.9138 -999.25  25.5945  -999.25  27.2282  21.6100 78.1561 -999.25 35.7514 1.2182 1.0763
   10622.0000 17.3802 -999.25  16.3331  -999.25 115.5195 -999.25   2.5267 -999.25 2.7614 -999.25  24.9338 -999.25  25.6150  -999.25  27.2500  21.1600 77.5205 -999.25 36.2026 1.2258 1.0775
   10622.5000 17.3919 -999.25  16.2348  -999.25 115.6361 -999.25   2.5294 -999.25 2.7718 -999.25  24.6345 -999.25  25.3076  -999.25  26.9230  21.0000 77.2980 -999.25 36.3593 1.2335 1.0778
   10623.0000 17.4984 -999.25  16.3706  -999.25 115.9447 -999.25   2.5274 -999.25 2.7462 -999.25  24.2220 -999.25  24.8838  -999.25  26.4722  21.1500 77.5107 -999.25 36.4064 1.2334 1.0793
   10623.5000 17.3677 -999.25  16.5870  -999.25 115.3957 -999.25   2.5243 -999.25 2.7240 -999.25  23.9780 -999.25  24.6331  -999.25  26.2054  21.4000 77.8665 -999.25 36.1284 1.2271 1.0787
   10624.0000 17.4271 -999.25  16.8064  -999.25 113.3664 -999.25   2.5195 -999.25 2.6961 -999.25  23.9891 -999.25  24.6446  -999.25  26.2176  21.7000 78.2884 -999.25 35.7957 1.2175 1.0793
   10624.5000 17.4147 -999.25  16.8198  -999.25 110.5905 -999.25   2.5175 -999.25 2.6913 -999.25  24.2682 -999.25  24.9313  -999.25  26.5226  21.7600 78.3755 -999.25 35.6174 1.2133 1.0810
   10625.0000 17.4187 -999.25  16.6537  -999.25 107.6266 -999.25   2.5183 -999.25 2.7060 -999.25  24.6609 -999.25  25.3347  -999.25  26.9518  21.6100 78.1509 -999.25 35.4192 1.2237 1.0813
   10625.5000 17.4325 -999.25  16.3192  -999.25 106.1590 -999.25   2.5236 -999.25 2.7509 -999.25  25.0332 -999.25  25.7172  -999.25  27.3587  21.2000 77.5784 -999.25 35.2571 1.2406 1.0832
   10626.0000 17.3616 -999.25  15.9860  -999.25 106.2014 -999.25   2.5309 -999.25 2.8163 -999.25  25.4273 -999.25  26.1220  -999.25  27.7894  20.7600 76.9545 -999.25 35.0837 1.2583 1.0848
   10626.5000 17.4356 -999.25  15.8869  -999.25 106.9985 -999.25   2.5340 -999.25 2.8505 -999.25  25.7663 -999.25  26.4702  -999.25  28.1598  20.6200 76.7594 -999.25 34.9331 1.2698 1.0891
   10627.0000 17.4276 -999.25  16.3347  -999.25 107.7674 -999.25   2.5270 -999.25 2.8205 -999.25  26.0462 -999.25  26.7578  -999.25  28.4658  21.1900 77.5605 -999.25 35.0246 1.2627 1.0923
   10627.5000 17.3961 -999.25  16.9296  -999.25 109.2151 -999.25   2.5176 -999.25 2.7707 -999.25  26.2231 -999.25  26.9395  -999.25  28.6591  21.9400 78.6214 -999.25 35.2252 1.2551 1.0950
   10628.0000 17.3951 -999.25  17.5184  -999.25 111.5130 -999.25   2.5079 -999.25 2.7099 -999.25  26.1916 -999.25  26.9072  -999.25  28.6247  22.6800 79.6713 -999.25 35.2045 1.2435 1.0962
   10628.5000 17.4273 -999.25  17.8200  -999.25 114.2550 -999.25   2.5006 -999.25 2.6486 -999.25  26.0560 -999.25  26.7679  -999.25  28.4765  23.1000 80.2703 -999.25 35.2820 1.2386 1.0971
   10629.0000 17.4306 -999.25  17.9408  -999.25 116.0939 -999.25   2.4962 -999.25 2.6039 -999.25  25.9599 -999.25  26.6692  -999.25  28.3715  23.3100 80.5549 -999.25 35.2251 1.2370 1.0987
   10629.5000 17.4524 -999.25  17.8197  -999.25 116.0975 -999.25   2.4959 -999.25 2.5874 -999.25  25.8692 -999.25  26.5760  -999.25  28.2724  23.2000 80.3983 -999.25 35.3291 1.2262 1.0976
   10630.0000 17.4287 -999.25  17.5988  -999.25 114.1036 -999.25   2.4994 -999.25 2.6084 -999.25  25.8320 -999.25  26.5378  -999.25  28.2317  22.9200 80.0049 -999.25 35.4745 1.2262 1.0953
   10630.5000 17.4426 -999.25  17.2487  -999.25 111.1124 -999.25   2.5069 -999.25 2.6646 -999.25  25.7846 -999.25  26.4891  -999.25  28.1799  22.4400 79.3244 -999.25 35.2096 1.2257 1.0925
   10631.0000 17.4376 -999.25  16.8096  -999.25 108.8413 -999.25   2.5158 -999.25 2.7295 -999.25  25.7964 -999.25  26.5012  -999.25  28.1928  21.8500 78.4896 -999.25 35.0961 1.2325 1.0888
   10631.5000 17.4256 -999.25  16.5111  -999.25 108.7051 -999.25   2.5221 -999.25 2.7797 -999.25  26.0315 -999.25  26.7427  -999.25  28.4497  21.4500 77.9330 -999.25 34.5869 1.2312 1.0871
   10632.0000 17.4457 -999.25  16.4859  -999.25 110.6183 -999.25   2.5239 -999.25 2.8058 -999.25  26.4204 -999.25  27.1422  -999.25  28.8747  21.4100 77.8711 -999.25 34.5443 1.2229 1.0836
   10632.5000 17.4564 -999.25  16.6564  -999.25 112.8398 -999.25   2.5211 -999.25 2.8017 -999.25  26.9299 -999.25  27.6657  -999.25  29.4316  21.6400 78.2033 -999.25 34.5247 1.2091 1.0811
   10633.0000 17.4015 -999.25  16.8742  -999.25 114.3074 -999.25   2.5176 -999.25 2.7913 -999.25  27.3250 -999.25  28.0716  -999.25  29.8634  21.9300 78.6106 -999.25 34.3622 1.1993 1.0803
   10633.5000 17.4296 -999.25  16.8647  -999.25 114.6340 -999.25   2.5154 -999.25 2.7769 -999.25  27.6687 -999.25  28.4247  -999.25  30.2390  21.9800 78.6805 -999.25 34.0033 1.1949 1.0807
   10634.0000 17.4242 -999.25  16.9363  -999.25 114.9065 -999.25   2.5094 -999.25 2.7290 -999.25  28.0740 -999.25  28.8410  -999.25  30.6819  22.1800 78.9658 -999.25 33.7242 1.1879 1.0837
   10634.5000 17.4125 -999.25  17.1395  -999.25 115.3880 -999.25   2.4999 -999.25 2.6514 -999.25  28.4540 -999.25  29.2314  -999.25  31.0973  22.5700 79.5189 -999.25 33.9151 1.1852 1.0887
   10635.0000 17.4445 -999.25  17.2276  -999.25 116.4072 -999.25   2.4962 -999.25 2.6167 -999.25  28.5320 -999.25  29.3116  -999.25  31.1825  22.7300 79.7459 -999.25 34.7684 1.1890 1.0931
   10635.5000 17.4273 -999.25  17.3663  -999.25 117.3976 -999.25   2.4896 -999.25 2.5344 -999.25  28.0591 -999.25  28.8257  -999.25  30.6656  22.9800 80.0955 -999.25 35.5321 1.2024 1.0995
