~Version Information
 VERS.                  2.0:   CWLS log ASCII Standard -VERSION 2.0
 WRAP.                   NO:   One line per depth step
~Well Information Block
#MNEM.UNIT     VALUE/NAME     DESCRIPTION
#---------     -----------    ---------------------------
 STRT.F              8400.0000: START DEPTH
 STOP.F             13890.0000: STOP DEPTH
 STEP.F                 0.5000: STEP DEPTH
 NULL.                 -999.25: NULL VALUE
 LOC .     506' FEL & 344' FSL:  LOCATION
 FL6 .       API  42-109-33224:  LOCATIONLINE6
 FL4 .           ABSTRACT 4479:  LOCATIONLINE4
 FL3 .        T&P RR CO SURVEY:  LOCATIONLINE3
 FL2 .     SECTION 30, BLOCK 58 T2:  LOCATIONLINE2
 FL1 .     506' FEL & 344' FSL:  LOCATIONLINE1
 DMF .                      KB:  DRILL MEAS FROM
 PDAT.                      GL:  PERMANENT DATUM
 CNTY.               CULBERSON:  COUNTY NAME
 FLD .     FORD, WEST (WOLFCAMP):  FIELD NAME
 WELL.      LAUREN STATE 30 2H:  WELL NAME
 COMP.     CAPITAN ENERGY, INC.:  COMPANY
 DATE.             19-Feb-2018:  DATE
 SVCO.             Halliburton:  SERVICECONAME
 PROV.                   TEXAS:  PROVINCE
 STAT.                   TEXAS:  STATE NAME
 CTRY.                     USA:  COUNTRY NAME
 HIDE.                        :  WELLNAMEOPERAT
 BASI.                 PERMIAN:  BASIN
 UWI .            42-109-33224:  UNIQUE WELL IDENTIFIER
 API .            42-109-33224:  API NUMBER
 RANG.                     N/A:  RANGE
 TOWN.                     N/A:  TOWNSHIP
 SECT.                     N/A:  SECTION
 SON .               904646015:  JOB NUMBER
 SRVC.             Halliburton:  SERVICE COMPANY
 LMF .                      KB:  LOG MEASURED FROM
 EGL .ft             3168.0000:  GROUND ELEVATION
 BAP .ft                0.0000:  GL ELEV ONSHORE
 GVFD.g                 1.0000:  GRAVITY FIELD
 EKB .ft             3194.0000:  KB ELEVATION
 EDF .ft             3193.0000:  DF ELEVATION
~Curve Information Block
#MNEM.UNIT                 API CODE     Curve Description
#---------               -----------    ---------------------------
 DEPT.F                 00 000 000 000:  Depth
 CCL .V                 00 000 000 000:  Casing Collar Locator
 NPHI_OH.pu             00 000 000 000:  NPHI_OH
 NPHI_CHI.pu            00 000 000 000:  NPHI_CHI
 GR_OH.api              00 000 000 000:  GR_OH
 GR_CHI.api             00 000 000 000:  GR_CHI
 RHOB_OH.g/cc           00 000 000 000:  RHOB_OH
 RHOB_CHI.g/cc          00 000 000 000:  RHOB_CHI
 PE_OH.b/e              00 000 000 000:  PE_OH
 PE_CHI.b/e             00 000 000 000:  PE_CHI
 RT10_OH.ohmm           00 000 000 000:  RT10_OH
 RT10_CHI.ohmm          00 000 000 000:  RT10_CHI
 RT30_OH.ohmm           00 000 000 000:  RT30_OH
 RT30_CHI.ohmm          00 000 000 000:  RT30_CHI
 RT90_OH.ohmm           00 000 000 000:  RT90_OH
 RT90_CHI.ohmm          00 000 000 000:  RT90_CHI
 DTC_OH.uspf            00 000 000 000:  DTC_OH
 DTC_CHI.uspf           00 000 000 000:  DTC_CHI
 SPHI_CHI.pu            00 000 000 000:  SPHI_CHI
 SGF .cu                00 000 000 000:  Formation Sigma
 CRNF.NONE              00 000 000 000:  CM GrsCaptRatio
 RIN .NONE              00 000 000 000:  CM GrsInelRatio
#Other Information
#
#WARRANTY: Halliburton will use its best efforts to furnish customers with 
#accurate information and interpretations that are part of, and incident to, the services 
#provided.  However, Halliburton cannot and does not warrant the accuracy 
#or correctness of such information and interpretations.  Under no circumstances should any 
#such information or interpretation be relied upon as the sole basis for any drilling, 
#completion, production, or financial decision or any procedure involving any risk to the 
#safety of any drilling venture, drilling rig or its crew or any other third party.  The 
#Customer has full responsibility for all drilling, completion and production operation.  
#Halliburton makes no representations or warranties, either expressed or 
#implied, including, but not limited to, the implied warranties of merchantability or fitness 
#for a particular purpose, with respect to the services rendered.  In no event will 
#Halliburton be liable for failure to obtain any particular results or for 
#any damages, including, but not limited to, indirect, special or consequential damages, 
#resulting from the use of any information or interpretation provided by Halliburton.
#
~A    DEPT      CCL   NPHI_OH NPHI_CHI  GR_OH    GR_CHI  RHOB_OH RHOB_CHI  PE_OH  PE_CHI  RT10_OH  RT10_CHI RT30_OH  RT30_CHI RT90_OH  RT90_CHI DTC_OH  DTC_CHI SPHI_CHI   SGF    CRNF   RIN   
# ...
    9849.0000  0.0000 -999.25   4.3629  -999.25  40.8390 -999.25   2.6596 -999.25  4.6882  -999.25 121.0283  -999.25 135.8405  -999.25 151.1259 -999.25 62.6279  10.6300 12.1072 0.6995 0.8897
    9849.5000  0.0000 -999.25   4.3361  -999.25  41.1480 -999.25   2.6590 -999.25  4.6814  -999.25 116.6658  -999.25 130.8717  -999.25 145.6651 -999.25 62.7031  10.6800 12.0195 0.6971 0.8856
    9850.0000  0.0000 -999.25   4.1567  -999.25  37.9993 -999.25   2.6627 -999.25  4.6789  -999.25 112.6009  -999.25 126.6696  -999.25 141.2550 -999.25 62.4330  10.4900 11.9994 0.6971 0.8839
    9850.5000  0.0000 -999.25   4.2924  -999.25  42.3355 -999.25   2.6585 -999.25  4.6996  -999.25 116.2159  -999.25 130.4285  -999.25 145.2665 -999.25 62.7343  10.7000 12.0836 0.7004 0.8861
    9851.0000  0.0000 -999.25   4.1893  -999.25  40.7424 -999.25   2.6613 -999.25  4.7124  -999.25 119.2204  -999.25 134.1861  -999.25 149.4317 -999.25 62.5023  10.5400 12.2206 0.7048 0.8895
    9851.5000  0.0000 -999.25   4.3029  -999.25  43.2075 -999.25   2.6591 -999.25  4.7236  -999.25 122.5245  -999.25 137.7586  -999.25 153.2691 -999.25 62.6587  10.6500 12.3917 0.7104 0.8936
    9852.0000  0.0000 -999.25   4.4311  -999.25  45.0632 -999.25   2.6571 -999.25  4.7342  -999.25 125.1199  -999.25 140.5163  -999.25 156.3816 -999.25 62.7721  10.7300 12.5924 0.7174 0.9007
    9852.5000  0.0000 -999.25   4.2288  -999.25  39.4434 -999.25   2.6642 -999.25  4.7320  -999.25 124.0207  -999.25 139.8955  -999.25 155.9490 -999.25 62.2263  10.3400 12.7317 0.7247 0.9078
    9853.0000  0.0000 -999.25   4.3188  -999.25  39.8425 -999.25   2.6637 -999.25  4.7351  -999.25 121.0300  -999.25 136.2235  -999.25 152.1588 -999.25 62.2379  10.3500 12.8729 0.7335 0.9160
    9853.5000  0.0000 -999.25   4.8033  -999.25  48.2764 -999.25   2.6522 -999.25  4.7347  -999.25 118.8312  -999.25 132.3167  -999.25 147.8815 -999.25 63.0670  10.9400 12.9991 0.7378 0.9200
    9854.0000  0.0000 -999.25   4.5585  -999.25  41.0639 -999.25   2.6602 -999.25  4.7227  -999.25 115.4445  -999.25 128.9182  -999.25 144.4600 -999.25 62.4497  10.5000 13.1386 0.7380 0.9217
    9854.5000  0.0000 -999.25   4.7375  -999.25  42.4452 -999.25   2.6570 -999.25  4.7141  -999.25 112.1561  -999.25 124.5008  -999.25 139.7692 -999.25 62.6568  10.6500 13.2123 0.7332 0.9214
    9855.0000  0.0000 -999.25   5.1303  -999.25  49.4461 -999.25   2.6476 -999.25  4.7095  -999.25 109.7329  -999.25 120.7530  -999.25 135.5030 -999.25 63.3397  11.1300 13.2299 0.7291 0.9201
    9855.5000  0.0000 -999.25   4.9577  -999.25  45.7950 -999.25   2.6524 -999.25  4.7011  -999.25 109.5197  -999.25 120.9478  -999.25 135.6586 -999.25 63.0115  10.9000 13.0793 0.7245 0.9173
    9856.0000  0.0000 -999.25   5.1449  -999.25  50.9770 -999.25   2.6466 -999.25  4.6953  -999.25 112.9293  -999.25 124.5834  -999.25 139.1430 -999.25 63.4872  11.2400 12.8544 0.7198 0.9117
    9856.5000  0.0000 -999.25   4.9931  -999.25  48.9750 -999.25   2.6489 -999.25  4.6844  -999.25 118.2716  -999.25 131.0929  -999.25 145.9618 -999.25 63.3624  11.1500 12.5565 0.7148 0.9033
    9857.0000  0.0000 -999.25   4.7562  -999.25  45.3014 -999.25   2.6527 -999.25  4.6638  -999.25 120.7780  -999.25 134.5247  -999.25 149.4113 -999.25 63.1449  10.9900 12.2780 0.7078 0.8934
    9857.5000  0.0000 -999.25   4.4557  -999.25  40.2426 -999.25   2.6585 -999.25  4.6608  -999.25 119.1494  -999.25 133.4101  -999.25 148.4090 -999.25 62.7266  10.7000 12.1174 0.7034 0.8874
    9858.0000  0.0000 -999.25   4.4309  -999.25  41.1182 -999.25   2.6573 -999.25  4.6704  -999.25 118.0112  -999.25 132.1461  -999.25 147.2040 -999.25 62.8102  10.7600 12.0031 0.7016 0.8851
    9858.5000  0.0000 -999.25   4.2889  -999.25  39.9833 -999.25   2.6601 -999.25  4.6952  -999.25 121.1028  -999.25 136.0630  -999.25 151.6162 -999.25 62.5670  10.5800 12.0212 0.7031 0.8888
    9859.0000  0.0000 -999.25   4.1729  -999.25  38.6650 -999.25   2.6630 -999.25  4.7220  -999.25 125.6907  -999.25 141.7078  -999.25 158.0198 -999.25 62.3043  10.4000 12.0775 0.7051 0.8938
    9859.5000  0.0000 -999.25   4.4388  -999.25  44.9332 -999.25   2.6563 -999.25  4.7440  -999.25 128.1756  -999.25 143.9037  -999.25 160.4169 -999.25 62.7822  10.7400 12.2259 0.7060 0.8986
    9860.0000  0.0000 -999.25   4.6992  -999.25  50.0895 -999.25   2.6503 -999.25  4.7589  -999.25 128.5466  -999.25 143.6709  -999.25 160.2758 -999.25 63.1979  11.0300 12.3849 0.7082 0.9022
    9860.5000  0.0000 -999.25   4.3139  -999.25  41.2394 -999.25   2.6616 -999.25  4.7505  -999.25 126.1695  -999.25 142.0829  -999.25 158.7167 -999.25 62.3646  10.4400 12.4775 0.7115 0.9052
    9861.0000  0.0000 -999.25   4.3056  -999.25  40.7868 -999.25   2.6628 -999.25  4.7488  -999.25 123.5704  -999.25 139.1895  -999.25 155.5105 -999.25 62.2900  10.3900 12.5195 0.7161 0.9074
    9861.5000  0.0000 -999.25   4.2316  -999.25  38.5574 -999.25   2.6654 -999.25  4.7434  -999.25 122.1311  -999.25 137.7334  -999.25 153.9565 -999.25 62.0903  10.2500 12.4902 0.7186 0.9081
    9862.0000  0.0000 -999.25   4.6770  -999.25  47.2509 -999.25   2.6542 -999.25  4.7504  -999.25 121.2837  -999.25 135.4970  -999.25 151.5003 -999.25 62.9102  10.8300 12.4352 0.7154 0.9078
    9862.5000  0.0000 -999.25   4.3046  -999.25  37.9966 -999.25   2.6643 -999.25  4.7368  -999.25 122.1259  -999.25 137.3350  -999.25 153.7832 -999.25 62.1282  10.2700 12.3538 0.7076 0.9042
    9863.0000  0.0000 -999.25   4.5600  -999.25  42.8344 -999.25   2.6575 -999.25  4.7397  -999.25 123.1819  -999.25 137.7600  -999.25 154.2760 -999.25 62.6201  10.6200 12.2492 0.6976 0.9002
    9863.5000  0.0000 -999.25   4.4107  -999.25  40.5117 -999.25   2.6606 -999.25  4.7382  -999.25 125.0087  -999.25 140.3089  -999.25 156.9960 -999.25 62.4004  10.4700 12.0902 0.6896 0.8948
    9864.0000  0.0000 -999.25   4.5949  -999.25  46.6112 -999.25   2.6548 -999.25  4.7614  -999.25 125.3493  -999.25 140.3329  -999.25 156.9419 -999.25 62.8442  10.7800 11.9294 0.6850 0.8922
    9864.5000  0.0000 -999.25   4.6034  -999.25  49.5469 -999.25   2.6528 -999.25  4.7757  -999.25 126.9985  -999.25 142.3355  -999.25 158.9005 -999.25 63.0179  10.9000 11.8060 0.6851 0.8890
    9865.0000  0.0000 -999.25   3.8537  -999.25  35.3181 -999.25   2.6714 -999.25  4.7744  -999.25 127.2234  -999.25 144.8138  -999.25 161.7685 -999.25 61.6322   9.9200 11.7315 0.6882 0.8868
    9865.5000  0.0000 -999.25   3.8192  -999.25  35.8097 -999.25   2.6712 -999.25  4.7804  -999.25 127.7468  -999.25 145.5094  -999.25 162.4715 -999.25 61.6488   9.9400 11.7494 0.6928 0.8871
    9866.0000  0.0000 -999.25   4.1315  -999.25  42.7535 -999.25   2.6626 -999.25  4.7917  -999.25 129.4446  -999.25 146.5149  -999.25 163.5859 -999.25 62.2921  10.3900 11.8100 0.6988 0.8901
    9866.5000  0.0000 -999.25   4.3846  -999.25  47.4431 -999.25   2.6565 -999.25  4.8033  -999.25 129.9875  -999.25 146.4280  -999.25 163.6971 -999.25 62.7086  10.6900 11.9450 0.7041 0.8968
    9867.0000  0.0000 -999.25   4.4332  -999.25  47.2332 -999.25   2.6562 -999.25  4.8054  -999.25 128.9909  -999.25 145.1126  -999.25 162.5159 -999.25 62.7019  10.6800 12.0486 0.7072 0.9032
    9867.5000  0.0000 -999.25   4.5167  -999.25  47.3808 -999.25   2.6551 -999.25  4.7935  -999.25 127.6562  -999.25 143.2670  -999.25 160.4823 -999.25 62.7831  10.7400 12.1306 0.7072 0.9066
    9868.0000  0.0000 -999.25   4.6476  -999.25  48.7258 -999.25   2.6524 -999.25  4.7800  -999.25 127.2506  -999.25 142.3512  -999.25 159.3653 -999.25 62.9879  10.8800 12.1980 0.7050 0.9069
    9868.5000  0.0000 -999.25   4.6159  -999.25  47.1897 -999.25   2.6535 -999.25  4.7615  -999.25 127.5919  -999.25 142.7823  -999.25 159.6284 -999.25 62.9299  10.8400 12.2157 0.7046 0.9039
    9869.0000  0.0000 -999.25   4.7809  -999.25  50.6823 -999.25   2.6492 -999.25  4.7565  -999.25 127.1662  -999.25 141.8669  -999.25 158.3770 -999.25 63.2643  11.0800 12.2638 0.7046 0.9018
    9869.5000  0.0000 -999.25   4.4908  -999.25  45.0954 -999.25   2.6568 -999.25  4.7535  -999.25 126.5081  -999.25 141.9690  -999.25 158.5140 -999.25 62.7241  10.7000 12.2720 0.7057 0.9010
