###############################################
##         ENVERUS                           ##
##         ESS - Open Hole                   ##
##         PERMIAN / DELAWARE                ##
##         Nov 03 2023  V4.0                 ##
##         42-109-32508-00-00                ##
###############################################
## Copyright 2017-2023  ENVERUS.  All Rights Reserved. 
## Confidential - Property of ENVERUS, use governed by terms and 
## conditions found within the existing Information Services Subscription Agreement 
## (as may be amended, the “ISSA”) between Customer and ENVERUS. 
## 
~VERSION INFORMATION
# MNEM.UNIT                               DATA : DESCRIPTION OF MNEMONIC
#-----.-----     ----------------------------- : -----------------------------
VERS.                                     2.00 : CWLS LOG ASCII STANDARD - VERSION 2.00
WRAP.                                       NO : MULTIPLE LINES PER DEPTH STEP
VEND.                                  ENVERUS : VENDOR
TYPE.                          ESS - OPEN HOLE : ENVERUS ESSENTIAL CURVES – ACCESSIBLE THROUGH ENVERUS PRISM(TM)
DOC.                                  51093165 : ENVERUS HEADER RAW DOCUMENT ID
#___________________________________________________________________________________________________ 
~WELL INFORMATION 
# 1l9uGBxUQQhBCtjIwzslcirW42fLV8cokTOAxV7sfA093x4JFuWG6+twQwU/7oNL7vvW02EVanlAmdL+peO2nw== 
# MNEM.UNIT                                              DATA : DESCRIPTION OF MNEMONIC 
#-----.-----                    ----------------------------- : ----------------------------- 
CNTY.                                               CULBERSON : COUNTY 
STATE.                                                  TEXAS : STATE 
CNTRY.                                                    USA : COUNTRY 
API.                                             42-109-32508 : API (10 Digit) 
API_14.                                    42-109-32508-00-00 : API (14 Digits) 
API_14_std.                                 42-109-32508-0000 : API (14 Digits Standard) 
UWI.                                           42109325080000 : UNIQUE WELL ID 
WELL.                                  LT. GIBSON 12 STATE 1H : WELL NAME
STRT.FT                                                1970.5 : START DEPTH
STOP.FT                                                8727.0 : STOP DEPTH
STEP.FT                                                   0.5 : STEP BETWEEN DEPTHS
NULL.                                                 -999.25 : NULL VALUE
PREV_APII.                                     42109325080000 : WELL IDENTIFIER
#___________________________________________________________________________________________________ 
~PARAMETER INFORMATION 
# MNEM.UNIT                                              DATA : DESCRIPTION OF MNEMONIC 
#-----.-----                    ----------------------------- : ----------------------------- 
EKB.FT                                                   3552 : ELEVATION ABOVE MSL
#___________________________________________________________________________________________________ 
~CURVE INFORMATION 
# MNEM.UNIT           : CURVE DESCRIPTION 
#-----.-----          : ----------------------------- 
 DEPT.FT               : MEASURED DEPTH 
 GR__A.API             : GAMMA RAY (GAMMA RAY) 
 DT__A.US/FT           : SONIC DELTA TRANSIT TIME (SONIC) 
 #___________________________________________________________________________________________________ 
~A         DEPT          GR__A          DT__A
# ...
         8234.5        348.718         87.888
         8235.0        328.561        127.539
         8235.5        302.734        128.265
         8236.0        302.344        129.682
         8236.5        306.197         86.758
         8237.0        336.849         85.806
         8237.5        364.440         84.509
         8238.0        389.347         81.776
         8238.5        390.621         79.819
         8239.0        379.792         79.564
         8239.5        383.137         79.298
         8240.0        386.855         79.298
         8240.5        380.836         83.855
         8241.0        350.971        108.160
         8241.5        307.310        133.567
         8242.0        280.952        134.113
         8242.5        288.798        128.404
         8243.0        313.847         97.684
         8243.5        356.080         87.615
         8244.0        392.023         86.550
         8244.5        401.739         86.355
         8245.0        396.841         88.008
         8245.5        384.147         92.008
         8246.0        379.297         91.474
         8246.5        387.043         90.979
         8247.0        390.320         87.587
         8247.5        384.375         81.481
         8248.0        391.128         77.492
         8248.5        404.648         76.023
         8249.0        402.220         76.449
         8249.5        379.884         79.365
         8250.0        357.121        124.933
         8250.5        325.864        126.107
         8251.0        283.595        143.942
         8251.5        268.434        147.777
         8252.0        273.820        134.329
         8252.5        296.172        132.158
         8253.0        339.377        118.155
         8253.5        378.556         85.575
         8254.0        385.909         88.099
         8254.5        376.770         92.434
         8255.0        354.976         99.683
         8255.5        339.347        108.435
         8256.0        340.357        106.372
         8256.5        351.449        104.839
         8257.0        370.539         96.499
         8257.5        391.615         87.135
         8258.0        391.312         92.617
         8258.5        383.576         95.957
         8259.0        368.710         96.601
         8259.5        354.841        103.379
         8260.0        353.906        104.225
         8260.5        352.074        103.052
         8261.0        349.219        100.884
         8261.5        357.938         94.511
         8262.0        366.016         99.741
         8262.5        356.752        102.339
         8263.0        346.875        100.887
         8263.5        356.181         93.888
         8264.0        366.797         91.132
         8264.5        368.169         90.253
         8265.0        369.948         89.669
         8265.5        370.402         89.582
         8266.0        362.715         92.929
         8266.5        351.878         94.853
         8267.0        349.486         95.517
         8267.5        362.399         93.779
         8268.0        370.437         86.559
         8268.5        373.969         85.638
         8269.0        376.172         85.185
         8269.5        375.781         84.265
         8270.0        379.877         82.117
         8270.5        383.615         80.255
         8271.0        380.331         80.312
         8271.5        375.304         80.740
         8272.0        362.856         97.255
         8272.5        325.835        117.861
         8273.0        298.901        120.637
         8273.5        294.575        122.980
         8274.0        294.141        118.341
         8274.5        301.845        113.336
         8275.0        315.178        111.121
         8275.5        332.675        108.793
         8276.0        353.096         92.446
         8276.5        363.689         84.781
         8277.0        369.978         82.254
         8277.5        376.953         81.287
         8278.0        370.552         83.522
         8278.5        349.929        102.803
         8279.0        323.090        109.747
         8279.5        319.322        110.167
         8280.0        328.049        104.043
         8280.5        352.061         91.386
         8281.0        364.301         90.838
         8281.5        366.231         91.033
         8282.0        362.404         91.228
         8282.5        361.823         90.241
         8283.0        365.683         87.135
         8283.5        372.987         86.940
         8284.0        372.400         88.496
         8284.5        360.782         90.643
         8285.0        357.957         89.401
         8285.5        362.025         88.228
         8286.0        364.224         88.304
         8286.5        367.747         88.889
         8287.0        371.449         87.826
         8287.5        377.715         86.745
         8288.0        377.734         86.453
         8288.5        370.690         85.978
         8289.0        369.141         87.434
         8289.5        370.922         88.803
         8290.0        375.227         88.581
         8290.5        377.501         88.616
         8291.0        362.711        103.772
         8291.5        336.413        103.913
         8292.0        330.469         98.845
         8292.5        346.115         88.673
         8293.0        365.095         86.343
         8293.5        352.241         95.976
         8294.0        331.160        107.018
         8294.5        327.344        104.514
         8295.0        337.601         99.467
         8295.5        357.981         90.384
         8296.0        374.411        105.326
         8296.5        375.130        118.908
         8297.0        351.476        119.713
         8297.5        346.768        116.602
         8298.0        370.561         88.420
         8298.5        377.143         86.757
         8299.0        374.609         85.965
         8299.5        374.219         85.575
         8300.0        375.000         90.057
         8300.5        376.563         91.824
         8301.0        374.594         92.203
         8301.5        373.047         91.777
         8302.0        374.642         88.256
         8302.5        375.000         89.090
         8303.0        371.242         92.422
         8303.5        365.008         93.011
         8304.0        360.027         94.574
         8304.5        355.250         93.177
         8305.0        354.459         93.608
         8305.5        362.768         94.152
         8306.0        366.406         92.788
         8306.5        367.399         89.510
         8307.0        373.779         88.247
         8307.5        378.760         87.464
         8308.0        382.162         85.510
         8308.5        388.054         82.972
         8309.0        390.136         90.888
         8309.5        376.813         98.088
         8310.0        353.123        105.477
         8310.5        341.639        112.158
         8311.0        353.926         78.405
         8311.5        374.141         76.955
         8312.0        391.021         76.900
         8312.5        409.970         75.913
         8313.0        410.904         76.218
         8313.5        404.588         76.523
         8314.0        394.333         76.803
         8314.5        376.283         76.998
         8315.0        347.111        106.926
         8315.5        325.964        116.226
         8316.0        332.163        118.389
         8316.5        342.093        120.542
         8317.0        335.847        122.807
         8317.5        322.761        112.010
         8318.0        341.900         95.562
         8318.5        366.941         91.901
         8319.0        379.136         87.347
         8319.5        382.277         86.131
         8320.0        380.597         96.168
         8320.5        372.601         97.633
         8321.0        338.017        101.806
