~Version Information Block
 VERS.                2.00:     CWLS LOG ASCII STANDARD - VERSION 2.000000
 WRAP.                  NO:     One Line Per Depth Step
#
~Well Information Block
#MNEM.UNIT                     Data                         Information
#----------   ------------------------------------------   ----------------
 STRT.F                                        31.0000:     START DEPTH
 STOP.F                                     15936.0000:     STOP DEPTH
 STEP.F                                         0.5000:     STEP
 NULL.                                       -999.2500:     NULL VALUE
 COMP.                             AMERCN QUASAR PETRO:     COMPANY
 WELL.                                    SCOTT UNIT 1:     WELL
 FLD .                                         WILDCAT:     FIELD
 LOC .        Survey  PSL              - Abs  6331     - Blk  45   - Section  19:     LOCATION
 CNTY.                                              TX:     COUNTY
 STAT.                                              TX:     STATE
 CTRY.                        UNITED STATES OF AMERICA:     COUNTRY
 SRVC.                                      GEOGRAPHIX:     SERVICE COMPANY
 DATE.                                                :     DATE
 API .                                  42109313620000:     API NUMBER
 UWI .                                  42109313620000:     UWI NUMBER
 TVD .                                              NO:     TVD flag
 WSTA.                                             LOC:     Well status
#
~Curve Information Block
#MNEM.UNIT       API CODE      Curve Description
#----------    -------------   -------------------
 DEPT.F                    :   Depth in Feet
 LLD .OHMM                 :   LATEROLOG DEEP
 GRS .GAPI                 :   GAMMA RAY FROM SONIC LOG
 CALS.IN                   :   CALIPER FROM SONIC LOG
 MSFL.OHMM                 :   MICRO SPHERICALLY FOCUSED
 LLS .OHMM                 :   LATEROLOG SHALLOW
 DT  .US/F                 :   DELTA TIME
#
~Parameter Information Block
#MNEM.UNIT            Value               Description
#----------    --------------------    -------------------
 RUN .                         ONE:    Run Number
 PDAT.                          GL:    Permanent Datum
 EPD .FT                          :    Elevation Of Perm. Datum
 LMF .               KELLY BUSHING:    Log Measured From
 EKB .FT                          :    Elevation Of Kelly Bushing
 DF .FT                           :    Elevation Of Derrick Floor
 GL .FT                           :    Elevation Of Ground Level
 TD  .FT                          :    Total Depth
 CSGD.FT                          :    Casing Bottom (Driller) 1
 CSGL.FT                          :    Casing Bottom (Logger) 1
 MUD .                            :    Drilling Fluid Type
 MUDV .CP                         :    Drilling Fluid Viscosity
 MUDD .LB/USG                     :    Drilling Fluid Density
 FL .ML/30MIN                     :    Drilling Fluid Loss
 PH.                              :    Drilling Fluid Ph
 MUDS .                           :    Mud Sample Source
 RM .OHMM                         :    Resistivity Of Mud Sample
 RMT .DEGF                        :    Mud Sample Temperature
 RMF .OHMM                        :    Mud Filtrate Resistivity
 RMFT.DEGF                        :    Mud Filtrate Sample Temperature
 RMC .OHMM                        :    Mud Cake Resistivity
 RMCT.DEGF                        :    Mud Cake Sample Temperature
 RMB .OHMM                        :    Mud Resistivity At Bht
 TMAX .DEGF                       :    Bottom Hole Temperature
#
~Other Information Block
<DescLogPlotStart>   NEURALOG PLOT DEFINITION
PLOTDEFVERSION: 3
LASFILE: E:\Nair Innovations\42_TEXAS\109_Culberson\42109313620000_1.las
DEPTHSCALE: 239.999996
RESOLUTION: 200
DEPTHLABELFREQ: 100.000000
HEAVYGRIDFREQ: 50.000000
MEDIUMGRIDFREQ: 50.000000
LIGHTGRIDFREQ: 10.000000
#
#   TRACK 1
#
STARTTRACK: 
 LEFTX: 0.500000 inch
 RIGHTX: 3.000000 inch
 SCALETYPE: Linear
 NUMCHARTDIVISIONS: 10
CURVE: GRS   1.504600   250.000000 (0,0,255)      Solid             2     N    
CURVE: CALS  6.474400   14.873500  (0,131,131)    Solid             2     N    
ENDTRACK: 
#
#   TRACK 2
#
STARTTRACK: 
 LEFTX: 3.500000 inch
 RIGHTX: 6.000000 inch
 SCALETYPE: Log
 NUMCYCLES: 4
 STARTCYCLE: 2
CURVE: LLS   0.200000   2000.000000 (255,0,0)      Solid             4     Y   
BACKUP: 2000.000000 20000000.000000 (255,0,0)      Solid             4    
BACKUP: 0.000020   0.200000   (255,0,0)      Solid             4    
CURVE: MSFL  0.200000   2000.000000 (0,131,131)    Solid             2     N   
ENDTRACK: 
#
#   TRACK 3
#
STARTTRACK: 
 LEFTX: 6.500000 inch
 RIGHTX: 9.000000 inch
 SCALETYPE: Linear
 NUMCHARTDIVISIONS: 10
CURVE: LLD   0.200000   2000.000000 (255,0,255)    Solid             4     N   
CURVE: DT    190.000000 50.000000  (255,0,131)    Solid             2     N    
ENDTRACK: 
<DescLogPlotEnd>
<DepthTrack type='Reference' track='1' Label='0' color='0' hor='0' />
<Reference font='144,0,-900,0,500,0,16777216,Arial' />
~A DEPTH     LLD              GRS              CALS             MSFL             LLS              DT              
# ...
    6926.000 399.16310000     98.17000000      11.05240000      -999.25000000    370.88780000     81.84530000     
    6926.500 422.14960000     97.41520000      11.05220000      -999.25000000    327.36630000     80.32680000     
    6927.000 485.19080000     93.64830000      11.02200000      -999.25000000    389.93090000     80.73150000     
    6927.500 558.91070000     85.73980000      11.02180000      -999.25000000    485.34130000     81.52950000     
    6928.000 573.60390000     79.13650000      10.99160000      -999.25000000    516.46990000     82.14050000     
    6928.500 497.70000000     73.96420000      10.96130000      -999.25000000    438.48260000     82.41360000     
    6929.000 492.89840000     72.10480000      10.93100000      -999.25000000    392.44030000     82.13870000     
    6929.500 535.96600000     69.89400000      10.89860000      -999.25000000    397.86000000     80.67660000     
    6930.000 640.90690000     66.02660000      10.83640000      -999.25000000    420.46700000     78.75790000     
    6930.500 790.50900000     61.10500000      10.81010000      -999.25000000    476.22120000     73.55160000     
    6931.000 836.55410000     59.52080000      10.93830000      -999.25000000    539.36860000     71.99820000     
    6931.500 740.53080000     64.74080000      11.03030000      -999.25000000    517.01500000     75.18880000     
    6932.000 592.11050000     72.16830000      11.05060000      -999.25000000    408.98900000     76.98910000     
    6932.500 394.89210000     83.46170000      11.05050000      -999.25000000    272.84810000     80.59150000     
    6933.000 265.10460000     77.81230000      11.08040000      -999.25000000    219.96190000     80.94440000     
    6933.500 234.10230000     72.91590000      11.08030000      -999.25000000    200.94490000     79.18390000     
    6934.000 244.16480000     67.64300000      11.08010000      -999.25000000    198.81240000     77.59290000     
    6934.500 272.94870000     65.75860000      11.11010000      -999.25000000    223.16730000     78.23230000     
    6935.000 340.93520000     66.13330000      11.14010000      -999.25000000    282.71370000     79.27420000     
    6935.500 462.81470000     71.25140000      11.13990000      -999.25000000    333.79930000     80.75690000     
    6936.000 562.27640000     77.50000000      11.04940000      -999.25000000    371.39880000     82.21720000     
    6936.500 629.06790000     83.07060000      11.04920000      -999.25000000    402.62220000     82.03370000     
    6937.000 685.48840000     73.50710000      11.01900000      -999.25000000    425.49990000     78.37980000     
    6937.500 722.76840000     68.25840000      11.01880000      -999.25000000    443.49240000     77.00910000     
    6938.000 584.30210000     65.97090000      10.98860000      -999.25000000    462.24560000     75.82100000     
    6938.500 476.25830000     66.57220000      10.95830000      -999.25000000    380.71840000     77.01250000     
    6939.000 423.90800000     71.69050000      10.95810000      -999.25000000    317.94350000     78.84570000     
    6939.500 415.77280000     77.03470000      10.95800000      -999.25000000    296.63080000     78.66660000     
    6940.000 605.42210000     79.66840000      10.98800000      -999.25000000    300.72730000     77.16900000     
    6940.500 860.02080000     81.92560000      10.98780000      -999.25000000    464.67680000     77.60580000     
    6941.000 964.36120000     82.67680000      10.98760000      -999.25000000    541.45390000     78.31140000     
    6941.500 1028.31820000    82.67490000      10.98750000      -999.25000000    587.29990000     78.46320000     
    6942.000 1070.59020000    82.67310000      10.98730000      -999.25000000    619.61610000     78.18810000     
    6942.500 1041.71010000    83.04780000      10.95710000      -999.25000000    612.61240000     78.37450000     
    6943.000 1042.28260000    85.00360000      10.95690000      -999.25000000    597.67830000     78.73410000     
    6943.500 1042.77510000    89.24270000      10.98690000      -999.25000000    592.22760000     79.37250000     
    6944.000 1072.61540000    96.37050000      10.95660000      -999.25000000    608.27570000     80.10220000     
    6944.500 1103.30970000    96.97130000      10.98660000      -999.25000000    630.37210000     79.27940000     
    6945.000 1134.88230000    89.81550000      10.98640000      -999.25000000    648.50180000     78.45660000     
    6945.500 1103.77810000    82.58870000      10.98630000      -999.25000000    643.17300000     77.90770000     
    6946.000 882.10810000     70.61530000      10.98610000      -999.25000000    616.91350000     77.63290000     
    6946.500 765.96980000     64.50650000      10.98600000      -999.25000000    567.64340000     76.41230000     
    6947.000 717.75040000     62.69920000      10.98580000      -999.25000000    515.12410000     75.22630000     
    6947.500 686.20930000     64.57990000      10.98570000      -999.25000000    494.09250000     74.73500000     
    6948.000 660.06850000     66.46060000      10.98550000      -999.25000000    480.52920000     73.73160000     
    6948.500 653.76740000     63.07020000      10.98540000      -999.25000000    473.85590000     71.90500000     
    6949.000 679.93210000     55.91480000      10.98520000      -999.25000000    473.79050000     69.89250000     
    6949.500 749.82370000     44.99430000      10.98510000      -999.25000000    484.07370000     68.35860000     
    6950.000 908.26560000     41.22740000      10.98490000      -999.25000000    567.39540000     67.03200000     
    6950.500 1037.05590000    39.71950000      10.98480000      -999.25000000    655.36980000     66.38000000     
    6951.000 1079.98910000    40.34510000      10.95450000      -999.25000000    690.97640000     66.84730000     
    6951.500 1050.93630000    44.60960000      10.95440000      -999.25000000    697.77700000     68.03370000     
    6952.000 994.68410000     50.93010000      10.95420000      -999.25000000    635.00850000     68.94600000     
    6952.500 954.59270000     64.06340000      10.92390000      -999.25000000    603.51350000     71.59350000     
    6953.000 941.85000000     71.41190000      10.92380000      -999.25000000    603.21940000     74.78900000     
    6953.500 968.84120000     81.12390000      10.92360000      -999.25000000    612.04060000     78.89770000     
    6954.000 996.56580000     97.53040000      10.92350000      -999.25000000    632.83420000     82.27950000     
    6954.500 1025.08370000    111.61670000     10.92330000      -999.25000000    641.57370000     81.58750000     
    6955.000 1069.90810000    109.35590000     10.92320000      -999.25000000    659.50510000     78.61070000     
    6955.500 1084.59130000    99.56490000      10.92300000      -999.25000000    668.62150000     76.10230000     
    6956.000 1040.91550000    79.23170000      10.89280000      -999.25000000    668.52290000     74.04190000     
    6956.500 999.00180000     77.67320000      10.92270000      -999.25000000    641.22840000     75.40610000     
    6957.000 800.54530000     79.98110000      10.92260000      -999.25000000    590.01640000     76.97780000     
    6957.500 641.51320000     83.74440000      10.92240000      -999.25000000    519.90400000     77.96830000     
    6958.000 589.82290000     89.86680000      10.92230000      -999.25000000    477.24010000     78.77050000     
    6958.500 555.87590000     85.27170000      10.92210000      -999.25000000    439.01400000     79.98430000     
    6959.000 514.55950000     81.70560000      10.92200000      -999.25000000    421.67240000     80.62270000     
    6959.500 517.88240000     80.24790000      10.92180000      -999.25000000    411.31340000     81.07840000     
    6960.000 552.74540000     79.09160000      10.89160000      -999.25000000    413.16820000     80.80360000     
    6960.500 643.23150000     78.31170000      10.89140000      -999.25000000    440.67950000     77.33240000     
