###############################################
##         ENVERUS                           ##
##         ESS - Open Hole                   ##
##         PERMIAN / DELAWARE                ##
##         Nov 03 2023  V4.0                 ##
##         42-109-32620-90-00                ##
###############################################
## Copyright 2017-2023  ENVERUS.  All Rights Reserved. 
## Confidential - Property of ENVERUS, use governed by terms and 
## conditions found within the existing Information Services Subscription Agreement 
## (as may be amended, the “ISSA”) between Customer and ENVERUS. 
## 
~VERSION INFORMATION
# MNEM.UNIT                               DATA : DESCRIPTION OF MNEMONIC
#-----.-----     ----------------------------- : -----------------------------
VERS.                                     2.00 : CWLS LOG ASCII STANDARD - VERSION 2.00
WRAP.                                       NO : MULTIPLE LINES PER DEPTH STEP
VEND.                                  ENVERUS : VENDOR
TYPE.                          ESS - OPEN HOLE : ENVERUS ESSENTIAL CURVES – ACCESSIBLE THROUGH ENVERUS PRISM(TM)
DOC.                                  51092896 : ENVERUS HEADER RAW DOCUMENT ID
#___________________________________________________________________________________________________ 
~WELL INFORMATION 
# mS4wxE9S4ErBCd3MEwtzWWb7vaBLyBp2a6hoNdhJ+t1pinRta8/5SsS3wr5CrR4pTncMCKeAGTUU45xlgh6yRQ== 
# MNEM.UNIT                                              DATA : DESCRIPTION OF MNEMONIC 
#-----.-----                    ----------------------------- : ----------------------------- 
CNTY.                                               CULBERSON : COUNTY 
STATE.                                                  TEXAS : STATE 
CNTRY.                                                    USA : COUNTRY 
API.                                             42-109-32620 : API (10 Digit) 
API_14.                                    42-109-32620-90-00 : API (14 Digits) 
API_14_std.                                 42-109-32620-9000 : API (14 Digits Standard) 
UWI.                                           42109326209000 : UNIQUE WELL ID 
WELL.                               42109326200000_PREV_API14 : WELL NAME
STRT.FT                                                2338.5 : START DEPTH
STOP.FT                                               10866.0 : STOP DEPTH
STEP.FT                                                   0.5 : STEP BETWEEN DEPTHS
NULL.                                                 -999.25 : NULL VALUE
PREV_APII.                                     42109326200000 : WELL IDENTIFIER
#___________________________________________________________________________________________________ 
~PARAMETER INFORMATION 
# MNEM.UNIT                                              DATA : DESCRIPTION OF MNEMONIC 
#-----.-----                    ----------------------------- : ----------------------------- 
EKB.FT                                                   3330 : ELEVATION ABOVE MSL
#___________________________________________________________________________________________________ 
~CURVE INFORMATION 
# MNEM.UNIT           : CURVE DESCRIPTION 
#-----.-----          : ----------------------------- 
 DEPT.FT               : MEASURED DEPTH 
 CALI.IN               : CALIPER (CAL - CALIPER) 
 GR.API                : GAMMA RAY (GAMMA RAY) 
 DT.US/FT              : SONIC DELTA TRANSIT TIME (PRESSURE WAVE SONIC) 
 #___________________________________________________________________________________________________ 
~A         DEPT           CALI             GR             DT
# ...
        10786.5          8.555         93.527         72.161
        10787.0          8.570         93.966         73.567
        10787.5          8.575         99.484         74.023
        10788.0          8.575        106.387         76.583
        10788.5          8.575        104.643         77.264
        10789.0          8.575         97.212         75.871
        10789.5          8.575         96.779         76.928
        10790.0          8.577        100.420         75.756
        10790.5          8.635         99.728         76.753
        10791.0          8.575         95.853         76.471
        10791.5          8.575         90.597         73.438
        10792.0          8.575         86.764         72.798
        10792.5          8.662         85.230         72.290
        10793.0          8.646         86.545         72.082
        10793.5          8.615         88.721         72.817
        10794.0          8.615         86.898         70.922
        10794.5          8.615         84.253         71.077
        10795.0          8.595         92.158         70.890
        10795.5          8.595         98.289         71.578
        10796.0          8.595        103.370         72.599
        10796.5          8.595        101.849         75.459
        10797.0          8.615         93.493         73.732
        10797.5          8.615         89.772         72.492
        10798.0          8.635         88.425         72.498
        10798.5          8.675         88.024         72.191
        10799.0          8.675         88.736         71.939
        10799.5          8.695         96.252         75.697
        10800.0          8.719        107.214         78.399
        10800.5          8.843        113.520         80.526
        10801.0          9.227        118.363         81.422
        10801.5          9.146        107.048         81.714
        10802.0          9.054         92.836         77.707
        10802.5          9.034         63.497         55.967
        10803.0          8.943         47.279         54.772
        10803.5          8.842         38.398         54.588
        10804.0          8.794         38.119         53.061
        10804.5          8.780         57.657         53.216
        10805.0          8.775         70.891         58.115
        10805.5          8.775         63.348         59.194
        10806.0          8.775         53.271         58.670
        10806.5          8.814         44.150         57.445
        10807.0          8.814         56.849         54.422
        10807.5          8.834         89.512         69.726
        10808.0          8.876        106.488         73.695
        10808.5          8.997        114.603         74.172
        10809.0          9.098        112.325         75.498
        10809.5          9.114        108.456         78.248
        10810.0          9.114        108.049         75.960
        10810.5          9.114        112.938         77.284
        10811.0          9.085        119.358         78.034
        10811.5          9.034        120.696         77.974
        10812.0          9.034        103.214         79.169
        10812.5          8.994         84.826         74.987
        10813.0          8.921         83.004         66.310
        10813.5          8.820         98.536         66.179
        10814.0          8.834        105.400         66.165
        10814.5          8.874        110.944         69.028
        10815.0          8.874        105.559         75.606
        10815.5          8.834         97.449         73.645
        10816.0          8.834         97.404         75.326
        10816.5          8.834        107.325         75.440
        10817.0          8.916        109.602         74.636
        10817.5          8.934        109.748         73.911
        10818.0          8.934        108.497         75.783
        10818.5          8.934        105.472         72.859
        10819.0          8.928        102.397         72.738
        10819.5          8.894        103.138         72.882
        10820.0          8.894        105.452         73.547
        10820.5          8.894       -999.250         75.490
        10821.0          8.925       -999.250         76.749
        10821.5          8.934       -999.250         75.783
        10822.0          8.934       -999.250         74.624
        10822.5          8.934       -999.250         69.136
        10823.0          8.894       -999.250         59.045
        10823.5          8.810       -999.250         54.414
        10824.0          8.697       -999.250         54.323
        10824.5          8.753       -999.250         54.323
        10825.0          8.854       -999.250         58.632
        10825.5          8.914       -999.250         74.429
        10826.0          8.934       -999.250         77.462
        10826.5          8.934       -999.250         74.529
        10827.0          8.930       -999.250         73.508
        10827.5          8.889       -999.250         68.583
        10828.0          8.828       -999.250         60.125
        10828.5          8.802       -999.250         55.629
        10829.0          8.834       -999.250         59.254
        10829.5          8.924       -999.250         64.139
        10830.0          8.934       -999.250         69.341
        10830.5          8.934       -999.250         78.242
        10831.0          8.934       -999.250         75.450
        10831.5          8.934       -999.250         72.174
        10832.0          8.990       -999.250         68.947
        10832.5          8.914       -999.250         65.993
        10833.0          8.897       -999.250         66.653
        10833.5          8.894       -999.250         62.674
        10834.0          8.984       -999.250         68.285
        10834.5          8.929       -999.250         71.073
        10835.0          8.752       -999.250         72.795
        10835.5          8.735       -999.250         76.479
        10836.0          8.779       -999.250         76.543
        10836.5          8.949       -999.250         78.699
        10837.0          8.934       -999.250         77.374
        10837.5          8.854       -999.250         76.300
        10838.0          8.814       -999.250         74.912
        10838.5          8.814       -999.250         72.708
        10839.0          8.854       -999.250         76.358
        10839.5          8.874       -999.250         78.793
        10840.0          8.874       -999.250         79.142
        10840.5          8.929       -999.250         78.248
        10841.0          8.939       -999.250         75.779
        10841.5          8.874       -999.250         74.373
        10842.0          8.797       -999.250         73.989
        10842.5          8.775       -999.250         73.464
        10843.0          8.775       -999.250         73.340
        10843.5          8.775       -999.250         72.976
        10844.0          8.794       -999.250         73.347
        10844.5          8.771       -999.250         73.530
        10845.0          8.735       -999.250         73.641
        10845.5          8.735       -999.250         73.676
        10846.0          8.708       -999.250         72.579
        10846.5          8.687       -999.250         70.376
        10847.0          8.572       -999.250         64.873
        10847.5          8.420       -999.250         58.404
        10848.0          8.196       -999.250         61.861
        10848.5          6.141       -999.250         76.158
        10849.0       -999.250       -999.250         70.074
        10849.5       -999.250       -999.250         65.622
        10850.0       -999.250       -999.250         73.440
        10850.5       -999.250       -999.250         78.043
        10851.0       -999.250       -999.250         79.518
        10851.5       -999.250       -999.250         81.093
        10852.0       -999.250       -999.250         79.538
