~Version Information
 VERS.                  2.0:   CWLS log ASCII Standard -VERSION 2.0
 WRAP.                   NO:   One line per depth step
~Well Information Block
#MNEM.UNIT     VALUE/NAME     DESCRIPTION
#---------     -----------    ---------------------------
 STRT.F              8432.0000: START DEPTH
 STOP.F             13842.0000: STOP DEPTH
 STEP.F                 0.5000: STEP DEPTH
 NULL.                 -999.25: NULL VALUE
 LOC .     100' FNL & 990' FEL:  LOCATION
 FL6 .       API  42-109-33163:  LOCATIONLINE6
 FL4 .           ABSTRACT 1006:  LOCATIONLINE4
 FL3 .        T&P RR CO SURVEY:  LOCATIONLINE3
 FL2 .     SECTION 36, BLOCK 59 T2:  LOCATIONLINE2
 FL1 .     100' FNL & 990' FEL:  LOCATIONLINE1
 DMF .                      KB:  DRILL MEAS FROM
 PDAT.                      GL:  PERMANENT DATUM
 CNTY.               CULBERSON:  COUNTY NAME
 FLD .     FORD, WEST (WOLFCAMP):  FIELD NAME
 WELL.         SCOTT FEE 36 2H:  WELL NAME
 COMP.     CAPITAN ENERGY INC.:  COMPANY
 DATE.             11-Oct-2017:  DATE
 SVCO.             Halliburton:  SERVICECONAME
 PROV.                   TEXAS:  PROVINCE
 STAT.                   TEXAS:  STATE NAME
 CTRY.           UNITED STATES:  COUNTRY NAME
 HIDE.                        :  WELLNAMEOPERAT
 BASI.                 PERMIAN:  BASIN
 UWI .            42-109-33163Lat:  UNIQUE WELL IDENTIFIER
 API .            42-109-33163Lat:  API NUMBER
 RANG.                     N/A:  RANGE
 TOWN.                     N/A:  TOWNSHIP
 SECT.                     N/A:  SECTION
 SON .               904352259:  JOB NUMBER
 SRVC.             Halliburton:  SERVICE COMPANY
 LMF .                      KB:  LOG MEASURED FROM
 EGL .ft             3174.0000:  GROUND ELEVATION
 BAP .ft                0.0000:  GL ELEV ONSHORE
 GVFD.g                 1.0000:  GRAVITY FIELD
 EKB .ft             3200.0000:  KB ELEVATION
 EDF .ft             3199.0000:  DF ELEVATION
~Curve Information Block
#MNEM.UNIT                 API CODE     Curve Description
#---------               -----------    ---------------------------
 DEPT.F                 00 000 000 000:  Depth
 CCL .V                 00 000 000 000:  Casing Collar Locator
 NPHI_OH.pu             00 000 000 000:  NPHI_OH
 NPHI_CHI.pu            00 000 000 000:  NPHI_CHI
 GR_CHI.api             00 000 000 000:  GR_CHI
 GR_OH.api              00 000 000 000:  GR_OH
 RHOB_OH.g/cc           00 000 000 000:  RHOB_OH
 RHOB_CHI.g/cc          00 000 000 000:  RHOB_CHI
 PE_CHI.b/e             00 000 000 000:  PE_CHI
 PE_OH.b/e              00 000 000 000:  PE_OH
 MSFL_OH.ohmm           00 000 000 000:  MSFL_OH
 MSFL_CHI.ohmm          00 000 000 000:  MSFL_CHI
 LLS_OH.ohmm            00 000 000 000:  LLS_OH
 LLS_CHI.ohmm           00 000 000 000:  LLS_CHI
 LLD_OH.ohmm            00 000 000 000:  LLD_OH
 LLD_CHI.ohmm           00 000 000 000:  LLD_CHI
 DTC_OH.uspf            00 000 000 000:  DTC_OH
 DTC_CHI.uspf           00 000 000 000:  DTC_CHI
 SPHI_CHI.pu            00 000 000 000:  SPHI_CHI
 SGF .cu                00 000 000 000:  Formation Sigma
 CRNF.NONE              00 000 000 000:  CM GrsCaptRatio
 RIN .NONE              00 000 000 000:  CM GrsInelRatio
~A    DEPT      CCL   NPHI_OH NPHI_CHI  GR_CHI   GR_OH   RHOB_OH RHOB_CHI PE_CHI  PE_OH   MSFL_OH  MSFL_CHI  LLS_OH   LLS_CHI   LLD_OH  LLD_CHI  DTC_OH  DTC_CHI SPHI_CHI   SGF    CRNF   RIN   
# ...
    9881.0000  0.0000 -999.25  10.1457  51.7000  -999.25 -999.25   2.5963 3.9867 -999.25   -999.25  53.4561   -999.25  67.4359  -999.25  68.3046 -999.25 65.9315  13.0200 20.3277 0.9173 0.9835
    9881.5000  0.0000 -999.25   9.8953  48.1491  -999.25 -999.25   2.5997 4.0010 -999.25   -999.25  52.6964   -999.25  66.3458  -999.25  67.1931 -999.25 65.7490  12.8700 20.4227 0.9301 0.9849
    9882.0000  0.0000 -999.25  10.2499  51.0342  -999.25 -999.25   2.5963 3.9807 -999.25   -999.25  51.8993   -999.25  65.2042  -999.25  66.0293 -999.25 66.0344  12.9800 20.5558 0.9397 0.9838
    9882.5000  0.0000 -999.25  10.7298  55.3900  -999.25 -999.25   2.5916 3.9575 -999.25   -999.25  51.4882   -999.25  64.6165  -999.25  65.4301 -999.25 66.4397  13.2400 20.7096 0.9454 0.9823
    9883.0000  0.0000 -999.25  11.4993  62.6326  -999.25 -999.25   2.5839 3.9131 -999.25   -999.25  50.9177   -999.25  63.8020  -999.25  64.5999 -999.25 67.0386  13.6200 20.8519 0.9438 0.9828
    9883.5000  0.0000 -999.25  11.0663  56.1447  -999.25 -999.25   2.5899 3.9530 -999.25   -999.25  50.2664   -999.25  62.8736  -999.25  63.6536 -999.25 66.7836  13.6200 20.9511 0.9409 0.9845
    9884.0000  0.0000 -999.25  10.8142  52.0867  -999.25 -999.25   2.5935 3.9732 -999.25   -999.25  49.6712   -999.25  62.0266  -999.25  62.7904 -999.25 66.6042  13.4800 20.9456 0.9328 0.9875
    9884.5000  0.0000 -999.25  10.8667  52.0576  -999.25 -999.25   2.5928 3.9622 -999.25   -999.25  49.2604   -999.25  61.4430  -999.25  62.1956 -999.25 66.5446  13.4100 20.8702 0.9255 0.9924
    9885.0000  0.0000 -999.25  11.2466  56.2150  -999.25 -999.25   2.5879 3.9287 -999.25   -999.25  49.2831   -999.25  61.4752  -999.25  62.2284 -999.25 66.7257  13.4900 20.7163 0.9209 0.9962
    9885.5000  0.0000 -999.25  11.5841  60.8158  -999.25 -999.25   2.5831 3.8954 -999.25   -999.25  49.5952   -999.25  61.9185  -999.25  62.6803 -999.25 66.8668  13.6000 20.5536 0.9190 0.9986
    9886.0000  0.0000 -999.25  11.5013  60.7242  -999.25 -999.25   2.5833 3.9039 -999.25   -999.25  50.2382   -999.25  62.8334  -999.25  63.6127 -999.25 66.7477  13.5700 20.4268 0.9212 1.0000
    9886.5000  0.0000 -999.25  11.5372  62.3024  -999.25 -999.25   2.5824 3.9060 -999.25   -999.25  50.9271   -999.25  63.8154  -999.25  64.6135 -999.25 66.7970  13.5700 20.3732 0.9265 0.9970
    9887.0000  0.0000 -999.25  11.6359  64.1802  -999.25 -999.25   2.5811 3.9032 -999.25   -999.25  51.4705   -999.25  64.5913  -999.25  65.4044 -999.25 66.8973  13.6300 20.3434 0.9275 0.9948
    9887.5000  0.0000 -999.25  11.4386  62.1388  -999.25 -999.25   2.5836 3.9242 -999.25   -999.25  51.7020   -999.25  64.9221  -999.25  65.7416 -999.25 66.8319  13.6100 20.3474 0.9218 0.9914
    9888.0000  0.0000 -999.25  10.9580  56.2745  -999.25 -999.25   2.5898 3.9703 -999.25   -999.25  51.8311   -999.25  65.1068  -999.25  65.9299 -999.25 66.5733  13.4700 20.3892 0.9145 0.9900
    9888.5000  0.0000 -999.25  10.7192  53.3887  -999.25 -999.25   2.5927 3.9899 -999.25   -999.25  51.8137   -999.25  65.0819  -999.25  65.9046 -999.25 66.4136  13.3400 20.3943 0.9061 0.9906
    9889.0000  0.0000 -999.25  11.4333  62.1306  -999.25 -999.25   2.5837 3.9235 -999.25   -999.25  51.6328   -999.25  64.8232  -999.25  65.6408 -999.25 66.8473  13.5200 20.4204 0.9014 0.9902
    9889.5000  0.0000 -999.25  11.6403  65.3515  -999.25 -999.25   2.5806 3.8953 -999.25   -999.25  51.6107   -999.25  64.7917  -999.25  65.6087 -999.25 66.9305  13.6500 20.4145 0.9040 0.9901
    9890.0000  0.0000 -999.25  11.4607  64.1615  -999.25 -999.25   2.5819 3.8941 -999.25   -999.25  51.4981   -999.25  64.6307  -999.25  65.4446 -999.25 66.7455  13.5800 20.4458 0.9084 0.9892
    9890.5000  0.0000 -999.25  11.6456  67.0583  -999.25 -999.25   2.5793 3.8705 -999.25   -999.25  51.5235   -999.25  64.6670  -999.25  65.4817 -999.25 66.8549  13.5900 20.5020 0.9184 0.9878
    9891.0000  0.0000 -999.25  11.1862  61.4691  -999.25 -999.25   2.5849 3.9065 -999.25   -999.25  51.3887   -999.25  64.4744  -999.25  65.2853 -999.25 66.5784  13.4800 20.5968 0.9282 0.9862
    9891.5000  0.0000 -999.25  10.8424  56.9301  -999.25 -999.25   2.5894 3.9359 -999.25   -999.25  51.1475   -999.25  64.1300  -999.25  64.9342 -999.25 66.3754  13.3200 20.7157 0.9401 0.9863
    9892.0000  0.0000 -999.25  11.1534  59.3590  -999.25 -999.25   2.5868 3.9223 -999.25   -999.25  50.7433   -999.25  63.5532  -999.25  64.3462 -999.25 66.6576  13.4200 20.8241 0.9442 0.9859
    9892.5000  0.0000 -999.25  11.6718  64.2893  -999.25 -999.25   2.5817 3.8879 -999.25   -999.25  50.2407   -999.25  62.8370  -999.25  63.6163 -999.25 67.0899  13.6900 20.8635 0.9407 0.9851
    9893.0000  0.0000 -999.25  11.7843  64.3579  -999.25 -999.25   2.5816 3.8880 -999.25   -999.25  49.7869   -999.25  62.1912  -999.25  62.9581 -999.25 67.2777  13.8800 20.8829 0.9379 0.9835
    9893.5000  0.0000 -999.25  11.7234  63.1263  -999.25 -999.25   2.5827 3.8965 -999.25   -999.25  49.6230   -999.25  61.9581  -999.25  62.7206 -999.25 67.2658  13.9100 20.9400 0.9363 0.9835
    9894.0000  0.0000 -999.25  12.0854  67.7654  -999.25 -999.25   2.5781 3.8595 -999.25   -999.25  49.5425   -999.25  61.8436  -999.25  62.6039 -999.25 67.4838  14.0200 21.1451 0.9392 0.9839
    9894.5000  0.0000 -999.25  11.7985  64.2490  -999.25 -999.25   2.5812 3.8771 -999.25   -999.25  49.3062   -999.25  61.5080  -999.25  62.2619 -999.25 67.2218  13.9300 21.3269 0.9455 0.9859
    9895.0000  0.0000 -999.25  11.4405  59.3098  -999.25 -999.25   2.5853 3.8921 -999.25   -999.25  48.4669   -999.25  60.3173  -999.25  61.0486 -999.25 66.8762  13.7100 21.4561 0.9485 0.9900
    9895.5000  0.0000 -999.25  11.8752  63.4770  -999.25 -999.25   2.5804 3.8466 -999.25   -999.25  47.7350   -999.25  59.2812  -999.25  59.9930 -999.25 67.1485  13.7700 21.3692 0.9524 0.9926
    9896.0000  0.0000 -999.25  12.2125  66.2871  -999.25 -999.25   2.5771 3.8143 -999.25   -999.25  47.2215   -999.25  58.5557  -999.25  59.2538 -999.25 67.3946  13.9500 21.2611 0.9551 0.9955
    9896.5000  0.0000 -999.25  12.6461  71.5082  -999.25 -999.25   2.5722 3.7830 -999.25   -999.25  47.5662   -999.25  59.0427  -999.25  59.7500 -999.25 67.7552  14.1800 21.1006 0.9517 0.9959
    9897.0000  0.0000 -999.25  12.3592  67.7329  -999.25 -999.25   2.5760 3.8233 -999.25   -999.25  47.9986   -999.25  59.6541  -999.25  60.3729 -999.25 67.5947  14.1700 21.1192 0.9479 0.9952
    9897.5000  0.0000 -999.25  12.3294  67.6239  -999.25 -999.25   2.5766 3.8419 -999.25   -999.25  48.6478   -999.25  60.5737  -999.25  61.3098 -999.25 67.6448  14.1700 21.3920 0.9473 0.9931
    9898.0000  0.0000 -999.25  12.1635  65.8076  -999.25 -999.25   2.5782 3.8512 -999.25   -999.25  48.5721   -999.25  60.4664  -999.25  61.2005 -999.25 67.4763  14.0900 21.6806 0.9457 0.9941
    9898.5000  0.0000 -999.25  12.2232  66.0598  -999.25 -999.25   2.5772 3.8201 -999.25   -999.25  47.4755   -999.25  58.9145  -999.25  59.6194 -999.25 67.4100  14.0200 22.0090 0.9507 0.9972
    9899.0000  0.0000 -999.25  13.1190  76.5983  -999.25 -999.25   2.5661 3.7066 -999.25   -999.25  46.3424   -999.25  57.3161  -999.25  57.9911 -999.25 68.0078  14.3100 22.1565 0.9482 1.0020
    9899.5000  0.0000 -999.25  12.9537  73.5657  -999.25 -999.25   2.5681 3.6962 -999.25   -999.25  45.0858   -999.25  55.5499  -999.25  56.1924 -999.25 67.7789  14.3200 22.2397 0.9441 1.0049
    9900.0000  0.0000 -999.25  12.5764  67.9058  -999.25 -999.25   2.5732 3.7295 -999.25   -999.25  44.5325   -999.25  54.7745  -999.25  55.4027 -999.25 67.5167  14.1400 22.4346 0.9391 1.0039
    9900.5000  0.0000 -999.25  12.5213  67.5910  -999.25 -999.25   2.5737 3.7277 -999.25   -999.25  44.2235   -999.25  54.3418  -999.25  54.9622 -999.25 67.4673  14.0600 22.4873 0.9397 1.0019
    9901.0000  0.0000 -999.25  12.8287  71.7999  -999.25 -999.25   2.5695 3.6791 -999.25   -999.25  43.5078   -999.25  53.3417  -999.25  53.9440 -999.25 67.6581  14.1400 22.4312 0.9474 1.0012
    9901.5000  0.0000 -999.25  12.7825  71.4444  -999.25 -999.25   2.5696 3.6731 -999.25   -999.25  43.3163   -999.25  53.0745  -999.25  53.6719 -999.25 67.5476  14.1300 22.2466 0.9557 1.0030
