~VERSION INFORMATION
VERS. 2.0 : CWLS Log ASCII Standard - Version 2.0
WRAP. NO : One line per depth step
#--------------------------------------------------#
#----------------DRILLING INFO, INC.---------------#
#---------------WWW.DRILLINGINFO.COM---------------#
#------------------COPYRIGHT 2015------------------#
#--------------------------------------------------#
#THIS FILE MAY BE USED ONLY IN ACCORDANCE WITH A CURRENT SUBSCRIPTION AGREEMENT BETWEEN
#THE USER AND DRILLING INFO, INC. NO PART OF THIS FILE MAY BE REPRODUCED, USED, COPIED,
#MODIFIED, PROPAGATED, OR DISTRIBUTED EXCEPT IN ACCORDANCE WITH THE SUBSCRIPTION
#AGREEMENT. UNAUTHORIZED USE OR DISTRIBUTION OF ALL OR ANY PART OF THIS FILE MAY VIOLATE
#COPYRIGHT, TRADEMARK, AND/OR OTHER LAWS AND IS SUBJECT TO CIVIL AS WELL AS CRIMINAL
#SANCTIONS.
#--------------------------------------------------#
#THIS FILE IS PROVIDED "AS-IS" AND ALL WARRANTIES ARE EXPRESSLY DISCLAIMED, WHETHER
#EXPRESS, ORAL, IMPLIED, STATUTORY OR OTHERWISE, INCLUDING ANY IMPLIED WARRANTY OF FITNESS
#FOR A PARTICULAR PURPOSE, MERCHANTABILITY, TITLE OR NON-INFRINGEMENT, AND ANY WARRANTIES
#ARISING BY VIRTUE OF CUSTOM OF TRADE OR COURSE OF DEALING.  FURTHER, DRILLING INFO,
#INC. AND ITS LICENSORS DO NOT REPRESENT OR WARRANT THAT THIS FILE WILL MEET USER'S
#REQUIREMENTS OR ARE SUITABLE FOR USER'S NEEDS OR THAT THE DATA OR RESULTS PROVIDED IN
#CONJUNCTION THEREWITH ARE CORRECT, ACCURATE, TIMELY OR RELIABLE. THESE DISCLAIMERS SHALL
#APPLY REGARDLESS OF ANY FAILURE OF ESSENTIAL PURPOSE OF ANY LIMITED REMEDY.  SOME
#JURISDICTIONS DO NOT ALLOW THE EXCLUSION OF CERTAIN WARRANTIES SO SOME OF THE ABOVE
#EXCLUSIONS MAY NOT APPLY. IN NO EVENT SHALL DRILLING INFO, INC. OR ANY OF ITS AFFILIATES
#BE LIABLE UNDER ANY LEGAL THEORY, WHETHER IN TORT (INCLUDING WITHOUT LIMITATION
#NEGLIGENCE), CONTRACT, STRICT LIABILITY, STATUTORY OR OTHERWISE, FOR ANY SPECIAL,
#INCIDENTAL, CONSEQUENTIAL, EXEMPLARY, PUNITIVE OR INDIRECT DAMAGE OF ANY KIND, INCLUDING
#WITHOUT LIMITATION LOSS OF REVENUE, PROFITS, GOODWILL, USE, AND/OR DATA OR THE COST OF
#PROCUREMENT OF SUBSTITUTE GOODS OR SERVICES, EVEN IF APPRISED OF THE POSSIBILITY OF SUCH
#DAMAGES IN ADVANCE.
#--------------------------------------------------#
~WELL INFORMATION
#MNEMONIC     .UNIT              VALUE :DESCRIPTION
#--------------------------------------------------#
STRT       .ft                51.00000 :START DEPTH
STOP       .ft                9476.00000 :STOP DEPTH
STEP       .ft                0.50000 :STEP
NULL       .                -999.25000 :NULL VALUE
COMP       .                 :COMPANY
WELL       .                 :WELL
FLD       .                 :FIELD
LOC       .                 :LOCATION
CNTY       .                 :COUNTY
STAT       .                 :STATE
CTRY       .                 :COUNTRY
SRVC       .                 :SERVICE COMPANY
DATE       .                 :DATE
API       .                42109100520000 :API NUMBER
~CURVE INFORMATION
#MNEMONIC     .UNIT      API CODE :CURVE DESCRIPTION
#--------------------------------------------------#
DEPTH       .ft                      :Measured Depth
CAL       .in        UNKNOWN   :CAL
DT       .us/ft        UNKNOWN   :DT
GR       .gAPI        UNKNOWN   :GR
~A    DEPTH    CAL    DT    GR
# ...
5174.50000    9.36945    65.31571    81.35616
5175.00000    9.42517    64.30508    80.79197
5175.50000    9.38428    63.29445    80.22779
5176.00000    9.34120    63.67024    79.19512
5176.50000    9.29813    64.48838    74.13071
5177.00000    9.25505    64.21062    69.06629
5177.50000    9.21197    62.71370    64.00188
5178.00000    9.16889    61.21679    58.93747
5178.50000    9.14432    61.49153    61.39309
5179.00000    9.19637    61.93363    67.96707
5179.50000    9.24842    61.79148    62.24295
5180.00000    9.30046    61.23984    56.51884
5180.50000    9.35251    60.68820    56.45858
5181.00000    9.40455    60.13656    65.59470
5181.50000    9.45660    60.15794    74.73081
5182.00000    9.50864    60.70330    83.86693
5182.50000    9.52546    61.24865    93.00304
5183.00000    9.52735    61.79401    83.87620
5183.50000    9.52925    62.33937    65.79534
5184.00000    9.53114    62.88473    61.37857
5184.50000    9.53304    62.86061    63.47988
5185.00000    9.53493    61.79077    65.58119
5185.50000    9.53682    60.72093    67.68250
5186.00000    9.53872    59.65109    60.27868
5186.50000    9.54061    58.58125    50.53268
5187.00000    9.54251    57.51140    40.78668
5187.50000    9.54440    56.44156    44.89523
5188.00000    9.54629    55.37172    52.56803
5188.50000    9.54819    55.72337    60.24084
5189.00000    9.54882    56.34494    67.91365
5189.50000    9.54884    56.96652    73.47886
5190.00000    9.54886    57.58810    67.75132
5190.50000    9.54889    58.20967    62.02378
5191.00000    9.54891    58.83125    67.70408
5191.50000    9.54813    59.45283    70.37892
5192.00000    9.53973    59.83322    72.63950
5192.50000    9.53132    60.19366    74.90008
5193.00000    9.52292    60.55409    82.50903
5193.50000    9.51451    61.27653    95.28010
5194.00000    9.50611    62.08290    100.35447
5194.50000    9.49770    62.88927    89.31010
5195.00000    9.48930    63.69564    78.26574
5195.50000    9.48090    64.50200    78.76031
5196.00000    9.48663    64.78827    82.60800
5196.50000    9.51156    64.51167    86.45569
5197.00000    9.53650    64.23507    77.10634
5197.50000    9.56144    63.95847    75.56520
5198.00000    9.58638    63.68187    82.71753
5198.50000    9.61132    63.40527    82.44583
5199.00000    9.63626    63.10353    74.93771
5199.50000    9.63532    62.41876    67.42960
5200.00000    9.61565    61.73400    86.22739
5200.50000    9.59598    61.04923    93.82651
5201.00000    9.57631    60.36447    92.56034
5201.50000    9.55664    60.13027    91.29418
5202.00000    9.53697    62.47404    90.02802
5202.50000    9.53821    64.81780    88.76186
5203.00000    9.57133    67.16156    83.82029
5203.50000    9.60446    67.89015    74.99867
5204.00000    9.63758    67.54204    66.17705
5204.50000    9.67070    65.75766    60.10000
5205.00000    9.70383    63.95801    57.31914
5205.50000    9.73695    62.15835    54.53827
5206.00000    9.77008    60.35870    51.75740
5206.50000    9.79402    58.55904    62.56511
5207.00000    9.79650    56.75939    76.31222
5207.50000    9.79899    57.94957    79.62804
5208.00000    9.80147    59.42099    82.94386
5208.50000    9.80396    60.89240    85.68345
5209.00000    9.80644    62.36382    84.94139
5209.50000    9.80892    63.83523    84.19933
5210.00000    9.81141    65.29087    81.96591
5210.50000    9.81389    64.54335    76.60175
5211.00000    9.81637    63.79582    71.23761
5211.50000    9.82480    63.04830    65.87345
5212.00000    9.84311    62.30078    65.44297
5212.50000    9.86143    61.55326    68.95538
5213.00000    9.87974    60.96748    69.76700
5213.50000    9.89806    60.85012    70.57861
5214.00000    9.91637    60.73275    71.39023
5214.50000    9.93468    60.61539    71.27738
5215.00000    9.95300    60.56796    70.03356
5215.50000    9.97131    60.70387    68.78973
5216.00000    9.99081    60.83979    67.54591
5216.50000    10.03235    60.97570    66.30209
5217.00000    10.07389    61.11161    65.05826
5217.50000    10.11543    61.24753    63.81444
5218.00000    10.15698    58.55746    77.78804
5218.50000    10.19852    58.38171    78.26663
5219.00000    10.24006    58.95412    74.22347
5219.50000    10.28160    59.52652    70.18031
5220.00000    10.32314    60.09893    66.13716
5220.50000    10.36468    60.67134    69.95230
5221.00000    10.40604    61.40106    77.38282
5221.50000    10.44515    62.34033    84.81334
5222.00000    10.48425    63.27960    92.24386
5222.50000    10.52336    64.21887    99.19548
5223.00000    10.56246    65.15814    97.36955
5223.50000    10.60157    66.09741    95.54362
5224.00000    10.64067    67.03668    93.71769
5224.50000    10.67978    67.97595    91.89176
5225.00000    10.71889    65.30855    90.06583
5225.50000    10.74600    62.08866    88.23990
5226.00000    10.75056    58.86877    86.41397
5226.50000    10.75512    55.64888    85.42951
5227.00000    10.75968    53.41228    89.03465
5227.50000    10.76425    56.13384    92.63979
5228.00000    10.76881    58.85539    96.24494
5228.50000    10.77337    61.57695    99.85008
5229.00000    10.77793    64.29850    103.45522
5229.50000    10.78249    63.12091    101.31186
5230.00000    10.78706    62.54877    97.09122
5230.50000    10.79162    63.71529    92.87059
5231.00000    10.79618    64.88182    88.64995
5231.50000    10.80074    66.04835    86.25960
5232.00000    10.80530    67.21487    84.82613
5232.50000    10.80986    66.35995    83.39266
5233.00000    10.81443    65.00235    81.95918
5233.50000    10.81320    64.01123    82.58502
5234.00000    10.79106    64.09598    83.37648
5234.50000    10.76892    64.18072    84.16795
5235.00000    10.74679    64.26547    85.02277
5235.50000    10.72465    64.35022    86.42588
5236.00000    10.70251    64.43496    87.82899
5236.50000    10.68037    64.76249    89.23209
5237.00000    10.65824    65.17576    90.63520
5237.50000    10.63610    65.58903    91.33302
5238.00000    10.61396    66.00229    90.34043
5238.50000    10.59182    66.41556    89.34784
5239.00000    10.56969    66.72965    88.35525
5239.50000    10.54755    66.82463    87.36266
5240.00000    10.52541    66.91961    77.52996
5240.50000    10.50327    67.01459    70.14565
5241.00000    10.48114    66.26441    73.63291
5241.50000    10.45900    64.10458    74.60511
5242.00000    10.43686    63.08857    75.57731
5242.50000    10.41472    62.83212    76.54951
5243.00000    10.39259    62.57566    77.52171
5243.50000    10.37045    62.31920    80.68510
5244.00000    10.34831    61.82197    85.28118
5244.50000    10.32617    61.15943    89.87727
5245.00000    10.30404    60.49690    93.66404
5245.50000    10.28190    59.83436    91.05380
5246.00000    10.25976    61.64757    88.44356
5246.50000    10.23762    62.77028    88.01418
5247.00000    10.21548    63.89299    91.63108
5247.50000    10.19335    65.01570    90.74969
5248.00000    10.17121    66.13841    89.20149
5248.50000    10.15439    67.26112    87.65328
5249.00000    10.14194    67.61069    86.10507
5249.50000    10.12950    67.40880    85.06680
5250.00000    10.11705    67.20691    85.89446
5250.50000    10.10460    67.00502    86.72213
5251.00000    10.09216    66.80314    87.54979
5251.50000    10.07971    66.60125    88.37746
5252.00000    10.06727    66.39936    86.94491
5252.50000    10.05482    66.19748    82.56737
5253.00000    10.04238    65.99559    78.18984
5253.50000    10.02993    66.53384    81.34973
5254.00000    10.01748    65.17627    87.37522
5254.50000    10.00504    64.29772    93.40072
5255.00000    9.99259    64.37679    98.31705
5255.50000    9.98015    64.45585    97.92292
5256.00000    9.96770    66.23368    97.52879
5256.50000    9.95526    68.06649    91.01306
5257.00000    9.94281    69.89931    83.10378
5257.50000    9.93036    70.84815    75.19449
5258.00000    9.91792    70.14573    67.28520
5258.50000    9.90547    69.44331    64.04254
5259.00000    9.89303    68.74089    66.22579
5259.50000    9.88058    68.03848    68.40903
5260.00000    9.86814    66.42602    70.59227
5260.50000    9.85569    63.59080    71.88512
