###############################################
##         ENVERUS                           ##
##         ESS - Open Hole                   ##
##         PERMIAN / DELAWARE                ##
##         Nov 03 2023  V4.0                 ##
##         42-109-32709-00-00                ##
###############################################
## Copyright 2017-2023  ENVERUS.  All Rights Reserved. 
## Confidential - Property of ENVERUS, use governed by terms and 
## conditions found within the existing Information Services Subscription Agreement 
## (as may be amended, the “ISSA”) between Customer and ENVERUS. 
## 
~VERSION INFORMATION
# MNEM.UNIT                               DATA : DESCRIPTION OF MNEMONIC
#-----.-----     ----------------------------- : -----------------------------
VERS.                                     2.00 : CWLS LOG ASCII STANDARD - VERSION 2.00
WRAP.                                       NO : MULTIPLE LINES PER DEPTH STEP
VEND.                                  ENVERUS : VENDOR
TYPE.                          ESS - OPEN HOLE : ENVERUS ESSENTIAL CURVES – ACCESSIBLE THROUGH ENVERUS PRISM(TM)
DOC.                                  32116645 : ENVERUS HEADER RAW DOCUMENT ID
#___________________________________________________________________________________________________ 
~WELL INFORMATION 
# 8SOIrMNgLSTosdYTMQVb7KPebVRgGb4NQOaGG3/cpRvPeoxWQd7So5pZ7XPWbXIrV4d26no2f3ffGwkTWQV8GA== 
# MNEM.UNIT                                              DATA : DESCRIPTION OF MNEMONIC 
#-----.-----                    ----------------------------- : ----------------------------- 
CNTY.                                               CULBERSON : COUNTY 
STATE.                                                  TEXAS : STATE 
CNTRY.                                                    USA : COUNTRY 
API.                                             42-109-32709 : API (10 Digit) 
API_14.                                    42-109-32709-00-00 : API (14 Digits) 
API_14_std.                                 42-109-32709-0000 : API (14 Digits Standard) 
UWI.                                           42109327090000 : UNIQUE WELL ID 
WELL.                                    42109327090000_API14 : WELL NAME
STRT.FT                                                  26.5 : START DEPTH
STOP.FT                                                5244.0 : STOP DEPTH
STEP.FT                                                   0.5 : STEP BETWEEN DEPTHS
NULL.                                                 -999.25 : NULL VALUE
#___________________________________________________________________________________________________ 
~PARAMETER INFORMATION 
# MNEM.UNIT                                              DATA : DESCRIPTION OF MNEMONIC 
#-----.-----                    ----------------------------- : ----------------------------- 
EKB.FT                                                   3124 : ELEVATION ABOVE MSL
#___________________________________________________________________________________________________ 
~CURVE INFORMATION 
# MNEM.UNIT           : CURVE DESCRIPTION 
#-----.-----          : ----------------------------- 
 DEPT.FT               : MEASURED DEPTH 
 CALI.IN               : CALIPER (CAL - CALIPER) 
 GR.API                : GAMMA RAY (GAMMA RAY) 
 DT.US/FT              : SONIC DELTA TRANSIT TIME (SONIC) 
 PE.B/E                : PHOTOELECTRIC EFFECT/FACTOR (PHOTOELECTRIC FACTOR) 
 RESS.OHMM             : SHALLOW INDUCTION RESISTIVITY (ILS - SHALLOW RESISTIVITY) 
 RESS_LL.OHMM          : SHALLOW LATEROLOG (LLS - SHALLOW RESISTIVITY) 
 RESD_LL.OHMM          : DEEP LATEROLOG (LLD - DEEP RESISTIVITY) 
 DPHI.V/V              : DENSITY POROSITY (DENSITY POROSITY) 
 NPHI.V/V              : NEUTRON POROSITY (NEUTRON POROSITY) 
 RHOB.G/CC             : BULK DENSITY (DENSITY) 
 #___________________________________________________________________________________________________ 
~A         DEPT           CALI             GR             DT             PE           RESS        RESS_LL        RESD_LL           DPHI           NPHI           RHOB
# ...
         3897.5          8.530         66.678        343.000         2.5047          0.909         2.5127         3.8508        0.20615        0.21204         2.3818
         3898.0          8.549         62.800        343.000         2.3258          0.883         2.4093         3.8445        0.21206        0.21619         2.3682
         3898.5          8.530         60.353        342.999         2.3077          0.931         2.4707         4.1849        0.20997        0.20421         2.3749
         3899.0          8.530         61.077        342.997         2.3274          1.000         2.6284         4.6740        0.20483        0.19548         2.3830
         3899.5          8.530         72.160        342.996         2.3922          1.026         2.8495         5.2285        0.20149        0.24690         2.3807
         3900.0          8.530         83.420        342.994         2.4260          1.017         3.0710         5.7474        0.20349        0.24699         2.3790
         3900.5          8.530         83.029        342.992         2.4178          1.026         3.4785         6.5477        0.20776        0.21709         2.3691
         3901.0          8.510         82.852        342.990         2.3178          1.053         3.8913         7.1791        0.21566        0.23289         2.3592
         3901.5          8.510         85.907        342.989         2.2682          1.083         4.2282         7.6975        0.21664        0.24453         2.3619
         3902.0          8.490         81.083        342.987         2.2560          1.103         4.4472         8.0630        0.21558        0.25439         2.3595
         3902.5          8.470         69.520        342.985         2.3274          1.352         4.6782         8.2868        0.21862        0.23858         2.3590
         3903.0          8.411         62.830        342.984         2.3274          1.672         4.5968         8.3764        0.21557        0.23487         2.3715
         3903.5          8.408         63.701        342.982         2.3831          1.916         4.8134         8.9268        0.19760        0.24392         2.4057
         3904.0          8.391         66.080        342.980         2.4260          1.903         4.9430        10.3752        0.18033        0.22933         2.4331
         3904.5          8.372         66.892        342.978         2.4655          2.077         5.1587         9.8939        0.16770        0.22392         2.4427
         3905.0          8.372         67.363        342.977         2.5247          2.832         5.7830         9.4627        0.16509        0.19475         2.4457
         3905.5          8.372         70.084        342.975         2.5641          3.144         5.2064         8.2455        0.16347        0.19228         2.4478
         3906.0          8.372         72.454        342.973         2.5641          2.212         4.4153         7.3779        0.16108        0.20126         2.4457
         3906.5          8.372         71.671        342.972         2.5641          1.176         3.8321         6.8234        0.16752        0.17750         2.4257
         3907.0          8.385         73.049        342.970         2.5247          1.070         3.6478         6.6637        0.19147        0.17641         2.3846
         3907.5          8.391         81.749        342.968         2.4977          1.111         4.1401         6.9313        0.21292        0.20130         2.3582
         3908.0          8.391         90.583        342.966         2.4260          1.142         4.6849         7.8050        0.22246        0.21778         2.3544
         3908.5          8.391         90.556        342.965         2.3866          1.309         4.6759         8.3624        0.22495        0.22722         2.3604
         3909.0          8.391         79.776        342.963         2.3866          1.480         5.1175         8.7458        0.21128        0.22474         2.3780
         3909.5          8.391         68.036        342.961         2.3866          1.660         5.4075         9.0748        0.19761        0.23260         2.4035
         3910.0          8.391         61.001        342.960         2.4260          1.660         5.4567         9.2471        0.18601        0.24099         2.4156
         3910.5          8.391         59.138        342.958         2.4807          1.673         5.4005         9.3254        0.17649        0.21295         2.4333
         3911.0          8.372         61.309        342.956         2.4852          1.616         4.5581         9.3254        0.16551        0.20714         2.4448
         3911.5          8.372         64.561        342.954         2.4673          1.583         4.6358         9.2411        0.16426        0.20845         2.4418
         3912.0          8.352         65.044        342.953         2.4068          1.563         5.0440         9.2411        0.16863        0.18796         2.4379
         3912.5          8.312         60.316        342.951         2.3874          1.650         4.3952         7.5320        0.16902        0.18396         2.4395
         3913.0          8.312         57.936        342.949         2.4458          1.617         2.4742         5.4027        0.16588        0.18825         2.4407
         3913.5          8.312         57.572        342.948         2.4655          1.208         1.7107         3.9622        0.17207        0.18284         2.4173
         3914.0          8.312         57.094        342.946         2.4015          0.940         1.4888         3.1257        0.20275        0.19412         2.3536
         3914.5          8.312         56.397        342.944         2.3274          0.743         1.4888         2.6023        0.24124        0.21526         2.3076
         3915.0          8.312         59.472        342.942         2.2485          1.016         1.4888         2.8141        0.25503        0.23875         2.2964
         3915.5          8.312         64.579        342.941         2.3057          2.276         1.5037         3.5801        0.25056        0.22776         2.2966
         3916.0          8.312         65.201        342.939         2.3077          3.434         2.3361         4.0761        0.22523        0.18811         2.3727
         3916.5          8.312         61.181        342.937         2.3743          4.533         2.3164         3.6896        0.18572        0.17015         2.4256
         3917.0          8.293         54.043        342.936         2.4852          2.975         1.8069         3.3397        0.17627        0.17263         2.4244
         3917.5          8.293         51.306        342.934         2.4075          1.116         1.5360         2.3899        0.18548        0.19023         2.3940
         3918.0          8.293         55.511        342.932         2.2330          0.675         1.2892         2.1970        0.21037        0.20032         2.3486
         3918.5          8.293         65.240        342.930         2.1499          0.738         1.4405         2.1672        0.23077        0.21942         2.3347
         3919.0          8.293         67.767        342.929         2.2076          0.827         1.6683         2.3678        0.23239        0.21467         2.3403
         3919.5          8.300         62.611        342.927         2.2880          1.139         1.8931         2.6199        0.22703        0.21620         2.3475
         3920.0          8.312         57.432        342.925         2.3077          1.347         2.0727         2.6868        0.22345        0.20753         2.3515
         3920.5          8.312         55.690        342.924         2.3274          1.209         2.0459         2.6868        0.22132        0.20049         2.3557
         3921.0          8.312         59.846        342.922         2.3312          0.806         2.0459         2.6868        0.21748        0.20945         2.3590
         3921.5          8.332         61.219        342.920         2.3471          0.785         2.1497         2.7518        0.21931        0.22437         2.3533
