###############################################
##         ENVERUS                           ##
##         ESS - Open Hole                   ##
##         PERMIAN / DELAWARE                ##
##         Nov 03 2023  V4.0                 ##
##         42-109-32508-00-00                ##
###############################################
## Copyright 2017-2023  ENVERUS.  All Rights Reserved. 
## Confidential - Property of ENVERUS, use governed by terms and 
## conditions found within the existing Information Services Subscription Agreement 
## (as may be amended, the “ISSA”) between Customer and ENVERUS. 
## 
~VERSION INFORMATION
# MNEM.UNIT                               DATA : DESCRIPTION OF MNEMONIC
#-----.-----     ----------------------------- : -----------------------------
VERS.                                     2.00 : CWLS LOG ASCII STANDARD - VERSION 2.00
WRAP.                                       NO : MULTIPLE LINES PER DEPTH STEP
VEND.                                  ENVERUS : VENDOR
TYPE.                          ESS - OPEN HOLE : ENVERUS ESSENTIAL CURVES – ACCESSIBLE THROUGH ENVERUS PRISM(TM)
DOC.                                  51093165 : ENVERUS HEADER RAW DOCUMENT ID
#___________________________________________________________________________________________________ 
~WELL INFORMATION 
# 1l9uGBxUQQhBCtjIwzslcirW42fLV8cokTOAxV7sfA093x4JFuWG6+twQwU/7oNL7vvW02EVanlAmdL+peO2nw== 
# MNEM.UNIT                                              DATA : DESCRIPTION OF MNEMONIC 
#-----.-----                    ----------------------------- : ----------------------------- 
CNTY.                                               CULBERSON : COUNTY 
STATE.                                                  TEXAS : STATE 
CNTRY.                                                    USA : COUNTRY 
API.                                             42-109-32508 : API (10 Digit) 
API_14.                                    42-109-32508-00-00 : API (14 Digits) 
API_14_std.                                 42-109-32508-0000 : API (14 Digits Standard) 
UWI.                                           42109325080000 : UNIQUE WELL ID 
WELL.                                  LT. GIBSON 12 STATE 1H : WELL NAME
STRT.FT                                                1970.5 : START DEPTH
STOP.FT                                                8727.0 : STOP DEPTH
STEP.FT                                                   0.5 : STEP BETWEEN DEPTHS
NULL.                                                 -999.25 : NULL VALUE
PREV_APII.                                     42109325080000 : WELL IDENTIFIER
#___________________________________________________________________________________________________ 
~PARAMETER INFORMATION 
# MNEM.UNIT                                              DATA : DESCRIPTION OF MNEMONIC 
#-----.-----                    ----------------------------- : ----------------------------- 
EKB.FT                                                   3552 : ELEVATION ABOVE MSL
#___________________________________________________________________________________________________ 
~CURVE INFORMATION 
# MNEM.UNIT           : CURVE DESCRIPTION 
#-----.-----          : ----------------------------- 
 DEPT.FT               : MEASURED DEPTH 
 GR__A.API             : GAMMA RAY (GAMMA RAY) 
 DT__A.US/FT           : SONIC DELTA TRANSIT TIME (SONIC) 
 #___________________________________________________________________________________________________ 
~A         DEPT          GR__A          DT__A
         1970.5        111.289       -999.250
         1971.0         98.812        108.240
         1971.5         99.915        110.904
         1972.0        104.720        110.331
         1972.5        104.431        110.270
         1973.0        102.344        108.381
         1973.5        106.617        101.336
         1974.0        113.641         97.596
         1974.5        119.814         94.121
         1975.0        126.744         92.162
         1975.5        136.719         91.663
         1976.0        119.086        117.448
         1976.5         92.246        138.691
         1977.0         74.182        149.786
         1977.5         63.052        157.223
         1978.0         87.253        131.296
         1978.5        116.551        108.671
         1979.0        131.963         97.782
         1979.5        212.688         54.998
         1980.0        341.671         63.290
         1980.5        397.171         77.590
         1981.0        319.313         78.947
         1981.5        238.007         94.419
         1982.0        160.999        115.355
         1982.5        158.006        115.573
         1983.0        174.562        110.847
         1983.5        291.193         87.203
         1984.0        344.214         72.570
         1984.5        305.078         77.966
         1985.0        292.477         83.234
         1985.5        190.208         94.355
         1986.0        147.522         96.980
         1986.5        145.973         97.601
         1987.0        147.656         97.132
         1987.5        145.026         96.491
         1988.0        149.471         96.344
         1988.5        156.074         95.561
         1989.0        157.111         94.972
         1989.5        157.031         94.542
         1990.0        156.314         94.152
         1990.5        159.320         94.152
         1991.0        161.453         93.786
         1991.5        164.356         93.177
         1992.0        157.062         92.413
         1992.5        159.434         91.629
         1993.0        169.466         90.845
         1993.5        179.977         90.643
         1994.0        176.559         90.253
         1994.5        169.321         89.279
         1995.0        165.366         88.680
         1995.5        163.698         87.316
         1996.0        167.556         85.214
         1996.5        179.340         81.612
         1997.0        186.629         78.176
         1997.5        171.627         73.679
         1998.0        162.823         71.231
         1998.5        157.346         68.773
         1999.0        153.041         67.990
         1999.5        151.080         66.988
         2000.0        146.080         65.642
         2000.5        133.486         64.469
         2001.0        130.743         63.392
         2001.5        135.796         62.737
         2002.0        136.910         54.745
         2002.5        121.171         31.683
         2003.0        109.604         19.716
         2003.5        104.454         -4.198
         2004.0        105.303         -0.157
         2004.5         97.092         22.829
         2005.0         87.182         36.055
         2005.5         76.763         65.817
         2006.0         75.688         71.024
         2006.5         84.603         48.748
         2007.0         96.400         25.847
         2007.5         96.316          4.497
         2008.0         96.254         13.574
         2008.5         96.094         16.374
         2009.0        104.919         14.300
         2009.5        105.672          5.961
         2010.0        105.215          8.065
         2010.5        111.226         18.078
         2011.0        114.453         20.663
         2011.5        111.770         18.257
         2012.0        103.018          7.973
         2012.5         95.008          5.111
         2013.0         95.508          4.289
         2013.5         97.586          5.743
         2014.0         96.711          8.290
         2014.5         94.585         15.373
         2015.0         90.266         15.227
         2015.5         82.068         11.770
         2016.0         77.344          5.574
         2016.5         82.401          0.061
         2017.0         91.362          4.917
         2017.5         95.308          7.789
         2018.0         90.811         13.855
         2018.5         89.453         15.004
         2019.0         93.194         12.436
         2019.5         94.503          8.577
         2020.0         90.693          7.673
         2020.5         86.674          2.916
         2021.0         82.031          4.441
         2021.5         80.920          8.443
         2022.0         86.881         14.472
         2022.5         92.419         19.414
         2023.0         93.622         22.384
         2023.5         88.539         22.378
         2024.0         85.547         16.900
         2024.5         87.329         14.004
         2025.0         96.094         18.081
         2025.5         93.233         24.647
         2026.0         91.797         35.644
         2026.5         90.625         48.414
         2027.0         83.052         51.447
         2027.5         77.047         39.937
         2028.0         78.542         17.044
         2028.5         83.554         15.058
         2029.0         88.418         31.778
         2029.5         97.724         46.812
         2030.0        116.343         58.933
         2030.5        127.499         62.092
         2031.0        136.544         64.251
         2031.5        144.565         66.014
         2032.0        145.238         68.361
         2032.5        139.691         69.831
         2033.0        136.577         71.345
         2033.5        138.914         72.058
         2034.0        136.844         73.037
         2034.5        136.328         74.016
         2035.0        142.219         74.967
         2035.5        142.288         75.583
         2036.0        140.718         76.172
         2036.5        137.891         76.956
         2037.0        141.330         77.994
         2037.5        141.797         79.108
         2038.0        137.891         80.072
         2038.5        141.355         80.312
         2039.0        146.050         80.485
         2039.5        148.793         81.836
         2040.0        151.535         83.989
         2040.5        153.106         84.600
         2041.0        155.051         84.606
         2041.5        170.672         81.583
         2042.0        207.745         78.939
         2042.5        224.154         76.981
         2043.0        277.172         76.547
         2043.5        274.549         78.228
         2044.0        245.536         80.740
         2044.5        212.678         82.066
         2045.0        208.921         81.844
         2045.5        227.002         79.017
         2046.0        214.347         73.844
         2046.5        190.847         69.902
         2047.0        159.674         68.811
         2047.5        147.274         69.006
         2048.0        145.026         68.954
         2048.5        147.489         67.530
         2049.0        146.906         66.217
         2049.5        140.887         65.887
         2050.0        139.063         66.150
         2050.5        139.207         66.277
         2051.0        137.738         66.006
         2051.5        135.891         62.332
         2052.0        124.988         49.801
         2052.5        112.077         38.243
         2053.0         98.106         30.799
         2053.5         91.410         39.944
         2054.0         93.776         74.811
         2054.5         95.161         78.857
         2055.0        103.561         70.451
         2055.5        105.078         50.147
         2056.0         99.687         32.397
         2056.5         95.608         30.362
         2057.0         97.628         30.340
