~Version Information
 VERS.                  2.0:   CWLS log ASCII Standard -VERSION 2.0
 WRAP.                   NO:   One line per depth step
~Well Information Block
#MNEM.UNIT     VALUE/NAME     DESCRIPTION
#---------     -----------    ---------------------------
 STRT.F              8650.0000: START DEPTH
 STOP.F             14150.0000: STOP DEPTH
 STEP.F                 0.5000: STEP DEPTH
 NULL.                 -999.25: NULL VALUE
 LOC .     A1759-SEC34-BLK58-T2-:  LOCATION
 FL4 .        API 42-109-33169:  LOCATIONLINE4
 FL2 .     T&P RR CO-337FSL-25:  LOCATIONLINE2
 FL1 .     A1759-SEC34-BLK58-T2-:  LOCATIONLINE1
 DMF .                      KB:  DRILL MEAS FROM
 PDAT.                      GL:  PERMANENT DATUM
 CNTY.               CULBERSON:  COUNTY NAME
 FLD .     FORD, WEST (WOLFCAMP):  FIELD NAME
 WELL.         ALICE FEE 34 2H:  WELL NAME
 COMP.     CAPITAN ENERGY INC.:  COMPANY
 DATE.             27-Mar-2018:  DATE
 SVCO.             Halliburton:  SERVICECONAME
 PROV.                   TEXAS:  PROVINCE
 STAT.                   TEXAS:  STATE NAME
 CTRY.                     USA:  COUNTRY NAME
 HIDE.                        :  WELLNAMEOPERAT
 BASI.                 PERMIAN:  BASIN
 UWI .            42-109-33169LAT:  UNIQUE WELL IDENTIFIER
 API .            42-109-33169LAT:  API NUMBER
 RANG.                     N/A:  RANGE
 TOWN.                     N/A:  TOWNSHIP
 SECT.                     N/A:  SECTION
 SRVC.             Halliburton:  SERVICE COMPANY
 LMF .                      KB:  LOG MEASURED FROM
 TVDS.ft             3088.0000:  TVDSS CORRECTN
 EGL .ft             3063.0000:  GROUND ELEVATION
 APD .ft               25.0000:  DEPTH ABOVE PD
 EPD .ft             3063.0000:  ELEVATION
 BAP .ft                0.0000:  GL ELEV ONSHORE
 GVFD.g                 1.0000:  GRAVITY FIELD
 EKB .ft             3088.0000:  KB ELEVATION
 EDF .ft             3087.0000:  DF ELEVATION
~Curve Information Block
#MNEM.UNIT                 API CODE     Curve Description
#---------               -----------    ---------------------------
 DEPT.F                 00 000 000 000:  Depth
 CCL .mV                00 000 000 000:  Casing Collar Locator
 NPHI_OH.pu             00 000 000 000:  NPHI_OH
 NPHI_CHI.pu            00 000 000 000:  NPHI_CHI
 GR_OH.api              00 000 000 000:  GR_OH
 GR_CHI.api             00 000 000 000:  GR_CHI
 RHOB_OH.g/cc           00 000 000 000:  RHOB_OH
 RHOB_CHI.g/cc          00 000 000 000:  RHOB_CHI
 PE_OH.b/e              00 000 000 000:  PE_OH
 PE_CHI.b/e             00 000 000 000:  PE_CHI
 MSFL_OH.ohmm           00 000 000 000:  MSFL_OH
 MSFL_CHI.ohmm          00 000 000 000:  MSFL_CHI
 LLS_OH.ohmm            00 000 000 000:  LLS_OH
 LLS_CHI.ohmm           00 000 000 000:  LLS_CHI
 LLD_OH.ohmm            00 000 000 000:  LLD_OH
 LLD_CHI.ohmm           00 000 000 000:  LLD_CHI
 DTC_OH.uspf            00 000 000 000:  DTC_OH
 DTC_CHI.uspf           00 000 000 000:  DTC_CHI
 SPHI_CHI.pu            00 000 000 000:  SPHI_CHI
 SGF .cu                00 000 000 000:  Formation Sigma
 CRNF.NONE              00 000 000 000:  CM GrsCaptRatio
 RIN .NONE              00 000 000 000:  CM GrsInelRatio
#Other Information
#
#WARRANTY: Halliburton will use its best efforts to furnish customers with 
#accurate information and interpretations that are part of, and incident to, the services 
#provided.  However, Halliburton cannot and does not warrant the accuracy 
#or correctness of such information and interpretations.  Under no circumstances should any 
#such information or interpretation be relied upon as the sole basis for any drilling, 
#completion, production, or financial decision or any procedure involving any risk to the 
#safety of any drilling venture, drilling rig or its crew or any other third party.  The 
#Customer has full responsibility for all drilling, completion and production operation.  
#Halliburton makes no representations or warranties, either expressed or 
#implied, including, but not limited to, the implied warranties of merchantability or fitness 
#for a particular purpose, with respect to the services rendered.  In no event will 
#Halliburton be liable for failure to obtain any particular results or for 
#any damages, including, but not limited to, indirect, special or consequential damages, 
#resulting from the use of any information or interpretation provided by Halliburton.
#
~A    DEPT       CCL    NPHI_OH NPHI_CHI  GR_OH    GR_CHI  RHOB_OH RHOB_CHI  PE_OH  PE_CHI  MSFL_OH   MSFL_CHI  LLS_OH   LLS_CHI   LLD_OH   LLD_CHI  DTC_OH  DTC_CHI SPHI_CHI   SGF    CRNF   RIN   
# ...
    9736.5000    0.0000 -999.25   5.7434  -999.25  26.3307 -999.25   2.6557 -999.25 4.6966    -999.25  49.4025   -999.25  97.2273   -999.25 106.6102 -999.25 60.6748   9.2500 12.6473 0.5709 1.1428
    9737.0000    0.0000 -999.25   6.5502  -999.25  42.7806 -999.25   2.6445 -999.25 4.6072    -999.25  39.5524   -999.25  77.7879   -999.25  84.2810 -999.25 61.6025   9.9000 12.6439 0.5745 1.1396
    9737.5000    0.0000 -999.25   5.8423  -999.25  28.7036 -999.25   2.6542 -999.25 4.6942    -999.25  45.8027   -999.25  89.2913   -999.25  97.7522 -999.25 60.8539   9.3700 12.7170 0.5761 1.1403
    9738.0000    0.0000 -999.25   5.6920  -999.25  25.2664 -999.25   2.6563 -999.25 4.7149    -999.25  49.4184   -999.25  98.1917   -999.25 107.6975 -999.25 60.5798   9.1800 12.8958 0.5856 1.1473
    9738.5000    0.0000 -999.25   5.8506  -999.25  26.6105 -999.25   2.6541 -999.25 4.6975    -999.25  47.8015   -999.25  96.6671   -999.25 106.0600 -999.25 60.7225   9.2800 13.0864 0.5886 1.1537
    9739.0000    0.0000 -999.25   6.1173  -999.25  30.9950 -999.25   2.6505 -999.25 4.6575    -999.25  46.0038   -999.25  93.7414   -999.25 102.5891 -999.25 61.0191   9.4900 13.2695 0.5947 1.1589
    9739.5000    0.0000 -999.25   6.9174  -999.25  43.5253 -999.25   2.6394 -999.25 4.5682    -999.25  37.5353   -999.25  76.7384   -999.25  83.6067 -999.25 61.9575  10.1500 13.3793 0.5944 1.1602
    9740.0000    0.0000 -999.25   6.7865  -999.25  40.6145 -999.25   2.6413 -999.25 4.5724    -999.25  38.7905   -999.25  79.0336   -999.25  86.3153 -999.25 61.8462  10.0800 13.4387 0.5938 1.1593
    9740.5000    0.0000 -999.25   6.4126  -999.25  32.5177 -999.25   2.6465 -999.25 4.6051    -999.25  41.4412   -999.25  83.6526   -999.25  92.0171 -999.25 61.4796   9.8200 13.4628 0.5960 1.1602
    9741.0000    0.0000 -999.25   6.1096  -999.25  24.4249 -999.25   2.6506 -999.25 4.6420    -999.25  44.2838   -999.25  90.2234   -999.25 100.0899 -999.25 61.0644   9.5200 13.4971 0.5970 1.1598
    9741.5000    0.0000 -999.25   6.7938  -999.25  37.7857 -999.25   2.6412 -999.25 4.5633    -999.25  40.6329   -999.25  84.6412   -999.25  92.8574 -999.25 61.7903  10.0400 13.5222 0.6018 1.1640
    9742.0000    0.0000 -999.25   7.2736  -999.25  45.5150 -999.25   2.6346 -999.25 4.5119    -999.25  38.3569   -999.25  80.4299   -999.25  87.9424 -999.25 62.2801  10.3800 13.6416 0.6005 1.1686
    9742.5000    0.0000 -999.25   7.0263  -999.25  40.0050 -999.25   2.6380 -999.25 4.5404    -999.25  40.0249   -999.25  84.8618   -999.25  93.1562 -999.25 61.9881  10.1800 13.7953 0.5989 1.1725
    9743.0000    0.0000 -999.25   6.7785  -999.25  33.5342 -999.25   2.6415 -999.25 4.5654    -999.25  41.2772   -999.25  88.1319   -999.25  97.3605 -999.25 61.7022   9.9700 13.9740 0.6040 1.1763
    9743.5000    0.0000 -999.25   6.7392  -999.25  32.9054 -999.25   2.6421 -999.25 4.5598    -999.25  42.8055   -999.25  91.4488   -999.25 101.0685 -999.25 61.6293   9.9200 14.1547 0.6107 1.1790
    9744.0000    0.0000 -999.25   7.3976  -999.25  46.0165 -999.25   2.6331 -999.25 4.4737    -999.25  40.5140   -999.25  85.5255   -999.25  93.6908 -999.25 62.3784  10.4500 14.2586 0.6256 1.1809
    9744.5000    0.0000 -999.25   7.1650  -999.25  40.3952 -999.25   2.6363 -999.25 4.4941    -999.25  40.4239   -999.25  85.2900   -999.25  93.9163 -999.25 62.1838  10.3100 14.4022 0.6407 1.1831
    9745.0000    0.0000 -999.25   7.6250  -999.25  49.2329 -999.25   2.6299 -999.25 4.4344    -999.25  37.3137   -999.25  77.1148   -999.25  84.5001 -999.25 62.7657  10.7300 14.4956 0.6532 1.1837
    9745.5000    0.0000 -999.25   7.7511  -999.25  50.1343 -999.25   2.6281 -999.25 4.4151    -999.25  32.9253   -999.25  66.3642   -999.25  72.8843 -999.25 63.1114  10.9700 14.7158 0.6655 1.1842
    9746.0000    0.0000 -999.25   7.8814  -999.25  49.1047 -999.25   2.6262 -999.25 4.4002    -999.25  28.5638   -999.25  56.4718   -999.25  62.3680 -999.25 63.4995  11.2400 14.8988 0.6675 1.1848
    9746.5000    0.0000 -999.25   7.7257  -999.25  42.8703 -999.25   2.6283 -999.25 4.4157    -999.25  27.7216   -999.25  54.6631   -999.25  60.8377 -999.25 63.4642  11.2200 15.0402 0.6688 1.1871
    9747.0000    0.0000 -999.25   7.9307  -999.25  42.9720 -999.25   2.6254 -999.25 4.3837    -999.25  26.1521   -999.25  51.4503   -999.25  57.4950 -999.25 63.8160  11.4700 15.0866 0.6686 1.1899
    9747.5000    0.0000 -999.25   8.0483  -999.25  43.7157 -999.25   2.6238 -999.25 4.3650    -999.25  24.8853   -999.25  48.4153   -999.25  54.1847 -999.25 64.0574  11.6400 15.0875 0.6785 1.1919
    9748.0000    0.0000 -999.25   8.4329  -999.25  51.9832 -999.25   2.6185 -999.25 4.3170    -999.25  22.5889   -999.25  42.8481   -999.25  47.7130 -999.25 64.5792  12.0100 15.1465 0.6896 1.1908
    9748.5000  -46.8768 -999.25   7.8900  -999.25  43.1053 -999.25   2.6260 -999.25 4.3678    -999.25  23.6184   -999.25  43.2154   -999.25  48.4122 -999.25 64.1162  11.6800 15.3465 0.6981 1.1873
    9749.0000    0.0000 -999.25   8.3307  -999.25  49.6838 -999.25   2.6198 -999.25 4.3206    -999.25  20.5885   -999.25  37.1758   -999.25  41.5813 -999.25 64.7468  12.1300 15.6292 0.7023 1.1877
    9749.5000    0.0000 -999.25   8.7033  -999.25  54.4474 -999.25   2.6146 -999.25 4.2739    -999.25  18.6588   -999.25  33.2356   -999.25  37.1828 -999.25 65.2981  12.5200 16.0546 0.7069 1.1896
    9750.0000    0.0000 -999.25   8.4768  -999.25  47.7631 -999.25   2.6177 -999.25 4.2938    -999.25  19.1708   -999.25  33.9549   -999.25  38.2331 -999.25 65.1669  12.4200 16.6606 0.7213 1.1989
    9750.5000    0.0000 -999.25   9.7399  -999.25  70.1700 -999.25   2.6002 -999.25 4.1530    -999.25  17.0847   -999.25  30.5861   -999.25  34.0471 -999.25 66.4046  13.3000 17.2836 0.7348 1.2094
    9751.0000    0.0000 -999.25   9.9229  -999.25  72.2636 -999.25   2.5979 -999.25 4.1086    -999.25  18.7883   -999.25  34.0418   -999.25  37.8431 -999.25 66.5328  13.3900 18.0253 0.7509 1.2183
    9751.5000    0.0000 -999.25   9.9713  -999.25  69.5965 -999.25   2.5974 -999.25 4.0758    -999.25  20.3031   -999.25  37.4326   -999.25  41.7518 -999.25 66.6481  13.4700 18.6183 0.7585 1.2263
    9752.0000    0.0000 -999.25   9.6167  -999.25  57.7344 -999.25   2.6027 -999.25 4.0545    -999.25  22.3987   -999.25  41.8502   -999.25  47.2218 -999.25 66.4335  13.3200 18.9503 0.7517 1.2306
    9752.5000    0.0000 -999.25  10.4468  -999.25  67.7321 -999.25   2.5911 -999.25 3.9560    -999.25  20.9960   -999.25  38.9393   -999.25  43.9057 -999.25 67.5580  14.1100 19.0722 0.7411 1.2351
    9753.0000    0.0000 -999.25  10.4110  -999.25  64.4222 -999.25   2.5916 -999.25 3.9458    -999.25  21.3019   -999.25  39.8441   -999.25  45.1302 -999.25 67.5822  14.1300 18.9566 0.7219 1.2358
    9753.5000    0.0000 -999.25  10.0731  -999.25  58.8214 -999.25   2.5965 -999.25 3.9675    -999.25  22.5150   -999.25  42.5390   -999.25  48.3629 -999.25 67.0858  13.7800 18.8081 0.7124 1.2360
    9754.0000    0.0000 -999.25   9.8921  -999.25  58.2085 -999.25   2.5991 -999.25 3.9841    -999.25  23.2731   -999.25  43.8619   -999.25  49.7791 -999.25 66.7733  13.5600 18.7415 0.7155 1.2331
    9754.5000    0.0000 -999.25  10.0820  -999.25  68.3418 -999.25   2.5967 -999.25 3.9583    -999.25  24.1804   -999.25  43.4897   -999.25  49.7851 -999.25 66.8018  13.5800 18.8164 0.7281 1.2287
    9755.0000    0.0000 -999.25  10.1124  -999.25  72.8167 -999.25   2.5965 -999.25 3.9471    -999.25  24.1582   -999.25  44.2639   -999.25  50.9521 -999.25 66.7708  13.5600 19.1475 0.7471 1.2260
    9755.5000    0.0000 -999.25   9.9244  -999.25  69.4000 -999.25   2.5991 -999.25 3.9617    -999.25  23.8505   -999.25  44.8292   -999.25  51.5681 -999.25 66.6399  13.4700 19.5141 0.7587 1.2232
    9756.0000    0.0000 -999.25  10.0684  -999.25  71.6095 -999.25   2.5972 -999.25 3.9367    -999.25  22.8132   -999.25  46.8692   -999.25  54.0770 -999.25 66.9136  13.6600 19.9025 0.7673 1.2191
    9756.5000    0.0000 -999.25   9.6511  -999.25  61.2190 -999.25   2.6031 -999.25 3.9528    -999.25  21.2403   -999.25  51.6133   -999.25  59.3872 -999.25 66.9574  13.6900 20.2359 0.7623 1.2082
