###############################################
##         ENVERUS                           ##
##         ESS - Open Hole                   ##
##         PERMIAN / DELAWARE                ##
##         Nov 02 2023  V4.0                 ##
##         42-109-31383-00-00                ##
###############################################
## Copyright 2017-2023  ENVERUS.  All Rights Reserved. 
## Confidential - Property of ENVERUS, use governed by terms and 
## conditions found within the existing Information Services Subscription Agreement 
## (as may be amended, the “ISSA”) between Customer and ENVERUS. 
## 
~VERSION INFORMATION
# MNEM.UNIT                               DATA : DESCRIPTION OF MNEMONIC
#-----.-----     ----------------------------- : -----------------------------
VERS.                                     2.00 : CWLS LOG ASCII STANDARD - VERSION 2.00
WRAP.                                       NO : MULTIPLE LINES PER DEPTH STEP
VEND.                                  ENVERUS : VENDOR
TYPE.                          ESS - OPEN HOLE : ENVERUS ESSENTIAL CURVES – ACCESSIBLE THROUGH ENVERUS PRISM(TM)
DOC.                                  31887493 : ENVERUS HEADER RAW DOCUMENT ID
#___________________________________________________________________________________________________ 
~WELL INFORMATION 
# e8MMFGpko9nixUfuEkfb9P8cKS4olzuguLrtdgPIjARTX3oRymgI2EYtnk6GmA/F0PbYW2Z7xnLx5OgyGayifw== 
# MNEM.UNIT                                              DATA : DESCRIPTION OF MNEMONIC 
#-----.-----                    ----------------------------- : ----------------------------- 
CNTY.                                               CULBERSON : COUNTY 
STATE.                                                  TEXAS : STATE 
CNTRY.                                                    USA : COUNTRY 
API.                                             42-109-31383 : API (10 Digit) 
API_14.                                    42-109-31383-00-00 : API (14 Digits) 
API_14_std.                                 42-109-31383-0000 : API (14 Digits Standard) 
UWI.                                           42109313830000 : UNIQUE WELL ID 
WELL.                                          KIRK  T. A.  1 : WELL NAME
STRT.FT                                                  43.0 : START DEPTH
STOP.FT                                               16492.0 : STOP DEPTH
STEP.FT                                                   0.5 : STEP BETWEEN DEPTHS
NULL.                                                 -999.25 : NULL VALUE
COMP.                                             EXXON CORP. : COMPANY 
DATE.                                             05-AUG-1981 : LOG DATE
#___________________________________________________________________________________________________ 
~CURVE INFORMATION 
# MNEM.UNIT           : CURVE DESCRIPTION 
#-----.-----          : ----------------------------- 
 DEPT.FT               : MEASURED DEPTH 
 CALI.IN               : CALIPER (CAL - CAL) 
 GR.API                : GAMMA RAY (GR) 
 SP.MV                 : SPONTANEOUS POTENTIAL (SP) 
 DT.US/FT              : SONIC DELTA TRANSIT TIME (DT) 
 RESS.OHMM             : SHALLOW INDUCTION RESISTIVITY (ILS - ILS) 
 RESD.OHMM             : DEEP INDUCTION RESISTIVITY (ILD - ILD) 
 NPHI.V/V              : NEUTRON POROSITY (NPHI) 
 #___________________________________________________________________________________________________ 
~A         DEPT           CALI             GR             SP             DT           RESS           RESD           NPHI
# ...
        14850.0          9.301         90.425       -999.250         80.327         24.678         16.881     -999.25000
        14850.5          9.311         85.977       -999.250         80.113         25.839         17.192     -999.25000
        14851.0          9.321         81.528       -999.250         79.899         25.979         17.575     -999.25000
        14851.5          9.331         77.080       -999.250         78.331         26.118         18.107     -999.25000
        14852.0          9.341         72.631       -999.250         75.675         28.639         18.638     -999.25000
        14852.5          9.351         68.183       -999.250         71.622         31.495         19.170     -999.25000
        14853.0          9.361         63.734       -999.250         67.569         34.352         19.701     -999.25000
        14853.5          9.372         63.290       -999.250         63.900         35.751         20.233     -999.25000
        14854.0          9.382         65.970       -999.250         69.460         33.287         20.764     -999.25000
        14854.5          9.392         68.650       -999.250         73.720         31.246         21.266     -999.25000
        14855.0          9.402         71.502       -999.250         77.200         30.771         20.487     -999.25000
        14855.5          9.412         74.357       -999.250         80.680         29.560         19.708     -999.25000
        14856.0          9.422         77.212       -999.250         81.241         25.100         18.929     -999.25000
        14856.5          9.432         80.067       -999.250         79.692         20.996         18.150     -999.25000
        14857.0          9.443         82.923       -999.250         78.142         23.416         16.976     -999.25000
        14857.5          9.453         85.778       -999.250         76.992         25.837         11.810     -999.25000
        14858.0          9.463         88.633       -999.250         77.486         28.257         11.703     -999.25000
        14858.5          9.473         89.502       -999.250         77.980         30.677         11.595     -999.25000
        14859.0          9.470         84.516       -999.250         78.473         22.274         11.488     -999.25000
        14859.5          9.450         81.224       -999.250         78.967         13.373         11.372     -999.25000
        14860.0          9.429         82.473       -999.250         79.460         13.746         11.246     -999.25000
        14860.5          9.409         83.723       -999.250         78.608         14.120         11.121     -999.25000
        14861.0          9.389         84.972       -999.250         77.746         14.494         10.995     -999.25000
        14861.5          9.368         86.221       -999.250         76.884         14.868         10.870     -999.25000
        14862.0          9.348         87.470       -999.250         76.022         15.040         10.744     -999.25000
        14862.5          9.328         88.720       -999.250         76.004         14.332         10.551     -999.25000
        14863.0          9.308         89.098       -999.250         76.660         13.623          9.600     -999.25000
        14863.5          9.287         84.725       -999.250         77.100         12.915          9.327     -999.25000
        14864.0          9.267         80.353       -999.250         76.222         12.265          9.583     -999.25000
        14864.5          9.247         78.196       -999.250         75.345         12.265          9.838     -999.25000
        14865.0          9.226         78.095       -999.250         74.468         12.266         10.094     -999.25000
        14865.5          9.206         77.994       -999.250         73.591         12.266         10.350     -999.25000
        14866.0          9.190         79.857       -999.250         72.714         13.672         10.606     -999.25000
        14866.5          9.201         87.051       -999.250         75.749         15.636         10.862     -999.25000
        14867.0          9.211         94.244       -999.250         78.287         17.600         11.516     -999.25000
        14867.5          9.222        101.437       -999.250         80.826         19.563         12.312     -999.25000
        14868.0          9.233        111.815       -999.250         83.365         21.527         13.108     -999.25000
        14868.5          9.243        113.217       -999.250         82.290         21.432         14.196     -999.25000
        14869.0          9.254        112.522       -999.250         81.000         20.966         15.791     -999.25000
        14869.5          9.265        111.828       -999.250         79.711         20.500         16.626     -999.25000
        14870.0          9.275        111.133       -999.250         79.021         20.034         16.578     -999.25000
        14870.5          9.286        110.438       -999.250         79.010         19.568         16.530     -999.25000
        14871.0          9.297        106.132       -999.250         78.999         19.370         16.483     -999.25000
        14871.5          9.307         99.832       -999.250         78.988         22.004         16.435     -999.25000
        14872.0          9.318         93.531       -999.250         78.977         24.639         16.388     -999.25000
        14872.5          9.328         87.231       -999.250         78.216         26.658         16.340     -999.25000
        14873.0          9.338         80.931       -999.250         76.914         25.500         16.293     -999.25000
        14873.5          9.349         84.966       -999.250         76.604         24.341         16.245     -999.25000
        14874.0          9.359         89.084       -999.250         78.960         23.183         16.157     -999.25000
        14874.5          9.369         93.202       -999.250         81.648         22.024         15.752     -999.25000
        14875.0          9.548         97.320       -999.250         84.336         20.102         15.347     -999.25000
        14875.5          9.841        101.438       -999.250         85.483         17.887         14.997     -999.25000
        14876.0         10.134        105.556       -999.250         84.621         15.672         14.678     -999.25000
        14876.5         10.427        109.673       -999.250         83.759         14.514         14.360     -999.25000
        14877.0         10.296        109.375       -999.250         82.261         14.151         14.041     -999.25000
        14877.5         10.007        108.855       -999.250         78.233         13.787         13.722     -999.25000
        14878.0          9.718        104.807       -999.250         76.890         12.279         13.096     -999.25000
        14878.5          9.429        100.759       -999.250         79.631         12.279         12.330     -999.25000
        14879.0          9.384         96.712       -999.250         82.373         12.599         11.564     -999.25000
        14879.5          9.397         92.664       -999.250         85.114         13.289         10.798     -999.25000
        14880.0          9.411         88.616       -999.250         86.260         17.100         11.336     -999.25000
        14880.5          9.424         84.569       -999.250         85.711         23.048         12.510     -999.25000
        14881.0          9.524         80.742       -999.250         86.027         21.634         15.795     -999.25000
        14881.5          9.633         77.751       -999.250         85.445         19.947         19.716     -999.25000
        14882.0          9.741         79.395       -999.250         84.697         22.650         23.636     -999.25000
        14882.5          9.836         81.038       -999.250         79.380         25.876         27.557     -999.25000
        14883.0          9.394         82.682       -999.250         73.340         29.102         26.330     -999.25000
