###############################################
##         ENVERUS                           ##
##         ESS - Open Hole                   ##
##         PERMIAN / DELAWARE                ##
##         Nov 02 2023  V4.0                 ##
##         42-109-10071-00-00                ##
###############################################
## Copyright 2017-2023  ENVERUS.  All Rights Reserved. 
## Confidential - Property of ENVERUS, use governed by terms and 
## conditions found within the existing Information Services Subscription Agreement 
## (as may be amended, the “ISSA”) between Customer and ENVERUS. 
## 
~VERSION INFORMATION
# MNEM.UNIT                               DATA : DESCRIPTION OF MNEMONIC
#-----.-----     ----------------------------- : -----------------------------
VERS.                                     2.00 : CWLS LOG ASCII STANDARD - VERSION 2.00
WRAP.                                       NO : MULTIPLE LINES PER DEPTH STEP
VEND.                                  ENVERUS : VENDOR
TYPE.                          ESS - OPEN HOLE : ENVERUS ESSENTIAL CURVES – ACCESSIBLE THROUGH ENVERUS PRISM(TM)
DOC.                                  31950413 : ENVERUS HEADER RAW DOCUMENT ID
#___________________________________________________________________________________________________ 
~WELL INFORMATION 
# OfUh2+mdeFjroaXzMJDg/lRWUsinBwpBr+LWp9Jgnw936lSgPWOOCrYxw0Bz1A8ekYSC2IJg55FhS+cGr4hs3w== 
# MNEM.UNIT                                              DATA : DESCRIPTION OF MNEMONIC 
#-----.-----                    ----------------------------- : ----------------------------- 
CNTY.                                               CULBERSON : COUNTY 
STATE.                                                  TEXAS : STATE 
CNTRY.                                                    USA : COUNTRY 
API.                                             42-109-10071 : API (10 Digit) 
API_14.                                    42-109-10071-00-00 : API (14 Digits) 
API_14_std.                                 42-109-10071-0000 : API (14 Digits Standard) 
UWI.                                           42109100710000 : UNIQUE WELL ID 
WELL.                                                  DRD_55 : WELL NAME
STRT.FT                                                 320.5 : START DEPTH
STOP.FT                                               12359.5 : STOP DEPTH
STEP.FT                                                   0.5 : STEP BETWEEN DEPTHS
NULL.                                                 -999.25 : NULL VALUE
#___________________________________________________________________________________________________ 
~PARAMETER INFORMATION 
# MNEM.UNIT                                              DATA : DESCRIPTION OF MNEMONIC 
#-----.-----                    ----------------------------- : -----------------------------
#___________________________________________________________________________________________________ 
~CURVE INFORMATION 
# MNEM.UNIT           : CURVE DESCRIPTION 
#-----.-----          : ----------------------------- 
 DEPT.FT               : MEASURED DEPTH 
 GR.API                : GAMMA RAY (GAMMA RAY) 
 DT.US/FT              : SONIC DELTA TRANSIT TIME (SONIC) 
 #___________________________________________________________________________________________________ 
~A         DEPT             GR             DT
# ...
         1103.5         67.404         68.106
         1104.0         69.651         67.552
         1104.5         72.259         68.668
         1105.0         77.749         68.863
         1105.5         87.501         68.893
         1106.0         96.335         73.079
         1106.5        128.654         74.671
         1107.0        143.078         73.487
         1107.5        145.602         72.686
         1108.0        132.035         71.979
         1108.5        121.360         69.859
         1109.0         96.400         66.344
         1109.5         89.972         63.892
         1110.0         87.089         65.759
         1110.5         89.583         66.105
         1111.0         96.489         64.324
         1111.5        100.280         65.315
         1112.0        100.458         67.071
         1112.5         92.343         66.571
         1113.0         89.982         65.644
         1113.5         91.194         66.990
         1114.0         93.585         68.510
         1114.5         91.876         68.304
         1115.0         86.596         66.797
         1115.5         81.303         66.256
         1116.0         77.362         65.526
         1116.5         73.799         65.499
         1117.0         73.107         65.821
         1117.5         73.239         66.316
         1118.0         73.362         67.384
         1118.5         72.444         67.524
         1119.0         71.802         67.728
         1119.5         72.781         67.734
         1120.0         72.781         66.187
         1120.5         72.034         66.139
         1121.0         71.115         66.714
         1121.5         71.122         67.290
         1122.0         70.823         67.865
         1122.5         71.653         68.441
         1123.0         72.454         69.132
         1123.5         73.107         68.532
         1124.0         74.433         67.737
         1124.5         74.315         66.894
         1125.0         74.096         67.267
         1125.5         74.096         67.759
         1126.0         75.417         67.851
         1126.5         79.127         68.565
         1127.0         83.217         69.911
         1127.5         88.639         70.194
         1128.0         96.148         69.480
         1128.5        105.040         69.675
         1129.0        123.799         71.626
         1129.5        142.558         72.309
         1130.0        161.316         71.865
         1130.5        168.733         72.078
         1131.0        141.146         72.116
         1131.5        114.281         69.930
         1132.0         66.205         68.402
         1132.5         63.518         67.921
         1133.0         57.677         68.623
         1133.5         55.751         69.239
         1134.0         54.743         70.331
         1134.5         53.825         71.422
         1135.0         52.906         72.034
         1135.5         51.661         72.073
         1136.0         51.567         70.941
         1136.5         51.770         70.438
         1137.0         53.248         70.330
         1137.5         54.504         71.052
         1138.0         54.504         71.661
         1138.5         54.698         72.742
         1139.0         55.616         73.934
         1139.5         56.063         74.911
         1140.0         54.819         75.479
         1140.5         53.574         76.589
         1141.0         53.525         77.623
         1141.5         53.851         77.450
         1142.0         53.525         75.375
         1142.5         52.872         75.763
         1143.0         53.172         75.850
         1143.5         55.919         75.153
         1144.0         58.926         74.712
         1144.5         64.795         74.401
         1145.0         72.105         76.161
         1145.5         73.070         76.061
         1146.0         72.848         75.282
         1146.5         68.546         75.109
         1147.0         65.133         75.340
         1147.5         60.951         75.928
         1148.0         59.706         75.885
         1148.5         59.400         75.621
         1149.0         59.726         76.355
         1149.5         60.381         77.453
         1150.0         62.440         77.433
         1150.5         64.389         77.122
         1151.0         68.520         76.764
         1151.5         69.765         76.351
         1152.0         70.170         75.936
         1152.5         70.170         75.294
         1153.0         69.843         74.733
         1153.5         69.843         74.569
         1154.0         70.170         74.230
         1154.5         70.496         73.973
         1155.0         71.298         73.759
         1155.5         72.128         73.131
         1156.0         72.100         72.954
         1156.5         71.182         73.332
         1157.0         69.937         73.346
         1157.5         68.280         72.753
         1158.0         67.121         72.677
         1158.5         66.957         72.625
         1159.0         67.875         72.489
         1159.5         68.794         72.152
         1160.0         69.517         71.854
         1160.5         68.730         72.159
         1161.0         67.122         71.947
         1161.5         65.091         71.077
         1162.0         63.690         71.204
         1162.5         63.316         71.937
         1163.0         63.316         72.294
         1163.5         63.413         72.228
         1164.0         64.005         71.070
         1164.5         65.400         71.463
         1165.0         68.204         71.256
         1165.5         70.784         70.879
         1166.0         72.574         70.417
         1166.5         75.034         70.087
         1167.0         76.697         70.466
         1167.5         76.697         70.578
         1168.0         75.108         69.289
         1168.5         72.781         67.780
         1169.0         71.189         67.277
         1169.5         69.496         66.961
         1170.0         68.577         66.187
         1170.5         67.333         65.737
         1171.0         66.580         65.645
         1171.5         66.253         66.069
         1172.0         65.601         65.963
         1172.5         65.274         66.065
         1173.0         65.850         66.477
         1173.5         66.627         66.906
         1174.0         68.625         67.299
         1174.5         72.351         67.593
         1175.0         76.171         67.444
         1175.5         82.245         68.115
         1176.0         89.523         70.218
         1176.5         97.057         72.098
         1177.0        108.050         71.512
         1177.5        108.460         70.757
         1178.0        106.102         71.325
         1178.5         95.888         70.257
         1179.0         88.364         68.198
         1179.5         82.942         66.139
         1180.0         80.888         65.528
         1180.5         77.710         65.295
         1181.0         72.776         64.750
         1181.5         69.091         63.302
         1182.0         67.423         62.617
         1182.5         67.559         63.032
         1183.0         67.544         63.427
         1183.5         66.626         63.856
         1184.0         66.253         64.215
         1184.5         66.086         64.638
         1185.0         66.678         64.996
         1185.5         67.270         65.631
         1186.0         68.515         66.349
         1186.5         71.018         67.083
         1187.0         72.636         67.323
         1187.5         78.692         67.510
         1188.0         80.347         67.727
         1188.5         81.266         68.609
         1189.0         81.266         67.567
         1189.5         81.062         66.275
         1190.0         80.143         65.473
