~Version Information
 VERS.                  2.0:   CWLS log ASCII Standard -VERSION 2.0
 WRAP.                   NO:   One line per depth step
~Well Information Block
#MNEM.UNIT     VALUE/NAME     DESCRIPTION
#---------     -----------    ---------------------------
 STRT.F              8564.0000: START DEPTH
 STOP.F             14132.0000: STOP DEPTH
 STEP.F                 0.5000: STEP DEPTH
 NULL.                 -999.25: NULL VALUE
 FL6 .       API  42-109-33219:  LOCATIONLINE6
 LOC .     253' FEL & 408' FNL:  LOCATION
 FL4 .           ABSTRACT 1760:  LOCATIONLINE4
 FL3 .        T&P RR CO SURVEY:  LOCATIONLINE3
 FL2 .     SECTION 32, BLOCK 58 T2:  LOCATIONLINE2
 FL1 .     253' FEL & 408' FNL:  LOCATIONLINE1
 DMF .                      KB:  DRILL MEAS FROM
 PDAT.                      GL:  PERMANENT DATUM
 CTRY.                     USA:  COUNTRY NAME
 PROV.                   TEXAS:  PROVINCE
 STAT.                   TEXAS:  STATE NAME
 CNTY.               CULBERSON:  COUNTY NAME
 FLD .     FORD, WEST (WOLFCAMP):  FIELD NAME
 WELL.        MOTHER FEE 28 2H:  WELL NAME
 COMP.     CAPITAN ENERGY INC.:  COMPANY
 DATE.             24-Jan-2018:  DATE
 SVCO.             Halliburton:  SERVICECONAME
 HIDE.                        :  WELLNAMEOPERAT
 BASI.                 PERMIAN:  BASIN
 UWI .            42-109-33219LAT:  UNIQUE WELL IDENTIFIER
 API .            42-109-33219LAT:  API NUMBER
 RANG.                     N/A:  RANGE
 TOWN.                     N/A:  TOWNSHIP
 SECT.                     N/A:  SECTION
 SON .               904563795:  JOB NUMBER
 SRVC.             Halliburton:  SERVICE COMPANY
 LMF .                      KB:  LOG MEASURED FROM
 EGL .ft             3142.0000:  GROUND ELEVATION
 BAP .ft                0.0000:  GL ELEV ONSHORE
 GVFD.g                 1.0000:  GRAVITY FIELD
 EKB .ft             3167.0000:  KB ELEVATION
 EDF .ft             3166.0000:  DF ELEVATION
~Curve Information Block
#MNEM.UNIT                 API CODE     Curve Description
#---------               -----------    ---------------------------
 DEPT.F                 00 000 000 000:  Depth
 CCL .V                 00 000 000 000:  Casing Collar Locator
 NPHI_OH.pu             00 000 000 000:  NPHI_OH
 NPHI_CHI.pu            00 000 000 000:  NPHI_CHI
 GR_OH.api              00 000 000 000:  GR_OH
 GR_CHI.api             00 000 000 000:  GR_CHI
 RHOB_OH.g/cc           00 000 000 000:  RHOB_OH
 RHOB_CHI.g/cc          00 000 000 000:  RHOB_CHI
 PE_OH.b/e              00 000 000 000:  PE_OH
 PE_CHI.b/e             00 000 000 000:  PE_CHI
 DTC_OH.uspf            00 000 000 000:  DTC_OH
 DTC_CHI.uspf           00 000 000 000:  DTC_CHI
 SPHI_CHI.pu            00 000 000 000:  SPHI_CHI
 RT10_OH.ohmm           00 000 000 000:  RT10_OH
 RT10_CHI.ohmm          00 000 000 000:  RT10_CHI
 RT30_OH.ohmm           00 000 000 000:  RT30_OH
 RT30_CHI.ohmm          00 000 000 000:  RT30_CHI
 RT90_OH.ohmm           00 000 000 000:  RT90_OH
 RT90_CHI.ohmm          00 000 000 000:  RT90_CHI
 SGF .cu                00 000 000 000:  Formation Sigma
 CRNF.NONE              00 000 000 000:  CaptMode Capt Ratio
 RIN .NONE              00 000 000 000:  CaptMode Gross Inel Ratio
#Other Information
#
#WARRANTY: Halliburton will use its best efforts to furnish customers with 
#accurate information and interpretations that are part of, and incident to, the services 
#provided.  However, Halliburton cannot and does not warrant the accuracy 
#or correctness of such information and interpretations.  Under no circumstances should any 
#such information or interpretation be relied upon as the sole basis for any drilling, 
#completion, production, or financial decision or any procedure involving any risk to the 
#safety of any drilling venture, drilling rig or its crew or any other third party.  The 
#Customer has full responsibility for all drilling, completion and production operation.  
#Halliburton makes no representations or warranties, either expressed or 
#implied, including, but not limited to, the implied warranties of merchantability or fitness 
#for a particular purpose, with respect to the services rendered.  In no event will 
#Halliburton be liable for failure to obtain any particular results or for 
#any damages, including, but not limited to, indirect, special or consequential damages, 
#resulting from the use of any information or interpretation provided by Halliburton.
#
~A    DEPT       CCL    NPHI_OH NPHI_CHI  GR_OH    GR_CHI  RHOB_OH RHOB_CHI  PE_OH   PE_CHI   DTC_OH  DTC_CHI SPHI_CHI RT10_OH  RT10_CHI RT30_OH  RT30_CHI RT90_OH  RT90_CHI   SGF    CRNF   RIN   
# ...
    8942.0000    0.3999 12.9000  13.3826 108.0019 102.1070  2.5990   2.5927  2.7538    2.8626 71.7983 71.5417  16.9300   7.4186   9.8260   6.9715   9.2589   6.7890   8.9713 28.7871 1.1628 1.2408
    8942.5000    0.3999 12.5400  12.3162 100.4264  90.4460  2.6079   2.5938  2.7194    2.7916 70.9372 71.3206  16.7800   7.3410   8.8643   6.8562   8.3167   6.6930   7.9985 27.4993 1.1207 1.2336
    8943.0000    0.3999 11.9100  11.5804  93.8615  87.8167  2.6121   2.5924  2.6574    2.7625 69.3717 70.8869  16.4700   7.5723   8.7474   7.0140   8.1682   6.8583   7.8573 25.9102 1.0454 1.2206
    8943.5000    0.3999 11.4100  11.0163  90.5407  81.3843  2.6131   2.5928  2.6243    2.7808 65.9041 70.3165  16.0700   8.6023   8.6877   7.7802   8.0716   7.6090   7.7532 23.9427 0.9715 1.2074
    8944.0000    0.3999 10.7200  10.6552  89.5493  85.9575  2.6157   2.5903  2.6459    2.8238 61.9511 69.6618  15.6000   9.4337  10.0289   8.3101   9.2554   8.1389   8.9586 21.7258 0.9357 1.2008
    8944.5000    0.3999 10.4000   9.5471  86.6470  81.8748  2.6367   2.5925  2.9123    2.8825 60.4494 68.4342  14.7300  10.4653  11.0781   9.0795  10.1936   8.9045   9.9900 20.5586 0.9496 1.2022
    8945.0000    0.3999  9.5800   8.2949  71.9065  73.9058  2.6720   2.6003  3.4469    3.0470 58.3035 66.8741  13.6300  12.6098  13.0012  10.9239  12.0596  10.7064  12.0497 20.2805 1.0003 1.2122
    8945.5000    0.3999  6.3600   6.9075  50.0192  45.3650  2.7039   2.6148  3.8557    3.1698 57.9385 66.6954  13.5000  16.7004  12.3869  14.7093  11.8797  14.3444  11.9332 20.9785 1.0669 1.2209
    8946.0000    0.3999  4.9000   6.5077  41.1047  34.5997  2.7242   2.6184  3.8625    3.2153 59.2359 66.6362  13.4600  22.3149  13.4815  20.1672  13.1979  19.4258  13.3561 22.9764 1.1291 1.2291
    8946.5000    0.3999  5.0100   7.2732  50.0135  47.5954  2.7030   2.6077  3.5816    3.0759 62.0931 66.7005  13.5100  19.1920  12.8911  17.6960  12.4326  16.9638  12.5234 25.8785 1.1680 1.2351
    8947.0000    0.3999  6.9600   8.9176  64.7811  75.3290  2.6407   2.5915  3.1633    2.8777 63.9125 67.8317  14.3100  10.0477  11.6213   9.3410  10.8901   9.0524  10.8297 28.3869 1.1893 1.2391
    8947.5000    0.3999  8.0800  10.6057  78.4217  96.6688  2.5939   2.5853  2.7679    2.7004 67.2256 70.1541  15.9500   8.3238   9.6084   7.5729   8.9622   7.3161   8.7732 29.6210 1.2048 1.2414
    8948.0000    0.3999 10.7600  11.3340  89.3959  90.0851  2.5801   2.5902  2.5601    2.6983 70.3272 71.1745  16.6700   7.0596   8.6561   6.3508   8.1084   6.1188   7.8401 29.6787 1.2115 1.2391
    8948.5000    0.3999 12.0500  11.8434  90.5847  95.2528  2.5767   2.5908  2.5145    2.7060 71.6277 71.5692  16.9500   5.1156   8.8675   4.7179   8.3311   4.5617   8.0586 29.1575 1.2096 1.2339
    8949.0000    0.3999 11.9500  11.4114  87.9678  78.9873  2.5780   2.5954  2.5136    2.6948 72.0817 71.5215  16.9200   4.7271   8.0560   4.4352   7.5662   4.2768   7.2738 28.8439 1.2023 1.2283
    8949.5000    0.3999 12.5500  11.4734  90.4753  79.9907  2.5750   2.5935  2.5093    2.6897 72.5946 71.5539  16.9400   4.7448   8.1423   4.5126   7.6546   4.3324   7.3693 28.6249 1.1877 1.2262
    8950.0000    0.3999 12.5500  11.9443  90.4753  94.5182  2.5750   2.5879  2.5093    2.6817 72.3694 71.9095  17.1900   4.7448   8.8483   4.5126   8.3361   4.3324   8.0799 28.5233 1.1741 1.2285
    8950.5000    0.3999 12.3600  11.9072  92.7933  96.5225  2.5612   2.5869  2.5280    2.6669 72.6055 71.9181  17.2000   4.6427   8.9294   4.4590   8.4171   4.2719   8.1728 28.3593 1.1707 1.2317
    8951.0000    0.3999 11.9300  11.4657  89.5335  86.7099  2.5528   2.5899  2.5777    2.6545 71.7319 71.5924  16.9700   4.4740   8.4406   4.3242   7.9497   4.1425   7.6961 28.2408 1.1492 1.2324
    8951.5000    0.3999 12.0900  10.9459  83.7041  77.7386  2.5577   2.5928  2.6048    2.6465 71.4321 71.2680  16.7400   4.3080   8.0316   4.1837   7.5523   4.0134   7.2970 27.9567 1.1391 1.2307
    8952.0000    0.3999 11.9500  11.0526  80.8672  81.3527  2.5651   2.5923  2.5818    2.6804 71.2577 71.1384  16.6500   4.1632   8.1795   4.0574   7.6697   3.9024   7.3999 27.8038 1.1227 1.2270
    8952.5000    0.3999 12.0100  11.1743  78.6665  87.6867  2.5638   2.5908  2.5750    2.7068 70.7668 70.9736  16.5300   4.0539   8.5765   3.9611   8.0216   3.8236   7.7483 27.3192 1.1116 1.2268
    8953.0000    0.3999 11.3200  10.7514  78.2694  82.0775  2.5516   2.5926  2.5891    2.7078 70.1890 70.6291  16.2900   4.2594   8.2917   4.1670   7.7396   4.0326   7.4676 26.9238 1.1190 1.2285
    8953.5000    0.3999 11.0000   9.9990  78.6755  67.8777  2.5574   2.5967  2.5723    2.7046 69.5666 70.2919  16.0500   4.5446   7.6313   4.4678   7.1179   4.3403   6.8519 26.3503 1.1200 1.2285
    8954.0000    0.3999 10.7700   9.1376  73.3131  46.9187  2.5996   2.6024  2.7264    2.6927 67.6768 70.2949  16.0500   4.5503   7.0107   4.5426   6.5716   4.4442   6.3233 26.0061 1.1193 1.2274
    8954.5000    0.3999 10.7700   9.1838  73.3131  46.8891  2.5996   2.6012  2.7264    2.7103 67.3393 70.0263  15.8600   4.5503   7.1559   4.5426   6.7143   4.4442   6.4579 25.5072 1.0869 1.2241
    8955.0000    0.3999 10.0500   9.5832  68.3263  58.9381  2.6344   2.5972  3.0844    2.7262 67.4740 69.8432  15.7300   4.8714   7.6231   4.9700   7.1277   4.8986   6.8644 24.6631 1.0443 1.2215
    8955.5000    0.3999  9.9200  10.2394  72.5540  77.6090  2.6258   2.5914  3.1488    2.7537 67.2423 69.8788  15.7600   5.4984   8.7077   5.6943   8.0983   5.6662   7.8312 23.7777 1.0029 1.2188
    8956.0000    0.3999 10.6300   9.8525  78.9914  71.1105  2.5915   2.5931  2.8119    2.7836 67.5300 69.4719  15.4700   5.6431   8.7500   5.8615   8.1309   5.8896   7.8608 22.9638 0.9877 1.2144
    8956.5000    0.3999 10.7000   9.4125  75.1190  72.2156  2.5646   2.5941  2.5497    2.8346 68.4416 68.8213  15.0100   5.2713   9.5327   5.4685   8.8294   5.5463   8.5899 22.6187 0.9913 1.2102
    8957.0000    0.3999  9.8100   7.9770  61.2358  46.0927  2.5564   2.6040  2.5407    2.8758 69.7061 68.3984  14.7100   5.0097   8.8743   5.2302   8.3834   5.3507   8.1992 22.5936 1.0143 1.2077
    8957.5000    0.3999  8.0100   7.5941  52.6327  46.2691  2.5562   2.6061  2.6293    2.9141 70.5410 68.0070  14.4300   4.9984   9.4736   5.2969   9.0160   5.4596   8.9114 22.8907 1.0428 1.2109
    8958.0000    0.3999  7.8700   7.7345  53.7494  53.9914  2.5470   2.6033  2.6684    2.8857 70.8348 67.7107  14.2200   5.3476   9.7282   5.7719   9.2614   5.9841   9.2147 23.3556 1.0666 1.2172
    8958.5000    0.3999  8.0500   8.7101  57.9985  73.3240  2.5237   2.5948  2.6241    2.8484 70.9576 67.9440  14.3900   5.6644  10.2013   6.2093   9.5455   6.4621   9.4498 23.6144 1.0690 1.2225
    8959.0000    0.3999  8.6800   9.1808  62.3751  75.8680  2.5086   2.5925  2.5808    2.8340 70.6933 68.4693  14.7600   5.5918  10.1576   6.1840   9.4505   6.4457   9.2887 23.5580 1.0538 1.2223
    8959.5000    0.3999  8.6800   9.5845  62.3751  77.9571  2.5086   2.5912  2.5808    2.8487 70.1079 68.8022  14.9900   5.5918  10.5238   6.1840   9.7402   6.4457   9.5284 23.2030 1.0395 1.2183
    8960.0000    0.3999  8.8500   9.6217  71.2782  78.0379  2.5246   2.5911  2.5447    2.8573 70.6047 68.8087  15.0000   5.0767  10.7004   5.6143   9.8948   5.8481   9.6781 22.9441 1.0512 1.2168
    8960.5000    0.3999  9.7700   9.2437  80.7307  73.2106  2.5562   2.5931  2.4602    2.8477 70.8819 68.5721  14.8300   4.7672  10.1539   5.2201   9.4313   5.4242   9.2360 23.1911 1.0917 1.2193
    8961.0000    0.3999 10.2300   8.9512  78.0269  69.4696  2.5596   2.5938  2.3538    2.8352 70.6550 68.3516  14.6800   4.4181   9.9763   4.7588   9.3298   4.9269   9.1722 23.9716 1.1471 1.2282
    8961.5000    0.3999  9.7100   9.1473  68.6726  78.8619  2.5339   2.5903  2.3091    2.7930 70.5295 68.2577  14.6100   4.1961  10.1755   4.4529   9.5303   4.5914   9.4299 25.7236 1.2030 1.2357
    8962.0000    0.3999  9.2600   9.3909  62.9673  76.7926  2.5142   2.5891  2.3437    2.7406 71.4587 68.6727  14.9000   4.2004   9.5279   4.4113   8.9505   4.5309   8.8154 27.8339 1.2200 1.2402
    8962.5000    0.3999  9.7000  10.7432  65.1443  94.7512  2.5158   2.5829  2.3946    2.7323 71.8466 70.1804  15.9700   4.3927  10.1931   4.5777   9.5062   4.6868   9.3081 29.3452 1.1873 1.2422
