# Exported from Transform Software 5.2.0 on 21-Oct-2019 by user kathryn.gehrke
# DI Transform - A Product of Drillinginfo, Inc. - www.drillinginfo.com
#
~VERSION INFORMATION
 VERS.        2.0 : LAS ASCII STANDARD - VERSION 2.0
 WRAP.         NO : ONE LINE PER DEPTH STEP

~WELL INFORMATION
#MNEM.UNIT       DATA TYPE       INFORMATION
#---------       ---------       -----------
 STRT.ft                  30 : Start Depth
 STOP.ft                9000 : Stop Depth
 STEP.ft                 0.5 : Step Length
 NULL.               -999.25 : Null Value
 COMP.                       : Company
 WELL.  42109330470000_API14 : Well Name
 FLD.                        : Field Name
 LOC.                        : Well Location
 CNTY.                       : County
 STAT.                       : State or Province
 CTRY.                       : Country
 SRVC.                       : Service Company
 DATE.                       : Date
 API.         42109330470000 : Well Identifier

~CURVE INFORMATION
#MNEM.UNIT       API CODE       CURVE DESCRIPTION
#---------       --------       -----------------
 DEPT.ft        : <Measured Depth>
 DT.us/ft       : Sonic
 GR.gAPI        : Gamma Ray

~PARAMETER INFORMATION
#MNEM.UNIT       VALUE       DESCRIPTION
#---------       -----       -----------
 EKB.ft      3201 : Elevation above MSL

~A      DEPT          DT          GR
# ...
      3610.5    243.3503     24.6471
        3611    243.3503     25.6832
      3611.5    243.3503     33.7196
        3612    243.3503     41.0284
      3612.5    243.3503     40.4313
        3613    243.3503     39.9784
      3613.5    243.3503     45.5199
        3614    243.3503     46.7108
      3614.5    243.3503     42.2446
        3615    243.3503     43.7079
      3615.5    243.3503     50.2256
        3616    243.3503      51.175
      3616.5    243.3503     48.5733
        3617    243.3503     50.7522
      3617.5    243.3503     51.1738
        3618    243.3503      44.711
      3618.5    243.3503     42.5834
        3619    243.3503     44.9212
      3619.5    243.3503     44.3958
        3620    243.3503     45.2381
      3620.5    243.3503     47.5482
        3621    243.3503       44.97
      3621.5    243.3503     40.4276
        3622    243.3503     37.5099
      3622.5    243.3503      33.569
        3623    243.3503     29.1027
      3623.5    243.3503     29.7703
        3624    243.3503     35.9443
      3624.5    243.3503     39.1419
        3625    243.3503     40.8785
      3625.5    243.3503     44.4838
        3626    243.3503     49.7088
      3626.5    243.3503       44.48
        3627    243.3503     32.6159
      3627.5    243.3503     32.1395
        3628    243.3503     38.7379
      3628.5    243.3503     41.5367
        3629    243.3503     43.6693
      3629.5    243.3503     48.4292
        3630    243.3503      55.191
      3630.5    243.3503     65.0745
        3631    243.3503     76.0458
      3631.5    243.3503     75.2986
        3632    243.3503     64.0694
      3632.5    243.3503     56.3832
        3633    243.3503     50.7346
      3633.5    243.3503     46.7274
        3634    243.3503     55.1335
      3634.5    243.3503     78.9428
        3635    243.3503    102.0943
      3635.5    243.3503    105.4704
        3636    243.3503     96.0125
      3636.5    243.3503     95.1979
        3637    243.3503    104.2615
      3637.5    243.3503    103.3656
        3638    243.3503       88.35
      3638.5    243.3734     73.1191
        3639    244.5762      65.701
      3639.5    244.5762     58.9665
        3640    243.3503     52.7315
      3640.5    243.3503      58.269
        3641    243.3503     74.7959
      3641.5    243.3503     91.5149
        3642    243.3503    103.7653
      3642.5    243.3503     90.7201
        3643    243.3503     65.0464
      3643.5    243.3503     52.9546
        3644    243.3503     49.6497
      3644.5    243.3503     55.6147
        3645    243.3503      66.161
      3645.5    243.3503     68.9767
        3646    243.3503     59.0494
      3646.5    243.3503     53.3275
        3647    243.3503     59.6748
      3647.5    243.3503     72.6578
        3648    243.3503     74.6216
      3648.5    243.3503     65.3253
        3649    243.3503     50.2963
      3649.5    243.3503     41.4278
        3650    243.3503     40.1926
      3650.5    243.3503     42.6757
        3651    243.3503     52.3324
      3651.5    243.3503     62.9446
        3652    243.3503     68.5532
      3652.5    243.3503     73.1106
        3653    243.3503     72.8578
      3653.5    243.3503     73.9403
        3654    243.3503     84.9167
      3654.5    243.3503     95.9669
        3655    243.3503     97.7233
      3655.5    243.3503    105.3703
        3656    243.3503    117.0502
      3656.5    243.3503    107.0433
        3657    243.3503     80.4036
      3657.5    243.3503     69.8349
        3658    243.3503     65.4149
      3658.5    243.3503     61.1227
        3659    243.3503     58.2326
      3659.5    243.3503     57.5739
        3660    243.3503     60.1567
      3660.5    243.3503     57.6623
        3661    243.3503     51.1381
      3661.5    243.3503     49.0802
        3662    243.3503     47.3725
      3662.5    243.3503     45.4466
        3663    243.3503     46.4107
      3663.5    243.3503     45.8821
        3664    243.3503     40.4513
      3664.5    243.3503     38.0457
        3665    243.3503     37.8284
      3665.5    243.3503     37.8741
        3666    243.3503     43.0034
      3666.5    243.3503     56.8491
        3667    243.3503     69.3597
      3667.5    243.3503     62.6282
        3668    243.3503      47.183
      3668.5    243.3503     40.0517
        3669    243.3503     35.3697
      3669.5    243.3503     35.7742
        3670    243.3503     37.0403
      3670.5    243.3503     38.1389
        3671    243.3503     41.7815
      3671.5    243.3503     46.5938
        3672    243.3503     50.5346
      3672.5    243.3503      53.162
        3673    243.3503     56.3148
      3673.5    243.3503     59.7303
        3674    243.3503      62.883
      3674.5    243.3503     61.2734
        3675    243.3503     46.4447
      3675.5    243.3503     32.9004
        3676    243.3503     36.4712
      3676.5    243.3503     51.7901
        3677    243.3503     55.9344
      3677.5    243.3503      48.659
        3678     244.065     44.2136
      3678.5    243.4913     45.0233
        3679    243.3503     48.1761
      3679.5    243.3503     46.6571
        3680    243.3503     42.4535
      3680.5    243.3503     39.8781
        3681    243.3503     39.7715
      3681.5    243.3503     52.2221
        3682    243.3503     67.2766
      3682.5    243.3503     64.5699
        3683    243.3503     51.6965
      3683.5    243.3503     46.4442
        3684    243.3503     48.1022
      3684.5    243.3503     52.5394
        3685    243.3503     47.8586
      3685.5    243.3503     43.2911
        3686    243.3503     41.0579
      3686.5    243.3503     38.8792
        3687    243.3503     38.4306
      3687.5    243.3503     36.1427
        3688    243.3503      34.676
      3688.5    243.3503     36.3625
        3689    243.3503     40.4901
      3689.5    243.3503     47.7705
        3690    243.3503     51.2259
      3690.5    243.3503     52.6514
        3691    243.3503     62.4461
      3691.5    243.3503      73.199
        3692    243.3503      74.606
      3692.5    243.3503     74.3433
        3693    243.3503     71.2255
      3693.5    243.3503      61.185
        3694    243.3503     49.9045
      3694.5    243.3503     41.0129
        3695    243.3503     37.7549
      3695.5    243.3503     40.8341
        3696    243.3503     39.8865
      3696.5    243.3503     35.3472
        3697    243.3503     35.3187
      3697.5    243.3503     42.3258
        3698    243.3503     52.8938
      3698.5    243.3503     57.5306
        3699    243.3503     53.0177
      3699.5    243.3503     49.9124
        3700    243.3503      52.325
      3700.5    243.3503     56.0747
        3701    243.3503     60.0155
      3701.5    243.3503     55.6519
        3702    243.3503     47.0426
      3702.5    243.3503     47.9327
        3703    243.3503     52.7319
      3703.5    243.3503     52.4168
        3704    243.3503     48.7386
      3704.5    243.3503     53.8989
        3705    243.3503     68.7273
      3705.5    243.3503     83.9105
        3706    243.3503     97.3093
      3706.5    243.3503    105.2665
        3707    243.3503     98.9915
      3707.5    243.3503     89.8532
        3708    243.3503     84.7248
      3708.5    243.3503     78.2929
        3709    243.3503     69.2926
      3709.5    243.3503     66.1359
        3710    243.3503     64.6908
      3710.5    243.3503      64.425
        3711    243.3503     77.8769
      3711.5    243.3503    107.3614
        3712    243.3503    126.9457
      3712.5    243.3503    126.0357
        3713    243.3503    102.1891
      3713.5    243.3503     113.615
        3714    243.3503    121.3005
      3714.5    243.3503    108.4267
        3715    243.3503     88.6566
      3715.5    243.3503     70.7249
        3716    243.3503     55.4909
      3716.5    243.3503     53.1315
        3717    243.3503     59.1761
      3717.5    243.3503     63.9024
        3718    243.3503     64.8862
      3718.5    243.3503     60.9385
