~Version Information
 VERS.                  2.0:   CWLS log ASCII Standard -VERSION 2.0
 WRAP.                   NO:   One line per depth step
~Well Information Block
#MNEM.UNIT       Data Type    Information
#---------     -----------    ---------------------------
 STRT.F              3503.5000:
 STOP.F             12186.0000:
 STEP.F                 0.5000:
 NULL.               -999.2500:
 UWI .            42-109-32278:  API WELLHOLE NUMBER
 COMP.     SAMSON LONE STAR LP:  COMPANY NAME
 COUN.               CULBERSON:  COUNTY
 DAT2.                   02000:  LOGGING DATE 2
 DAT3.                   02000:  LOGGING DATE 3
 DAT4.                   02000:  LOGGING DATE 4
 DATE.                   02000:  LOGGING DATE
 DMF .           KELLY BUSHING:  DRILLING MEASURED
 LOC .    1521' FWL AND 2040' FSL:  FIELD LOCATION
 FL1 .    1521' FWL AND 2040' FSL:  FIELD LOCATION LINE 1
 FL2 .        SEC. 14, BLK. 46:  FIELD LOCATION LINE 2
 FLD .                 WILDCAT:  FIELD NAME
 HDAT.                   02000:  DATUM
 LMF .                    K.B.:  LOG MEASURED FROM
 OS1 .                    XRMI:  OTHER SERVICES LINE 1
 OS2 .               LSS / FWS:  OTHER SERVICES LINE 2
 OS3 .                 SDL/DSN:  OTHER SERVICES LINE 3
 OS4 .                DLL/MGRD:  OTHER SERVICES LINE 4
 PDAT.            GROUND LEVEL:  PERMANENT DATUM
 R1  .    TOOLSTRING: RWCH/D4TS/NGRT/LFS_D2/XRMI/CENT:  REMARKS LINE 1
 R2  .    LOGGING INTERVALS AS PER CUSTOMER REQUEST.:  REMARKS LINE 2
 RDT2.                   02000:  CASING DATE 2
 RDT3.                   02000:  CASING DATE 3
 RDT4.                   02000:  CASING DATE 4
 RDT5.                   02000:  CASING DATE 5
 SON .                 4992511:  SERVICE/TICKET ORDER NUMBER
 PROV.                   TEXAS:  STATE
 WELL.    UNIVERSITY LANDS 46-14 No. 2:  WELL NAME
~Parameter Information Block
#MNEM.UNIT       Value        Description
#---------     -----------    ---------------------------
~Curve Information Block
#MNEM.UNIT                 API CODE     Curve Description
#---------               -----------    ---------------------------
 DEPT.F                 00 000 000 000:  
 LLD .ohmm              00 000 000 000:  LLD                                    
 LLS .ohmm              00 000 000 000:  LLS                                    
 NPHI.decp              00 000 000 000:  Neutron Porosity                       
 GR  .api               00 000 000 000:  Gamma API                              
 MGRD.ohmm              00 000 000 000:  MCGRD                                  
 DRHO.g/cc              00 000 000 000:  DensityCorr                            
 DPHI.decp              00 000 000 000:  DensityPorosity                        
 PE  .b/e               00 000 000 000:  Pe                                     
 RHOB.g/cc              00 000 000 000:  Density                                
 XPHI.decp              00 000 000 000:  CrossplotPhi                           
 CALI.in                00 000 000 000:  Caliper                                
 DTC .                  00 000 000 000:  DELTA-T COMPRESSIONAL - FWS
 GR2 .GAPI              00 000 000 000:  NATURAL GAMMA - FWS
 SPHI.DECP              00 000 000 000:  SONIC POROSITY MTX=47.6 (DTC)
~A  DEPT        LLD        LLS        NPHI       GR         MGRD       DRHO       DPHI       PE         RHOB       XPHI       CALI       DTC        GR2        SPHI   
# ...
10976.0000    16.6105    13.4430     0.3637   113.4248     1.7196     0.2381     0.1150     3.2961     2.5133     0.2474    10.9756    76.4486   127.7478     0.2040 
10976.5000    16.1907    13.0626     0.3295   115.5937     1.7689     0.2498     0.1062     3.3846     2.5285     0.2402    10.9832    77.5832   121.7004     0.2120 
10977.0000    15.7963    12.6810     0.2958   119.8960     1.8411     0.2611     0.1018     3.4361     2.5359     0.2103    10.9756    77.5896   117.1829     0.2121 
10977.5000    15.5217    12.3695     0.2953   123.8783     1.9115     0.2731     0.1122     3.4113     2.5181     0.2140    10.9985    77.0907   116.2924     0.2086 
10978.0000    15.4309    12.2479     0.3242   121.7450     1.8726     0.2887     0.1054     3.4221     2.5298     0.2253    10.9908    76.7162   119.3938     0.2059 
10978.5000    15.4183    12.2667     0.3298   117.5137     1.8757     0.3002     0.0885     3.5001     2.5586     0.2217    10.9832    76.2252   122.5548     0.2024 
10979.0000    15.4165    12.2473     0.3111   112.5359     1.7029     0.3103     0.0885     3.5479     2.5587     0.2128    10.9832    75.3206   125.3768     0.1960 
10979.5000    15.3421    12.1684     0.3139   114.4026     1.6698     0.3117     0.1066     3.4969     2.5277     0.2146    10.9832    75.0757   125.6960     0.1943 
10980.0000    15.3626    12.1719     0.3348   120.6427     1.8192     0.2978     0.1197     3.3927     2.5053     0.2358    11.0366    75.0764   122.1930     0.1943 
10980.5000    15.4481    12.2290     0.3188   120.6605     1.7416     0.2808     0.1305     3.3149     2.4869     0.2324    11.0290    74.2877   119.1930     0.1887 
10981.0000    15.9653    12.6238     0.3078   118.9538     1.8013     0.2734     0.1574     3.2986     2.4409     0.2383    11.0519    74.6148   115.5462     0.1911 
10981.5000    16.7742    13.3654     0.2921   114.1892     1.9029     0.2742     0.1610     3.3782     2.4346     0.2395    11.0595    74.1229   111.7827     0.1876 
10982.0000    17.4666    13.9769     0.2804   110.5980     2.2643     0.2780     0.1426     3.5849     2.4661     0.2244    11.0595    73.1976   108.9780     0.1810 
10982.5000    17.9943    14.4101     0.2808   118.8827     1.9636     0.2992     0.1398     3.7122     2.4710     0.2171    11.0672    73.3077   109.3669     0.1818 
10983.0000    17.7244    14.1935     0.3033   127.1851     1.9820     0.3382     0.1320     3.6020     2.4843     0.2257    11.0824    73.7948   112.4462     0.1853 
10983.5000    17.3012    13.9520     0.3272   130.1540     2.1865     0.3733     0.1111     3.4482     2.5201     0.2288    11.0672    74.8612   114.0570     0.1928 
10984.0000    16.9980    13.7107     0.3211   124.2161     2.6903     0.3883     0.1042     3.3897     2.5317     0.2234    11.0595    75.1842   116.3973     0.1951 
10984.5000    16.8032    13.6675     0.3242   120.2694     2.1396     0.3738     0.1014     3.4087     2.5365     0.2238    10.9832    75.8607   120.1694     0.1999 
10985.0000    16.9053    13.8725     0.3242   128.1629     1.7135     0.3297     0.0877     3.4511     2.5601     0.2208    10.9450    76.2913   123.9815     0.2029 
10985.5000    17.1051    14.1033     0.3215   129.6740     1.1798     0.2749     0.0959     3.4717     2.5459     0.2186    10.8534    75.7209   123.4608     0.1989 
10986.0000    17.3964    14.4095     0.3119   121.8872     1.0918     0.2465     0.1188     3.4880     2.5068     0.2246    10.7160    74.5610   119.9798     0.1907 
10986.5000    17.6551    14.6949     0.2848   119.1493     1.2355     0.2490     0.1104     3.5144     2.5212     0.2082    10.6779    73.5699   116.8559     0.1837 
10987.0000    17.5520    14.7118     0.2808   124.0561     1.4282     0.2519     0.0824     3.5409     2.5691     0.1958    10.6626    73.4352   114.0572     0.1827 
10987.5000    17.4376    14.6662     0.2948   122.9894     1.9046     0.2461     0.0657     3.5526     2.5977     0.1963    10.6550    72.9013   114.6168     0.1789 
10988.0000    17.4962    14.5849     0.2987   113.9759     2.0247     0.2338     0.0623     3.4915     2.6034     0.1964    10.6702    72.6469   118.4951     0.1771 
10988.5000    18.0715    14.9995     0.2878   107.2024     2.2752     0.2181     0.0614     3.3419     2.6050     0.1919    10.6626    73.5172   123.3976     0.1833 
10989.0000    19.4331    16.1503     0.2688   107.2024     3.1093     0.2038     0.0674     3.2189     2.5948     0.1845    10.6779    73.2879   122.7251     0.1817 
10989.5000    21.3822    17.9464     0.2615   112.9625     4.3377     0.1892     0.1053     3.2260     2.5300     0.1947    10.8382    71.1200   113.7596     0.1663 
10990.0000    23.6703    20.2384     0.2338   113.6559     5.4162     0.2139     0.1235     3.2769     2.4988     0.1877    10.4412    69.5621   104.7030     0.1553 
10990.5000    26.5978    23.3350     0.2051   109.1758     5.9833     0.2486     0.0876     3.3212     2.5601     0.1747    10.3267    69.3839   101.9567     0.1541 
10991.0000    29.3166    25.8084     0.1912   111.2025     9.6017     0.2008     0.0502     3.4300     2.6241     0.1472    10.3115    68.2279   104.4159     0.1459 
10991.5000    34.2101    30.7836     0.1844   110.8825    19.9969     0.1150     0.0181     3.5023     2.6790     0.1243    10.3115    65.5940   104.5333     0.1273 
10992.0000    39.2300    35.6953     0.1698   106.4024    24.0418     0.0577     0.0063     3.4673     2.6993     0.1127    10.3115    63.2075   101.3560     0.1104 
10992.5000    44.5500    41.0006     0.1646    97.1400    30.1086     0.0364     0.0177     3.3605     2.6797     0.1132    10.3115    62.7962    99.2160     0.1075 
10993.0000    49.4653    43.8124     0.1555    91.6643    33.6290     0.0411     0.0164     3.2009     2.6819     0.1077    10.2809    62.9722    95.8719     0.1087 
10993.5000    51.9942    45.7782     0.1459    91.5398    27.1406     0.0451     0.0077     3.1105     2.6968     0.0996    10.2427    61.9199    93.7489     0.1013 
10994.0000    55.5314    47.9771     0.1490    83.2730    22.2576     0.0461     0.0139     3.1627     2.6863     0.1031    10.2427    61.4128    88.8774     0.0977 
10994.5000    64.7164    57.2364     0.1336    72.0550    26.5764     0.0492     0.0239     3.1748     2.6692     0.0972    10.2580    61.0321    82.3509     0.0950 
10995.0000    82.0368    78.2342     0.0989    65.1215    43.0515     0.0509     0.0193     2.9792     2.6771     0.0878    10.2427    61.7532    72.7740     0.1001 
10995.5000    86.8948    86.5435     0.0690    60.8191    58.9330     0.0474     0.0123     2.7619     2.6889     0.0539    10.2275    64.0893    63.9092     0.1166 
10996.0000    65.5954    74.8447     0.0676    58.0457    83.2084     0.0410     0.0167     2.8052     2.6814     0.0543    10.2504    66.4536    59.3254     0.1333 
10996.5000    40.8158    47.7039     0.0820    73.6905    49.5998     0.0606     0.0507     3.0463     2.6233     0.0743    10.2351    65.6533    65.3523     0.1277 
10997.0000    26.7285    26.9262     0.1063   101.5312     9.3925     0.1495     0.1261     3.1335     2.4944     0.1184    10.3038    65.3218    82.9942     0.1253 
10997.5000    20.1579    18.2144     0.1427   121.5138     2.8079     0.2889     0.1585     2.9144     2.4389     0.1409    10.3344    66.6037   106.2445     0.1344 
10998.0000    16.9638    15.2661     0.2121   135.8786     1.5445     0.3741     0.0981     2.6814     2.5423     0.1581    10.3420    73.8879   123.0747     0.1859 
10998.5000    15.5594    14.2039     0.2831   134.7052     1.9135     0.3566     0.0641     2.7924     2.6004     0.1905    10.3344    77.6345   126.0874     0.2124 
10999.0000    15.0975    14.1652     0.2976   127.1495     1.6581     0.3222     0.0985     3.0725     2.5416     0.2099    10.3496    77.8611   120.4116     0.2140 
10999.5000    15.2279    14.6167     0.2866   123.8428     1.4329     0.3175     0.1113     3.2238     2.5196     0.2095    10.3573    77.7235   117.0117     0.2130 
11000.0000    15.7065    15.3178     0.2906   115.1493     2.1688     0.3024     0.0872     3.3767     2.5608     0.2064    10.3725    76.0065   118.6399     0.2009 
