###############################################
##         ENVERUS                           ##
##         ESS - Open Hole                   ##
##         PERMIAN / DELAWARE                ##
##         Nov 03 2023  V4.0                 ##
##         42-109-32620-90-00                ##
###############################################
## Copyright 2017-2023  ENVERUS.  All Rights Reserved. 
## Confidential - Property of ENVERUS, use governed by terms and 
## conditions found within the existing Information Services Subscription Agreement 
## (as may be amended, the “ISSA”) between Customer and ENVERUS. 
## 
~VERSION INFORMATION
# MNEM.UNIT                               DATA : DESCRIPTION OF MNEMONIC
#-----.-----     ----------------------------- : -----------------------------
VERS.                                     2.00 : CWLS LOG ASCII STANDARD - VERSION 2.00
WRAP.                                       NO : MULTIPLE LINES PER DEPTH STEP
VEND.                                  ENVERUS : VENDOR
TYPE.                          ESS - OPEN HOLE : ENVERUS ESSENTIAL CURVES – ACCESSIBLE THROUGH ENVERUS PRISM(TM)
DOC.                                  51092952 : ENVERUS HEADER RAW DOCUMENT ID
#___________________________________________________________________________________________________ 
~WELL INFORMATION 
# LYPeWtxrle9FodilXqet+3VuPRh8A73lGXm1Q3+VPjdIM+tEhu367IfA47DlYFnVF+yDwY76OrXOyADpoj01xA== 
# MNEM.UNIT                                              DATA : DESCRIPTION OF MNEMONIC 
#-----.-----                    ----------------------------- : ----------------------------- 
CNTY.                                               CULBERSON : COUNTY 
STATE.                                                  TEXAS : STATE 
CNTRY.                                                    USA : COUNTRY 
API.                                             42-109-32620 : API (10 Digit) 
API_14.                                    42-109-32620-90-00 : API (14 Digits) 
API_14_std.                                 42-109-32620-9000 : API (14 Digits Standard) 
UWI.                                           42109326209000 : UNIQUE WELL ID 
WELL.                               42109326200000_PREV_API14 : WELL NAME
STRT.FT                                                2339.0 : START DEPTH
STOP.FT                                               10866.0 : STOP DEPTH
STEP.FT                                                   0.5 : STEP BETWEEN DEPTHS
NULL.                                                 -999.25 : NULL VALUE
PREV_APII.                                     42109326200000 : WELL IDENTIFIER
#___________________________________________________________________________________________________ 
~PARAMETER INFORMATION 
# MNEM.UNIT                                              DATA : DESCRIPTION OF MNEMONIC 
#-----.-----                    ----------------------------- : ----------------------------- 
EKB.FT                                                   3330 : ELEVATION ABOVE MSL
#___________________________________________________________________________________________________ 
~CURVE INFORMATION 
# MNEM.UNIT           : CURVE DESCRIPTION 
#-----.-----          : ----------------------------- 
 DEPT.FT               : MEASURED DEPTH 
 GR__A.API             : GAMMA RAY (GAMMA RAY) 
 DT__A.US/FT           : SONIC DELTA TRANSIT TIME (SONIC) 
 #___________________________________________________________________________________________________ 
~A         DEPT          GR__A          DT__A
# ...
         2861.0        172.854         96.054
         2861.5        172.763         94.894
         2862.0        167.873         92.693
         2862.5        143.014         90.332
         2863.0        127.750         87.024
         2863.5        122.086         86.711
         2864.0        117.962         91.330
         2864.5        114.721         98.063
         2865.0        107.844        101.189
         2865.5        106.391        103.381
         2866.0        110.853        106.356
         2866.5        111.863        111.548
         2867.0        111.481        109.754
         2867.5        118.932         97.533
         2868.0        131.613         91.583
         2868.5        156.109         88.867
         2869.0        164.108         89.600
         2869.5        160.291         90.471
         2870.0        161.216         90.907
         2870.5        173.511         91.922
         2871.0        186.909         92.735
         2871.5        208.939         92.610
         2872.0        216.879         90.854
         2872.5        208.905         87.492
         2873.0        181.692         85.355
         2873.5        165.830         80.071
         2874.0        155.074         71.455
         2874.5        142.710         53.039
         2875.0        125.468         41.495
         2875.5        113.631         38.473
         2876.0        109.803         48.416
         2876.5        104.398         80.438
         2877.0         92.511         91.001
         2877.5         89.497         89.553
         2878.0        100.081         82.529
         2878.5        119.822         60.283
         2879.0        118.804         63.099
         2879.5        110.487         68.582
         2880.0        109.780         73.287
         2880.5        110.180         70.597
         2881.0        109.540         62.029
         2881.5        117.632         58.686
         2882.0        126.836         57.569
         2882.5        122.816         56.369
         2883.0        111.909         61.156
         2883.5        110.050         69.561
         2884.0        113.250         76.996
         2884.5        121.487         84.986
         2885.0        122.856         75.073
         2885.5        118.563         65.952
         2886.0        118.544         61.517
         2886.5        118.164         59.599
         2887.0        128.961         68.230
         2887.5        150.076         80.826
         2888.0        163.799         85.949
         2888.5        166.712         77.732
         2889.0        149.357         62.901
         2889.5        139.095         60.072
         2890.0        132.219         62.868
         2890.5        118.474         81.916
         2891.0        114.172         84.957
         2891.5        114.745         80.146
         2892.0        108.577         69.180
         2892.5         95.732         64.797
         2893.0         95.740         73.381
         2893.5        106.205         85.632
         2894.0        107.697         89.512
         2894.5        102.476         88.730
         2895.0        103.357         75.482
         2895.5        111.600         67.801
         2896.0        121.857         69.581
         2896.5        153.468         75.681
         2897.0        173.324         83.120
         2897.5        164.635         84.206
         2898.0        152.858         83.794
         2898.5        146.257         84.253
         2899.0        156.407         85.135
         2899.5        163.038         86.149
         2900.0        167.873         87.164
         2900.5        173.879         88.579
         2901.0        172.207         91.160
         2901.5        171.528         92.380
         2902.0        174.716         93.226
         2902.5        188.684         93.480
         2903.0        193.258         94.252
         2903.5        179.702         94.303
         2904.0        168.052         92.007
         2904.5        152.092         86.952
         2905.0        151.697         83.437
         2905.5        154.988         85.178
         2906.0        160.049         89.682
         2906.5        170.080         96.145
         2907.0        174.966        101.879
         2907.5        161.843        105.392
         2908.0        149.580        107.944
         2908.5        140.807        108.033
         2909.0        136.527        104.500
         2909.5        159.450         98.789
         2910.0        185.710         95.714
         2910.5        279.470         81.724
         2911.0        346.141         74.661
         2911.5        394.010         85.002
         2912.0        374.569         86.428
         2912.5        353.772         92.228
         2913.0        376.430         95.085
         2913.5        372.897         94.432
         2914.0        354.065        102.791
         2914.5        302.773        101.543
         2915.0        321.701         94.996
         2915.5        363.922         93.233
         2916.0        341.172         92.634
         2916.5        281.355         98.753
         2917.0        227.736        107.684
         2917.5        189.813        106.491
         2918.0        171.962        105.013
         2918.5        162.456        102.838
         2919.0        178.040        101.781
         2919.5        185.629        102.511
         2920.0        184.138        103.932
         2920.5        187.773        102.951
         2921.0        190.481        101.535
         2921.5        184.428        100.521
         2922.0        176.082         98.927
         2922.5        172.860         98.894
         2923.0        175.277         97.258
         2923.5        183.232         94.634
         2924.0        193.010         92.333
         2924.5        194.282         90.023
         2925.0        182.344         89.410
         2925.5        178.044         89.067
         2926.0        178.044         89.349
         2926.5        178.592         88.775
         2927.0        183.849         87.961
         2927.5        188.365         88.178
         2928.0        190.419         88.791
         2928.5        190.954         89.593
         2929.0        179.686         84.588
         2929.5        159.831         72.535
         2930.0        154.613         61.214
         2930.5        138.770         65.803
         2931.0        119.112         74.578
         2931.5        110.984         78.036
         2932.0        114.904         75.993
         2932.5        126.971         69.119
         2933.0        118.839         64.439
         2933.5        106.892         65.539
         2934.0        109.782         67.649
         2934.5        120.194         69.277
         2935.0        118.756         69.528
         2935.5        115.186         68.267
         2936.0        114.571         67.299
         2936.5        115.142         67.875
         2937.0        116.018         70.737
         2937.5        118.989         69.928
         2938.0        121.357         65.628
         2938.5        119.452         65.451
         2939.0        115.091         68.375
         2939.5        109.297         71.615
         2940.0        103.674         69.842
         2940.5        103.432         62.582
         2941.0        116.196         63.626
         2941.5        125.700         64.769
         2942.0        122.646         64.630
         2942.5        121.946         67.822
         2943.0        131.616         76.032
         2943.5        146.804         86.553
         2944.0        165.062         90.352
         2944.5        187.729         90.873
         2945.0        224.833         86.246
         2945.5        304.819         79.840
         2946.0        433.888         75.501
         2946.5        411.056         75.964
         2947.0        294.261         76.979
         2947.5        190.048         76.913
