~VERSION INFORMATION
VERS. 2.0 : CWLS Log ASCII Standard - version 2.0
WRAP.  NO : One line per depth step
#--------------------------------------------------#
#----------------DRILLING INFO, INC.---------------#
#---------------WWW.DRILLINGINFO.COM---------------#
#------------------COPYRIGHT 2015------------------#
#--------------------------------------------------#
#THIS FILE MAY BE USED ONLY IN ACCORDANCE WITH A CURRENT SUBSCRIPTION AGREEMENT BETWEEN
#THE USER AND DRILLING INFO, INC. NO PART OF THIS FILE MAY BE REPRODUCED, USED, COPIED,
#MODIFIED, PROPAGATED, OR DISTRIBUTED EXCEPT IN ACCORDANCE WITH THE SUBSCRIPTION
#AGREEMENT. UNAUTHORIZED USE OR DISTRIBUTION OF ALL OR ANY PART OF THIS FILE MAY VIOLATE
#COPYRIGHT, TRADEMARK, AND/OR OTHER LAWS AND IS SUBJECT TO CIVIL AS WELL AS CRIMINAL
#SANCTIONS.
#--------------------------------------------------#
#THIS FILE IS PROVIDED "AS-IS" AND ALL WARRANTIES ARE EXPRESSLY DISCLAIMED, WHETHER
#EXPRESS, ORAL, IMPLIED, STATUTORY OR OTHERWISE, INCLUDING ANY IMPLIED WARRANTY OF FITNESS
#FOR A PARTICULAR PURPOSE, MERCHANTABILITY, TITLE OR NON-INFRINGEMENT, AND ANY WARRANTIES
#ARISING BY VIRTUE OF CUSTOM OF TRADE OR COURSE OF DEALING.  FURTHER, DRILLING INFO,
#INC. AND ITS LICENSORS DO NOT REPRESENT OR WARRANT THAT THIS FILE WILL MEET USER'S
#REQUIREMENTS OR ARE SUITABLE FOR USER'S NEEDS OR THAT THE DATA OR RESULTS PROVIDED IN
#CONJUNCTION THEREWITH ARE CORRECT, ACCURATE, TIMELY OR RELIABLE. THESE DISCLAIMERS SHALL
#APPLY REGARDLESS OF ANY FAILURE OF ESSENTIAL PURPOSE OF ANY LIMITED REMEDY.  SOME
#JURISDICTIONS DO NOT ALLOW THE EXCLUSION OF CERTAIN WARRANTIES SO SOME OF THE ABOVE
#EXCLUSIONS MAY NOT APPLY. IN NO EVENT SHALL DRILLING INFO, INC. OR ANY OF ITS AFFILIATES
#BE LIABLE UNDER ANY LEGAL THEORY, WHETHER IN TORT (INCLUDING WITHOUT LIMITATION
#NEGLIGENCE), CONTRACT, STRICT LIABILITY, STATUTORY OR OTHERWISE, FOR ANY SPECIAL,
#INCIDENTAL, CONSEQUENTIAL, EXEMPLARY, PUNITIVE OR INDIRECT DAMAGE OF ANY KIND, INCLUDING
#WITHOUT LIMITATION LOSS OF REVENUE, PROFITS, GOODWILL, USE, AND/OR DATA OR THE COST OF
#PROCUREMENT OF SUBSTITUTE GOODS OR SERVICES, EVEN IF APPRISED OF THE POSSIBILITY OF SUCH
#DAMAGES IN ADVANCE.
#--------------------------------------------------#
~WELL INFORMATION
#MNEMONIC     .UNIT              VALUE :DESCRIPTION
#--------------------------------------------------#
STRT       .FT                35 :START DEPTH
STOP       .FT                15948 :STOP DEPTH
STEP       .FT                   0.500 :STEP
NULL       .                  -999.250 :NULL
API        .                421093136200 :API NUMBER
COMP       .         ARRINGTON DAVID H. OIL & GAS INC :COMPANY
WELL       .        SCOTT UNIT  1 :WELL
DATE       .                17-Jun-1991 :LOG DATE
~CURVE INFORMATION
#MNEMONIC     .UNIT      API CODE :CURVE DESCRIPTION
#--------------------------------------------------#
DEPTH       .FT                      :Measured Depth
CAL.INCH        UNKNOWN   :CAL
DT.US/FT        UNKNOWN   :DT
GR.API        UNKNOWN   :GR
~A    DEPTH    CAL    DT    GR
# ...
 11173.5     7.419   63.991   99.809
 11174     7.416   60.963   94.419
 11174.5     7.412   59.305   89.029
 11175     7.409   59.21   84.96
 11175.5     7.405   61.82   89.113
 11176     7.401   64.947   100.986
 11176.5     7.398   67.131   112.003
 11177     7.394   66.886   116.48
 11177.5     7.391   66.235   117.928
 11178     7.387   65.913   113.039
 11178.5     7.383   65.972   108.151
 11179     7.38   65.81   106.751
 11179.5     7.376   64.376   107.969
 11180     7.372   64.524   107.937
 11180.5     7.368   64.872   105.111
 11181     7.364   65.371   102.286
 11181.5     7.36   65.357   100.254
 11182     7.357   65.496   102.306
 11182.5     7.353   65.345   104.276
 11183     7.349   64.162   99.327
 11183.5     7.345   63.05   94.377
 11184     7.341   62.898   89.497
 11184.5     7.338   62.94   90.993
 11185     7.335   63.775   98.611
 11185.5     7.338   65.332   106.229
 11186     7.353   66.664   113.847
 11186.5     7.368   67.56   112.69
 11187     7.382   68.235   111.26
 11187.5     7.397   68.2   109.831
 11188     7.411   67.994   109.822
 11188.5     7.424   68.73   113.266
 11189     7.437   70.043   116.711
 11189.5     7.451   71.21   120.155
 11190     7.464   71.975   123.6
 11190.5     7.465   71.803   124.337
 11191     7.463   70.177   122.909
 11191.5     7.46   68.108   114.989
 11192     7.458   64.833   107.07
 11192.5     7.455   62.892   103.958
 11193     7.453   62.33   100.131
 11193.5     7.479   62.411   96.151
 11194     7.504   63.021   92.172
 11194.5     7.527   62.54   89.25
 11195     7.538   62.073   84.96
 11195.5     7.548   61.323   76.828
 11196     7.559   59.986   71.305
 11196.5     7.569   60.937   70.336
 11197     7.58   61.888   69.368
 11197.5     7.591   63.833   71.856
 11198     7.601   64.931   77.361
 11198.5     7.606   65.056   82.866
 11199     7.61   64.271   85.172
 11199.5     7.615   62.058   81.328
 11200     7.619   60.799   78.615
 11200.5     7.623   60.288   78.806
 11201     7.628   60.232   78.997
 11201.5     7.632   60.446   77.972
 11202     7.637   61.084   74.866
 11202.5     7.641   61.931   71.76
 11203     7.627   62.778   73.701
 11203.5     7.61   63.625   76.661
 11204     7.592   63.697   78.002
 11204.5     7.584   62.777   75.168
 11205     7.579   61.935   72.334
 11205.5     7.574   62.111   71.407
 11206     7.569   62.978   78.008
 11206.5     7.565   64.948   91.043
 11207     7.56   66.555   104.077
 11207.5     7.555   68.167   113.118
 11208     7.551   68.909   117.046
 11208.5     7.546   69.025   116.343
 11209     7.541   68.427   115.64
 11209.5     7.536   67.83   114.937
 11210     7.532   67.242   111.838
 11210.5     7.527   66.388   108.047
 11211     7.522   66.182   107.503
 11211.5     7.519   67.156   120.317
 11212     7.516   69.359   132.034
 11212.5     7.523   71.484   137.526
 11213     7.535   73.188   139.931
 11213.5     7.547   74.803   138.935
 11214     7.558   74.047   133.575
 11214.5     7.564   72.023   128.215
 11215     7.547   70   120.633
 11215.5     7.531   64.537   85.786
 11216     7.515   61.624   80.307
 11216.5     7.498   60.489   77.105
 11217     7.503   60.51   82.079
 11217.5     7.519   64.661   103.042
 11218     7.533   66.882   111.27
 11218.5     7.521   68.173   118.88
 11219     7.508   68.163   123.332
 11219.5     7.496   65.738   113.004
 11220     7.483   64.942   102.676
 11220.5     7.485   65.819   99.461
 11221     7.519   67.531   102.512
 11221.5     7.553   71.075   116.975
 11222     7.587   70.704   113.304
 11222.5     7.621   68.403   101.213
 11223     7.597   65.079   89.122
 11223.5     7.573   60.118   77.369
 11224     7.552   60.353   72.889
 11224.5     7.565   61.184   69.256
 11225     7.579   62.403   68.121
 11225.5     7.592   64.026   67.661
 11226     7.606   64.232   67.274
 11226.5     7.619   64.439   66.887
 11227     7.633   64.398   66.5
 11227.5     7.647   65.264   72.496
 11228     7.661   66.793   81.321
 11228.5     7.672   67.714   90.146
 11229     7.674   68.255   93.849
 11229.5     7.677   66.934   86.653
 11230     7.68   65.479   79.457
 11230.5     7.683   64.379   72.658
 11231     7.686   63.951   72.913
 11231.5     7.671   63.923   72.383
 11232     7.634   64.572   70.107
 11232.5     7.598   65.487   70.523
 11233     7.61   66.744   73.702
 11233.5     7.646   68.957   87.775
 11234     7.682   69.548   96.988
 11234.5     7.686   68.383   95.591
 11235     7.646   66.822   89.706
 11235.5     7.656   66.057   83.821
 11236     7.697   66.123   78.298
 11236.5     7.666   66.248   73.265
 11237     7.647   66.464   68.231
 11237.5     7.663   66.679   63.197
 11238     7.678   66.85   61.795
 11238.5     7.694   66.973   61.652
 11239     7.71   67.075   61.508
 11239.5     7.725   67.095   64.684
 11240     7.735   66.97   68.872
 11240.5     7.719   66.188   73.06
 11241     7.703   65.099   77.248
 11241.5     7.665   60.711   79.591
 11242     7.622   58.48   78.473
 11242.5     7.58   58.169   74.994
 11243     7.538   59.357   72.887
 11243.5     7.577   61.683   73.475
 11244     7.619   64.322   72.127
 11244.5     7.647   66.157   68.539
 11245     7.676   67.232   65.918
 11245.5     7.704   67.62   67.788
 11246     7.732   66.348   69.658
 11246.5     7.694   63.325   71.528
 11247     7.639   60.166   69.328
 11247.5     7.585   58.456   63.261
 11248     7.531   59.55   61.626
 11248.5     7.555   62.27   63.913
 11249     7.593   63.611   67.238
 11249.5     7.631   66.716   70.564
 11250     7.668   67.685   71.131
 11250.5     7.7   68.164   71.517
 11251     7.725   68.14   71.903
 11251.5     7.729   67.039   72.289
 11252     7.691   65.738   70.909
 11252.5     7.652   63.508   68.225
 11253     7.614   61.919   66.655
 11253.5     7.605   62.504   65.725
 11254     7.602   63.901   64.794
 11254.5     7.6   65.05   63.864
 11255     7.597   65.763   64.712
 11255.5     7.595   66.579   81.083
 11256     7.577   67.455   99.847
 11256.5     7.552   68.047   113.599
 11257     7.527   68.125   113.418
 11257.5     7.502   65.216   86.917
 11258     7.477   61.82   81.273
 11258.5     7.452   60.987   77.346
 11259     7.427   61.859   78.936
 11259.5     7.402   62.082   82.811
 11260     7.377   62   83.639
 11260.5     7.364   62.028   84.466
 11261     7.362   61.689   86.044
 11261.5     7.359   61.567   87.658
 11262     7.356   62.177   88.238
 11262.5     7.354   62.688   88.29
 11263     7.351   63.872   98.015
 11263.5     7.349   63.736   107.741
 11264     7.346   60.233   100.455
 11264.5     7.344   58.479   88.182
 11265     7.341   58.003   78.39
 11265.5     7.336   59.465   83.221
 11266     7.331   61.013   91.02
 11266.5     7.326   62.214   94.407
 11267     7.322   61.7   93.928
 11267.5     7.317   60.08   87.848
 11268     7.312   59.824   86.074
 11268.5     7.307   60.444   86.509
 11269     7.319   60.587   88.37
 11269.5     7.334   62.753   90.231
 11270     7.348   64.577   94.004
 11270.5     7.362   66.211   100.812
 11271     7.376   68.002   120.103
 11271.5     7.388   70.879   130.051
 11272     7.391   70.984   129.911
 11272.5     7.394   70.776   124.332
 11273     7.397   70.562   115.56
 11273.5     7.4   67.278   106.789
 11274     7.403   66.073   98.553
 11274.5     7.383   64.365   94.24
 11275     7.357   62.949   89.928
 11275.5     7.331   61.588   88.064
 11276     7.306   61.543   90.431
 11276.5     7.28   60.794   92.671
 11277     7.271   59.509   93.522
 11277.5     7.289   58.788   83.46
 11278     7.308   59.031   82.749
 11278.5     7.327   60.914   89.671
 11279     7.346   63.362   99.084
 11279.5     7.364   69.694   108.236
 11280     7.383   70.891   116.974
 11280.5     7.402   70.704   125.713
 11281     7.401   70.288   126.239
 11281.5     7.399   69.26   126.458
 11282     7.397   66.894   115.625
 11282.5     7.396   63.546   104.468
 11283     7.394   62.362   103.751
 11283.5     7.392   63.582   105.278
 11284     7.391   65.694   106.805
 11284.5     7.389   68.023   108.332
