###############################################
##         ENVERUS                           ##
##         ESS - Open Hole                   ##
##         PERMIAN / DELAWARE                ##
##         Nov 02 2023  V4.0                 ##
##         42-109-00406-00-00                ##
###############################################
## Copyright 2017-2023  ENVERUS.  All Rights Reserved. 
## Confidential - Property of ENVERUS, use governed by terms and 
## conditions found within the existing Information Services Subscription Agreement 
## (as may be amended, the “ISSA”) between Customer and ENVERUS. 
## 
~VERSION INFORMATION
# MNEM.UNIT                               DATA : DESCRIPTION OF MNEMONIC
#-----.-----     ----------------------------- : -----------------------------
VERS.                                     2.00 : CWLS LOG ASCII STANDARD - VERSION 2.00
WRAP.                                       NO : MULTIPLE LINES PER DEPTH STEP
VEND.                                  ENVERUS : VENDOR
TYPE.                          ESS - OPEN HOLE : ENVERUS ESSENTIAL CURVES – ACCESSIBLE THROUGH ENVERUS PRISM(TM)
DOC.                                  31976272 : ENVERUS HEADER RAW DOCUMENT ID
#___________________________________________________________________________________________________ 
~WELL INFORMATION 
# f03iSNYnaQ7mQXX2RIaOYtiytuBBABKYYIB1smJtyZkBcGMChrfvYQpeE0DESEj4BN+caz3q2IoGlEPFhwFUwg== 
# MNEM.UNIT                                              DATA : DESCRIPTION OF MNEMONIC 
#-----.-----                    ----------------------------- : ----------------------------- 
CNTY.                                               CULBERSON : COUNTY 
STATE.                                                  TEXAS : STATE 
CNTRY.                                                    USA : COUNTRY 
API.                                             42-109-00406 : API (10 Digit) 
API_14.                                    42-109-00406-00-00 : API (14 Digits) 
API_14_std.                                 42-109-00406-0000 : API (14 Digits Standard) 
UWI.                                           42109004060000 : UNIQUE WELL ID 
WELL.                                                  DRD_55 : WELL NAME
STRT.FT                                                 100.5 : START DEPTH
STOP.FT                                               12629.5 : STOP DEPTH
STEP.FT                                                   0.5 : STEP BETWEEN DEPTHS
NULL.                                                 -999.25 : NULL VALUE
#___________________________________________________________________________________________________ 
~PARAMETER INFORMATION 
# MNEM.UNIT                                              DATA : DESCRIPTION OF MNEMONIC 
#-----.-----                    ----------------------------- : -----------------------------
#___________________________________________________________________________________________________ 
~CURVE INFORMATION 
# MNEM.UNIT           : CURVE DESCRIPTION 
#-----.-----          : ----------------------------- 
 DEPT.FT               : MEASURED DEPTH 
 GR__A.API             : GAMMA RAY (GAMMA RAY) 
 DT__A.US/FT           : SONIC DELTA TRANSIT TIME (SONIC) 
 #___________________________________________________________________________________________________ 
~A         DEPT          GR__A          DT__A
# ...
         1753.5         34.323         76.907
         1754.0         34.878         75.328
         1754.5         34.730         73.910
         1755.0         34.024         72.760
         1755.5         34.597         72.077
         1756.0         36.870         71.740
         1756.5         40.788         71.848
         1757.0         44.574         72.178
         1757.5         46.347         72.423
         1758.0         47.147         72.847
         1758.5         46.448         73.436
         1759.0         44.413         73.973
         1759.5         41.452         74.977
         1760.0         39.219         76.103
         1760.5         36.719         76.517
         1761.0         33.844         76.941
         1761.5         33.369         77.405
         1762.0         33.821         77.424
         1762.5         34.276         77.208
         1763.0         34.851         76.866
         1763.5         35.361         79.455
         1764.0         33.047         79.737
         1764.5         30.797         79.214
         1765.0         29.580         78.609
         1765.5         31.207         78.375
         1766.0         32.907         78.080
         1766.5         34.578         77.603
         1767.0         35.418         77.286
         1767.5         34.540         77.156
         1768.0         33.925         77.035
         1768.5         32.863         77.399
         1769.0         31.813         77.583
         1769.5         31.073         77.721
         1770.0         30.604         77.087
         1770.5         30.012         75.560
         1771.0         30.016         74.314
         1771.5         33.039         74.629
         1772.0         34.028         74.609
         1772.5         34.612         74.509
         1773.0         34.499         74.522
         1773.5         32.183         74.610
         1774.0         30.581         74.586
         1774.5         30.185         73.992
         1775.0         31.081         73.675
         1775.5         31.629         73.510
         1776.0         32.486         73.308
         1776.5         33.399         72.940
         1777.0         33.517         72.661
         1777.5         33.036         72.656
         1778.0         33.036         72.840
         1778.5         32.977         72.194
         1779.0         33.432         71.284
         1779.5         34.569         71.468
         1780.0         35.852         71.534
         1780.5         37.165         71.256
         1781.0         36.956         70.958
         1781.5         36.145         70.835
         1782.0         36.012         70.713
         1782.5         36.012         70.697
         1783.0         36.012         70.906
         1783.5         36.673         70.755
         1784.0         38.029         70.207
         1784.5         39.447         69.553
         1785.0         40.606         69.088
         1785.5         41.243         68.590
         1786.0         41.698         68.127
         1786.5         42.098         67.925
         1787.0         40.741         67.288
         1787.5         39.734         65.867
         1788.0         39.340         64.370
         1788.5         38.911         63.554
         1789.0         38.328         64.222
         1789.5         37.197         64.613
         1790.0         35.982         65.245
         1790.5         35.452         66.030
         1791.0         34.577         67.450
         1791.5         33.539         68.691
         1792.0         34.213         68.265
         1792.5         34.674         68.136
         1793.0         35.433         68.134
         1793.5         36.218         68.047
         1794.0         37.650         68.749
         1794.5         40.092         68.938
         1795.0         42.735         69.177
         1795.5         46.146         69.316
         1796.0         51.221         69.124
         1796.5         57.007         68.848
         1797.0         64.052         68.397
         1797.5         67.409         67.882
         1798.0         63.329         67.459
         1798.5         58.511         66.846
         1799.0         49.809         66.329
         1799.5         42.214         66.101
         1800.0         39.789         65.916
         1800.5         39.486         65.634
         1801.0         39.286         64.996
         1801.5         39.176         64.187
         1802.0         39.104         64.065
         1802.5         39.164         64.617
         1803.0         38.348         65.011
         1803.5         36.428         65.440
         1804.0         34.498         66.209
         1804.5         34.009         67.936
         1805.0         34.531         69.959
         1805.5         35.613         71.101
         1806.0         36.909         71.748
         1806.5         36.603         72.285
         1807.0         35.747         72.287
         1807.5         35.292         71.869
         1808.0         34.852         71.264
         1808.5         34.973         70.471
         1809.0         35.320         69.775
         1809.5         35.727         69.454
         1810.0         36.183         68.926
         1810.5         37.514         68.295
         1811.0         39.229         69.500
         1811.5         39.134         70.313
         1812.0         38.514         69.750
         1812.5         38.150         69.579
         1813.0         37.347         69.176
         1813.5         35.926         68.582
         1814.0         34.015         68.075
         1814.5         32.442         67.097
         1815.0         31.881         65.889
         1815.5         31.426         65.057
         1816.0         29.542         64.664
         1816.5         27.839         64.531
         1817.0         28.572         65.913
         1817.5         28.888         66.831
         1818.0         29.799         67.630
         1818.5         30.701         66.995
         1819.0         31.485         66.003
         1819.5         32.502         64.942
         1820.0         33.109         64.312
         1820.5         33.698         64.014
         1821.0         33.876         64.054
         1821.5         32.601         65.410
         1822.0         31.873         65.950
         1822.5         31.535         66.414
         1823.0         32.104         66.664
         1823.5         32.480         66.493
         1824.0         32.721         66.152
         1824.5         32.453         65.760
         1825.0         31.832         65.453
         1825.5         33.902         65.125
         1826.0         35.366         64.757
         1826.5         35.629         64.389
         1827.0         34.241         64.070
         1827.5         32.484         64.547
         1828.0         31.817         65.614
         1828.5         32.492         65.884
         1829.0         33.835         66.529
         1829.5         37.100         68.063
         1830.0         42.603         68.922
         1830.5         49.227         69.077
         1831.0         57.675         69.502
         1831.5         65.896         70.080
         1832.0         71.210         69.233
         1832.5         77.664         68.063
         1833.0         85.560         66.951
         1833.5         92.353         65.217
         1834.0         96.619         63.922
         1834.5         82.102         63.498
         1835.0         71.192         63.094
         1835.5         59.944         62.603
         1836.0         50.384         63.744
         1836.5         46.025         65.065
         1837.0         44.244         65.654
         1837.5         47.523         65.832
         1838.0         51.147         65.955
         1838.5         54.770         65.972
         1839.0         56.701         65.378
         1839.5         53.978         64.924
         1840.0         51.067         66.075
