#   WellGreen Tech Inc.   Digitizing Services
#   www.wellgreentech.com
#   email: sales@wellgreentech.com
#
~Version Information Block
 VERS.                2.00:     CWLS LOG ASCII STANDARD - VERSION 2.000000
 WRAP.                  NO:     One Line Per Depth Step
#
~Well Information Block
#MNEM.UNIT                     Data                         Information
#----------   ------------------------------------------   ----------------
 STRT.FT                                      400.0000:     START DEPTH
 STOP.FT                                    10100.0000:     STOP DEPTH
 STEP.FT                                        0.5000:     STEP
 NULL.                                       -999.2500:     NULL VALUE
 COMP.                       ENRON OIL AND GAS COMPANY:     COMPANY
 WELL.                                   TXL "1" NO. 1:     WELL
 FLD .                                         WILDCAT:     FIELD
 LOC .                                              63:     LOCATION
 CNTY.                                       CULBERSON:     COUNTY
 STAT.                                           TEXAS:     STATE
 CTRY.                                             USA:     COUNTRY
 SRVC.                                    SCHLUMBERGER:     SERVICE COMPANY
 DATE.                                      06/28/1989:     DATE
 API .               42109320330000:    API NUMBER
 UWI .               42109320330000:    UWI NUMBER
 TVD .                                              NO:     TVD flag
 MATRIX .G/CC                  :    Matrix Density
#
~Curve Information Block
#MNEM.UNIT       API CODE      Curve Description
#----------    -------------   -------------------
 DEPT.FT                   :   Depth in Feet
 GR  .API      35 310 01 01:   Gamma Ray
 CALI.INCHES   70 280 01 01:   Caliper
 DT  .US/FT    60 520 08 01:   Delta T
 SPHI.V/V      61 890 01 01:   Sonic Porosity
#
~Parameter Information Block
#MNEM.UNIT            Value               Description
#----------    --------------------    -------------------
 RUN .                         ONE:    Run Number
 PDAT.                          GL:    Permanent Datum
 EPD .FT                 3890.3000:    Elevation Of Perm. Datum
 LMF .               KELLY BUSHING:    Log Measured From
 EKB .FT                 3905.1000:    Elevation Of Kelly Bushing
 DF .FT                  3904.1000:    Elevation Of Derrick Floor
 GL .FT                  3890.3000:    Elevation Of Ground Level
 TD .FT                  10100.0000:    Total Depth
 BHT .DEGF               193.00 :  Bottom Hole Temperature
 BLI .FT               10100.0000:   Bottom Log Interval
 CSGSIZE.IN              9.6250:   Casing Size
 BITSIZE.IN               8.750 :  BitSize
 CSGD.FT                      405:    Casing Bottom (Driller) 1
 CSGL.FT                      405:    Casing Bottom (Logger) 1
 MUD .                      SW GEL:    Drilling Fluid Type
 MUDV .CP                  34.0000:    Drilling Fluid Viscosity
 MUDD .LB/USG               9.1000:    Drilling Fluid Density
 FL .ML/30MIN               8.0000:    Drilling Fluid Loss
 PH.                       10.0000:    Drilling Fluid Ph
 MUDS .                  CIRC TANK:    Mud Sample Source
 RM .OHMM                   0.1720:    Resistivity Of Mud Sample
 RMT .DEGF                 75.0000:    Mud Sample Temperature
 RMF .OHMM                  0.1720:    Mud Filtrate Resistivity
 RMFT.DEGF                 75.0000:    Mud Filtrate Sample Temperature
 RMB .OHMM                  0.0710:    Mud Resistivity At Bht
 TMAX .DEGF               193.0000:    Bottom Hole Temperature
#
~Other Information Block
<DescLogPlotStart>   NEURALOG PLOT DEFINITION
PLOTDEFVERSION: 3
LASFILE: D:\nds\projects\20MAY19H\las\42109320330000_BEG_RAS_RS0022815370.las
DEPTHSCALE: 240.000000
RESOLUTION: 400
DEPTHLABELFREQ: 100.000000
HEAVYGRIDFREQ: 100.000000
MEDIUMGRIDFREQ: 50.000000
LIGHTGRIDFREQ: 10.000000
#
#   TRACK 1
#
STARTTRACK: 
 LEFTX: 0.500000 inch
 RIGHTX: 3.000000 inch
 SCALETYPE: Linear
 NUMCHARTDIVISIONS: 10
CURVE: GR    0.000000   125.000000 (0,0,255)      Solid             2     Y    
BACKUP: 125.000000 250.000000 (0,0,255)      Solid             2    
ENDTRACK: 
#
#   TRACK 2
#
STARTTRACK: 
 LEFTX: 0.500000 inch
 RIGHTX: 3.000000 inch
 SCALETYPE: Linear
 NUMCHARTDIVISIONS: 10
CURVE: CALI  6.000000   16.000000  (0,131,131)    Solid             2     N    
ENDTRACK: 
#
#   TRACK 3
#
STARTTRACK: 
 LEFTX: 3.500000 inch
 RIGHTX: 8.500000 inch
 SCALETYPE: Linear
 NUMCHARTDIVISIONS: 10
CURVE: DT    100.000000 40.000000  (255,0,255)    Solid             2     Y    
BACKUP: 160.000000 100.000000 (255,0,255)    Solid             2    
CURVE: SPHI  0.300000   -0.100000  (255,0,0)      Dot               2     Y    
BACKUP: 0.700000   0.300000   (255,0,0)      Dot               2    
BACKUP: -0.100000  -0.500000  (255,0,0)      Dot               2    
ENDTRACK: 
<DescLogPlotEnd>
~A DEPTH     GR               CALI             DT               SPHI            
# ...
    6835.000 114.10           9.59             72.04            0.21            
    6835.500 115.90           9.59             73.45            0.22            
    6836.000 122.12           9.59             74.30            0.23            
    6836.500 126.96           9.59             74.05            0.22            
    6837.000 125.07           9.59             72.72            0.22            
    6837.500 121.21           9.59             71.05            0.21            
    6838.000 114.33           9.59             69.81            0.20            
    6838.500 106.72           9.59             70.15            0.20            
    6839.000 100.71           9.59             71.72            0.21            
    6839.500 100.19           9.59             73.34            0.22            
    6840.000 125.87           9.60             74.77            0.23            
    6840.500 125.45           9.60             75.39            0.23            
    6841.000 131.10           9.60             73.64            0.22            
    6841.500 127.24           9.60             71.82            0.21            
    6842.000 116.90           9.60             70.29            0.20            
    6842.500 107.53           9.60             69.84            0.20            
    6843.000 104.96           9.60             70.79            0.21            
    6843.500 106.06           9.60             71.77            0.21            
    6844.000 107.76           9.60             71.90            0.21            
    6844.500 108.94           9.60             71.25            0.21            
    6845.000 109.75           9.60             70.75            0.20            
    6845.500 112.82           9.60             70.85            0.21            
    6846.000 120.88           9.60             72.02            0.21            
    6846.500 129.28           9.60             72.95            0.22            
    6847.000 134.40           9.60             73.62            0.22            
    6847.500 137.67           9.61             73.91            0.22            
    6848.000 137.64           9.62             74.27            0.22            
    6848.500 137.28           9.62             75.53            0.23            
    6849.000 138.47           9.63             77.13            0.24            
    6849.500 148.18           9.64             78.56            0.25            
    6850.000 157.66           9.64             77.93            0.24            
    6850.500 160.03           9.65             75.54            0.23            
    6851.000 144.86           9.66             71.73            0.21            
    6851.500 124.32           9.66             68.99            0.19            
    6852.000 113.53           9.67             68.10            0.19            
    6852.500 105.21           9.67             69.25            0.20            
    6853.000 105.88           9.68             71.07            0.20            
    6853.500 110.93           9.68             72.77            0.21            
    6854.000 116.42           9.69             73.66            0.22            
    6854.500 120.06           9.69             73.12            0.22            
    6855.000 117.70           9.70             70.75            0.21            
    6855.500 109.11           9.71             67.84            0.19            
    6856.000 99.78            9.71             66.22            0.18            
    6856.500 94.23            9.70             66.61            0.18            
    6857.000 91.64            9.70             66.63            0.18            
    6857.500 91.82            9.70             67.51            0.18            
    6858.000 95.45            9.70             67.98            0.19            
    6858.500 99.04            9.70             68.45            0.19            
    6859.000 101.41           9.70             68.92            0.19            
    6859.500 100.99           9.70             69.39            0.20            
    6860.000 100.62           9.70             70.22            0.20            
    6860.500 102.08           9.69             72.07            0.21            
    6861.000 107.85           9.69             73.93            0.22            
    6861.500 113.58           9.69             75.79            0.23            
    6862.000 122.07           9.69             77.09            0.24            
    6862.500 130.16           9.69             78.29            0.25            
    6863.000 132.11           9.69             79.49            0.25            
    6863.500 134.43           9.68             80.61            0.26            
    6864.000 134.43           9.68             81.58            0.26            
    6864.500 135.83           9.68             82.06            0.26            
    6865.000 141.05           9.67             82.80            0.27            
    6865.500 151.34           9.67             83.90            0.27            
    6866.000 161.67           9.66             84.81            0.27            
    6866.500 171.99           9.66             84.61            0.27            
    6867.000 182.35           9.66             82.32            0.27            
    6867.500 185.37           9.65             78.20            0.25            
    6868.000 170.06           9.65             74.71            0.23            
    6868.500 146.74           9.64             71.96            0.21            
    6869.000 124.64           9.64             71.31            0.21            
    6869.500 113.12           9.63             72.17            0.21            
    6870.000 109.22           9.63             73.69            0.22            
    6870.500 110.45           9.63             75.11            0.23            
    6871.000 113.33           9.62             75.73            0.23            
    6871.500 115.93           9.62             75.53            0.23            
    6872.000 117.02           9.62             74.98            0.23            
    6872.500 114.86           9.63             73.96            0.22            
    6873.000 109.48           9.64             72.80            0.22            
    6873.500 105.48           9.65             71.36            0.21            
    6874.000 102.70           9.65             70.20            0.20            
    6874.500 101.45           9.66             69.33            0.20            
    6875.000 101.74           9.67             69.07            0.19            
    6875.500 102.33           9.68             69.41            0.20            
    6876.000 100.97           9.68             69.48            0.20            
    6876.500 98.70            9.68             69.56            0.20            
    6877.000 98.82            9.68             69.69            0.20            
    6877.500 101.76           9.68             69.82            0.20            
    6878.000 104.85           9.68             70.43            0.20            
    6878.500 105.76           9.68             71.27            0.21            
    6879.000 106.64           9.68             72.70            0.22            
    6879.500 111.89           9.68             74.12            0.22            
    6880.000 117.86           9.68             75.07            0.23            
    6880.500 123.12           9.68             76.53            0.24            
    6881.000 127.77           9.68             77.63            0.24            
    6881.500 131.93           9.68             77.69            0.24            
    6882.000 135.97           9.68             75.67            0.23            
    6882.500 140.79           9.68             72.96            0.22            
    6883.000 137.06           9.69             70.22            0.20            
    6883.500 130.67           9.72             70.21            0.20            
    6884.000 124.39           9.75             71.05            0.21            
