~Version Information
 VERS.                  2.0:   CWLS log ASCII Standard -VERSION 2.0
 WRAP.                   NO:   One line per depth step
~Well Information Block
#MNEM.UNIT     VALUE/NAME     DESCRIPTION
#---------     -----------    ---------------------------
 STRT.F              8400.0000: START DEPTH
 STOP.F             14661.0000: STOP DEPTH
 STEP.F                 0.5000: STEP DEPTH
 NULL.                 -999.25: NULL VALUE
 LOC .            42-109-33545:  LOCATION
 FL1 .            42-109-33545:  LOCATIONLINE1
 DMF .             Drill Floor:  DRILL MEAS FROM
 PDAT.                      GL:  PERMANENT DATUM
 CNTY.               CULBERSON:  COUNTY NAME
 FLD .              WOLFCAMP B:  FIELD NAME
 WELL.           DALE STATE 3H:  WELL NAME
 COMP.     CAPITAN ENERGY INC.:  COMPANY
 DATE.             12-Feb-2020:  DATE
 SVCO.             Halliburton:  SERVICECONAME
 PROV.                      TX:  PROVINCE
 STAT.                      TX:  STATE NAME
 HIDE.                        :  WELLNAMEOPERAT
 BASI.                 PERMIAN:  BASIN
 UWI .            42-109-33545:  UNIQUE WELL IDENTIFIER
 API .            42-109-33545:  API NUMBER
 RANG.                     N/A:  RANGE
 TOWN.                     N/A:  TOWNSHIP
 SECT.                     N/A:  SECTION
 SON .               906290460:  JOB NUMBER
 CTRY.                        :  COUNTRY
 SRVC.             Halliburton:  SERVICE COMPANY
 LMF .             Drill Floor:  LOG MEASURED FROM
 TVDS.ft             3291.0000:  TVDSS CORRECTN
 EGL .ft             3266.0000:  GROUND ELEVATION
 APD .ft               25.0000:  DEPTH ABOVE PD
 EPD .ft             3266.0000:  ELEVATION
 BAP .ft                0.0000:  GL ELEV ONSHORE
 GVFD.g                 1.0000:  GRAVITY FIELD
 EKB .ft             3291.0000:  KB ELEVATION
 EDF .ft             3291.0000:  DF ELEVATION
~Curve Information Block
#MNEM.UNIT                 API CODE     Curve Description
#---------               -----------    ---------------------------
 DEPT.F                 00 000 000 000:  Depth
 CCL .V                 00 000 000 000:  Casing Collar Locator
 NPHI_OH.pu             00 000 000 000:  NPHI_OH
 NPHI_CHI.decp          00 000 000 000:  NPHI_CHI
 GR_OH.api              00 000 000 000:  GR_OH
 GR_CHI.api             00 000 000 000:  GR_CHI
 RHOB_OH.g/cc           00 000 000 000:  RHOB_OH
 RHOB_CHI.g/cc          00 000 000 000:  RHOB_CHI
 PE_OH.NONE             00 000 000 000:  PE_OH
 PE_CHI.NONE            00 000 000 000:  PE_CHI
 LLS_CHI.ohmm           00 000 000 000:  LLS_CHI
 LLS_OH.ohmm            00 000 000 000:  LLS_OH
 LLD_OH.ohmm            00 000 000 000:  LLD_OH
 LLD_CHI.ohmm           00 000 000 000:  LLD_CHI
 DTC_OH.uspf            00 000 000 000:  DTC_OH
 DTC_CHI.uspf           00 000 000 000:  DTC_CHI
 SPHW_CHI.decp          00 000 000 000:  SPHW_CHI
#Other Information
#
#WARRANTY: Halliburton will use its best efforts to furnish customers with 
#accurate information and interpretations that are part of, and incident to, the services 
#provided.  However, Halliburton cannot and does not warrant the accuracy 
#or correctness of such information and interpretations.  Under no circumstances should any 
#such information or interpretation be relied upon as the sole basis for any drilling, 
#completion, production, or financial decision or any procedure involving any risk to the 
#safety of any drilling venture, drilling rig or its crew or any other third party.  The 
#Customer has full responsibility for all drilling, completion and production operation.  
#Halliburton makes no representations or warranties, either expressed or 
#implied, including, but not limited to, the implied warranties of merchantability or fitness 
#for a particular purpose, with respect to the services rendered.  In no event will 
#Halliburton be liable for failure to obtain any particular results or for 
#any damages, including, but not limited to, indirect, special or consequential damages, 
#resulting from the use of any information or interpretation provided by Halliburton.
#
~A    DEPT      CCL   NPHI_OH NPHI_CHI  GR_OH    GR_CHI  RHOB_OH RHOB_CHI  PE_OH  PE_CHI  LLS_CHI   LLS_OH    LLD_OH    LLD_CHI  DTC_OH  DTC_CHI SPHW_CHI 
    8400.0000  0.0194  7.0600   0.1104  70.0542  69.3788  2.5328   2.5814  3.6873 3.8549  148.6242  134.9629  162.5451  171.0450 -999.25 73.5425 0.1835
    8400.5000  0.0335  6.3600   0.1092  57.2590  63.8275  2.5387   2.5849  4.1498 3.8654  141.5109  141.6795  165.8131  163.3775 -999.25 73.6808 0.1844
    8401.0000  0.0000  6.8600   0.1148  58.6766  83.5538  2.5808   2.5811  4.2450 3.7775  127.0565  227.7651  257.2794  147.3182 -999.25 74.9199 0.1932
    8401.5000  0.0131  8.1900   0.1218  82.6294  87.5990  2.5981   2.5751  3.7562 3.6613  117.5724  209.5081  258.0330  137.2945 -999.25 74.3422 0.1891
    8402.0000  0.0251 13.3900   0.1343 106.4464 117.5490  2.5831   2.5579  3.1623 3.5746  137.5289  209.4844  257.9570  159.1387 -999.25 73.6732 0.1844
    8402.5000 -0.0188 13.6300   0.1314 111.9957 121.0330  2.5682   2.5550  2.9448 3.7328  189.1871  209.4850  258.0312  215.4670 -999.25 73.1128 0.1804
    8403.0000  0.0000 12.6200   0.1065 107.4657  84.0666  2.5777   2.5833  3.2581 4.0512  247.6747  250.3442  296.4554  291.4406 -999.25 73.1593 0.1808
    8403.5000  0.0404  8.3000   0.0832  90.2203  52.1187  2.5974   2.6120  3.8901 4.3430  347.5593  333.1779  425.9365  435.6726 -999.25 72.2612 0.1744
    8404.0000  0.0424  4.4500   0.0686  70.7910  60.5696  2.5933   2.6345  4.3357 4.5401  376.9869  369.3989  441.4353  487.8050 -999.25 74.7467 0.1920
    8404.5000  0.0000  4.3400   0.0568  60.6691  60.8185  2.5959   2.6513  4.4677 4.6976  425.7269  388.8220  457.4901  565.7323 -999.25 75.4543 0.1970
    8405.0000  0.0224  4.9400   0.0488  56.6185  50.8462  2.6236   2.6599  4.6202 4.7862  511.8319  434.7874  646.1659  694.4160 -999.25 73.4095 0.1825
    8405.5000  0.0106  3.9800   0.0415  56.0011  38.2449  2.6381   2.6669  4.8373 4.8571  613.0707  435.2513  664.8750  847.8859 -999.25 69.6976 0.1563
    8406.0000  0.0000  3.0300   0.0385  52.6195  34.2502  2.6379   2.6696  4.9769 4.8875  659.6320  436.4954  669.9449  915.4427 -999.25 68.6082 0.1486
    8406.5000  0.0147  3.2000   0.0401  42.0214  49.0931  2.6602   2.6678  5.0812 4.8784  590.7876  760.0313  991.2371  798.1180 -999.25 72.1718 0.1738
    8407.0000  0.0214  2.9400   0.0413  31.9619  45.2270  2.6931   2.6673  5.1529 4.8637  551.9717  530.7894  785.5159  750.1389 -999.25 73.4359 0.1827
    8407.5000 -0.0554  3.3500   0.0446  31.2557  31.9320  2.6983   2.6628  5.1181 4.8126  522.8582  531.0096  784.9409  718.1978 -999.25 72.1629 0.1737
    8408.0000  0.0236  4.1000   0.0501  35.1650  37.1810  2.6843   2.6547  5.0545 4.7428  464.6852  506.9761  758.4029  622.3940 -999.25 72.5506 0.1765
    8408.5000  0.0220  3.7200   0.0537  37.7628  33.7368  2.6813   2.6479  4.9462 4.6830  436.0645  495.4102  675.4271  574.8149 -999.25 69.9520 0.1581
    8409.0000  0.0000  3.8100   0.0588  37.3727  42.4880  2.6697   2.6390  4.8868 4.6244  398.5940  495.4473  675.6980  506.9008 -999.25 69.8151 0.1571
    8409.5000 -0.0107  3.9400   0.0661  40.4986  62.6112  2.6449   2.6292  4.9041 4.5522  338.7426  497.2868  680.0408  414.4948 -999.25 72.3645 0.1751
    8410.0000  0.0000  4.6000   0.0721  48.1720  60.8395  2.6261   2.6232  4.9579 4.4673  303.9427  429.1956  610.7919  371.5864 -999.25 73.0073 0.1797
    8410.5000  0.0000  6.3900   0.0836  54.2090  81.0917  2.6266   2.6132  5.0480 4.3559  261.6377  352.8884  468.5426  316.4183 -999.25 76.8042 0.2065
    8411.0000  0.0000  7.0400   0.0863  60.7698  74.3916  2.6321   2.6115  5.0972 4.3409  289.4580  352.5627  467.4511  355.1377 -999.25 76.8902 0.2071
    8411.5000 -0.0402  6.8400   0.0804  75.1434  72.2292  2.6251   2.6168  4.9731 4.4560  377.9672  344.7736  455.8505  468.4579 -999.25 75.9931 0.2008
    8412.0000  0.0000  8.3500   0.0627  87.0635  52.1781  2.6208   2.6358  4.7656 4.6543  556.0901  333.3914  484.5559  719.8652 -999.25 72.5524 0.1765
    8412.5000  0.0460  7.8600   0.0489  82.8322  39.2177  2.6272   2.6508  4.7088 4.7947  707.4282  361.1661  505.2429  942.5374 -999.25 67.2691 0.1391
    8413.0000 -0.0265  7.9000   0.0416  59.1907  39.7418  2.6374   2.6591  4.7033 4.8624  734.7711  361.3070  506.1926  977.2064 -999.25 65.2888 0.1251
    8413.5000  0.0273  5.9100   0.0411  39.7936  46.0623  2.6575   2.6581  4.6092 4.8577  678.7725  692.9647  932.0012  879.9707 -999.25 66.4759 0.1335
    8414.0000  0.0134  3.2900   0.0469  38.5697  47.8928  2.6805   2.6475  4.6654 4.7939  604.7881  893.7845 1138.4135  758.2755 -999.25 67.1648 0.1384
    8414.5000 -0.0217  3.6000   0.0613  50.0359  67.3822  2.6897   2.6279  4.9061 4.6631  437.6903  865.8593 1098.1477  519.7101 -999.25 70.9556 0.1652
    8415.0000  0.0000  3.4200   0.0809  68.7723  76.5492  2.6714   2.6057  4.9626 4.4229  304.2580  618.1949  661.6088  351.7739 -999.25 72.9283 0.1791
    8415.5000 -0.0193  6.7300   0.1045  84.3263  92.9925  2.6281   2.5810  4.6454 4.1084  229.4940  231.1739  300.5344  261.1144 -999.25 74.2271 0.1883
    8416.0000  0.0385 12.2400   0.1172  91.0348  99.4691  2.5986   2.5697  4.2305 3.9428  214.2983  219.3540  289.1112  244.8354 -999.25 73.8852 0.1859
    8416.5000  0.0000 11.9700   0.1131  83.2797  88.3898  2.5967   2.5772  4.0454 4.0192  245.6696  215.2224  282.4377  286.9930 -999.25 74.5011 0.1902
    8417.0000  0.0000 11.4700   0.0934  76.3456  65.6301  2.6023   2.6030  4.0307 4.2873  335.1079  279.4416  349.7054  413.1958 -999.25 76.3411 0.2033
    8417.5000  0.0000  9.2200   0.0661  76.9642  44.5553  2.6066   2.6385  4.1268 4.6326  511.6493  417.0622  522.7596  684.3140 -999.25 77.0279 0.2081
    8418.0000  0.0000  7.7800   0.0419  65.2908  36.5169  2.6066   2.6720  4.3539 4.9191  652.3521  432.8193  538.6066  933.3121 -999.25 77.4628 0.2112
    8418.5000 -0.0241  7.9800   0.0280  45.6953  39.2547  2.6201   2.6910  4.4706 5.0705  697.7216  440.9315  553.9221 1023.4520 -999.25 77.8214 0.2137
    8419.0000  0.0000  4.7500   0.0206  35.1213  31.2107  2.6611   2.6992  4.5913 5.1159  758.5279 1411.2069 1604.8568 1128.3141 -999.25 74.4775 0.1901
    8419.5000  0.0000  1.3200   0.0227  28.1795  40.8036  2.7069   2.6941  5.1321 5.0696  733.6247 1939.1041 2059.5051 1052.7325 -999.25 72.7864 0.1781
    8420.0000  0.0565  1.0700   0.0282  22.5362  40.2069  2.7302   2.6827  5.7639 4.9904  724.0444 1922.9443 2116.1250 1004.1068 -999.25 69.3148 0.1536
    8420.5000  0.0213  1.1900   0.0367  24.6260  39.1303  2.7199   2.6668  5.8357 4.8942  693.4913 1051.7284 1275.8256  925.5217 -999.25 67.3191 0.1395
    8421.0000 -0.0249  2.0700   0.0464  34.8870  46.7424  2.6934   2.6488  5.4290 4.7963  601.8587  720.8084  908.1655  758.6064 -999.25 67.1190 0.1380
    8421.5000  0.0332  5.0900   0.0585  44.9191  56.4981  2.6779   2.6290  5.0805 4.6940  499.5897  580.3351  623.0646  595.3128 -999.25 68.9487 0.1510
    8422.0000 -0.0197  5.6000   0.0723  51.8521  67.4441  2.6533   2.6096  4.9259 4.5835  400.5992  305.3613  349.7312  455.6691 -999.25 71.4481 0.1687
    8422.5000  0.0000  9.7300   0.0937  65.8909  86.3019  2.6172   2.5860  4.4914 4.3776  297.4582  292.3833  343.0209  327.5874 -999.25 75.3196 0.1960
    8423.0000 -0.0165 11.4500   0.1095  74.0522  78.8105  2.5953   2.5774  4.0712 4.0805  211.4349  269.6161  289.5930  235.6558 -999.25 75.9998 0.2008
    8423.5000 -0.0241 10.7700   0.1311  78.4265 100.2531  2.5897   2.5613  3.7692 3.6866  145.1765  213.8142  232.3462  164.5868 -999.25 75.2027 0.1952
    8424.0000 -0.0109 12.1000   0.1368  86.5343  93.8538  2.5882   2.5592  3.4558 3.5767  131.2971  213.9294  232.0322  151.1413 -999.25 74.1770 0.1880
    8424.5000 -0.0198 13.5000   0.1324  94.4766  85.9595  2.5846   2.5622  3.1357 3.7031  167.4879  199.9297  218.5665  193.6278 -999.25 74.4671 0.1900
    8425.0000 -0.0137 13.9000   0.1174  97.5977  85.4532  2.5802   2.5710  2.9277 4.0903  281.9373  232.4051  248.6530  324.5980 -999.25 76.3336 0.2032
    8425.5000  0.0159 13.2300   0.0946  95.1805  91.3441  2.5954   2.5940  3.0382 4.4342  375.4709  239.1983  261.4863  438.4069 -999.25 77.8111 0.2137
    8426.0000  0.0000  8.9800   0.0658  80.8494  62.9117  2.6353   2.6267  3.5710 4.6678  544.7283  239.6251  262.0672  672.4216 -999.25 75.7701 0.1992
