###############################################
##         ENVERUS                           ##
##         ESS - Open Hole                   ##
##         PERMIAN / DELAWARE                ##
##         Nov 02 2023  V4.0                 ##
##         42-109-31448-00-00                ##
###############################################
## Copyright 2017-2023  ENVERUS.  All Rights Reserved. 
## Confidential - Property of ENVERUS, use governed by terms and 
## conditions found within the existing Information Services Subscription Agreement 
## (as may be amended, the “ISSA”) between Customer and ENVERUS. 
## 
~VERSION INFORMATION
# MNEM.UNIT                               DATA : DESCRIPTION OF MNEMONIC
#-----.-----     ----------------------------- : -----------------------------
VERS.                                     2.00 : CWLS LOG ASCII STANDARD - VERSION 2.00
WRAP.                                       NO : MULTIPLE LINES PER DEPTH STEP
VEND.                                  ENVERUS : VENDOR
TYPE.                          ESS - OPEN HOLE : ENVERUS ESSENTIAL CURVES – ACCESSIBLE THROUGH ENVERUS PRISM(TM)
DOC.                                  31981796 : ENVERUS HEADER RAW DOCUMENT ID
#___________________________________________________________________________________________________ 
~WELL INFORMATION 
# ZFHslD71edIju97HcKZ52TF5U8X6gSJhIkoGhJkY8ckYnZzQD/y6zifgDis2Hn4asra90GxYkgpqCQaJUi2DCw== 
# MNEM.UNIT                                              DATA : DESCRIPTION OF MNEMONIC 
#-----.-----                    ----------------------------- : ----------------------------- 
CNTY.                                               CULBERSON : COUNTY 
STATE.                                                  TEXAS : STATE 
CNTRY.                                                    USA : COUNTRY 
API.                                             42-109-31448 : API (10 Digit) 
API_14.                                    42-109-31448-00-00 : API (14 Digits) 
API_14_std.                                 42-109-31448-0000 : API (14 Digits Standard) 
UWI.                                           42109314480000 : UNIQUE WELL ID 
WELL.                                               TRIKEN  1 : WELL NAME
STRT.FT                                                   4.0 : START DEPTH
STOP.FT                                               13097.0 : STOP DEPTH
STEP.FT                                                   0.5 : STEP BETWEEN DEPTHS
NULL.                                                 -999.25 : NULL VALUE
COMP.                                             MARALO  LLC : COMPANY 
DATE.                                             04-NOV-1984 : LOG DATE
#___________________________________________________________________________________________________ 
~CURVE INFORMATION 
# MNEM.UNIT           : CURVE DESCRIPTION 
#-----.-----          : ----------------------------- 
 DEPT.FT               : MEASURED DEPTH 
 CALI.IN               : CALIPER (CAL - CAL) 
 GR.API                : GAMMA RAY (GR) 
 DT.US/FT              : SONIC DELTA TRANSIT TIME (DT) 
 #___________________________________________________________________________________________________ 
~A         DEPT           CALI             GR             DT
# ...
         4822.0         13.098         40.291         64.806
         4822.5         13.086         34.874         64.183
         4823.0         13.065         31.268         63.561
         4823.5         13.039         32.688         62.938
         4824.0         13.014         34.109         62.316
         4824.5         12.988         36.936         61.693
         4825.0         12.962         40.455         62.281
         4825.5         12.936         43.974         63.615
         4826.0         12.911         47.494         64.948
         4826.5         12.885         51.013         66.200
         4827.0         12.859         55.336         66.560
         4827.5         12.833         56.823         66.921
         4828.0         12.808         53.473         67.282
         4828.5         12.782         50.123         67.643
         4829.0         12.756         49.651         68.004
         4829.5         12.730         55.693         68.364
         4830.0         12.705         61.736         68.725
         4830.5         12.679         67.778         68.568
         4831.0         12.653         77.239         67.674
         4831.5         12.627         87.741         66.780
         4832.0         12.602         81.350         65.886
         4832.5         12.576         74.959         64.992
         4833.0         12.550         68.569         64.098
         4833.5         12.524         62.178         63.204
         4834.0         12.499         55.787         62.352
         4834.5         12.473         49.396         61.996
         4835.0         12.447         46.109         61.640
         4835.5         12.421         52.549         61.284
         4836.0         12.396         58.989         60.928
         4836.5         12.370         65.430         60.571
         4837.0         12.344         71.923         60.215
         4837.5         12.318         79.027         59.859
         4838.0         12.293         86.131         60.557
         4838.5         12.267         93.235         61.946
         4839.0         12.241         93.748         63.334
         4839.5         12.216         88.552         63.617
         4840.0         12.190         83.356         63.839
         4840.5         12.164         78.159         64.060
         4841.0         12.138         72.963         64.282
         4841.5         12.113         66.688         64.504
         4842.0         12.087         55.812         64.278
         4842.5         12.061         40.655         63.979
         4843.0         12.035         41.814         63.680
         4843.5         12.010         42.974         63.381
         4844.0         11.984         57.874         63.083
         4844.5         11.965         81.801         62.802
         4845.0         11.950        101.350         63.033
         4845.5         11.935        104.818         63.265
         4846.0         11.921        107.136         63.497
         4846.5         11.906        109.454         63.728
         4847.0         11.891        111.771         63.960
         4847.5         11.876        114.089         64.192
         4848.0         11.861        122.628         64.423
         4848.5         11.846        128.087         64.655
         4849.0         11.831        131.923         64.887
         4849.5         11.816        133.532         65.118
         4850.0         11.801        131.532         64.572
         4850.5         11.786        129.531         63.893
         4851.0         11.771        127.530         63.214
         4851.5         11.758         76.223         62.535
         4852.0         11.756         71.370         61.855
         4852.5         11.753         69.763         61.176
         4853.0         11.750         68.157         60.497
         4853.5         11.748         70.416         60.254
         4854.0         11.745         73.982         60.517
         4854.5         11.742         77.549         60.781
         4855.0         11.740         81.115         61.044
         4855.5         11.737         84.681         61.308
         4856.0         11.735         83.473         61.571
         4856.5         11.732         81.473         61.834
         4857.0         11.729         79.472         62.098
         4857.5         11.727         77.472         62.361
         4858.0         11.724         75.471         62.536
         4858.5         11.721         70.396         62.063
         4859.0         11.719         63.917         61.589
         4859.5         11.716         57.439         60.397
         4860.0         11.714         54.891         58.936
         4860.5         11.711         61.726         57.476
         4861.0         11.708         68.562         57.988
         4861.5         11.706         75.398         59.139
         4862.0         11.703         82.233         60.291
         4862.5         11.701         89.069         60.693
         4863.0         11.698         95.904         60.883
         4863.5         11.695        102.740         61.073
         4864.0         11.693        109.576         61.264
         4864.5         11.690        100.671         61.454
         4865.0         11.687         86.085         61.644
         4865.5         11.685         89.311         62.277
         4866.0         11.682         92.537         62.989
         4866.5         11.680         95.763         63.702
         4867.0         11.677         98.989         64.133
         4867.5         11.674         91.904         64.133
         4868.0         11.672         77.352         64.133
         4868.5         11.669         62.799         64.134
         4869.0         11.666         59.714         64.134
         4869.5         11.664         64.123         63.677
         4870.0         11.661         68.532         62.359
         4870.5         11.659         72.942         61.041
         4871.0         11.656         77.351         61.442
         4871.5         11.653         81.761         61.960
         4872.0         11.651         86.170         62.479
         4872.5         11.648         89.202         62.997
         4873.0         11.647         92.143         63.515
         4873.5         11.650         95.084         63.284
         4874.0         11.652         94.665         62.857
         4874.5         11.655         93.717         62.430
         4875.0         11.658         92.768         62.003
         4875.5         11.660         91.820         61.576
         4876.0         11.663         90.872         61.149
         4876.5         11.666         96.091         60.722
         4877.0         11.669        103.400         60.295
         4877.5         11.671         99.719         59.868
         4878.0         11.674         96.541         60.069
         4878.5         11.677         93.746         60.571
         4879.0         11.679         90.951         61.074
         4879.5         11.682         88.157         61.576
         4880.0         11.685         85.362         61.688
         4880.5         11.688         82.567         61.193
         4881.0         11.690         79.772         60.697
         4881.5         11.693        102.885         60.201
         4882.0         11.696        130.118         59.705
         4882.5         11.702        132.824         59.209
         4883.0         11.726        135.530         60.272
         4883.5         11.749        133.385         62.356
         4884.0         11.773        128.531         61.875
         4884.5         11.797        106.249         60.689
         4885.0         11.821         74.352         59.503
         4885.5         11.845         42.455         58.317
         4886.0         11.869         46.533         57.131
         4886.5         11.893         58.092         55.945
         4887.0         11.917         69.651         54.759
         4887.5         11.941         81.210         60.812
