###############################################
##         ENVERUS                           ##
##         ESS - Open Hole                   ##
##         PERMIAN / DELAWARE                ##
##         Nov 02 2023  V4.0                 ##
##         42-109-32255-00-00                ##
###############################################
## Copyright 2017-2023  ENVERUS.  All Rights Reserved. 
## Confidential - Property of ENVERUS, use governed by terms and 
## conditions found within the existing Information Services Subscription Agreement 
## (as may be amended, the “ISSA”) between Customer and ENVERUS. 
## 
~VERSION INFORMATION
# MNEM.UNIT                               DATA : DESCRIPTION OF MNEMONIC
#-----.-----     ----------------------------- : -----------------------------
VERS.                                     2.00 : CWLS LOG ASCII STANDARD - VERSION 2.00
WRAP.                                       NO : MULTIPLE LINES PER DEPTH STEP
VEND.                                  ENVERUS : VENDOR
TYPE.                          ESS - OPEN HOLE : ENVERUS ESSENTIAL CURVES – ACCESSIBLE THROUGH ENVERUS PRISM(TM)
DOC.                                  31869427 : ENVERUS HEADER RAW DOCUMENT ID
#___________________________________________________________________________________________________ 
~WELL INFORMATION 
# Kns/CyAZPDgS4fEM5w0azv9tYcXlBSx1nHSqICrpKgQv6F2hlFUFpw+R1SAxYfM92i4ks6BDNpB+WhJDZXFO5Q== 
# MNEM.UNIT                                              DATA : DESCRIPTION OF MNEMONIC 
#-----.-----                    ----------------------------- : ----------------------------- 
CNTY.                                               CULBERSON : COUNTY 
STATE.                                                  TEXAS : STATE 
CNTRY.                                                    USA : COUNTRY 
API.                                             42-109-32255 : API (10 Digit) 
API_14.                                    42-109-32255-00-00 : API (14 Digits) 
API_14_std.                                 42-109-32255-0000 : API (14 Digits Standard) 
UWI.                                           42109322550000 : UNIQUE WELL ID 
WELL.                             MELISSA TAYLOR STATE 27  1H : WELL NAME
STRT.FT                                                  94.0 : START DEPTH
STOP.FT                                               13828.0 : STOP DEPTH
STEP.FT                                                   0.5 : STEP BETWEEN DEPTHS
NULL.                                                 -999.25 : NULL VALUE
COMP.                              CHESAPEAKE OPERATING  INC. : COMPANY 
DATE.                                             29-NOV-2005 : LOG DATE
#___________________________________________________________________________________________________ 
~CURVE INFORMATION 
# MNEM.UNIT           : CURVE DESCRIPTION 
#-----.-----          : ----------------------------- 
 DEPT.FT               : MEASURED DEPTH 
 CALI__B.IN            : CALIPER (CAL - CAL) 
 GR__B.API             : GAMMA RAY (GR) 
 DT__B.US/FT           : SONIC DELTA TRANSIT TIME (DT) 
 DPHI__B.V/V           : DENSITY POROSITY (DPHI) 
 NPHI__B.V/V           : NEUTRON POROSITY (NPHI) 
 RHOB__B.G/CC          : BULK DENSITY (RHOB) 
 #___________________________________________________________________________________________________ 
~A         DEPT        CALI__B          GR__B          DT__B        DPHI__B        NPHI__B        RHOB__B
# ...
         8834.0         10.636         99.185         75.659        0.04181        0.15632         2.6260
         8834.5         10.659         95.357         76.035        0.03609        0.14652         2.6400
         8835.0         10.703         91.276         76.272        0.03258        0.14177         2.6530
         8835.5         10.578         92.209         76.454        0.04163        0.15402         2.6420
         8836.0         10.318         93.600         76.218        0.05806        0.17128         2.6240
         8836.5         10.059        101.769         75.348        0.07215        0.18358         2.6060
         8837.0          9.927        105.687         74.494        0.06730        0.18254         2.6100
         8837.5          9.858        102.086         73.726        0.04883        0.17138         2.6270
         8838.0          9.831         99.173         73.209        0.03759        0.16023         2.6430
         8838.5          9.804         97.183         73.266        0.03847        0.15580         2.6480
         8839.0          9.777         97.684         74.382        0.02499        0.16471         2.6500
         8839.5          9.759        102.208         75.604        0.01750        0.17458         2.6520
         8840.0          9.759        105.300         76.352        0.01235        0.18445         2.6640
         8840.5          9.759        106.629         76.333        0.03592        0.18842         2.6660
         8841.0          9.759        105.109         76.104        0.05375        0.18982         2.6390
         8841.5          9.759        103.589         75.760        0.06964        0.18861         2.6130
         8842.0          9.759        102.242         74.578        0.06386        0.17646         2.6130
         8842.5          9.759        103.252         72.590        0.02522        0.16198         2.6350
         8843.0          9.759        104.262         70.503        0.01230        0.14751         2.6580
         8843.5          9.759         98.206         69.023        0.01020        0.13351         2.6800
         8844.0          9.759         87.305         68.155        0.01427        0.12157         2.6930
         8844.5          9.759         74.959         67.908        0.01459        0.10963         2.6850
         8845.0          9.775         67.326         68.813        0.04780        0.09787         2.6760
         8845.5          9.799         67.638         70.461        0.07463        0.10872         2.6380
         8846.0          9.824         77.961         72.486        0.10232        0.13746         2.6000
         8846.5          9.848         92.983         74.512        0.13872        0.17632         2.5620
         8847.0          9.859        104.835         75.469        0.15149        0.19705         2.5250
         8847.5          9.859        111.036         76.250        0.13726        0.19793         2.4870
         8848.0          9.862        115.120         77.253        0.11428        0.19126         2.4970
         8848.5          9.866        115.534         78.813        0.09004        0.18459         2.5290
         8849.0          9.871        115.554         79.037        0.06602        0.18453         2.5720
         8849.5          9.876        114.792         77.911        0.04898        0.18932         2.6360
         8850.0          9.880        116.701         76.476        0.04042        0.19417         2.6410
         8850.5          9.885        119.383         74.865        0.04463        0.18880         2.6390
         8851.0          9.916        118.706         73.649        0.03557        0.17020         2.6360
         8851.5         10.012        113.510         73.352        0.01662        0.15043         2.6590
         8852.0         10.107        106.838         73.829        0.00510        0.14702         2.6940
         8852.5         10.198        108.336         74.674        0.02259        0.15835         2.6810
         8853.0         10.286        113.414         75.618        0.05306        0.17973         2.6550
         8853.5         10.233        119.765         74.775        0.06907        0.19303         2.6290
         8854.0         10.017        123.001         73.600        0.07019        0.19297         2.6090
         8854.5         10.014        118.876         72.457        0.05604        0.17848         2.6200
         8855.0         10.010        109.753         71.061        0.03872        0.15503         2.6310
         8855.5         10.006        100.630         69.258        0.04000        0.14469         2.6420
         8856.0         10.003         93.001         68.027        0.04196        0.14050         2.6450
         8856.5         10.001         86.943         67.805        0.04057        0.14229         2.6400
         8857.0         10.000         80.886         68.224        0.01403        0.13900         2.6530
         8857.5          9.998         74.829         69.769       -0.00334        0.12990         2.6770
         8858.0          9.997         72.746         71.315        0.00447        0.14198         2.7020
         8858.5          9.995         78.352         73.147        0.03586        0.16962         2.6830
         8859.0          9.994         96.120         75.277        0.07929        0.18554         2.6230
         8859.5          9.992        112.350         76.630        0.08599        0.18435         2.5960
         8860.0          9.991        121.088         76.140        0.07813        0.18249         2.5780
         8860.5          9.989        124.279         76.111        0.07186        0.18924         2.5860
         8861.0          9.987        121.742         76.280        0.06003        0.19216         2.5940
         8861.5          9.986        118.704         76.295        0.05843        0.19183         2.6030
         8862.0          9.984        114.266         76.835        0.06344        0.18727         2.6090
         8862.5          9.983        111.102         77.759        0.08964        0.18126         2.5960
         8863.0          9.981        109.028         78.655        0.09254        0.17232         2.5830
         8863.5          9.980        112.022         79.192        0.09564        0.17163         2.5710
         8864.0          9.978        115.084         79.302        0.09157        0.18742         2.5580
         8864.5          9.977        116.324         79.333        0.08763        0.21082         2.5640
         8865.0          9.975        116.913         79.277        0.08393        0.21451         2.5700
         8865.5          9.965        117.146         78.938        0.07356        0.21080         2.5760
         8866.0          9.944        116.655         77.421        0.06191        0.19382         2.5940
         8866.5          9.923        115.672         75.635        0.05352        0.17684         2.6160
         8867.0          9.902        114.689         74.931        0.05473        0.16603         2.6240
         8867.5          9.881        114.455         74.559        0.05664        0.15778         2.6140
         8868.0          9.860        112.542         74.181        0.06700        0.14952         2.6040
         8868.5          9.839        108.887         73.457        0.07166        0.14448         2.5980
         8869.0          9.818        106.217         72.642        0.07316        0.15253         2.5920
         8869.5          9.832        109.349         72.774        0.07500        0.16794         2.5870
         8870.0          9.850        112.481         74.779        0.07932        0.17024         2.5960
         8870.5          9.873        111.992         76.784        0.07260        0.16171         2.6200
         8871.0          9.900        105.297         77.706        0.03075        0.15645         2.6440
         8871.5          9.927        107.427         78.406        0.01925        0.16586         2.6680
