~VERSION INFORMATION
VERS. 2.0 : CWLS Log ASCII Standard - version 2.0
WRAP.  NO : One line per depth step
#--------------------------------------------------#
#----------------DRILLING INFO, INC.---------------#
#---------------WWW.DRILLINGINFO.COM---------------#
#------------------COPYRIGHT 2015------------------#
#--------------------------------------------------#
#THIS FILE MAY BE USED ONLY IN ACCORDANCE WITH A CURRENT SUBSCRIPTION AGREEMENT BETWEEN
#THE USER AND DRILLING INFO, INC. NO PART OF THIS FILE MAY BE REPRODUCED, USED, COPIED,
#MODIFIED, PROPAGATED, OR DISTRIBUTED EXCEPT IN ACCORDANCE WITH THE SUBSCRIPTION
#AGREEMENT. UNAUTHORIZED USE OR DISTRIBUTION OF ALL OR ANY PART OF THIS FILE MAY VIOLATE
#COPYRIGHT, TRADEMARK, AND/OR OTHER LAWS AND IS SUBJECT TO CIVIL AS WELL AS CRIMINAL
#SANCTIONS.
#--------------------------------------------------#
#THIS FILE IS PROVIDED "AS-IS" AND ALL WARRANTIES ARE EXPRESSLY DISCLAIMED, WHETHER
#EXPRESS, ORAL, IMPLIED, STATUTORY OR OTHERWISE, INCLUDING ANY IMPLIED WARRANTY OF FITNESS
#FOR A PARTICULAR PURPOSE, MERCHANTABILITY, TITLE OR NON-INFRINGEMENT, AND ANY WARRANTIES
#ARISING BY VIRTUE OF CUSTOM OF TRADE OR COURSE OF DEALING.  FURTHER, DRILLING INFO,
#INC. AND ITS LICENSORS DO NOT REPRESENT OR WARRANT THAT THIS FILE WILL MEET USER'S
#REQUIREMENTS OR ARE SUITABLE FOR USER'S NEEDS OR THAT THE DATA OR RESULTS PROVIDED IN
#CONJUNCTION THEREWITH ARE CORRECT, ACCURATE, TIMELY OR RELIABLE. THESE DISCLAIMERS SHALL
#APPLY REGARDLESS OF ANY FAILURE OF ESSENTIAL PURPOSE OF ANY LIMITED REMEDY.  SOME
#JURISDICTIONS DO NOT ALLOW THE EXCLUSION OF CERTAIN WARRANTIES SO SOME OF THE ABOVE
#EXCLUSIONS MAY NOT APPLY. IN NO EVENT SHALL DRILLING INFO, INC. OR ANY OF ITS AFFILIATES
#BE LIABLE UNDER ANY LEGAL THEORY, WHETHER IN TORT (INCLUDING WITHOUT LIMITATION
#NEGLIGENCE), CONTRACT, STRICT LIABILITY, STATUTORY OR OTHERWISE, FOR ANY SPECIAL,
#INCIDENTAL, CONSEQUENTIAL, EXEMPLARY, PUNITIVE OR INDIRECT DAMAGE OF ANY KIND, INCLUDING
#WITHOUT LIMITATION LOSS OF REVENUE, PROFITS, GOODWILL, USE, AND/OR DATA OR THE COST OF
#PROCUREMENT OF SUBSTITUTE GOODS OR SERVICES, EVEN IF APPRISED OF THE POSSIBILITY OF SUCH
#DAMAGES IN ADVANCE.
#--------------------------------------------------#
~WELL INFORMATION
#MNEMONIC     .UNIT              VALUE :DESCRIPTION
#--------------------------------------------------#
STRT       .FT                181 :START DEPTH
STOP       .FT                12231 :STOP DEPTH
STEP       .FT                   0.500 :STEP
NULL       .                  -999.250 :NULL
API        .                421093228700 :API NUMBER
COMP       .         CHESAPEAKE OPERATING  INC. :COMPANY
WELL       .        UNIVERSITY LANDS 4627  1 :WELL
DATE       .                06-May-2007 :LOG DATE
~CURVE INFORMATION
#MNEMONIC     .UNIT      API CODE :CURVE DESCRIPTION
#--------------------------------------------------#
DEPTH       .FT                      :Measured Depth
ILS.OHM        UNKNOWN   :ILS
GR.API        UNKNOWN   :GR
ILD.OHM        UNKNOWN   :ILD
CAL.INCH        UNKNOWN   :CAL
DT.US/FT        UNKNOWN   :DT
~A    DEPTH    ILS    GR    ILD    CAL    DT
# ...
 1833.5     -999.250   78.393   476.614   13.173   67.414
 1834     -999.250   91.562   418.741   13.174   68.22
 1834.5     -999.250   96.472   335.346   13.176   68.105
 1835     -999.250   84.989   233.775   13.177   66.446
 1835.5     -999.250   72.89   201.471   13.179   64.788
 1836     -999.250   62.622   196.498   13.18   64.269
 1836.5     -999.250   55.573   232.519   13.182   64.06
 1837     -999.250   56.234   273.225   13.184   65.153
 1837.5     -999.250   63.225   289.742   13.185   66.787
 1838     -999.250   75.396   294.999   13.187   66.936
 1838.5     -999.250   88.848   302.825   13.188   67.018
 1839     -999.250   96.928   328.422   13.19   66.836
 1839.5     -999.250   95.154   354.018   13.192   66.014
 1840     -999.250   87.033   347.755   13.193   65.192
 1840.5     -999.250   75.306   289.047   13.195   64.37
 1841     -999.250   60.911   246.942   13.196   64.542
 1841.5     -999.250   58.988   267.67   13.198   65.092
 1842     -999.250   59.87   288.398   13.201   65.73
 1842.5     -999.250   63.019   280.989   13.205   66.369
 1843     -999.250   66.852   240.632   13.209   66.397
 1843.5     -999.250   68.366   258.957   13.214   65.891
 1844     -999.250   68.954   284.839   13.218   64.662
 1844.5     -999.250   69.446   310.722   13.222   63.434
 1845     -999.250   64.1   388.207   13.226   62.94
 1845.5     -999.250   58.755   507.987   13.23   62.819
 1846     -999.250   57.152   489.741   13.234   62.697
 1846.5     -999.250   60.565   433.4   13.238   64.495
 1847     -999.250   64.98   377.059   13.242   66.323
 1847.5     -999.250   69.394   340.714   13.247   66.958
 1848     -999.250   69.241   353.192   13.251   66.998
 1848.5     -999.250   67.506   327.464   13.255   67.039
 1849     -999.250   62.015   301.736   13.259   67.088
 1849.5     -999.250   56.525   276.008   13.263   67.21
 1850     -999.250   54.02   257.451   13.251   67.332
 1850.5     -999.250   54.257   253.745   13.239   67.454
 1851     -999.250   62.31   250.04   13.226   67.576
 1851.5     -999.250   71.769   246.335   13.214   67.234
 1852     -999.250   79.106   266.895   13.201   66.65
 1852.5     -999.250   82.645   299.895   13.188   66.066
 1853     -999.250   78.209   326.766   13.176   65.482
 1853.5     -999.250   73.444   366.839   13.163   64.898
 1854     -999.250   70.097   438.52   13.15   64.314
 1854.5     -999.250   68.356   415.159   13.138   63.73
 1855     -999.250   65.967   399.994   13.125   63.146
 1855.5     -999.250   63.232   450.68   13.112   62.562
 1856     -999.250   62.94   501.365   13.1   62.185
 1856.5     -999.250   67.637   529.388   13.087   63.328
 1857     -999.250   74.288   443.135   13.075   64.472
 1857.5     -999.250   86.089   418.257   13.062   64.78
 1858     -999.250   88.752   488.297   13.049   64.808
 1858.5     -999.250   89.693   603.399   13.037   64.836
 1859     -999.250   90.634   745.575   13.024   64.864
 1859.5     -999.250   90.347   969.301   13.011   63.519
 1860     -999.250   89.582   1286.117   12.999   64.725
 1860.5     -999.250   93.703   1456.964   12.986   68.381
 1861     -999.250   121.737   1303.445   12.973   68.605
 1861.5     -999.250   162.368   1149.925   12.961   68.576
 1862     -999.250   188.489   1658.82   12.948   67.888
 1862.5     -999.250   194.143   2169.103   12.937   67.201
 1863     -999.250   190.299   1527.544   12.95   66.513
 1863.5     -999.250   175.328   1067.184   12.963   65.756
 1864     -999.250   160.166   1083.05   12.976   64.831
 1864.5     -999.250   143.374   943.892   12.988   63.905
 1865     -999.250   123.991   804.735   13.001   62.979
 1865.5     -999.250   104.753   679.853   13.014   63.292
 1866     -999.250   93.588   707.612   13.027   64.155
 1866.5     -999.250   82.423   560.643   13.039   65.017
 1867     -999.250   77.036   341.272   13.052   65.88
 1867.5     -999.250   71.226   256.425   13.065   66.195
 1868     -999.250   63.008   219.769   13.078   66.114
 1868.5     -999.250   54.789   227.394   13.09   64.965
 1869     -999.250   49.699   323.823   13.103   63.549
 1869.5     -999.250   52.687   423.294   13.116   63.521
 1870     -999.250   58.635   346.172   13.129   64.152
 1870.5     -999.250   64.279   273.961   13.141   64.537
 1871     -999.250   65.712   287.291   13.154   64.416
 1871.5     -999.250   68.091   304.582   13.167   64.294
 1872     -999.250   72.987   363.289   13.175   64.203
 1872.5     -999.250   78.697   385.927   13.182   64.668
 1873     -999.250   87.628   394.109   13.188   65.132
 1873.5     -999.250   96.56   402.292   13.194   65.596
 1874     -999.250   105.492   419.461   13.2   66.06
 1874.5     -999.250   114.424   478.092   13.206   66.524
 1875     -999.250   123.097   495.266   13.212   66.988
 1875.5     -999.250   131.625   695.738   13.218   67.24
 1876     -999.250   139.958   1139.979   13.225   66.906
 1876.5     -999.250   137.983   1318.519   13.231   66.572
 1877     -999.250   124.716   781.09   13.237   66.239
 1877.5     -999.250   108.686   395.018   13.243   66.092
 1878     -999.250   91.795   372.979   13.249   66.031
 1878.5     -999.250   78.56   350.939   13.255   65.054
 1879     -999.250   74.775   328.9   13.261   63.982
 1879.5     -999.250   70.99   329.113   13.267   62.911
 1880     -999.250   66.56   346.6   13.274   62.147
 1880.5     -999.250   61.805   500.564   13.28   62.13
 1881     -999.250   63.414   505.494   13.286   62.594
 1881.5     -999.250   66.659   304.509   13.292   64.789
 1882     -999.250   71.892   266.54   13.298   66.586
 1882.5     -999.250   70.632   258.662   13.304   66.682
 1883     -999.250   69.372   261.204   13.31   66.779
 1883.5     -999.250   70.479   268.597   13.317   66.875
 1884     -999.250   71.678   259.085   13.323   66.971
 1884.5     -999.250   69.141   242.965   13.329   67.068
 1885     -999.250   64.613   232.022   13.335   66.545
 1885.5     -999.250   60.085   247.965   13.341   65.529
 1886     -999.250   58.984   263.909   13.337   64.512
 1886.5     -999.250   58.268   279.853   13.334   63.496
 1887     -999.250   58.516   295.797   13.33   62.69
 1887.5     -999.250   58.805   384.895   13.326   62.266
 1888     -999.250   62.88   371.708   13.323   64.275
 1888.5     -999.250   71.146   305.99   13.319   66.536
 1889     -999.250   79.888   278.333   13.315   66.549
 1889.5     -999.250   86.199   267.383   13.311   66.561
 1890     -999.250   88.826   256.432   13.308   66.167
 1890.5     -999.250   91.452   339.608   13.304   65.287
 1891     -999.250   95.622   545.224   13.3   65.169
 1891.5     -999.250   102.837   785.519   13.297   66.417
 1892     -999.250   128.344   1138.268   13.293   67.664
 1892.5     -999.250   164.493   1491.017   13.289   68.825
 1893     -999.250   195.199   1843.766   13.286   69.44
 1893.5     -999.250   223.9   3428.637   13.282   70.056
 1894     -999.250   212.048   3852.272   13.278   70.671
 1894.5     -999.250   200.197   3005.684   13.28   71.079
 1895     -999.250   188.345   2886.362   13.291   71.034
 1895.5     -999.250   176.494   1671.781   13.303   70.99
 1896     -999.250   164.642   1126.986   13.314   70.843
 1896.5     -999.250   152.791   669.598   13.326   68.437
 1897     -999.250   119.294   407.729   13.337   66.031
 1897.5     -999.250   81.986   286.917   13.349   63.626
 1898     -999.250   63.952   242.658   13.36   63.576
 1898.5     -999.250   58.64   246.705   13.372   63.885
 1899     -999.250   65.039   250.753   13.383   64.532
 1899.5     -999.250   71.476   254.8   13.395   65.063
 1900     -999.250   76.884   235.871   13.406   64.922
 1900.5     -999.250   73.535   233.589   13.418   65.021
 1901     -999.250   70.187   258.261   13.43   65.556
 1901.5     -999.250   68.822   282.932   13.441   66.092
 1902     -999.250   68.659   261.8   13.453   66.628
 1902.5     -999.250   67.624   204.337   13.464   67.071
 1903     -999.250   62.456   180.906   13.476   67.214
 1903.5     -999.250   57.289   209.949   13.487   68.2
