~VERSION INFORMATION
VERS.           1.2   :CWLS Log ASCII Standard - VERSION 1.2
WRAP.           NO    :One Line per depth step
PROD.  Schlumberger   :LAS Producer
PROG.  DLIS to ASCII 10C0-306                          :LAS Program name and version
CREA.        2007/06/08 22:43                          :LAS Creation date {YYYY/MM/DD hh:mm}
SOURCE.     294b92a6-1e54-4f75-8d20-4493e48002f1       :DLIS File Name
#--------------------------------------------------
~WELL INFORMATION
#MNEM.UNIT      DATA             DESCRIPTION
#---- ------ --------------   -----------------------------
STRT .F      4145.5000       :START DEPTH     
STOP .F      10380.0000      :STOP DEPTH     
STEP .F       0.5000         :STEP       
NULL .          -999.25      :NULL VALUE
COMP .                 COMPANY:  Chesapeake Operating Inc.          
WELL .                    WELL:  University Lands 4627-1            
FLD  .                   FIELD:  Wildcat                            
LOC  .                LOCATION:  1200' FNL & 1995; FEL              
CNTY .                  COUNTY:  Culberson                          
STAT .                   STATE:  Texas                              
CTRY .                 COUNTRY:                                     
SRVC .         SERVICE COMPANY:  Schlumberger                       
API  .              API NUMBER:  42-109-32287                       
DATE .                LOG DATE:  7-Jun-2007
UWI  .          UNIQUE WELL ID:  42-109-32287-0000                  
#-----------------------------------------------------------------------------
~PARAMETER INFORMATION
#MNEM.UNIT    VALUE                      DESCRIPTION
#---- -----   --------------------       ------------------------
CN   .        Chesapeake Operating Inc.  :Company Name
WN   .        University Lands 4627-1    :Well Name
FN   .        Wildcat                    :Field Name
FL   .        1200' FNL & 1995  FEL      :Field Location
FL1  .        Secion  27  Block  46  Abstract  2860 :Field Location Line 1
COUN .        Culberson                  :County or Rig Name
STAT .        Texas                      :State or Province
NATI .                                   :Nation
DATE .        7-Jun-2007                 :Date as Month-Day-Year
APIN .        42-109-32287               :API Serial Number
SECT .        27                         :Section
TOWN .        46                         :Township
RANG .        2860                       :Range
DMF  .        Kelly Bushing              :Drilling Measured From
LMF  .        Kelly Bushing              :Log Measured From
PDAT .        Ground Level               :Permanent Datum
ENGI .        Tarek Sheira               :Engineer's Name
WITN .        Wiley Tisdale /Jud Walker  :Witness's Name
LATI .                                   :Latitude
LONG .                                   :Longitude
LUL  .        Midland  TX                :Logging Unit Location
LUN  .              2365                 :Logging Unit Number
RUN  .        2                          :Run Number
SON  .        11592406                   :Service Order Number
BHT  .DEGF     185.00000                 :Bottom Hole Temperature (used in calculations)
BS   .IN         8.75000                 :Bit Size
DFD  .LB/G       8.60000                 :Drilling Fluid Density
DFV  .S         39.00000                 :Drilling Fluid Viscosity
DFL  .C3         8.00000                 :Drilling Fluid Loss
RMFS .OHMM       0.42100                 :Resistivity of Mud Filtrate Sample
EKB  .F       4323.00000                 :Elevation of Kelly Bushing
EGL  .F       4283.00000                 :Elevation of Ground Level
BLI  .F       10360.70020                :Bottom Log Interval
BSAL .PPM      500.00000                 :Borehole Salinity
FLEV .                                   :Fluid Level
MCST .                                   :Mud Cake Sample Temperature
MFST .DEGF      96.90000                 :Mud Filtrate Sample Temperature
MRT  .DEGF     185.00000                 :Maximum Recorded Temperature
MST  .DEGF      96.90000                 :Mud Sample Temperature
RMCS .                                   :Resistivity of Mud Cake Sample
RMS  .OHMM       0.42100                 :Resistivity of Mud Sample
RW   .OHMM       1.00000                 :Resistivity of Connate Water
TDD  .F       10350.00000                :Total Depth - Driller
TDL  .F       10362.00000                :Total Depth - Logger
TLI  .F       4200.00000                 :Top Log Interval
HIDE .        Formation Micro Imager     :Header Identifier
MATR .        LIME                       :Rock Matrix for Neutron Porosity Corrections
FNUM .           1.00000                 :Form Factor Numerator
FEXP .           2.00000                 :Form Factor Exponent
DFT  .        Fresh Mud                  :Drilling Fluid Type
DFPH .           9.00000                 :Drilling Fluid PH
MCSS .        Calculated                 :Mud Cake Sample Source
MFSS .        Calculated                 :Mud Filtrate Sample Source
MSS  .        Circulation Tank           :Mud Sample Source
OS1  .        TLD-APS-HNGS               :Other Services Line 1
OS2  .        HRLA-HNGS                  :Other Services Line 2
OS3  .        FMI-GR                     :Other Services Line 3
OS4  .        DSI-GR                     :Other Services Line 4
OS5  .        HNGS                       :Other Services Line 5
R1   .        -Tool ran as per tool sketch. :Remark Line 1
R2   .        -Hole size & standoff corrections applied to APS porosity. :Remark Line 2
R3   .        -Log performed on a limestone matrix (MDEN = 2.71 g/cc  DTM = 47.6 us/ft) :Remark Line 3
R4   .        -Hole & cement volumes computed using FCD = 7 . :Remark Line 4
R5   .        -Source of max. hole temperature is CTEM = 185 DegF. :Remark Line 5
R6   .        -Source of max. hole deviation is company man = 3 Deg. :Remark Line 6
R7   .        -Repeat performed off bottom for 300' as per client request. :Remark Line 7
R8   .        -Density measurment is affected by washouts. :Remark Line 8
TCS  .        9 00                       :Time Circulation Stopped
TLAB .        22 15                      :Time Logger At Bottom
EPD  .F         4283.000000              :Elevation of Permanent Datum above Mean Sea Level
APD  .F          40.000000               :Elevation of Depth Reference (LMF) above Permanent Datum
#-----------------------------------------------------------------------------
~CURVE INFORMATION
#MNEM.UNIT   API CODE                                  DESCRIPTION
#---- -----  --------                                  -----------------------
DEPT .F                                                :DEPTH (BOREHOLE) {F12.4}
C1   .IN                                               :Caliper 1 {F11.4}
C2   .IN                                               :Caliper 2 {F11.4}
CHRP .                                                 :Label Peak Coherence, Receiver Array, Compressional - Monopole P&S {F11.4}
CHR1 .                                                 :Label Peak Coherence, Receiver Array - Lower Dipole {F11.4}
CHR2 .                                                 :Label Peak Coherence, Receiver Array - Upper Dipole {F11.4}
DCAL .IN                                               :Differential Caliper {F11.4}
DEVI .DEG                                              :Hole Deviation {F11.4}
DT1R .US/F                                             :Delta-T Shear, Receiver Array - Lower Dipole {F11.4}
DT2  .US/F                                             :Delta-T Shear - Upper Dipole {F11.4}
DT2R .US/F                                             :Delta-T Shear, Receiver Array - Upper Dipole {F11.4}
DT4P .US/F                                             :Delta-T Compressional - Monopole P&S {F11.4}
DT4S .US/F                                             :Delta-T Shear - Monopole P&S {F11.4}
DTCO .US/F                                             :Delta-T Compressional {F11.4}
DTRP .US/F                                             :Delta-T Compressional, Receiver Array - Monopole P&S {F11.4}
DTRS .US/F                                             :Delta-T Shear, Receiver Array - Monopole P&S {F11.4}
DTSM .US/F                                             :Delta-T Shear {F11.4}
ED   .F                                                :East Departure {F11.4}
GR_EDTC.GAPI                                           :Gamma Ray {F11.4}
GTEM .DEGF                                             :Generalized Borehole Temperature {F11.4}
HAZI .DEG                                              :Hole Azimuth {F11.4}
ITT  .S                                                :Integrated Transit Time {F11.4}
ND   .F                                                :North Departure {F11.4}
P1AZ .DEG                                              :Pad 1 Azimuth {F11.4}
PR   .                                                 :Poisson's Ratio {F11.4}
RB   .DEG                                              :Relative Bearing {F11.4}
SDEV .DEG                                              :Sonde Deviation {F11.4}
SPHI .CFCF                                             :Sonic Porosity {F11.4}
STIT .F                                                :Stuck Tool Indicator, Total {F11.4}
TENS .LBF                                              :Cable Tension {F11.4}
#-----------------------------------------------------------------------------
# 
#      DEPT         C1         C2        CHRP       CHR1       CHR2       DCAL       DEVI       DT1R       DT2        DT2R       DT4P       DT4S       DTCO       DTRP       DTRS       DTSM        ED      GR_EDTC      GTEM       HAZI       ITT         ND        P1AZ        PR         RB        SDEV       SPHI       STIT       TENS
#
~A  
# ...
  10370.5000     6.5304     7.0073     0.9177     0.9852     0.9680    -1.9853     4.9164   143.7450   118.8931   138.8330    85.3204   140.0305    85.3204    85.3204   140.0305   118.8931     0.7537    93.2349   185.0731   292.4810     0.0009    -0.3130   264.4470  -999.2500   332.0535     4.9164     0.2668     3.0672  3150.0000
  10371.0000     6.5179     7.0073     0.9177     0.9852     0.9680    -1.9919     4.9172   143.7450   118.8931   138.8330    85.3204   140.0305    85.3204    85.3204   140.0305   118.8931     0.7140    93.2349   185.0774   292.4799     0.0008    -0.2965   264.3981  -999.2500   332.0059     4.9172     0.2668     2.7174  3100.0000
  10371.5000     6.5179     6.9705     0.9177     0.9852     0.9680    -2.0096     4.9181   143.7450   118.8931   138.8330    85.3204   140.0305    85.3204    85.3204   140.0305   118.8931     0.6744    93.2349   185.0817   292.4865     0.0008    -0.2801   264.3989  -999.2500   332.0000     4.9181     0.2668     2.1739  3003.0000
  10372.0000     6.5179     6.9705     0.9177     0.9852     0.9680    -2.0096     4.9189   143.7450   118.8931   138.8330    85.3204   140.0305    85.3204    85.3204   140.0305   118.8931     0.6347    93.2349   185.0860   292.4891     0.0007    -0.2636   264.4231  -999.2500   332.0216     4.9189     0.2668     1.6305  2983.0000
  10372.5000     6.5179     6.9705     0.9177     0.9852     0.9680    -2.0096     4.9196   143.7450   118.8931   138.8330    85.3204   140.0305    85.3204    85.3204   140.0305   118.8931     0.5950    93.2349   185.0903   292.4934     0.0007    -0.2471   264.3948  -999.2500   331.9893     4.9196     0.2668     1.0870  2906.0000
  10373.0000     6.5179     6.9705     0.9177     0.9852     0.9680    -2.0096     4.9205   143.7450   118.8931   138.8330    85.3204   140.0305    85.3204    85.3204   140.0305   118.8931     0.5554    93.2349   185.0946   292.4949     0.0006    -0.2306   264.3806  -999.2500   331.9734     4.9205     0.2668     0.5435  2873.0000
  10373.5000     6.5179     6.9705     0.9177     0.9852     0.9680    -2.0096     4.9212   143.7450   118.8931   138.8330    85.3204   140.0305    85.3204    85.3204   140.0305   118.8931     0.5157    93.2349   185.0989   292.5029     0.0006    -0.2142   264.3497  -999.2500   331.9347     4.9212     0.2668     0.0000  2822.0000
  10374.0000     6.5179     6.9705     0.9177     0.9852     0.9680    -2.0096     4.9220   143.7450   118.8931   138.8330    85.3204   140.0305    85.3204    85.3204   140.0305   118.8931     0.4760    93.2349   185.1032   292.5076     0.0006    -0.1977   264.3281  -999.2500   331.9086     4.9220     0.2668     0.0000  2786.0000
  10374.5000     6.5179     6.9460     0.9177     0.9852     0.9680    -2.0215     4.9227   143.7450   118.8931   138.8330    85.3204   140.0305    85.3204    85.3204   140.0305   118.8931     0.4364    93.2349   185.1075   292.5142     0.0005    -0.1812   264.3290  -999.2500   331.9028     4.9227     0.2668     0.0000  2767.0000
  10375.0000     6.5179     6.9460     0.9177     0.9852     0.9680    -2.0215     4.9234   143.7450   118.8931   138.8330    85.3204   140.0305    85.3204    85.3204   140.0305   118.8931     0.3967    93.2349   185.1118   292.5189     0.0005    -0.1647   264.3303  -999.2500   331.8994     4.9234     0.2668     0.0000  2807.0000
  10375.5000     6.5179     6.9460     0.9177     0.9852     0.9680    -2.0215     4.9239   143.7450   118.8931   138.8330    85.3204   140.0305    85.3204    85.3204   140.0305   118.8931     0.3570    93.2349   185.1161   292.5229     0.0004    -0.1483   264.3296  -999.2500   331.8949     4.9239     0.2668     0.0000  2777.0000
  10376.0000     6.5179     6.8724     0.9177     0.9852     0.9680    -2.0572     4.9248   143.7450   118.8931   138.8330    85.3204   140.0305    85.3204    85.3204   140.0305   118.8931     0.3173    93.2349   185.1204   292.5276     0.0004    -0.1318   264.3056  -999.2500   331.8662     4.9248     0.2668     0.0000  2790.0000
  10376.5000     6.5179     6.7743     0.9177     0.9852     0.9680    -2.1051     4.9256   143.7450   118.8931   138.8330    85.3204   140.0305    85.3204    85.3204   140.0305   118.8931     0.2777    93.2349   185.1246   292.5333     0.0003    -0.1153   264.3068  -999.2500   331.8616     4.9256     0.2668     0.0000  2764.0000
  10377.0000     6.2248     6.1736     0.9177     0.9852     0.9680    -2.5508     4.9263   143.7450   118.8931   138.8330    85.3204   140.0305    85.3204    85.3204   140.0305   118.8931     0.2380    93.2349   185.1289   292.5359     0.0003    -0.0988   264.3078  -999.2500   331.8603     4.9263     0.2668     0.0000  2764.0000
  10377.5000     2.8545     2.9901     0.9177     0.9852     0.9680    -5.8285     4.9268   143.7450   118.8931   138.8330    85.3204   140.0305    85.3204    85.3204   140.0305   118.8931     0.1983    93.2349   185.1332   292.5408     0.0003    -0.0824   264.3083  -999.2500   331.8558     4.9268     0.2668     0.0000  2797.0000
  10378.0000     2.8614     2.9820     0.9177     0.9852     0.9680    -5.8289     4.9275   143.7450   118.8931   138.8330    85.3204   140.0305    85.3204    85.3204   140.0305   118.8931     0.1587    93.2349   185.1375   292.5491     0.0002    -0.0659   264.3089  -999.2500   331.8482     4.9275     0.2668     0.0000  2772.0000
  10378.5000     2.8698     2.9983     0.9177     0.9852     0.9680    -5.8166     4.9275   143.7450   118.8931   138.8330    85.3204   140.0305    85.3204    85.3204   140.0305   118.8931     0.1190    93.2349   185.1418   292.5501     0.0002    -0.0494   264.3088  -999.2500   331.8470     4.9275     0.2668     0.0000  2784.0000
  10379.0000     2.8614     2.9901     0.9177     0.9852     0.9680    -5.8249     4.9280   143.7450   118.8931   138.8330    85.3204   140.0305    85.3204    85.3204   140.0305   118.8931     0.0793    93.2349   185.1461   292.5552     0.0001    -0.0329   264.3092  -999.2500   331.8423     4.9280     0.2668     0.0000  2785.0000
  10379.5000     2.8649     2.9799     0.9177     0.9852     0.9680    -5.8281     4.9280   143.7450   118.8931   138.8330    85.3204   140.0305    85.3204    85.3204   140.0305   118.8931     0.0397    93.2349   185.1504   292.5599     0.0001    -0.0165   264.3091  -999.2500   331.8376     4.9280     0.2668     0.0000  2758.0000
  10380.0000     2.8545     2.9983     0.9177     0.9852     0.9680    -5.8269     4.9281   143.7450   118.8931   138.8330    85.3204   140.0305    85.3204    85.3204   140.0305   118.8931     0.0000    93.2349   185.1547   292.5529     0.0000     0.0000   264.3094  -999.2500   331.8448     4.9281     0.2668     0.0000  2814.0000
