~Version Information
 VERS.                  2.0:   CWLS log ASCII Standard -VERSION 2.0
 WRAP.                   NO:   One line per depth step
~Well Information Block
#MNEM.UNIT     VALUE/NAME     DESCRIPTION
#---------     -----------    ---------------------------
 STRT.F              8432.0000: START DEPTH
 STOP.F             13842.0000: STOP DEPTH
 STEP.F                 0.5000: STEP DEPTH
 NULL.                 -999.25: NULL VALUE
 LOC .     100' FNL & 990' FEL:  LOCATION
 FL6 .       API  42-109-33163:  LOCATIONLINE6
 FL4 .           ABSTRACT 1006:  LOCATIONLINE4
 FL3 .        T&P RR CO SURVEY:  LOCATIONLINE3
 FL2 .     SECTION 36, BLOCK 59 T2:  LOCATIONLINE2
 FL1 .     100' FNL & 990' FEL:  LOCATIONLINE1
 DMF .                      KB:  DRILL MEAS FROM
 PDAT.                      GL:  PERMANENT DATUM
 CNTY.               CULBERSON:  COUNTY NAME
 FLD .     FORD, WEST (WOLFCAMP):  FIELD NAME
 WELL.         SCOTT FEE 36 2H:  WELL NAME
 COMP.     CAPITAN ENERGY INC.:  COMPANY
 DATE.             11-Oct-2017:  DATE
 SVCO.             Halliburton:  SERVICECONAME
 PROV.                   TEXAS:  PROVINCE
 STAT.                   TEXAS:  STATE NAME
 CTRY.           UNITED STATES:  COUNTRY NAME
 HIDE.                        :  WELLNAMEOPERAT
 BASI.                 PERMIAN:  BASIN
 UWI .            42-109-33163Lat:  UNIQUE WELL IDENTIFIER
 API .            42-109-33163Lat:  API NUMBER
 RANG.                     N/A:  RANGE
 TOWN.                     N/A:  TOWNSHIP
 SECT.                     N/A:  SECTION
 SON .               904352259:  JOB NUMBER
 SRVC.             Halliburton:  SERVICE COMPANY
 LMF .                      KB:  LOG MEASURED FROM
 EGL .ft             3174.0000:  GROUND ELEVATION
 BAP .ft                0.0000:  GL ELEV ONSHORE
 GVFD.g                 1.0000:  GRAVITY FIELD
 EKB .ft             3200.0000:  KB ELEVATION
 EDF .ft             3199.0000:  DF ELEVATION
~Curve Information Block
#MNEM.UNIT                 API CODE     Curve Description
#---------               -----------    ---------------------------
 DEPT.F                 00 000 000 000:  Depth
 CCL .V                 00 000 000 000:  Casing Collar Locator
 NPHI_OH.pu             00 000 000 000:  NPHI_OH
 NPHI_CHI.pu            00 000 000 000:  NPHI_CHI
 GR_CHI.api             00 000 000 000:  GR_CHI
 GR_OH.api              00 000 000 000:  GR_OH
 RHOB_OH.g/cc           00 000 000 000:  RHOB_OH
 RHOB_CHI.g/cc          00 000 000 000:  RHOB_CHI
 PE_CHI.b/e             00 000 000 000:  PE_CHI
 PE_OH.b/e              00 000 000 000:  PE_OH
 MSFL_OH.ohmm           00 000 000 000:  MSFL_OH
 MSFL_CHI.ohmm          00 000 000 000:  MSFL_CHI
 LLS_OH.ohmm            00 000 000 000:  LLS_OH
 LLS_CHI.ohmm           00 000 000 000:  LLS_CHI
 LLD_OH.ohmm            00 000 000 000:  LLD_OH
 LLD_CHI.ohmm           00 000 000 000:  LLD_CHI
 DTC_OH.uspf            00 000 000 000:  DTC_OH
 DTC_CHI.uspf           00 000 000 000:  DTC_CHI
 SPHI_CHI.pu            00 000 000 000:  SPHI_CHI
 SGF .cu                00 000 000 000:  Formation Sigma
 CRNF.NONE              00 000 000 000:  CM GrsCaptRatio
 RIN .NONE              00 000 000 000:  CM GrsInelRatio
~A    DEPT      CCL   NPHI_OH NPHI_CHI  GR_CHI   GR_OH   RHOB_OH RHOB_CHI PE_CHI  PE_OH   MSFL_OH  MSFL_CHI  LLS_OH   LLS_CHI   LLD_OH  LLD_CHI  DTC_OH  DTC_CHI SPHI_CHI   SGF    CRNF   RIN   
# ...
   12380.0000  0.0000 -999.25  11.3229  90.5536  -999.25 -999.25   2.5707 3.8067 -999.25   -999.25  84.6932   -999.25 113.8780  -999.25 115.7509 -999.25 66.8429  13.5300 15.7173 0.8876 0.9666
   12380.5000  0.0000 -999.25  12.3164  97.7760  -999.25 -999.25   2.5626 3.8699 -999.25   -999.25  80.7802   -999.25 107.9069  -999.25 109.6420 -999.25 67.4728  13.9200 16.3959 0.9079 0.9790
   12381.0000  0.0000 -999.25  12.6316  94.5890  -999.25 -999.25   2.5627 3.9559 -999.25   -999.25  76.3425   -999.25 101.1834  -999.25 102.7661 -999.25 67.8039  14.2200 17.2080 0.9234 0.9877
   12381.5000  0.0000 -999.25  13.6427 102.3316  -999.25 -999.25   2.5544 3.9301 -999.25   -999.25  72.1268   -999.25  94.8464  -999.25  96.2882 -999.25 68.7352  14.7500 18.1008 0.9335 0.9949
   12382.0000  0.0000 -999.25  14.4693 111.7401  -999.25 -999.25   2.5436 3.8048 -999.25   -999.25  67.3866   -999.25  87.7822  -999.25  89.0703 -999.25 69.5058  15.3300 19.3006 0.9378 1.0059
   12382.5000  0.0000 -999.25  14.7943 113.3240  -999.25 -999.25   2.5385 3.6905 -999.25   -999.25  62.5342   -999.25  80.6217  -999.25  81.7581 -999.25 69.8024  15.6400 20.0976 0.9356 1.0178
   12383.0000  0.0000 -999.25  14.5093 101.1954  -999.25 -999.25   2.5452 3.6507 -999.25   -999.25  56.5588   -999.25  71.9100  -999.25  72.8678 -999.25 69.1965  15.4000 20.5571 0.9207 1.0293
   12383.5000  0.0000 -999.25  14.6232 100.1350  -999.25 -999.25   2.5434 3.5663 -999.25   -999.25  52.9086   -999.25  66.6500  -999.25  67.5033 -999.25 69.1540  15.2500 20.8667 0.9148 1.0387
   12384.0000  0.0000 -999.25  15.0705 110.9376  -999.25 -999.25   2.5315 3.4411 -999.25   -999.25  50.9122   -999.25  63.7941  -999.25  64.5918 -999.25 69.7616  15.5400 21.1760 0.9282 1.0439
   12384.5000  0.0000 -999.25  15.0994 116.1983  -999.25 -999.25   2.5260 3.3848 -999.25   -999.25  49.6097   -999.25  61.9392  -999.25  62.7013 -999.25 69.8187  15.7000 21.5122 0.9494 1.0449
   12385.0000  0.0000 -999.25  15.1845 124.2792  -999.25 -999.25   2.5174 3.3117 -999.25   -999.25  48.3417   -999.25  60.1399  -999.25  60.8679 -999.25 70.1939  15.9000 21.6883 0.9681 1.0442
   12385.5000  0.0000 -999.25  15.1925 119.1529  -999.25 -999.25   2.5211 3.3269 -999.25   -999.25  47.0003   -999.25  58.2435  -999.25  58.9358 -999.25 70.1229  15.9400 21.6514 0.9716 1.0429
   12386.0000  0.0000 -999.25  15.1208 108.3220  -999.25 -999.25   2.5306 3.3839 -999.25   -999.25  46.3125   -999.25  57.2741  -999.25  57.9483 -999.25 69.8321  15.7800 21.8046 0.9686 1.0440
   12386.5000  0.0000 -999.25  15.1161 103.4520  -999.25 -999.25   2.5349 3.4134 -999.25   -999.25  46.4558   -999.25  57.4758  -999.25  58.1539 -999.25 69.8592  15.7400 21.8682 0.9650 1.0443
   12387.0000  0.0000 -999.25  14.9881  99.2421  -999.25 -999.25   2.5388 3.4336 -999.25   -999.25  45.8638   -999.25  56.6427  -999.25  57.3053 -999.25 69.6571  15.6400 21.6639 0.9615 1.0434
   12387.5000  0.0000 -999.25  15.0538 101.7402  -999.25 -999.25   2.5364 3.4159 -999.25   -999.25  45.6203   -999.25  56.3004  -999.25  56.9566 -999.25 69.7648  15.6500 21.0725 0.9559 1.0425
   12388.0000  0.0000 -999.25  15.2148 107.5637  -999.25 -999.25   2.5308 3.3878 -999.25   -999.25  46.4072   -999.25  57.4074  -999.25  58.0841 -999.25 70.0649  15.8200 20.4626 0.9464 1.0435
   12388.5000  0.0000 -999.25  15.2152 108.0119  -999.25 -999.25   2.5316 3.4132 -999.25   -999.25  48.7624   -999.25  60.7361  -999.25  61.4754 -999.25 70.0233  15.8700 20.1133 0.9441 1.0469
   12389.0000  0.0000 -999.25  14.9118 101.2357  -999.25 -999.25   2.5399 3.4993 -999.25   -999.25  51.3165   -999.25  64.3713  -999.25  65.1801 -999.25 69.4955  15.6000 20.0898 0.9407 1.0476
   12389.5000  0.0000 -999.25  14.7272 100.2189  -999.25 -999.25   2.5426 3.5509 -999.25   -999.25  52.8391   -999.25  66.5503  -999.25  67.4016 -999.25 69.2912  15.3800 20.1086 0.9356 1.0422
   12390.0000  0.0000 -999.25  14.8120 104.7143  -999.25 -999.25   2.5398 3.5523 -999.25   -999.25  52.9431   -999.25  66.6995  -999.25  67.5538 -999.25 69.5728  15.4800 19.9760 0.9244 1.0310
   12390.5000  0.0000 -999.25  14.0133  91.1836  -999.25 -999.25   2.5536 3.6876 -999.25   -999.25  52.8599   -999.25  66.5801  -999.25  67.4320 -999.25 68.7316  15.1200 19.8781 0.9126 1.0198
   12391.0000  0.0000 -999.25  13.3894  83.7391  -999.25 -999.25   2.5616 3.7804 -999.25   -999.25  53.4499   -999.25  67.4269  -999.25  68.2954 -999.25 68.2422  14.7000 19.8232 0.9048 1.0105
   12391.5000  0.0000 -999.25  13.3057  84.5069  -999.25 -999.25   2.5615 3.7867 -999.25   -999.25  53.8897   -999.25  68.0590  -999.25  68.9400 -999.25 68.1271  14.5400 19.8627 0.9049 1.0077
   12392.0000  0.0000 -999.25  13.3970  87.7487  -999.25 -999.25   2.5592 3.7663 -999.25   -999.25  54.1379   -999.25  68.4161  -999.25  69.3041 -999.25 68.1455  14.5300 19.9148 0.9074 1.0058
   12392.5000  0.0000 -999.25  12.8217  80.5765  -999.25 -999.25   2.5656 3.8159 -999.25   -999.25  53.9592   -999.25  68.1590  -999.25  69.0419 -999.25 67.6103  14.2700 19.8021 0.9175 1.0046
   12393.0000  0.0000 -999.25  12.5581  76.9632  -999.25 -999.25   2.5687 3.8386 -999.25   -999.25  53.7244   -999.25  67.8214  -999.25  68.6976 -999.25 67.3989  14.0500 19.7287 0.9282 1.0044
   12393.5000  0.0000 -999.25  12.5493  76.9035  -999.25 -999.25   2.5691 3.8509 -999.25   -999.25  54.2336   -999.25  68.5538  -999.25  69.4445 -999.25 67.4417  14.0200 19.6280 0.9369 1.0033
   12394.0000  0.0000 -999.25  12.4032  73.9951  -999.25 -999.25   2.5718 3.8833 -999.25   -999.25  54.5679   -999.25  69.0350  -999.25  69.9353 -999.25 67.4223  14.0200 19.6175 0.9402 1.0033
   12394.5000  0.0000 -999.25  12.7218  77.2730  -999.25 -999.25   2.5691 3.8741 -999.25   -999.25  55.0298   -999.25  69.7008  -999.25  70.6143 -999.25 67.7918  14.2000 19.7276 0.9385 1.0016
   12395.0000  0.0000 -999.25  12.6785  76.0763  -999.25 -999.25   2.5705 3.8910 -999.25   -999.25  55.0782   -999.25  69.7706  -999.25  70.6855 -999.25 67.8698  14.3200 19.7701 0.9383 0.9988
   12395.5000  0.0000 -999.25  12.1978  69.9487  -999.25 -999.25   2.5765 3.9323 -999.25   -999.25  54.5729   -999.25  69.0423  -999.25  69.9427 -999.25 67.5729  14.1900 19.7691 0.9347 0.9950
   12396.0000  0.0000 -999.25  11.9850  67.9808  -999.25 -999.25   2.5788 3.9446 -999.25   -999.25  54.3791   -999.25  68.7632  -999.25  69.6581 -999.25 67.4523  14.0700 19.6501 0.9336 0.9909
   12396.5000  0.0000 -999.25  12.0538  69.1569  -999.25 -999.25   2.5780 3.9373 -999.25   -999.25  54.3837   -999.25  68.7697  -999.25  69.6647 -999.25 67.5337  14.0800 19.3819 0.9230 0.9883
   12397.0000  0.0000 -999.25  12.3174  73.1765  -999.25 -999.25   2.5746 3.9164 -999.25   -999.25  54.9281   -999.25  69.5542  -999.25  70.4647 -999.25 67.7257  14.1900 19.1625 0.9159 0.9870
   12397.5000  0.0000 -999.25  12.3208  73.9592  -999.25 -999.25   2.5744 3.9315 -999.25   -999.25  56.1752   -999.25  71.3550  -999.25  72.3015 -999.25 67.7673  14.2500 18.8738 0.9108 0.9860
   12398.0000  0.0000 -999.25  11.9890  71.6791  -999.25 -999.25   2.5772 3.9538 -999.25   -999.25  57.2164   -999.25  72.8628  -999.25  73.8397 -999.25 67.4930  14.1300 18.6286 0.9177 0.9841
   12398.5000  0.0000 -999.25  12.7654  82.9963  -999.25 -999.25   2.5675 3.8934 -999.25   -999.25  58.6160   -999.25  74.8955  -999.25  75.9136 -999.25 68.0460  14.3400 18.3513 0.9301 0.9835
   12399.0000  0.0000 -999.25  12.2394  77.1672  -999.25 -999.25   2.5731 3.9450 -999.25   -999.25  59.8315   -999.25  76.6664  -999.25  77.7208 -999.25 67.6478  14.2600 18.0174 0.9358 0.9837
   12399.5000  0.0000 -999.25  11.8460  72.0130  -999.25 -999.25   2.5782 4.0050 -999.25   -999.25  61.2365   -999.25  78.7196  -999.25  79.8164 -999.25 67.4597  14.0800 17.8021 0.9378 0.9842
   12400.0000  0.0000 -999.25  12.0354  73.7238  -999.25 -999.25   2.5772 4.0299 -999.25   -999.25  62.9722   -999.25  81.2650  -999.25  82.4149 -999.25 67.7578  14.1900 17.7256 0.9292 0.9830
   12400.5000  0.0000 -999.25  11.8965  72.2661  -999.25 -999.25   2.5793 4.0554 -999.25   -999.25  64.1174   -999.25  82.9498  -999.25  84.1351 -999.25 67.7840  14.2700 17.7567 0.9159 0.9795
