###############################################
##         ENVERUS                           ##
##         ESS - Open Hole                   ##
##         PERMIAN / DELAWARE                ##
##         Nov 03 2023  V4.0                 ##
##         42-109-32572-90-00                ##
###############################################
## Copyright 2017-2023  ENVERUS.  All Rights Reserved. 
## Confidential - Property of ENVERUS, use governed by terms and 
## conditions found within the existing Information Services Subscription Agreement 
## (as may be amended, the “ISSA”) between Customer and ENVERUS. 
## 
~VERSION INFORMATION
# MNEM.UNIT                               DATA : DESCRIPTION OF MNEMONIC
#-----.-----     ----------------------------- : -----------------------------
VERS.                                     2.00 : CWLS LOG ASCII STANDARD - VERSION 2.00
WRAP.                                       NO : MULTIPLE LINES PER DEPTH STEP
VEND.                                  ENVERUS : VENDOR
TYPE.                          ESS - OPEN HOLE : ENVERUS ESSENTIAL CURVES – ACCESSIBLE THROUGH ENVERUS PRISM(TM)
DOC.                                  51093467 : ENVERUS HEADER RAW DOCUMENT ID
#___________________________________________________________________________________________________ 
~WELL INFORMATION 
# 8gl1O6v4swiPFL4GH+dnL3Th7drW/gNnufiOMC39xBbatiyIUGjWQRxOO2UkOAKZqu0QrDKM70MxnzzovQmAYg== 
# MNEM.UNIT                                              DATA : DESCRIPTION OF MNEMONIC 
#-----.-----                    ----------------------------- : ----------------------------- 
CNTY.                                               CULBERSON : COUNTY 
STATE.                                                  TEXAS : STATE 
CNTRY.                                                    USA : COUNTRY 
API.                                             42-109-32572 : API (10 Digit) 
API_14.                                    42-109-32572-90-00 : API (14 Digits) 
API_14_std.                                 42-109-32572-9000 : API (14 Digits Standard) 
UWI.                                           42109325729000 : UNIQUE WELL ID 
WELL.                               42109325720000_PREV_API14 : WELL NAME
STRT.FT                                                2248.5 : START DEPTH
STOP.FT                                               10757.5 : STOP DEPTH
STEP.FT                                                   0.5 : STEP BETWEEN DEPTHS
NULL.                                                 -999.25 : NULL VALUE
PREV_APII.                                     42109325720000 : WELL IDENTIFIER
#___________________________________________________________________________________________________ 
~PARAMETER INFORMATION 
# MNEM.UNIT                                              DATA : DESCRIPTION OF MNEMONIC 
#-----.-----                    ----------------------------- : ----------------------------- 
EKB.FT                                                   3340 : ELEVATION ABOVE MSL
#___________________________________________________________________________________________________ 
~CURVE INFORMATION 
# MNEM.UNIT           : CURVE DESCRIPTION 
#-----.-----          : ----------------------------- 
 DEPT.FT               : MEASURED DEPTH 
 CALI.IN               : CALIPER (CAL - CALIPER) 
 GR.API                : GAMMA RAY (GAMMA RAY) 
 DT.US/FT              : SONIC DELTA TRANSIT TIME (SONIC) 
 #___________________________________________________________________________________________________ 
~A         DEPT           CALI             GR             DT
# ...
         6736.5          8.967        103.891         80.455
         6737.0          8.966         99.347         76.441
         6737.5          8.966         93.346         75.095
         6738.0          8.966         94.312         75.279
         6738.5          8.965        106.578         76.874
         6739.0          8.965        108.327         78.558
         6739.5          8.964        109.399         78.493
         6740.0          8.964        110.376         77.357
         6740.5          8.964        108.894         77.974
         6741.0          8.963        104.495         80.467
         6741.5          8.963        107.829         81.602
         6742.0          8.963        110.177         81.602
         6742.5          8.962        111.750         81.602
         6743.0          8.962        103.551         80.638
         6743.5          8.961        111.597         79.951
         6744.0          8.961        116.514         80.018
         6744.5          8.961        124.931         80.087
         6745.0          8.960        128.174         80.397
         6745.5          8.960        132.268         82.094
         6746.0          8.960        132.885         81.721
         6746.5          8.959        131.525         79.614
         6747.0          8.959        136.554         78.953
         6747.5          8.958        137.709         78.558
         6748.0          8.958        134.063         73.776
         6748.5          8.958        123.959         74.391
         6749.0          8.957        104.171         74.516
         6749.5          8.957         87.538         73.438
         6750.0          8.957         85.976         73.154
         6750.5          8.956         95.723         78.111
         6751.0          8.956        101.416         76.797
         6751.5          8.955        105.734         75.866
         6752.0          8.955        104.130         74.367
         6752.5          8.955         94.423         72.229
         6753.0          8.954         93.059         74.019
         6753.5          8.954         98.926         74.336
         6754.0          8.954        101.320         72.513
         6754.5          8.953        101.318         72.395
         6755.0          8.953        115.567         75.475
         6755.5          8.952        147.746         77.588
         6756.0          8.952        155.461         79.176
         6756.5          8.952        165.410         81.035
         6757.0          8.951        151.890         80.092
         6757.5          8.951        119.107         79.678
         6758.0          8.951        113.836         79.385
         6758.5          8.950        107.275         79.316
         6759.0          8.952        110.614         81.346
         6759.5          8.954        122.673         81.777
         6760.0          8.957        124.741         81.496
         6760.5          8.960        122.033         80.851
         6761.0          8.963        112.116         79.060
         6761.5          8.966        108.651         78.286
         6762.0          8.968        111.275         77.900
         6762.5          8.971        117.336         78.175
         6763.0          8.974        113.386         79.421
         6763.5          8.977        112.480         78.223
         6764.0          8.980        114.177         78.086
         6764.5          8.982        121.675         78.534
         6765.0          8.985        121.379         79.755
         6765.5          8.988        111.204         77.354
         6766.0          8.991        107.682         77.281
         6766.5          8.994        112.009         77.324
         6767.0          8.983        132.363         78.379
         6767.5          8.973        146.759         82.446
         6768.0          8.985        152.916         82.891
         6768.5          9.017        154.469         83.092
         6769.0          9.017        145.102         81.972
         6769.5          9.017        121.121         70.791
         6770.0          9.017        109.970         69.575
         6770.5          9.017         82.246         67.478
         6771.0          9.017         75.207         65.309
         6771.5          9.017         77.817         69.160
         6772.0          9.017         82.126         70.837
         6772.5          9.017         87.772         70.253
         6773.0          9.017         87.345         70.891
         6773.5          9.017         85.194         65.804
         6774.0          9.017         83.041         64.317
         6774.5          9.017         63.470         63.793
         6775.0          9.017         55.094         62.883
         6775.5          9.017         54.795         62.513
         6776.0          9.017         54.278         61.586
         6776.5          9.017         43.482         58.522
         6777.0          9.001         31.799         57.592
         6777.5          8.995         19.506         53.468
         6778.0          8.995         16.815         52.548
         6778.5          8.940         22.303         52.957
         6779.0          8.905         34.533         54.426
         6779.5          8.905         46.595         56.981
         6780.0          8.905         50.273         57.810
         6780.5          8.905         72.210         61.676
         6781.0          8.905         95.226         65.994
         6781.5          8.905        148.722         70.618
         6782.0          8.905        173.041         72.321
         6782.5          8.905        162.727         70.994
         6783.0          8.905        141.701         68.912
         6783.5          8.905        131.674         67.678
         6784.0          8.905        140.989         67.738
         6784.5          8.905        179.278         71.203
         6785.0          8.905        200.061         73.199
         6785.5          8.905        204.810         73.439
         6786.0          8.905        189.839         72.230
         6786.5          8.905        161.266         67.717
         6787.0          8.905        154.888         66.304
         6787.5          8.905        157.234         67.731
         6788.0          8.905        162.135         68.068
         6788.5          8.905        154.775         69.502
         6789.0          8.905        143.934         71.245
         6789.5          8.905        164.394         72.679
         6790.0          8.905        172.511         73.678
         6790.5          8.905        191.292         71.349
         6791.0          8.905        156.931         66.988
         6791.5          8.905        128.091         65.516
         6792.0          8.905        135.512         65.815
         6792.5          8.905        150.607         67.266
         6793.0          8.905        109.942         67.454
         6793.5          8.905         68.251         64.593
         6794.0          8.905         60.416         65.117
         6794.5          8.905         66.564         65.761
         6795.0          8.905         72.296         64.207
         6795.5          8.905         73.974         60.558
         6796.0          8.905         62.148         59.433
         6796.5          8.905         49.649         57.764
         6797.0          8.905         57.834         59.954
         6797.5          8.905         76.684         62.396
         6798.0          8.905         79.263         60.986
         6798.5          8.905         69.407         58.317
         6799.0          8.905         51.782         56.932
         6799.5          8.905         59.601         57.303
         6800.0          8.905         65.045         61.058
         6800.5          8.905        104.249         64.222
         6801.0          8.905        119.976         64.983
         6801.5          8.905        135.964         65.717
         6802.0          8.905        137.378         64.830
