# Exported from Transform Software 5.2.0 on 17-Oct-2019 by user kathryn.gehrke
# DI Transform - A Product of Drillinginfo, Inc. - www.drillinginfo.com
#
~VERSION INFORMATION
 VERS.        2.0 : LAS ASCII STANDARD - VERSION 2.0
 WRAP.         NO : ONE LINE PER DEPTH STEP

~WELL INFORMATION
#MNEM.UNIT       DATA TYPE       INFORMATION
#---------       ---------       -----------
 STRT.ft                 100 : Start Depth
 STOP.ft               10126 : Stop Depth
 STEP.ft                 0.5 : Step Length
 NULL.               -999.25 : Null Value
 COMP.                       : Company
 WELL.  42109329790000_API14 : Well Name
 FLD.                        : Field Name
 LOC.                        : Well Location
 CNTY.                       : County
 STAT.                       : State or Province
 CTRY.                       : Country
 SRVC.                       : Service Company
 DATE.                       : Date
 API.         42109329790000 : Well Identifier

~CURVE INFORMATION
#MNEM.UNIT       API CODE       CURVE DESCRIPTION
#---------       --------       -----------------
 DEPT.ft        : <Measured Depth>
 DT.us/ft       : Sonic
 GR.gAPI        : Gamma Ray

~PARAMETER INFORMATION
#MNEM.UNIT       VALUE       DESCRIPTION
#---------       -----       -----------
 EKB.ft      3282 : Elevation above MSL

~A      DEPT          DT          GR
# ...
        3355    265.5462      33.289
      3355.5    265.5462     35.2787
        3356    265.5462     35.7143
      3356.5    265.5462     35.3623
        3357    265.5462     37.9849
      3357.5    265.5462     39.7643
        3358    265.5462     39.0756
      3358.5    265.5462     40.1764
        3359    265.4839      44.142
      3359.5    265.5462     46.9575
        3360    265.5462     47.8992
      3360.5    265.5462     48.7395
        3361    265.5462     48.0852
      3361.5    265.5462     46.2348
        3362    265.5462     40.3823
      3362.5    265.5462     38.0859
        3363    265.5462      36.373
      3363.5    265.5462      34.641
        3364    265.5462     33.1287
      3364.5    265.5462     32.8277
        3365    265.5462     33.4653
      3365.5    265.5462     31.9529
        3366     264.986     31.2809
      3366.5     264.986     31.9962
        3367     264.986     32.0376
      3367.5     264.986     31.7331
        3368     264.986     34.4112
      3368.5     264.986     35.0635
        3369     264.986      33.131
      3369.5     264.986     31.6186
        3370     264.986     29.6861
      3370.5    266.0765     29.3893
        3371    268.8319     30.0227
      3371.5    270.5068     30.3438
        3372    268.9076     32.6659
      3372.5    268.9076     34.0336
        3373    268.9076     33.6134
      3373.5     270.013     33.0013
        3374     267.147     33.1333
      3374.5    265.0711     31.9328
        3375    265.5462     32.2094
      3375.5    265.5462     31.5126
        3376    265.5462     31.7397
      3376.5    265.5462     32.4117
        3377    265.5462     34.0794
      3377.5    265.5462     34.3115
        3378    265.5462     32.7991
      3378.5    265.5462     31.5126
        3379    265.5462     30.1945
      3379.5    265.5462     28.6821
        3380    265.5462     29.1327
      3380.5    265.5462     30.6451
        3381    265.5462     31.0093
      3381.5    265.5462     32.4093
        3382     264.986     33.5016
      3382.5     264.986     35.7142
        3383     264.986     39.7885
      3383.5     264.986      45.195
        3384     264.986     50.2486
      3384.5     264.986     55.9633
        3385     264.986     60.7799
      3385.5     264.986     63.4159
        3386     264.986     61.5301
      3386.5     264.986      57.794
        3387     264.986     51.8317
      3387.5     264.986     45.8056
        3388     264.986     42.0782
      3388.5     264.986     41.3977
        3389     264.986     43.3302
      3389.5     264.986     43.3927
        3390     264.986     40.8353
      3390.5     264.986     37.8629
        3391     264.986     36.7548
      3391.5     264.986     36.1345
        3392     264.986     36.1345
      3392.5    265.1664     36.5546
        3393    265.5462     36.5876
      3393.5    265.5462     35.7143
        3394    265.5462     35.2941
      3394.5    265.5462     36.1679
        3395    265.5462     37.8151
      3395.5    265.5462     39.6375
        3396    265.5462     40.9588
      3396.5    265.5462     38.0872
        3397    265.5462      34.212
      3397.5     264.986     33.3262
        3398     264.986     33.2286
      3398.5     264.986     31.7291
        3399     264.986     33.4757
      3399.5     264.986      35.174
        3400     264.986     33.6259
      3400.5     264.986     32.3529
        3401     264.986     32.5578
      3401.5     264.986     31.9798
        3402     264.986      33.072
      3402.5     264.986     34.4538
        3403     264.986     35.8678
      3403.5     264.986     38.0293
        3404     264.986     39.1215
      3404.5     264.986     39.4958
        3405     264.986     40.3361
      3405.5     264.986     37.7412
        3406     264.986     35.5071
      3406.5     264.986     37.0195
        3407     264.986     36.2581
      3407.5     264.986     35.2941
        3408    265.5462     35.6742
      3408.5    265.5462     35.9227
        3409    265.5462     33.9901
      3409.5    265.5462     32.3301
        3410    265.5462     30.6723
      3410.5    265.5462     30.6723
        3411    265.5462     30.4616
      3411.5    265.6027     31.1348
        3412    268.1794     33.7187
      3412.5    269.4678     37.8568
        3413    268.9076     42.2461
      3413.5    268.9076      48.108
        3414    268.9076     51.7836
      3414.5    269.1526     55.0614
        3415    267.0606     57.6647
      3415.5    265.4798     60.0404
        3416     264.986     59.0354
      3416.5     264.986     56.6627
        3417     264.986      55.042
      3417.5     264.986     55.4622
        3418     264.986     54.2464
      3418.5     264.986     52.3139
        3419     264.986     50.5526
      3419.5     264.986     45.3954
        3420     264.986     39.6978
      3420.5     264.986     35.0117
        3421     264.986     34.0253
      3421.5     264.986     38.3294
        3422     264.986     43.4502
      3422.5     264.986     49.4627
        3423     264.986     54.5964
      3423.5     264.986     60.2835
        3424     264.986     62.6597
      3424.5     264.986      64.574
        3425     264.986      65.006
      3425.5     264.986     62.3056
        3426     264.986     56.2202
      3426.5     264.986     49.8412
        3427     264.986     41.9746
      3427.5     264.986     36.1663
        3428     264.986     34.1078
      3428.5     264.986     32.7731
        3429     264.986     33.2274
      3429.5     264.986     33.1933
        3430     264.986     31.8151
      3430.5     264.986     32.0669
        3431     264.986     36.5193
      3431.5     264.986     41.4524
        3432     264.986     44.8973
      3432.5     264.986     47.6537
        3433     264.986      49.528
      3433.5     264.986     46.3686
        3434     264.986     41.9692
      3434.5     264.986     39.1386
        3435     264.986     35.3683
      3435.5     264.986     33.5605
        3436     264.986      35.493
      3436.5     264.986     37.6662
        3437     264.986     40.1296
      3437.5     264.986     42.8754
        3438     264.986     42.9654
      3438.5     264.986     39.2981
        3439     264.986     37.8151
      3439.5     264.986     37.6762
        3440     264.986     38.7684
      3440.5     264.986     40.6733
        3441     264.986     42.2134
      3441.5     264.986     43.6692
        3442     264.986     43.2773
      3442.5     264.986      41.905
        3443     264.986     41.9603
      3443.5    266.9008     44.4107
        3444    265.5101     46.9164
      3444.5     264.986     51.4653
        3445     264.986     58.9565
      3445.5     264.986     62.9675
        3446     264.986     64.1568
      3446.5     264.986     65.9828
        3447    265.5462     62.4732
      3447.5    265.5462     56.5497
        3448    265.5462     54.2017
      3448.5    265.5462     54.7525
        3449    265.5462     53.8186
      3449.5     264.986     56.6456
        3450     264.986     58.5117
      3450.5     264.986     59.2437
        3451     264.986     59.8557
      3451.5     264.986     59.8268
        3452     264.986     55.8964
      3452.5     264.986     54.3624
        3453     264.986     58.2198
      3453.5     264.986     61.6306
        3454    266.1363     66.9186
      3454.5    268.1528     73.2376
        3455    270.4306     72.8426
      3455.5    268.4305     66.9626
        3456    268.3473     61.8676
      3456.5    268.9358     52.7927
        3457    271.1258     43.4561
      3457.5    267.0872     39.8112
        3458    265.0707     36.9553
      3458.5     264.986     32.7007
        3459     264.986     31.0924
      3459.5     264.986     30.4004
        3460    265.5462     29.4118
      3460.5    265.5462     29.3471
        3461    265.5462     31.2796
      3461.5    265.5462     32.7731
        3462    265.5462     33.6134
      3462.5    265.5462     34.4538
        3463    265.0738     34.8081
