~Version Information
 VERS.                  2.0:   CWLS log ASCII Standard -VERSION 2.0
 WRAP.                   NO:   One line per depth step
~Well Information Block
#MNEM.UNIT     VALUE/NAME     DESCRIPTION
#---------     -----------    ---------------------------
 STRT.F              8400.0000: START DEPTH
 STOP.F             13890.0000: STOP DEPTH
 STEP.F                 0.5000: STEP DEPTH
 NULL.                 -999.25: NULL VALUE
 LOC .     506' FEL & 344' FSL:  LOCATION
 FL6 .       API  42-109-33224:  LOCATIONLINE6
 FL4 .           ABSTRACT 4479:  LOCATIONLINE4
 FL3 .        T&P RR CO SURVEY:  LOCATIONLINE3
 FL2 .     SECTION 30, BLOCK 58 T2:  LOCATIONLINE2
 FL1 .     506' FEL & 344' FSL:  LOCATIONLINE1
 DMF .                      KB:  DRILL MEAS FROM
 PDAT.                      GL:  PERMANENT DATUM
 CNTY.               CULBERSON:  COUNTY NAME
 FLD .     FORD, WEST (WOLFCAMP):  FIELD NAME
 WELL.      LAUREN STATE 30 2H:  WELL NAME
 COMP.     CAPITAN ENERGY, INC.:  COMPANY
 DATE.             19-Feb-2018:  DATE
 SVCO.             Halliburton:  SERVICECONAME
 PROV.                   TEXAS:  PROVINCE
 STAT.                   TEXAS:  STATE NAME
 CTRY.                     USA:  COUNTRY NAME
 HIDE.                        :  WELLNAMEOPERAT
 BASI.                 PERMIAN:  BASIN
 UWI .            42-109-33224:  UNIQUE WELL IDENTIFIER
 API .            42-109-33224:  API NUMBER
 RANG.                     N/A:  RANGE
 TOWN.                     N/A:  TOWNSHIP
 SECT.                     N/A:  SECTION
 SON .               904646015:  JOB NUMBER
 SRVC.             Halliburton:  SERVICE COMPANY
 LMF .                      KB:  LOG MEASURED FROM
 EGL .ft             3168.0000:  GROUND ELEVATION
 BAP .ft                0.0000:  GL ELEV ONSHORE
 GVFD.g                 1.0000:  GRAVITY FIELD
 EKB .ft             3194.0000:  KB ELEVATION
 EDF .ft             3193.0000:  DF ELEVATION
~Curve Information Block
#MNEM.UNIT                 API CODE     Curve Description
#---------               -----------    ---------------------------
 DEPT.F                 00 000 000 000:  Depth
 CCL .V                 00 000 000 000:  Casing Collar Locator
 NPHI_OH.pu             00 000 000 000:  NPHI_OH
 NPHI_CHI.pu            00 000 000 000:  NPHI_CHI
 GR_OH.api              00 000 000 000:  GR_OH
 GR_CHI.api             00 000 000 000:  GR_CHI
 RHOB_OH.g/cc           00 000 000 000:  RHOB_OH
 RHOB_CHI.g/cc          00 000 000 000:  RHOB_CHI
 PE_OH.b/e              00 000 000 000:  PE_OH
 PE_CHI.b/e             00 000 000 000:  PE_CHI
 RT10_OH.ohmm           00 000 000 000:  RT10_OH
 RT10_CHI.ohmm          00 000 000 000:  RT10_CHI
 RT30_OH.ohmm           00 000 000 000:  RT30_OH
 RT30_CHI.ohmm          00 000 000 000:  RT30_CHI
 RT90_OH.ohmm           00 000 000 000:  RT90_OH
 RT90_CHI.ohmm          00 000 000 000:  RT90_CHI
 DTC_OH.uspf            00 000 000 000:  DTC_OH
 DTC_CHI.uspf           00 000 000 000:  DTC_CHI
 SPHI_CHI.pu            00 000 000 000:  SPHI_CHI
 SGF .cu                00 000 000 000:  Formation Sigma
 CRNF.NONE              00 000 000 000:  CM GrsCaptRatio
 RIN .NONE              00 000 000 000:  CM GrsInelRatio
#Other Information
#
#WARRANTY: Halliburton will use its best efforts to furnish customers with 
#accurate information and interpretations that are part of, and incident to, the services 
#provided.  However, Halliburton cannot and does not warrant the accuracy 
#or correctness of such information and interpretations.  Under no circumstances should any 
#such information or interpretation be relied upon as the sole basis for any drilling, 
#completion, production, or financial decision or any procedure involving any risk to the 
#safety of any drilling venture, drilling rig or its crew or any other third party.  The 
#Customer has full responsibility for all drilling, completion and production operation.  
#Halliburton makes no representations or warranties, either expressed or 
#implied, including, but not limited to, the implied warranties of merchantability or fitness 
#for a particular purpose, with respect to the services rendered.  In no event will 
#Halliburton be liable for failure to obtain any particular results or for 
#any damages, including, but not limited to, indirect, special or consequential damages, 
#resulting from the use of any information or interpretation provided by Halliburton.
#
~A    DEPT      CCL   NPHI_OH NPHI_CHI  GR_OH    GR_CHI  RHOB_OH RHOB_CHI  PE_OH  PE_CHI  RT10_OH  RT10_CHI RT30_OH  RT30_CHI RT90_OH  RT90_CHI DTC_OH  DTC_CHI SPHI_CHI   SGF    CRNF   RIN   
# ...
    9492.0000  0.0000 -999.25   8.3499  -999.25  44.6662 -999.25   2.6016 -999.25  4.1239  -999.25  64.6607  -999.25  66.5006  -999.25  75.8205 -999.25 66.6000  13.4400 15.9661 0.9733 1.2338
    9492.5000  0.0000 -999.25   8.4365  -999.25  46.5460 -999.25   2.6000 -999.25  4.1185  -999.25  65.0439  -999.25  67.1053  -999.25  76.4535 -999.25 66.8150  13.5900 16.1401 0.9812 1.2329
    9493.0000  0.0000 -999.25   8.5109  -999.25  47.7770 -999.25   2.5988 -999.25  4.0976  -999.25  63.6278  -999.25  66.1273  -999.25  75.3411 -999.25 67.0439  13.7500 16.3863 0.9943 1.2287
    9493.5000  0.0000 -999.25   8.9493  -999.25  54.1649 -999.25   2.5926 -999.25  4.0638  -999.25  61.9929  -999.25  64.6095  -999.25  73.5003 -999.25 67.8023  14.2900 16.6480 1.0110 1.2247
    9494.0000  0.0000 -999.25   8.7388  -999.25  48.1257 -999.25   2.5963 -999.25  4.0149  -999.25  54.3398  -999.25  57.3084  -999.25  65.5935 -999.25 67.4951  14.0700 16.9654 1.0271 1.2219
    9494.5000  0.0000 -999.25   9.1230  -999.25  50.7979 -999.25   2.5913 -999.25  3.9426  -999.25  46.6343  -999.25  49.6272  -999.25  57.1307 -999.25 68.1731  14.5500 17.2365 1.0318 1.2183
    9495.0000  0.0000 -999.25   9.7619  -999.25  56.9551 -999.25   2.5841 -999.25  3.9267  -999.25  49.3775  -999.25  51.6952  -999.25  59.2476 -999.25 68.7596  14.9600 17.4284 1.0251 1.2158
    9495.5000  0.0000 -999.25   9.7728  -999.25  52.3921 -999.25   2.5850 -999.25  3.8606  -999.25  42.2310  -999.25  44.6238  -999.25  51.5712 -999.25 68.7333  14.9500 17.5843 1.0129 1.2154
    9496.0000  0.0000 -999.25  10.0071  -999.25  54.9722 -999.25   2.5824 -999.25  3.8536  -999.25  43.3311  -999.25  45.4911  -999.25  52.4326 -999.25 68.9418  15.0900 17.7410 1.0001 1.2184
    9496.5000  0.0000 -999.25  10.0231  -999.25  57.0898 -999.25   2.5824 -999.25  3.8648  -999.25  46.3061  -999.25  48.3446  -999.25  55.3941 -999.25 68.9613  15.1100 17.7953 0.9965 1.2234
    9497.0000  0.0000 -999.25   9.6370  -999.25  53.8680 -999.25   2.5875 -999.25  3.8579  -999.25  45.3297  -999.25  47.6948  -999.25  54.5643 -999.25 68.6078  14.8600 17.8299 0.9985 1.2234
    9497.5000  0.0000 -999.25   8.8502  -999.25  43.7979 -999.25   2.5976 -999.25  3.8234  -999.25  39.8991  -999.25  42.4829  -999.25  48.8719 -999.25 67.8388  14.3100 17.9424 0.9866 1.2052
    9498.0000  0.0000 -999.25   8.7831  -999.25  43.6291 -999.25   2.5985 -999.25  3.8259  -999.25  40.0069  -999.25  42.6019  -999.25  48.9579 -999.25 67.7753  14.2700 18.2916 0.9688 1.1740
    9498.5000  0.0000 -999.25   8.9577  -999.25  46.0733 -999.25   2.5965 -999.25  3.8280  -999.25  40.9280  -999.25  43.5194  -999.25  49.8982 -999.25 67.9488  14.3900 18.6898 0.9464 1.1322
    9499.0000  0.0000 -999.25   9.4668  -999.25  58.1864 -999.25   2.5901 -999.25  3.8856  -999.25  53.6247  -999.25  55.8447  -999.25  62.7512 -999.25 68.4677  14.7600 19.1493 0.9359 1.0948
    9499.5000  0.0000 -999.25   9.6329  -999.25  65.9577 -999.25   2.5882 -999.25  3.9270  -999.25  65.0850  -999.25  66.5003  -999.25  73.4770 -999.25 68.6379  14.8800 19.6361 0.9413 1.0686
    9500.0000  0.0000 -999.25   9.3311  -999.25  66.9129 -999.25   2.5926 -999.25  3.9374  -999.25  67.6739  -999.25  69.1804  -999.25  75.6198 -999.25 68.3703  14.6900 20.0673 0.9446 1.0568
    9500.5000  0.0000 -999.25   9.0864  -999.25  65.4155 -999.25   2.5966 -999.25  3.9148  -999.25  64.3978  -999.25  66.0638  -999.25  71.8060 -999.25 68.1350  14.5200 20.4712 0.9590 1.0581
    9501.0000  0.0000 -999.25   9.1865  -999.25  65.4121 -999.25   2.5963 -999.25  3.8783  -999.25  61.5894  -999.25  63.0336  -999.25  68.3628 -999.25 68.2074  14.5700 20.7463 0.9661 1.0663
    9501.5000  0.0000 -999.25   9.8461  -999.25  75.6733 -999.25   2.5886 -999.25  3.8986  -999.25  66.4559  -999.25  66.6062  -999.25  71.7415 -999.25 68.7964  14.9900 20.9185 0.9753 1.0741
    9502.0000  0.0000 -999.25  10.3245  -999.25  79.5847 -999.25   2.5833 -999.25  3.8774  -999.25  64.2207  -999.25  63.6584  -999.25  68.6869 -999.25 69.1857  15.2700 21.1894 0.9795 1.0756
    9502.5000  0.0000 -999.25  10.0551  -999.25  72.8703 -999.25   2.5874 -999.25  3.8213  -999.25  62.1773  -999.25  62.2682  -999.25  67.1980 -999.25 68.9412  15.0900 21.4236 0.9819 1.0740
    9503.0000  0.0000 -999.25   9.9744  -999.25  68.7171 -999.25   2.5894 -999.25  3.7681  -999.25  57.2925  -999.25  57.7184  -999.25  62.4271 -999.25 68.8492  15.0300 21.7279 0.9849 1.0674
    9503.5000  0.0000 -999.25   9.7028  -999.25  62.7377 -999.25   2.5936 -999.25  3.7159  -999.25  49.1114  -999.25  50.0281  -999.25  54.3750 -999.25 68.5869  14.8400 21.8411 0.9915 1.0625
    9504.0000  0.0000 -999.25  10.2177  -999.25  70.7000 -999.25   2.5875 -999.25  3.7323  -999.25  56.0382  -999.25  56.0694  -999.25  60.4024 -999.25 69.0366  15.1600 21.7322 0.9940 1.0572
    9504.5000  0.0000 -999.25  10.6077  -999.25  76.3971 -999.25   2.5827 -999.25  3.7486  -999.25  58.2596  -999.25  57.6100  -999.25  61.9496 -999.25 69.3620  15.3900 21.5385 0.9893 1.0542
    9505.0000  0.0000 -999.25  10.3025  -999.25  69.3856 -999.25   2.5867 -999.25  3.7100  -999.25  54.3523  -999.25  54.4581  -999.25  58.8816 -999.25 69.1003  15.2100 21.1106 0.9763 1.0544
    9505.5000  0.0000 -999.25  10.6231  -999.25  74.2003 -999.25   2.5821 -999.25  3.7428  -999.25  58.0812  -999.25  57.6225  -999.25  62.3179 -999.25 69.3794  15.4000 20.6124 0.9610 1.0569
    9506.0000  0.0000 -999.25  10.8309  -999.25  79.2802 -999.25   2.5783 -999.25  3.8035  -999.25  60.5352  -999.25  59.5559  -999.25  64.5673 -999.25 69.5700  15.5400 19.9590 0.9473 1.0579
    9506.5000  0.0000 -999.25  10.4750  -999.25  77.2492 -999.25   2.5815 -999.25  3.8468  -999.25  63.5221  -999.25  62.9722  -999.25  68.3091 -999.25 69.3038  15.3500 19.3466 0.9360 1.0523
    9507.0000  0.0000 -999.25   9.7854  -999.25  70.1904 -999.25   2.5888 -999.25  3.8783  -999.25  65.2770  -999.25  65.9497  -999.25  71.7406 -999.25 68.7419  14.9500 18.6484 0.9281 1.0433
    9507.5000  0.0000 -999.25  10.3928  -999.25  84.8088 -999.25   2.5790 -999.25  4.0124  -999.25  66.6577  -999.25  65.7287  -999.25  71.8188 -999.25 69.3024  15.3500 18.1854 0.9211 1.0344
    9508.0000  0.0000 -999.25   9.8452  -999.25  79.0205 -999.25   2.5844 -999.25  4.0466  -999.25  73.7926  -999.25  73.8378  -999.25  80.7278 -999.25 68.8708  15.0400 17.8418 0.9161 1.0318
    9508.5000  0.0000 -999.25   9.8660  -999.25  81.8655 -999.25   2.5829 -999.25  4.1027  -999.25  74.2008  -999.25  74.0331  -999.25  81.2419 -999.25 68.9134  15.0700 17.6719 0.9113 1.0339
    9509.0000  0.0000 -999.25   9.9365  -999.25  85.2497 -999.25   2.5810 -999.25  4.1523  -999.25  72.7202  -999.25  72.2476  -999.25  79.5855 -999.25 68.9928  15.1300 17.5682 0.9055 1.0344
    9509.5000  0.0000 -999.25   9.6023  -999.25  80.9902 -999.25   2.5849 -999.25  4.1500  -999.25  77.9194  -999.25  78.1881  -999.25  85.9287 -999.25 68.7113  14.9300 17.5060 0.9003 1.0312
    9510.0000  0.0000 -999.25   9.6676  -999.25  83.5404 -999.25   2.5837 -999.25  4.1766  -999.25  76.5205  -999.25  76.5400  -999.25  84.2429 -999.25 68.7779  14.9800 17.4034 0.8940 1.0239
    9510.5000  0.0000 -999.25   9.6677  -999.25  85.2278 -999.25   2.5834 -999.25  4.1979  -999.25  75.7093  -999.25  75.6482  -999.25  83.3094 -999.25 68.7859  14.9800 17.2666 0.8900 1.0160
    9511.0000  0.0000 -999.25   9.7241  -999.25  87.7386 -999.25   2.5823 -999.25  4.2247  -999.25  73.7198  -999.25  73.4466  -999.25  81.0391 -999.25 68.8436  15.0200 17.1302 0.8849 1.0096
    9511.5000  0.0000 -999.25   8.9753  -999.25  76.5333 -999.25   2.5917 -999.25  4.1880  -999.25  85.2670  -999.25  86.9362  -999.25  95.2614 -999.25 68.1751  14.5500 16.9360 0.8816 1.0048
    9512.0000  0.0000 -999.25   8.5520  -999.25  70.2417 -999.25   2.5969 -999.25  4.1713  -999.25  86.6828  -999.25  89.5044  -999.25  98.0549 -999.25 67.7727  14.2700 16.8303 0.8769 0.9988
    9512.5000  0.0000 -999.25   8.2218  -999.25  65.8695 -999.25   2.6007 -999.25  4.1694  -999.25  85.2029  -999.25  88.8310  -999.25  97.5116 -999.25 67.4518  14.0400 16.7525 0.8728 0.9926
