###############################################
##         ENVERUS                           ##
##         ESS - Open Hole                   ##
##         PERMIAN / DELAWARE                ##
##         Nov 02 2023  V4.0                 ##
##         42-109-32255-00-00                ##
###############################################
## Copyright 2017-2023  ENVERUS.  All Rights Reserved. 
## Confidential - Property of ENVERUS, use governed by terms and 
## conditions found within the existing Information Services Subscription Agreement 
## (as may be amended, the “ISSA”) between Customer and ENVERUS. 
## 
~VERSION INFORMATION
# MNEM.UNIT                               DATA : DESCRIPTION OF MNEMONIC
#-----.-----     ----------------------------- : -----------------------------
VERS.                                     2.00 : CWLS LOG ASCII STANDARD - VERSION 2.00
WRAP.                                       NO : MULTIPLE LINES PER DEPTH STEP
VEND.                                  ENVERUS : VENDOR
TYPE.                          ESS - OPEN HOLE : ENVERUS ESSENTIAL CURVES – ACCESSIBLE THROUGH ENVERUS PRISM(TM)
DOC.                                  22531479 : ENVERUS HEADER RAW DOCUMENT ID
#___________________________________________________________________________________________________ 
~WELL INFORMATION 
# hWe/832LbRsDOXT7erJRLf+k/AYA64twV/RtTeeHm/CkPExvlrAQ0qJE/El28xU0WYmlktkqeCNHArF5iUyCGg== 
# MNEM.UNIT                                              DATA : DESCRIPTION OF MNEMONIC 
#-----.-----                    ----------------------------- : ----------------------------- 
CNTY.                                               CULBERSON : COUNTY 
STATE.                                                  TEXAS : STATE 
CNTRY.                                                    USA : COUNTRY 
API.                                             42-109-32255 : API (10 Digit) 
API_14.                                    42-109-32255-00-00 : API (14 Digits) 
API_14_std.                                 42-109-32255-0000 : API (14 Digits Standard) 
UWI.                                           42109322550000 : UNIQUE WELL ID 
WELL.                               MELISSA TAYLOR STATE 27-1 : WELL NAME
STRT.FT                                                7612.0 : START DEPTH
STOP.FT                                               13645.5 : STOP DEPTH
STEP.FT                                                   0.5 : STEP BETWEEN DEPTHS
NULL.                                                 -999.25 : NULL VALUE
COMP.                                         PETRO-HUNT,LLC. : COMPANY 
FLD.                                                  WILDCAT : FIELD 
SRVC.                                            SCHLUMBERGER : SERVICE COMPANY 
DATE.                                              04/06/2006 : DATE 
TVD.                                                       NO : TVD FLAG
#___________________________________________________________________________________________________ 
~PARAMETER INFORMATION 
# MNEM.UNIT                                              DATA : DESCRIPTION OF MNEMONIC 
#-----.-----                    ----------------------------- : ----------------------------- 
RUN.                                                      ONE : RUN NUMBER 
PDAT.                                                      GL : PERMANENT DATUM 
EPD.FT                                               000.0000 : ELEVATION OF PERM. DATUM 
LMF.                                            KELLY BUSHING : LOG MEASURED FROM 
EKB.FT                                                 3796.6 : ELEVATION OF KELLY BUSHING 
DF.FT                                                  3773.0 : ELEVATION OF DERRICK FLOOR 
GL.FT                                                  3795.6 : ELEVATION OF GROUND LEVEL 
TD.FT                                              13716.0000 : TOTAL DEPTH 
BHT.DEGF                                               224.00 : BOTTOM HOLE TEMPERATURE 
BLI.FT                                             13716.0000 : BOTTOM LOG INTERVAL 
CSGSIZE.IN                                             9.6250 : CASING SIZE 
BITSIZE.IN                                              8.750 : BITSIZE 
CSGD.FT                                               12804.0 : CASING BOTTOM (DRILLER) 1 
CSGL.FT                                               12802.0 : CASING BOTTOM (LOGGER) 1 
MUD.                                                    BRINE : DRILLING FLUID TYPE 
MUDV.CP                                                  45.0 : DRILLING FLUID VISCOSITY 
MUDD.LB/USG                                               9.5 : DRILLING FLUID DENSITY 
PH.                                                      10.0 : DRILLING FLUID PH 
FL.ML/30MIN                                               5.0 : DRILLING FLUID LOSS 
MUDS.                                               CIRC TANK : MUD SAMPLE SOURCE 
RM.OHMM                                                 0.064 : RESISTIVITY OF MUD SAMPLE 
RMT.DEGF                                                66.00 : MUD SAMPLE TEMPERATURE 
RMF.OHMM                                                0.048 : MUD FILTRATE RESISTIVITY 
RMFT.DEGF                                               66.00 : MUD FILTRATE SAMPLE TEMPERATURE 
RMC.OHMM                                                0.095 : MUD CAKE RESISTIVITY 
RMCT.DEGF                                               66.00 : MUD CAKE SAMPLE TEMPERATURE 
RMB.OHMM                                                0.015 : MUD RESISTIVITY AT BHT 
TMAX.DEGF                                              224.00 : BOTTOM HOLE TEMPERATURE
#___________________________________________________________________________________________________ 
~CURVE INFORMATION 
# MNEM.UNIT           : CURVE DESCRIPTION 
#-----.-----          : ----------------------------- 
 DEPT.FT               : MEASURED DEPTH 
 DT__A.US/FT           : SONIC DELTA TRANSIT TIME (DELTA T COMP) 
 SPHI__A.V/V           : SONIC POROSITY (SONIC POROSITY) 
 #___________________________________________________________________________________________________ 
~A         DEPT          DT__A        SPHI__A
# ...
         8830.0         72.666        0.18000
         8830.5         71.988        0.17600
         8831.0         72.504        0.17400
         8831.5         73.021        0.18200
         8832.0         73.434        0.18400
         8832.5         73.744        0.18600
         8833.0         74.002        0.18700
         8833.5         74.518        0.19200
         8834.0         75.602        0.19500
         8834.5         75.884        0.19900
         8835.0         76.235        0.20300
         8835.5         76.265        0.20300
         8836.0         75.723        0.19800
         8836.5         75.072        0.19400
         8837.0         74.243        0.18900
         8837.5         73.411        0.18400
         8838.0         72.834        0.17800
         8838.5         73.481        0.18300
         8839.0         74.291        0.19000
         8839.5         75.104        0.19600
         8840.0         76.083        0.20100
         8840.5         75.998        0.20200
         8841.0         75.783        0.20000
         8841.5         75.568        0.19700
         8842.0         74.157        0.19500
         8842.5         72.048        0.17500
         8843.0         69.699        0.15400
         8843.5         68.831        0.14900
         8844.0         67.530        0.14200
         8844.5         67.892        0.14200
         8845.0         68.735        0.14900
         8845.5         70.353        0.16500
         8846.0         72.375        0.17900
         8846.5         74.398        0.19300
         8847.0         75.422        0.19800
         8847.5         76.446        0.20300
         8848.0         77.500        0.21000
         8848.5         78.976        0.21800
         8849.0         78.569        0.22200
         8849.5         77.892        0.21300
         8850.0         76.165        0.20100
         8850.5         74.438        0.19000
         8851.0         73.313        0.18100
         8851.5         73.313        0.18100
         8852.0         73.719        0.18600
         8852.5         75.359        0.19500
         8853.0         75.079        0.19400
         8853.5         74.160        0.18800
         8854.0         72.896        0.18300
         8854.5         71.513        0.17400
         8855.0         70.128        0.16100
         8855.5         68.741        0.14800
         8856.0         67.410        0.14100
         8856.5         68.048        0.14300
         8857.0         68.663        0.15600
         8857.5         70.205        0.16900
         8858.0         72.171        0.18300
         8858.5         74.137        0.19700
         8859.0         76.104        0.20200
         8859.5         76.332        0.20300
         8860.0         76.027        0.20100
         8860.5         75.892        0.19900
         8861.0         76.012        0.19900
         8861.5         76.429        0.20600
         8862.0         77.289        0.21100
         8862.5         78.150        0.21700
         8863.0         78.735        0.22000
         8863.5         78.967        0.22100
         8864.0         79.006        0.22200
         8864.5         79.047        0.22200
         8865.0         79.083        0.22000
         8865.5         77.550        0.21500
         8866.0         76.275        0.20500
         8866.5         75.000        0.19400
         8867.0         74.644        0.19000
         8867.5         74.166        0.18600
         8868.0         73.566        0.18200
         8868.5         72.965        0.17800
         8869.0         72.604        0.17300
         8869.5         72.602        0.18300
         8870.0         74.911        0.19400
         8870.5         77.173        0.20600
         8871.0         77.919        0.21400
         8871.5         78.614        0.21900
         8872.0         78.899        0.22100
         8872.5         79.168        0.22300
         8873.0         79.458        0.22400
         8873.5         78.656        0.22200
         8874.0         77.785        0.21700
         8874.5         75.993        0.21300
         8875.0         73.501        0.18700
         8875.5         71.009        0.16400
         8876.0         68.614        0.14900
         8876.5         68.040        0.14500
         8877.0         67.530        0.14300
         8877.5         67.737        0.14600
         8878.0         68.439        0.14900
         8878.5         69.141        0.15200
         8879.0         69.282        0.15300
         8879.5         68.957        0.15300
         8880.0         68.630        0.14700
         8880.5         68.303        0.14200
         8881.0         67.909        0.14300
         8881.5         67.668        0.14300
         8882.0         67.892        0.14400
         8882.5         67.728        0.14200
         8883.0         66.977        0.14000
         8883.5         66.238        0.13200
         8884.0         65.498        0.12600
         8884.5         64.759        0.12000
         8885.0         64.277        0.11900
         8885.5         64.618        0.12300
         8886.0         65.171        0.12700
         8886.5         65.723        0.12600
         8887.0         65.422        0.12500
         8887.5         65.120        0.12300
         8888.0         64.940        0.12200
         8888.5         64.839        0.12200
         8889.0         64.739        0.12200
         8889.5         64.639        0.12400
         8890.0         65.994        0.13100
         8890.5         66.948        0.13700
         8891.0         67.299        0.14100
         8891.5         67.651        0.14200
         8892.0         67.651        0.14200
         8892.5         67.651        0.14200
         8893.0         67.711        0.14300
         8893.5         67.771        0.14400
         8894.0         68.193        0.14700
         8894.5         68.614        0.14900
         8895.0         68.614        0.14500
         8895.5         68.012        0.14000
         8896.0         67.259        0.13300
         8896.5         66.847        0.13300
         8897.0         66.928        0.13900
         8897.5         67.702        0.14400
         8898.0         68.754        0.15000
         8898.5         68.435        0.15000
         8899.0         67.863        0.13500
         8899.5         65.378        0.12100
         8900.0         63.315        0.10300
         8900.5         61.753        0.09900
         8901.0         60.771        0.09300
         8901.5         60.661        0.09100
         8902.0         60.547        0.09000
         8902.5         60.663        0.09800
         8903.0         61.627        0.10400
         8903.5         62.590        0.11100
         8904.0         63.554        0.11800
         8904.5         64.518        0.12400
         8905.0         65.790        0.12900
         8905.5         67.062        0.13900
         8906.0         68.333        0.14800
         8906.5         69.277        0.15400
         8907.0         68.614        0.14800
         8907.5         67.209        0.13800
         8908.0         65.803        0.12800
         8908.5         64.398        0.11700
         8909.0         64.157        0.11900
         8909.5         65.547        0.12900
         8910.0         66.727        0.13800
         8910.5         67.884        0.14600
         8911.0         69.044        0.15500
         8911.5         70.204        0.16300
         8912.0         70.626        0.16500
         8912.5         68.579        0.14800
         8913.0         65.998        0.12800
         8913.5         63.416        0.10900
         8914.0         60.833        0.09000
         8914.5         58.108        0.07100
         8915.0         55.282        0.05200
         8915.5         52.460        0.03200
         8916.0         49.652        0.01300
         8916.5         47.311       -0.00100
