###############################################
##         ENVERUS                           ##
##         ESS - Open Hole                   ##
##         PERMIAN / DELAWARE                ##
##         Nov 03 2023  V4.0                 ##
##         42-109-32572-90-00                ##
###############################################
## Copyright 2017-2023  ENVERUS.  All Rights Reserved. 
## Confidential - Property of ENVERUS, use governed by terms and 
## conditions found within the existing Information Services Subscription Agreement 
## (as may be amended, the “ISSA”) between Customer and ENVERUS. 
## 
~VERSION INFORMATION
# MNEM.UNIT                               DATA : DESCRIPTION OF MNEMONIC
#-----.-----     ----------------------------- : -----------------------------
VERS.                                     2.00 : CWLS LOG ASCII STANDARD - VERSION 2.00
WRAP.                                       NO : MULTIPLE LINES PER DEPTH STEP
VEND.                                  ENVERUS : VENDOR
TYPE.                          ESS - OPEN HOLE : ENVERUS ESSENTIAL CURVES – ACCESSIBLE THROUGH ENVERUS PRISM(TM)
DOC.                                  51093467 : ENVERUS HEADER RAW DOCUMENT ID
#___________________________________________________________________________________________________ 
~WELL INFORMATION 
# 8gl1O6v4swiPFL4GH+dnL3Th7drW/gNnufiOMC39xBbatiyIUGjWQRxOO2UkOAKZqu0QrDKM70MxnzzovQmAYg== 
# MNEM.UNIT                                              DATA : DESCRIPTION OF MNEMONIC 
#-----.-----                    ----------------------------- : ----------------------------- 
CNTY.                                               CULBERSON : COUNTY 
STATE.                                                  TEXAS : STATE 
CNTRY.                                                    USA : COUNTRY 
API.                                             42-109-32572 : API (10 Digit) 
API_14.                                    42-109-32572-90-00 : API (14 Digits) 
API_14_std.                                 42-109-32572-9000 : API (14 Digits Standard) 
UWI.                                           42109325729000 : UNIQUE WELL ID 
WELL.                               42109325720000_PREV_API14 : WELL NAME
STRT.FT                                                2248.5 : START DEPTH
STOP.FT                                               10757.5 : STOP DEPTH
STEP.FT                                                   0.5 : STEP BETWEEN DEPTHS
NULL.                                                 -999.25 : NULL VALUE
PREV_APII.                                     42109325720000 : WELL IDENTIFIER
#___________________________________________________________________________________________________ 
~PARAMETER INFORMATION 
# MNEM.UNIT                                              DATA : DESCRIPTION OF MNEMONIC 
#-----.-----                    ----------------------------- : ----------------------------- 
EKB.FT                                                   3340 : ELEVATION ABOVE MSL
#___________________________________________________________________________________________________ 
~CURVE INFORMATION 
# MNEM.UNIT           : CURVE DESCRIPTION 
#-----.-----          : ----------------------------- 
 DEPT.FT               : MEASURED DEPTH 
 CALI.IN               : CALIPER (CAL - CALIPER) 
 GR.API                : GAMMA RAY (GAMMA RAY) 
 DT.US/FT              : SONIC DELTA TRANSIT TIME (SONIC) 
 #___________________________________________________________________________________________________ 
~A         DEPT           CALI             GR             DT
         2248.5          9.288       -999.250         62.795
         2249.0          9.288         14.284         67.487
         2249.5          9.366         13.312         56.912
         2250.0          9.463         12.333         54.884
         2250.5          9.542         13.493         49.845
         2251.0          9.601         14.671         49.785
         2251.5          9.601         15.648         50.135
         2252.0          9.601         15.656         50.137
         2252.5          9.601         15.069         50.368
         2253.0          9.601         14.296         50.878
         2253.5          9.581         13.491         51.367
         2254.0          9.581         14.560         51.191
         2254.5          9.601         14.886         50.320
         2255.0          9.601         14.286         49.781
         2255.5          9.601         14.090         50.948
         2256.0          9.601         13.911         51.016
         2256.5          9.601         13.699         51.191
         2257.0          9.601         13.876         50.787
         2257.5          9.601         14.286         51.124
         2258.0          9.601         14.286         51.191
         2258.5          9.620         14.677         50.482
         2259.0          9.620         12.530         51.478
         2259.5          9.620          7.591         52.001
         2260.0          9.620          6.715         52.611
         2260.5          9.620         16.764         51.649
         2261.0          9.620         27.123         50.291
         2261.5          9.601         28.169         51.073
         2262.0          9.581         25.895         52.548
         2262.5          9.542         23.761         51.083
         2263.0          9.542         29.691         50.020
         2263.5          9.268         43.628         74.205
         2264.0          9.232         50.308         84.717
         2264.5          9.151         65.513         73.949
         2265.0          9.112         77.264         78.054
         2265.5          9.131         95.270         71.885
         2266.0          9.131        101.630         69.425
         2266.5          9.131        103.660         67.057
         2267.0          9.131        106.810         68.348
         2267.5          9.131        107.418         66.964
         2268.0          9.131         99.444         64.649
         2268.5          9.131        122.558         69.045
         2269.0          9.151        145.359         67.610
         2269.5          9.151        160.991         71.029
         2270.0          9.151        162.726         69.933
         2270.5          9.151        151.922         65.305
         2271.0          9.151        136.849         69.400
         2271.5          9.151        119.721         69.323
         2272.0          9.151        114.268         68.763
         2272.5          9.151        104.552         66.500
         2273.0          9.151        103.470         66.527
         2273.5          9.151        113.300         69.704
         2274.0          9.151        119.010         69.828
         2274.5          9.151        132.499         69.515
         2275.0          9.170        114.099         71.658
         2275.5          9.170         98.675         71.294
         2276.0          9.170         96.663         70.823
         2276.5          9.170         96.673         69.139
         2277.0          9.170         96.478         68.359
         2277.5          9.151         98.018         68.927
         2278.0          9.151         99.022         67.580
         2278.5          9.131         98.694         69.395
         2279.0          9.131         98.370         71.155
         2279.5          9.131        108.572         71.241
         2280.0          9.131        114.065         70.994
         2280.5          9.131        126.964         75.136
         2281.0          9.151        127.984         70.799
         2281.5          9.151        116.630         72.251
         2282.0          9.151        111.812         73.960
         2282.5          9.151         93.867         70.790
         2283.0          9.151         88.209         67.604
         2283.5          9.151         96.026         66.265
         2284.0          9.151        101.521         70.015
         2284.5          9.151        101.838         69.026
         2285.0          9.163         78.763         64.457
         2285.5          9.170         50.313         59.987
         2286.0          9.170         49.608         56.436
         2286.5          9.176        113.349         60.425
         2287.0          9.249        182.729         66.519
         2287.5          9.299        244.078         76.161
         2288.0          9.386        228.863         80.267
         2288.5          9.386        164.183         78.820
         2289.0          9.542        115.466         75.437
         2289.5          9.553         96.560         68.378
         2290.0          9.590         93.562         67.218
         2290.5          9.581        113.830         65.897
         2291.0          9.542        158.423         74.100
         2291.5          9.542        216.703         78.549
         2292.0          9.542        209.149         79.161
         2292.5          9.542        151.002         77.165
         2293.0          9.620        118.044         74.934
         2293.5          9.620        100.750         72.021
         2294.0          9.620         95.595         71.934
         2294.5          9.640         91.487         71.641
         2295.0          9.650         87.965         71.641
         2295.5          9.660         88.892         71.801
         2296.0          9.660         91.876         72.254
         2296.5          9.660         93.191         73.574
         2297.0          9.660         95.984         72.402
         2297.5          9.660         95.994         72.559
         2298.0          9.660         95.016         74.702
         2298.5          9.660         94.822         72.011
         2299.0          9.660         95.001         72.370
         2299.5          9.660         96.262         72.689
         2300.0          9.660        100.815         73.132
         2300.5          9.668        105.511         73.885
         2301.0          9.699        107.600         72.721
         2301.5          9.727        101.454         74.160
         2302.0          9.766         97.960         73.924
         2302.5          9.797        102.557         73.083
         2303.0          9.805        112.059         73.667
         2303.5          9.836        112.579         75.788
         2304.0          9.844        110.565         76.621
         2304.5          9.875        101.026         77.816
         2305.0          9.914         97.060         78.394
         2305.5         10.000        103.531         78.767
         2306.0         10.039        101.907         78.731
         2306.5         10.071         92.649         79.417
         2307.0         10.063         89.041         78.676
         2307.5         10.071         90.874         78.206
         2308.0         10.071         91.851         80.451
         2308.5         10.051         91.712         82.633
         2309.0         10.031         90.998         81.347
         2309.5         10.031         89.170         81.810
         2310.0         10.031         88.584         83.733
         2310.5         10.051         80.596         83.174
         2311.0         10.045         73.447         81.803
         2311.5         10.031         58.994         79.568
         2312.0         10.031         55.700         77.399
         2312.5         10.031         54.262         67.680
         2313.0         10.031         57.390         63.163
         2313.5         10.031         62.887         69.549
         2314.0         10.031         66.028         71.371
