~VERSION INFORMATION
VERS. 2.0 : CWLS Log ASCII Standard - Version 2.0
WRAP. NO : One line per depth step
#--------------------------------------------------#
#----------------DRILLING INFO, INC.---------------#
#---------------WWW.DRILLINGINFO.COM---------------#
#------------------COPYRIGHT 2015------------------#
#--------------------------------------------------#
#THIS FILE MAY BE USED ONLY IN ACCORDANCE WITH A CURRENT SUBSCRIPTION AGREEMENT BETWEEN
#THE USER AND DRILLING INFO, INC. NO PART OF THIS FILE MAY BE REPRODUCED, USED, COPIED,
#MODIFIED, PROPAGATED, OR DISTRIBUTED EXCEPT IN ACCORDANCE WITH THE SUBSCRIPTION
#AGREEMENT. UNAUTHORIZED USE OR DISTRIBUTION OF ALL OR ANY PART OF THIS FILE MAY VIOLATE
#COPYRIGHT, TRADEMARK, AND/OR OTHER LAWS AND IS SUBJECT TO CIVIL AS WELL AS CRIMINAL
#SANCTIONS.
#--------------------------------------------------#
#THIS FILE IS PROVIDED "AS-IS" AND ALL WARRANTIES ARE EXPRESSLY DISCLAIMED, WHETHER
#EXPRESS, ORAL, IMPLIED, STATUTORY OR OTHERWISE, INCLUDING ANY IMPLIED WARRANTY OF FITNESS
#FOR A PARTICULAR PURPOSE, MERCHANTABILITY, TITLE OR NON-INFRINGEMENT, AND ANY WARRANTIES
#ARISING BY VIRTUE OF CUSTOM OF TRADE OR COURSE OF DEALING.  FURTHER, DRILLING INFO,
#INC. AND ITS LICENSORS DO NOT REPRESENT OR WARRANT THAT THIS FILE WILL MEET USER'S
#REQUIREMENTS OR ARE SUITABLE FOR USER'S NEEDS OR THAT THE DATA OR RESULTS PROVIDED IN
#CONJUNCTION THEREWITH ARE CORRECT, ACCURATE, TIMELY OR RELIABLE. THESE DISCLAIMERS SHALL
#APPLY REGARDLESS OF ANY FAILURE OF ESSENTIAL PURPOSE OF ANY LIMITED REMEDY.  SOME
#JURISDICTIONS DO NOT ALLOW THE EXCLUSION OF CERTAIN WARRANTIES SO SOME OF THE ABOVE
#EXCLUSIONS MAY NOT APPLY. IN NO EVENT SHALL DRILLING INFO, INC. OR ANY OF ITS AFFILIATES
#BE LIABLE UNDER ANY LEGAL THEORY, WHETHER IN TORT (INCLUDING WITHOUT LIMITATION
#NEGLIGENCE), CONTRACT, STRICT LIABILITY, STATUTORY OR OTHERWISE, FOR ANY SPECIAL,
#INCIDENTAL, CONSEQUENTIAL, EXEMPLARY, PUNITIVE OR INDIRECT DAMAGE OF ANY KIND, INCLUDING
#WITHOUT LIMITATION LOSS OF REVENUE, PROFITS, GOODWILL, USE, AND/OR DATA OR THE COST OF
#PROCUREMENT OF SUBSTITUTE GOODS OR SERVICES, EVEN IF APPRISED OF THE POSSIBILITY OF SUCH
#DAMAGES IN ADVANCE.
#--------------------------------------------------#
~WELL INFORMATION
#MNEMONIC     .UNIT              VALUE :DESCRIPTION
#--------------------------------------------------#
STRT       .ft                52.00000 :START DEPTH
STOP       .ft                8797.00000 :STOP DEPTH
STEP       .ft                0.50000 :STEP
NULL       .                -999.25000 :NULL VALUE
COMP       .                 :COMPANY
WELL       .                 :WELL
FLD       .                 :FIELD
LOC       .                 :LOCATION
CNTY       .                 :COUNTY
STAT       .                 :STATE
CTRY       .                 :COUNTRY
SRVC       .                 :SERVICE COMPANY
DATE       .                 :DATE
API       .                42109700290000 :API NUMBER
~CURVE INFORMATION
#MNEMONIC     .UNIT      API CODE :CURVE DESCRIPTION
#--------------------------------------------------#
DEPTH       .ft                      :Measured Depth
DT       .us/ft        UNKNOWN   :DT
GR       .gAPI        UNKNOWN   :GR
ILD       .ohmm        UNKNOWN   :ILD
ILS       .ohmm        UNKNOWN   :ILS
SP       .mV        UNKNOWN   :SP
~A    DEPTH    DT    GR    ILD    ILS    SP
# ...
6403.50000    64.88702    88.29746    643.61983    188.04655    -20.98779
6404.00000    64.78172    84.98389    561.68743    189.64151    -17.48454
6404.50000    64.67641    83.59414    527.12419    191.23646    -13.98128
6405.00000    64.57110    84.40571    637.31135    192.83142    -19.64223
6405.50000    64.46579    83.51306    593.91563    194.42637    -20.16975
6406.00000    64.01553    81.52247    547.79800    196.02133    -20.27728
6406.50000    63.53113    79.53188    501.68038    196.83919    -20.38481
6407.00000    63.04673    77.54130    455.56276    197.03475    -20.49233
6407.50000    62.56234    75.55071    409.44513    197.23031    -20.59986
6408.00000    62.23287    73.56012    375.17307    197.42587    -20.70739
6408.50000    62.01173    72.76108    400.47383    197.62142    -20.81492
6409.00000    61.79059    72.20288    425.77459    197.81698    -20.92245
6409.50000    61.84378    73.09170    451.07535    198.01254    -21.02998
6410.00000    62.44048    75.62609    527.32919    198.20810    -21.13751
6410.50000    63.03717    78.16047    450.13231    198.40366    -21.24504
6411.00000    63.63387    80.69486    460.76765    198.59921    -21.35257
6411.50000    64.23056    82.89161    471.40300    198.79477    -21.46009
6412.00000    64.82725    84.53115    482.03834    198.99033    -21.56762
6412.50000    65.25733    86.93358    478.07671    199.18589    -21.67515
6413.00000    65.30552    89.99122    471.22765    199.38145    -21.78268
6413.50000    65.35372    93.04886    745.95376    197.45377    -21.89021
6414.00000    65.40191    91.80652    701.21156    195.03876    -21.99774
6414.50000    65.45011    89.65674    656.46936    192.62375    -22.10527
6415.00000    65.49830    87.50697    586.02522    190.20874    -22.21280
6415.50000    65.14888    85.35720    505.65707    187.79373    -22.32033
6416.00000    64.73558    83.20742    425.28891    185.37872    -21.89799
6416.50000    64.32228    81.15106    344.92076    182.96371    -20.80640
6417.00000    63.90897    81.40286    308.26095    180.54870    -19.71481
6417.50000    63.49567    81.65467    280.68503    178.13369    -18.62322
6418.00000    63.08237    81.90647    261.62205    175.71868    -17.53162
6418.50000    62.93151    82.44582    267.93211    173.30367    -16.44003
6419.00000    63.22264    83.91523    274.24218    171.65335    -15.34844
6419.50000    63.51377    85.79907    280.55225    171.62657    -14.25685
6420.00000    63.80490    87.68291    286.86231    171.59980    -13.76153
6420.50000    64.09604    89.56675    293.17238    171.57302    -14.17670
6421.00000    64.38717    91.45059    299.48244    171.97080    -14.59187
6421.50000    64.67830    93.33443    309.22761    173.75247    -15.00705
6422.00000    64.96943    92.37970    333.03706    175.53413    -15.42222
6422.50000    65.08348    90.07359    356.84651    177.31580    -15.83739
6423.00000    65.13171    87.68111    380.65596    179.09746    -16.25257
6423.50000    65.17626    85.28862    542.69752    180.87913    -16.66774
6424.00000    64.76504    84.98412    606.87233    182.66079    -17.08291
6424.50000    64.35382    86.55408    557.01242    184.44245    -17.49809
6425.00000    64.11144    88.12404    507.15251    186.22412    -17.91326
6425.50000    64.25562    87.43459    509.23613    188.00578    -18.32843
6426.00000    64.39981    86.05368    559.68197    189.78745    -18.74361
6426.50000    64.19160    84.67277    610.12781    191.56911    -18.91735
6427.00000    63.72759    83.29186    660.57365    193.35078    -19.04857
6427.50000    63.26358    81.91095    711.01948    193.18113    -19.17979
6428.00000    62.92708    82.58037    725.72228    191.65976    -19.31101
6428.50000    62.84115    83.27483    689.85137    190.13840    -19.44224
6429.00000    62.75522    83.96929    653.98046    188.61703    -19.57345
6429.50000    62.66929    83.62327    583.93232    187.09566    -19.70468
6430.00000    63.26331    82.89384    366.08307    185.57429    -19.83590
6430.50000    63.04656    82.16441    326.94042    184.05292    -19.96712
6431.00000    62.80526    83.91159    313.95552    182.53155    -20.09834
6431.50000    62.56396    85.76556    300.97061    182.89885    -20.22956
6432.00000    62.32267    84.26863    288.37447    185.78244    -20.34885
6432.50000    62.08137    82.77170    297.89979    188.66602    -20.42218
6433.00000    62.11073    84.03395    309.35380    191.54961    -20.49550
6433.50000    62.62958    86.68300    340.14262    194.43319    -20.56883
6434.00000    63.44054    89.33205    370.93144    197.31678    -20.64215
6434.50000    64.21440    91.98111    447.09182    200.20036    -20.71548
6435.00000    64.98827    94.63016    563.30743    203.08395    -20.78880
6435.50000    65.69681    97.27921    679.52305    205.96753    -20.86212
6436.00000    65.57642    97.91467    753.63283    208.85112    -20.93545
6436.50000    65.45603    96.44300    754.51541    211.73471    -21.00877
6437.00000    65.01023    92.26033    755.39799    214.61829    -21.08210
6437.50000    63.98188    88.07766    756.28057    217.50188    -22.33325
6438.00000    62.95352    83.89500    757.16314    220.38546    -24.99642
6438.50000    61.92517    81.55793    758.04572    222.18724    -27.65960
6439.00000    61.55584    79.46794    701.38632    221.28846    -30.32277
6439.50000    61.61604    77.37794    604.01202    220.38967    -27.39786
6440.00000    61.67625    75.28794    506.63772    219.49088    -23.54753
6440.50000    61.57891    73.19795    481.94930    218.59210    -20.38454
6441.00000    61.17579    71.10795    457.74799    217.69331    -20.20698
6441.50000    60.77268    69.01796    433.54669    216.79452    -20.02942
6442.00000    60.36957    66.92796    409.34538    215.89574    -19.85187
6442.50000    59.96646    68.38088    385.14408    214.99695    -19.67430
6443.00000    60.09241    71.54191    360.94277    214.09816    -19.49674
6443.50000    60.93202    74.70295    336.74146    213.19937    -19.31918
6444.00000    61.97944    77.86398    333.96783    212.30059    -19.14162
6444.50000    63.02685    81.02502    388.46811    211.41799    -19.06741
6445.00000    64.03163    84.18606    442.96838    210.90798    -19.68752
6445.50000    64.41468    87.34709    437.03558    210.39797    -20.30763
6446.00000    64.79774    87.80799    407.24068    209.88796    -20.92774
6446.50000    64.91797    85.09590    377.44578    209.37794    -21.54785
6447.00000    64.50674    82.38381    347.65088    208.86793    -22.16797
6447.50000    64.09551    80.37132    321.82367    208.35792    -22.78808
6448.00000    63.68429    78.95346    310.68890    207.84791    -23.40819
6448.50000    63.27305    77.77896    299.55414    207.33789    -22.25614
6449.00000    62.86183    78.00892    288.41937    206.82788    -21.02723
6449.50000    63.18427    78.23888    277.28461    206.31787    -19.79832
6450.00000    63.56736    78.46884    271.17298    205.80786    -18.56941
6450.50000    63.95726    78.69880    267.05028    205.29784    -17.34050
6451.00000    64.37611    78.92876    262.92759    205.94345    -16.11159
6451.50000    64.79497    79.15872    258.80489    208.19200    -14.88268
6452.00000    65.21382    73.47722    255.07306    210.44056    -13.65377
6452.50000    65.09539    74.12485    252.70467    212.68911    -12.46324
6453.00000    64.92322    75.39495    250.33629    214.93767    -13.15139
6453.50000    64.75104    76.99970    247.96791    217.18623    -13.83955
6454.00000    64.76351    78.60445    245.59952    219.43478    -14.52770
6454.50000    66.23467    80.20920    295.40038    221.68334    -15.21585
6455.00000    66.52590    81.81395    364.50277    223.93190    -15.90400
6455.50000    66.81714    83.03695    433.60515    226.18045    -16.59215
6456.00000    67.10838    81.70573    485.69023    227.37399    -17.28030
6456.50000    67.25838    80.37450    523.00488    226.80996    -17.96846
6457.00000    66.77414    79.04327    560.31952    226.24594    -18.65661
6457.50000    66.28990    78.20274    597.63417    225.68191    -19.34476
