# Exported from Transform Software 5.2.0 on 30-Oct-2019 by user kathryn.gehrke
# DI Transform - A Product of Drillinginfo, Inc. - www.drillinginfo.com
#
~VERSION INFORMATION
 VERS.        2.0 : LAS ASCII STANDARD - VERSION 2.0
 WRAP.         NO : ONE LINE PER DEPTH STEP

~WELL INFORMATION
#MNEM.UNIT       DATA TYPE       INFORMATION
#---------       ---------       -----------
 STRT.ft                  40 : Start Depth
 STOP.ft                9358 : Stop Depth
 STEP.ft                 0.5 : Step Length
 NULL.               -999.25 : Null Value
 COMP.                       : Company
 WELL.  42109330610000_API14 : Well Name
 FLD.                        : Field Name
 LOC.                        : Well Location
 CNTY.                       : County
 STAT.                       : State or Province
 CTRY.                       : Country
 SRVC.                       : Service Company
 DATE.                       : Date
 API.         42109330610000 : Well Identifier

~CURVE INFORMATION
#MNEM.UNIT       API CODE       CURVE DESCRIPTION
#---------       --------       -----------------
 DEPT.ft        : <Measured Depth>
 DT.us/ft       : Sonic
 GR.gAPI        : Gamma Ray

~PARAMETER INFORMATION
#MNEM.UNIT       VALUE       DESCRIPTION
#---------       -----       -----------
 EKB.ft      3200.5 : Elevation above MSL

~A      DEPT          DT          GR
# ...
        6767    237.6514     25.0245
      6767.5    237.0741     22.2575
        6768    236.8499     23.5931
      6768.5    235.6952     27.9624
        6769    238.9015     34.2408
      6769.5    243.7111       43.86
        6770    244.2886     51.3148
      6770.5    240.3453     56.9532
        6771    236.0485     60.5195
      6771.5    236.2725      63.794
        6772    238.0997     65.8918
      6772.5    238.6774      63.047
        6773    237.8758     58.8924
      6773.5    237.8758     55.1777
        6774    237.8758     52.3584
      6774.5    237.8758     48.2038
        6775    237.8758     47.9221
      6775.5    237.8758      53.412
        6776    238.6774     61.1737
      6776.5    238.6774     66.8537
        6777    238.6774     66.7873
      6777.5    238.6774     63.2879
        6778     239.479     59.6807
      6778.5     239.479     58.7437
        6779     239.479     58.4369
      6779.5     239.479     57.3423
        6780    240.2806     51.9854
      6780.5     239.479     47.4163
        6781    237.8758      44.008
      6781.5    241.3053     46.5454
        6782    248.5649     48.8422
      6782.5    254.1308     52.2506
        6783    253.6849     47.3432
      6783.5    245.8468     35.6504
        6784    238.7439     30.3668
      6784.5    235.4709     32.8378
        6785    234.6693     31.1963
      6785.5    235.6937     27.1082
        6786    237.8758     25.9719
      6786.5    238.6774      26.519
        6787    238.6774     28.8156
      6787.5    238.6774      31.527
        6788    238.6774     33.4269
      6788.5     239.479     32.9881
        6789     239.479      31.984
      6789.5    238.6774      30.956
        6790    237.8758     31.2625
      6790.5    238.6774     35.3744
        6791    240.5028     41.7353
      6791.5    242.9076     44.8379
        6792    244.2886     41.0327
      6792.5    245.0902     34.4078
        6793    245.0902     30.6071
      6793.5    244.2886       34.61
        6794    242.6854     37.7555
      6794.5    241.0822     33.4036
        6795    240.2806     26.6275
      6795.5    240.2806      24.595
        6796    239.7008     26.2783
      6796.5     239.479      26.868
        6797     239.479     25.2505
      6797.5    240.2806     25.1846
        6798    240.2806     23.6101
      6798.5    240.2806     22.2989
        6799    241.0822     22.9773
      6799.5    241.0822     26.1694
        6800    241.0822     26.2124
      6800.5    241.0822     23.9165
        6801    241.0822     20.8561
      6801.5    241.0822     20.6814
        6802    241.8838     20.5066
      6802.5    241.8838     21.2938
        6803    241.0822     22.6052
      6803.5    241.0822     23.6985
        6804    240.2806     29.7774
      6804.5    241.0822     42.5449
        6805    241.0822      54.961
      6805.5    241.8838     56.0756
        6806    241.8838      49.998
      6806.5    241.0822     47.2435
        6807    241.0822      49.561
      6807.5    240.2806     54.0645
        6808    240.2806     57.3001
      6808.5    240.2806     58.8741
        6809    241.0822     60.3607
      6809.5    241.0822     58.3279
        6810    241.8838     50.1956
      6810.5    241.8838       44.62
        6811    241.8838      44.489
      6811.5    241.8838     43.2866
        6812    241.0822     42.8056
      6812.5    241.0822     42.5651
        6813    241.0822     41.2973
      6813.5    241.0822     41.0781
        6814    241.0822     43.5925
      6814.5    241.8838     42.1072
        6815    241.8838     37.4285
      6815.5    241.8838     33.6019
        6816    241.8838     32.2244
      6816.5    241.8838     30.4104
        6817    241.6638     29.8196
      6817.5    241.0822     29.0329
        6818    241.0822     28.6172
      6818.5    241.0822      28.923
        6819    241.0822     30.0601
      6819.5    241.0822     27.4594
        6820    241.0822     24.3332
      6820.5    241.0822     20.8566
        6821    240.2806     18.5823
      6821.5    240.2806     17.9708
        6822    240.5001     18.2766
      6822.5    241.0822     18.2766
        6823    240.2806     18.0361
      6823.5    240.2806     16.2471
        6824    240.2806     17.6855
      6824.5    240.2806     21.8589
        6825     239.479     26.1022
      6825.5     239.479     30.4058
        6826    240.2806     35.9619
      6826.5    240.2806     39.0881
        6827    241.0822     42.4548
      6827.5    241.0822     46.3025
        6828    240.2806     47.1343
      6828.5     239.479     45.8668
        6829    239.6979     45.9319
      6829.5    240.2806     48.8373
        6830    241.0822     56.1817
      6830.5    241.0822     58.4173
        6831    241.8838     48.7982
      6831.5    241.8838     42.4352
        6832    241.8838     42.4546
      6832.5    241.8838     45.5159
        6833    242.6854     46.3022
      6833.5    244.2886     50.1499
        6834    246.1103     55.5703
      6834.5    246.6934     59.2232
        6835    245.8918     57.0856
      6835.5    245.0902     51.5088
        6836    244.2886     49.7796
      6836.5     242.467     51.7683
        6837    241.0822     52.1655
      6837.5    240.2806     47.3099
        6838    240.2806     47.5692
      6838.5    240.2806     54.3026
        6839    240.2806     56.2539
      6839.5    240.2806     50.2881
        6840    240.2806     46.8938
      6840.5    240.2806     46.5238
        6841    240.2806     47.3285
      6841.5     239.479     51.6571
        6842    238.6774     55.5511
      6842.5     239.479     54.3951
        6843     239.479     53.9324
      6843.5     239.479     56.2261
        6844     239.479     55.4218
      6844.5    238.6774     51.3983
        6845    238.6774       50.02
      6845.5     239.479     51.0646
        6846     239.479     54.2733
      6846.5    237.8758     61.0355
        6847    237.8758     63.2465
      6847.5    237.0741     53.3512
        6848    237.0741     42.0487
      6848.5    236.8569     36.1835
        6849    236.2725     37.3567
      6849.5    237.8758     41.3803
        6850    238.6774     43.7675
      6850.5     239.479     41.1048
        6851     239.479     37.9315
      6851.5    238.6774     36.2308
        6852    238.6774     36.7936
      6852.5    238.0927     38.9579
        6853      244.43     40.0959
      6853.5    258.3824     38.0432
        6854    273.6127     37.8199
      6854.5    281.3791     38.5413
        6855    281.7472     39.4389
      6855.5     275.811      41.251
        6856    262.3356     43.1104
      6856.5    247.4302     43.4627
        6857    239.2624     39.3102
      6857.5    237.8758     34.6768
        6858    238.6774     30.5411
      6858.5    238.6774     31.3911
        6859    238.6774     32.8816
      6859.5    238.0921     30.5888
        6860    242.1001      25.715
      6860.5    248.9453     24.5933
        6861    256.5288     26.9981
      6861.5    256.0965     27.1743
        6862    248.2337     26.6934
      6862.5     238.754       27.96
        6863    234.8854     28.1363
      6863.5    235.6869     26.6934
        6864    237.8758     26.6934
      6864.5    238.6774     27.3026
        6865     239.479     27.8958
      6865.5    238.6774     27.8958
        6866    237.8758     24.6896
      6866.5    236.2725     19.7677
        6867    235.4709     18.7575
      6867.5     236.596     18.1485
        6868     247.155     16.0482
      6868.5    263.8807     15.8717
        6869    277.1845     16.1122
      6869.5    281.9639     15.6313
        6870    281.9639     16.6572
      6870.5    281.9639     19.1259
        6871     277.926     20.6814
      6871.5    266.6739     21.6433
        6872    252.3528     22.0603
      6872.5    243.2718     21.5154
        6873    241.8838     21.4667
      6873.5    242.6854     24.7846
        6874    242.6854     29.8347
      6874.5    242.6854     36.3276
        6875    241.8838     43.9591
