~VERSION INFORMATION
VERS. 2.0 : CWLS Log ASCII Standard - version 2.0
WRAP.  NO : One line per depth step
#--------------------------------------------------#
#----------------DRILLING INFO, INC.---------------#
#---------------WWW.DRILLINGINFO.COM---------------#
#------------------COPYRIGHT 2015------------------#
#--------------------------------------------------#
#THIS FILE MAY BE USED ONLY IN ACCORDANCE WITH A CURRENT SUBSCRIPTION AGREEMENT BETWEEN
#THE USER AND DRILLING INFO, INC. NO PART OF THIS FILE MAY BE REPRODUCED, USED, COPIED,
#MODIFIED, PROPAGATED, OR DISTRIBUTED EXCEPT IN ACCORDANCE WITH THE SUBSCRIPTION
#AGREEMENT. UNAUTHORIZED USE OR DISTRIBUTION OF ALL OR ANY PART OF THIS FILE MAY VIOLATE
#COPYRIGHT, TRADEMARK, AND/OR OTHER LAWS AND IS SUBJECT TO CIVIL AS WELL AS CRIMINAL
#SANCTIONS.
#--------------------------------------------------#
#THIS FILE IS PROVIDED "AS-IS" AND ALL WARRANTIES ARE EXPRESSLY DISCLAIMED, WHETHER
#EXPRESS, ORAL, IMPLIED, STATUTORY OR OTHERWISE, INCLUDING ANY IMPLIED WARRANTY OF FITNESS
#FOR A PARTICULAR PURPOSE, MERCHANTABILITY, TITLE OR NON-INFRINGEMENT, AND ANY WARRANTIES
#ARISING BY VIRTUE OF CUSTOM OF TRADE OR COURSE OF DEALING.  FURTHER, DRILLING INFO,
#INC. AND ITS LICENSORS DO NOT REPRESENT OR WARRANT THAT THIS FILE WILL MEET USER'S
#REQUIREMENTS OR ARE SUITABLE FOR USER'S NEEDS OR THAT THE DATA OR RESULTS PROVIDED IN
#CONJUNCTION THEREWITH ARE CORRECT, ACCURATE, TIMELY OR RELIABLE. THESE DISCLAIMERS SHALL
#APPLY REGARDLESS OF ANY FAILURE OF ESSENTIAL PURPOSE OF ANY LIMITED REMEDY.  SOME
#JURISDICTIONS DO NOT ALLOW THE EXCLUSION OF CERTAIN WARRANTIES SO SOME OF THE ABOVE
#EXCLUSIONS MAY NOT APPLY. IN NO EVENT SHALL DRILLING INFO, INC. OR ANY OF ITS AFFILIATES
#BE LIABLE UNDER ANY LEGAL THEORY, WHETHER IN TORT (INCLUDING WITHOUT LIMITATION
#NEGLIGENCE), CONTRACT, STRICT LIABILITY, STATUTORY OR OTHERWISE, FOR ANY SPECIAL,
#INCIDENTAL, CONSEQUENTIAL, EXEMPLARY, PUNITIVE OR INDIRECT DAMAGE OF ANY KIND, INCLUDING
#WITHOUT LIMITATION LOSS OF REVENUE, PROFITS, GOODWILL, USE, AND/OR DATA OR THE COST OF
#PROCUREMENT OF SUBSTITUTE GOODS OR SERVICES, EVEN IF APPRISED OF THE POSSIBILITY OF SUCH
#DAMAGES IN ADVANCE.
#--------------------------------------------------#
~WELL INFORMATION
#MNEMONIC     .UNIT              VALUE :DESCRIPTION
#--------------------------------------------------#
STRT       .FT                0 :START DEPTH
STOP       .FT                10142 :STOP DEPTH
STEP       .FT                   0.500 :STEP
NULL       .                  -999.250 :NULL
API        .                421093138200 :API NUMBER
COMP       .         SHELL OIL COMPANY :COMPANY
WELL       .        SIBLEY  1 :WELL
DATE       .                08-Aug-1978 :LOG DATE
~CURVE INFORMATION
#MNEMONIC     .UNIT      API CODE :CURVE DESCRIPTION
#--------------------------------------------------#
DEPTH       .FT                      :Measured Depth
CAL.INCH        UNKNOWN   :CAL
DT.US/FT        UNKNOWN   :DT
GR.API        UNKNOWN   :GR
~A    DEPTH    CAL    DT    GR
# ...
 5985.5     9.569   56.897   48.938
 5986     9.575   55.518   42.149
 5986.5     9.581   54.138   32.366
 5987     9.587   52.758   22.582
 5987.5     9.591   51.379   22.957
 5988     9.584   52.605   30.257
 5988.5     9.577   56.58   41.313
 5989     9.57   60.555   52.368
 5989.5     9.562   64.53   63.424
 5990     9.555   64.61   71.354
 5990.5     9.548   62.267   61.948
 5991     9.541   59.924   52.542
 5991.5     9.534   57.581   37.561
 5992     9.527   55.238   21.273
 5992.5     9.519   55.411   12.25
 5993     9.512   55.742   12.02
 5993.5     9.505   56.073   13.002
 5994     9.498   56.405   14.736
 5994.5     9.491   57.284   16.471
 5995     9.484   58.941   18.205
 5995.5     9.477   60.599   19.939
 5996     9.469   62.256   33.575
 5996.5     9.462   63.913   48.51
 5997     9.455   65.57   60.498
 5997.5     9.448   67.227   64.422
 5998     9.447   68.884   68.347
 5998.5     9.456   70.541   72.271
 5999     9.464   70.395   76.196
 5999.5     9.472   68.715   71.684
 6000     9.481   67.036   59.903
 6000.5     9.489   65.356   56.998
 6001     9.497   63.677   64.81
 6001.5     9.505   63.126   72.622
 6002     9.514   66.268   80.434
 6002.5     9.522   69.41   77.448
 6003     9.53   71.905   63.888
 6003.5     9.531   69.423   51.426
 6004     9.529   66.941   44.705
 6004.5     9.528   64.459   37.985
 6005     9.526   61.978   31.264
 6005.5     9.524   59.496   36.838
 6006     9.523   57.014   46.353
 6006.5     9.521   56.829   55.869
 6007     9.52   60.108   65.385
 6007.5     9.594   63.388   69.939
 6008     9.671   66.668   68.09
 6008.5     9.748   67.346   64.594
 6009     9.779   66.442   61.098
 6009.5     9.719   65.537   57.602
 6010     9.659   64.633   54.925
 6010.5     9.599   63.729   68.656
 6011     9.538   65.15   73.426
 6011.5     9.478   67.416   78.134
 6012     9.447   69.682   82.843
 6012.5     9.548   72.043   87.551
 6013     9.65   75.265   90.373
 6013.5     9.751   78.487   88.106
 6014     9.852   78.704   80.839
 6014.5     9.954   76.799   71.393
 6015     10.055   74.893   65.089
 6015.5     10.156   72.988   64.847
 6016     10.173   71.082   64.606
 6016.5     10.031   69.177   67.125
 6017     9.889   67.352   71.535
 6017.5     9.746   68.317   80.74
 6018     9.604   70.218   89.946
 6018.5     9.522   72.119   89.639
 6019     9.573   74.021   80.68
 6019.5     9.624   74.465   71.722
 6020     9.675   73.76   63.067
 6020.5     9.746   71.038   56.747
 6021     9.846   68.136   50.427
 6021.5     9.946   65.234   44.108
 6022     10.042   62.333   37.788
 6022.5     10.032   59.431   31.468
 6023     10.023   56.529   42.267
 6023.5     10.004   59.634   59.422
 6024     9.976   64.039   79.533
 6024.5     9.947   68.444   90.274
 6025     9.918   72.849   90.158
 6025.5     9.89   75.613   85.578
 6026     9.861   71.252   78.351
 6026.5     9.832   66.89   71.123
 6027     9.803   62.529   63.038
 6027.5     9.775   58.168   51.836
 6028     9.746   53.807   40.633
 6028.5     9.738   51.606   29.431
 6029     9.738   52.879   18.243
 6029.5     9.74   54.199   19.128
 6030     9.751   57.018   20.013
 6030.5     9.762   59.837   20.898
 6031     9.788   62.655   33.943
 6031.5     9.92   64.732   60.527
 6032     10.052   64.974   60.926
 6032.5     10.126   63.692   59.052
 6033     10.084   61.366   54.541
 6033.5     10.042   59.04   46.337
 6034     10   56.714   35.919
 6034.5     9.958   54.388   25.501
 6035     9.916   52.063   21.856
 6035.5     9.882   51.078   18.302
 6036     9.882   51.941   14.748
 6036.5     9.882   52.804   11.409
 6037     9.881   53.666   15.282
 6037.5     9.881   56.974   19.924
 6038     9.871   60.417   24.567
 6038.5     9.856   63.86   33.84
 6039     9.841   67.303   50.7
 6039.5     9.826   70.746   67.559
 6040     9.811   73.152   84.419
 6040.5     9.796   70.702   82.114
 6041     9.781   68.778   73.043
 6041.5     9.772   70.657   69.92
 6042     9.799   72.536   77.029
 6042.5     9.825   73.77   84.137
 6043     9.852   70.069   80.511
 6043.5     9.839   66.367   73.413
 6044     9.815   65.695   66.316
 6044.5     9.792   66.634   72.354
 6045     9.768   66.496   80.051
 6045.5     9.746   64.204   72.009
 6046     9.768   61.913   63.967
 6046.5     9.789   59.622   52.036
 6047     9.811   57.33   34.179
 6047.5     9.833   55.039   16.323
 6048     9.855   52.748   13.259
 6048.5     9.858   53.266   16.026
 6049     9.834   55.279   18.793
 6049.5     9.811   59.837   21.561
 6050     9.788   64.928   24.328
 6050.5     9.765   69.739   43.687
 6051     9.742   68.808   68.461
 6051.5     9.719   67.878   78.634
 6052     9.696   66.275   68.483
 6052.5     9.673   63.384   57.168
 6053     9.656   60.493   45.852
 6053.5     9.669   58.933   34.537
 6054     9.681   57.655   32.381
 6054.5     9.694   57.713   34.606
 6055     9.706   58.357   36.319
 6055.5     9.719   59.001   36.946
 6056     9.705   59.645   41.104
 6056.5     9.687   61.443   48.973
 6057     9.67   63.791   56.652
 6057.5     9.652   66.14   64.332
 6058     9.634   68.489   72.011
 6058.5     9.617   70.837   79.69
 6059     9.599   70.208   87.369
 6059.5     9.581   68.593   95.049
 6060     9.564   66.979   84.747
 6060.5     9.546   65.364   73.362
 6061     9.528   64.487   66.399
 6061.5     9.511   64.242   60.445
 6062     9.493   62.253   54.491
 6062.5     9.475   60.018   48.538
 6063     9.458   57.783   42.584
 6063.5     9.44   56.443   36.63
 6064     9.441   57.355   36.063
 6064.5     9.445   58.266   41.575
 6065     9.448   59.177   47.087
 6065.5     9.451   60.088   52.599
 6066     9.454   60.828   56.151
 6066.5     9.457   58.628   55.192
 6067     9.46   56.427   54.232
 6067.5     9.463   54.226   46.702
 6068     9.466   52.802   36.014
 6068.5     9.47   52.257   25.326
 6069     9.481   51.712   18.873
 6069.5     9.5   51.167   17.28
 6070     9.519   50.727   16.281
 6070.5     9.537   51.217   16.352
 6071     9.556   51.707   16.424
 6071.5     9.575   52.197   19.008
 6072     9.594   52.687   24.449
 6072.5     9.612   53.177   28.874
 6073     9.631   52.672   26.823
 6073.5     9.65   52.124   24.772
 6074     9.668   52.246   22.721
 6074.5     9.687   54.615   27.906
 6075     9.706   56.984   36.097
 6075.5     9.724   59.352   44.288
 6076     9.727   60.121   52.479
 6076.5     9.691   59.255   56.23
 6077     9.654   58.39   50.297
 6077.5     9.618   57.524   44.364
 6078     9.581   56.659   41.665
 6078.5     9.545   55.793   40.619
 6079     9.508   54.927   39.574
 6079.5     9.509   54.062   38.528
 6080     9.517   53.196   37.483
 6080.5     9.53   52.33   35.98
 6081     9.675   51.465   31.606
 6081.5     9.82   50.763   27.233
 6082     9.965   50.807   22.86
 6082.5     10.11   50.852   19.146
 6083     10.255   50.897   19.036
 6083.5     10.363   50.941   18.926
 6084     10.304   50.986   18.816
 6084.5     10.245   51.023   18.706
 6085     10.186   50.673   18.596
 6085.5     10.127   50.323   18.486
 6086     10.068   49.973   18.376
 6086.5     10.023   50.047   18.266
 6087     10.012   50.662   18.82
 6087.5     10.001   51.538   20.078
 6088     9.99   52.05   21.337
 6088.5     9.979   51.51   22.596
 6089     9.968   50.969   22.416
 6089.5     9.95   50.429   21.924
 6090     9.883   58.332   21.432
 6090.5     9.816   65.081   31.447
 6091     9.75   67.767   57.042
 6091.5     9.73   70.454   70.334
 6092     9.725   69.923   77.767
 6092.5     9.719   68.053   76.97
 6093     9.714   66.183   74.956
 6093.5     9.717   64.314   72.942
 6094     9.727   62.407   70.927
 6094.5     9.737   59.786   65.886
 6095     9.747   57.165   56.097
 6095.5     9.756   54.544   46.309
 6096     9.766   52.235   36.52
 6096.5     9.784   55.631   26.731
 6097     9.803   59.027   23.011
 6097.5     9.821   62.423   36.014
 6098     9.846   65.429   49.017
 6098.5     9.886   64.189   62.02
 6099     9.926   61.685   75.022
 6099.5     9.966   57.885   54.012
 6100     10.006   54.084   42.066
