~VERSION INFORMATION
VERS. 2.0 : CWLS Log ASCII Standard - Version 2.0
WRAP. NO : One line per depth step
#--------------------------------------------------#
#----------------DRILLING INFO, INC.---------------#
#---------------WWW.DRILLINGINFO.COM---------------#
#------------------COPYRIGHT 2015------------------#
#--------------------------------------------------#
#THIS FILE MAY BE USED ONLY IN ACCORDANCE WITH A CURRENT SUBSCRIPTION AGREEMENT BETWEEN
#THE USER AND DRILLING INFO, INC. NO PART OF THIS FILE MAY BE REPRODUCED, USED, COPIED,
#MODIFIED, PROPAGATED, OR DISTRIBUTED EXCEPT IN ACCORDANCE WITH THE SUBSCRIPTION
#AGREEMENT. UNAUTHORIZED USE OR DISTRIBUTION OF ALL OR ANY PART OF THIS FILE MAY VIOLATE
#COPYRIGHT, TRADEMARK, AND/OR OTHER LAWS AND IS SUBJECT TO CIVIL AS WELL AS CRIMINAL
#SANCTIONS.
#--------------------------------------------------#
#THIS FILE IS PROVIDED "AS-IS" AND ALL WARRANTIES ARE EXPRESSLY DISCLAIMED, WHETHER
#EXPRESS, ORAL, IMPLIED, STATUTORY OR OTHERWISE, INCLUDING ANY IMPLIED WARRANTY OF FITNESS
#FOR A PARTICULAR PURPOSE, MERCHANTABILITY, TITLE OR NON-INFRINGEMENT, AND ANY WARRANTIES
#ARISING BY VIRTUE OF CUSTOM OF TRADE OR COURSE OF DEALING.  FURTHER, DRILLING INFO,
#INC. AND ITS LICENSORS DO NOT REPRESENT OR WARRANT THAT THIS FILE WILL MEET USER'S
#REQUIREMENTS OR ARE SUITABLE FOR USER'S NEEDS OR THAT THE DATA OR RESULTS PROVIDED IN
#CONJUNCTION THEREWITH ARE CORRECT, ACCURATE, TIMELY OR RELIABLE. THESE DISCLAIMERS SHALL
#APPLY REGARDLESS OF ANY FAILURE OF ESSENTIAL PURPOSE OF ANY LIMITED REMEDY.  SOME
#JURISDICTIONS DO NOT ALLOW THE EXCLUSION OF CERTAIN WARRANTIES SO SOME OF THE ABOVE
#EXCLUSIONS MAY NOT APPLY. IN NO EVENT SHALL DRILLING INFO, INC. OR ANY OF ITS AFFILIATES
#BE LIABLE UNDER ANY LEGAL THEORY, WHETHER IN TORT (INCLUDING WITHOUT LIMITATION
#NEGLIGENCE), CONTRACT, STRICT LIABILITY, STATUTORY OR OTHERWISE, FOR ANY SPECIAL,
#INCIDENTAL, CONSEQUENTIAL, EXEMPLARY, PUNITIVE OR INDIRECT DAMAGE OF ANY KIND, INCLUDING
#WITHOUT LIMITATION LOSS OF REVENUE, PROFITS, GOODWILL, USE, AND/OR DATA OR THE COST OF
#PROCUREMENT OF SUBSTITUTE GOODS OR SERVICES, EVEN IF APPRISED OF THE POSSIBILITY OF SUCH
#DAMAGES IN ADVANCE.
#--------------------------------------------------#
~WELL INFORMATION
#MNEMONIC     .UNIT              VALUE :DESCRIPTION
#--------------------------------------------------#
STRT       .ft                52.00000 :START DEPTH
STOP       .ft                8797.00000 :STOP DEPTH
STEP       .ft                0.50000 :STEP
NULL       .                -999.25000 :NULL VALUE
COMP       .                 :COMPANY
WELL       .                 :WELL
FLD       .                 :FIELD
LOC       .                 :LOCATION
CNTY       .                 :COUNTY
STAT       .                 :STATE
CTRY       .                 :COUNTRY
SRVC       .                 :SERVICE COMPANY
DATE       .                 :DATE
API       .                42109700290000 :API NUMBER
~CURVE INFORMATION
#MNEMONIC     .UNIT      API CODE :CURVE DESCRIPTION
#--------------------------------------------------#
DEPTH       .ft                      :Measured Depth
DT       .us/ft        UNKNOWN   :DT
GR       .gAPI        UNKNOWN   :GR
ILD       .ohmm        UNKNOWN   :ILD
ILS       .ohmm        UNKNOWN   :ILS
SP       .mV        UNKNOWN   :SP
~A    DEPTH    DT    GR    ILD    ILS    SP
# ...
7004.00000    65.61801    49.41344    147.89426    90.56983    -86.56072
7004.50000    64.62091    49.66482    147.86207    89.71158    -87.02562
7005.00000    63.78894    47.32903    143.13819    87.98585    -87.49051
7005.50000    65.53009    45.33603    126.54252    86.26012    -87.95541
7006.00000    64.91567    43.34303    109.94684    84.53438    -88.42030
7006.50000    64.23159    41.35002    99.33512    82.80865    -88.88520
7007.00000    63.54751    40.98457    97.67555    81.50788    -89.35010
7007.50000    62.86343    41.29744    96.01598    81.30142    -89.81499
7008.00000    61.83276    41.61031    94.35641    81.15963    -90.27989
7008.50000    61.03140    41.92318    94.14266    82.35618    -90.74478
7009.00000    61.42968    41.13238    97.48436    83.55273    -91.20968
7009.50000    61.84702    39.86748    99.92708    84.74928    -91.67458
7010.00000    62.48753    38.60257    104.68590    85.94583    -92.13947
7010.50000    63.12804    39.48385    110.10105    87.14238    -92.60437
7011.00000    62.53585    40.59606    115.51619    88.14912    -92.93312
7011.50000    61.85529    41.70826    120.93134    87.35513    -92.35367
7012.00000    61.17472    42.82047    126.34648    86.56114    -91.77423
7012.50000    60.49416    41.23989    131.76163    85.76715    -91.19478
7013.00000    59.81359    39.61841    137.17677    84.97316    -90.61533
7013.50000    59.32637    37.99692    137.87460    84.17917    -90.03589
7014.00000    59.72474    36.37544    135.27587    83.49848    -89.45644
7014.50000    60.18598    35.54947    132.67713    83.49555    -88.87699
7015.00000    62.08894    36.81454    130.07840    83.57415    -88.29754
7015.50000    63.99190    38.07961    127.47967    83.85692    -87.71810
7016.00000    65.89486    39.34469    129.03541    84.13970    -87.13865
7016.50000    67.79782    40.60976    135.53298    84.42247    -86.55920
7017.00000    69.39527    41.52275    142.03055    84.26318    -85.97976
7017.50000    68.91782    42.41349    146.33021    83.76463    -85.40031
7018.00000    68.44038    43.30423    143.28679    83.26608    -84.82086
7018.50000    67.96294    44.19497    140.24338    82.76753    -84.24142
7019.00000    67.67734    45.34924    137.19997    82.26897    -83.66197
7019.50000    67.63712    46.50384    134.15656    82.11753    -83.08252
7020.00000    66.21882    47.65844    131.11315    82.59030    -82.50307
7020.50000    64.55655    47.70679    128.06974    83.16649    -82.04406
7021.00000    62.89427    47.70283    125.02633    84.47758    -82.04847
7021.50000    61.23199    47.69886    121.98292    85.78867    -82.05289
7022.00000    60.22870    47.69490    118.93951    87.09976    -82.05729
7022.50000    59.47717    45.60757    125.55168    88.41085    -82.06171
7023.00000    58.98471    43.32019    138.30107    89.72194    -82.06612
7023.50000    60.42662    41.03281    151.05045    91.03303    -82.07053
7024.00000    61.86853    38.74543    163.79984    92.34412    -82.07494
7024.50000    63.31044    39.44923    175.08630    93.65521    -82.07935
7025.00000    64.75235    42.25153    169.39598    93.58383    -82.08376
7025.50000    65.93501    45.05383    163.70566    92.46714    -82.08817
7026.00000    66.19949    47.85612    158.01534    91.35045    -82.09258
7026.50000    66.46397    50.64257    152.32502    90.23377    -82.09699
7027.00000    66.72845    52.22553    146.63470    89.68887    -82.10140
7027.50000    67.45518    53.80849    144.62714    89.76768    -82.10581
7028.00000    68.64333    54.06337    142.77156    89.84649    -82.11022
7028.50000    69.15925    52.59246    140.91599    89.92530    -82.11463
7029.00000    68.44454    51.12155    139.06041    90.00411    -82.11904
7029.50000    67.36404    49.65064    137.20483    90.08293    -82.12345
7030.00000    65.19916    48.17974    137.09481    90.28122    -82.12786
7030.50000    63.42180    46.70883    144.76944    90.49323    -82.03998
7031.00000    63.19238    45.23792    152.44407    90.70525    -81.83960
7031.50000    62.96296    43.76702    160.11869    90.91726    -81.63922
7032.00000    62.73355    42.73979    167.79332    91.12928    -81.43883
7032.50000    63.36305    42.17742    175.46795    91.34129    -81.23845
7033.00000    64.81429    46.35445    177.14945    91.55331    -81.03807
7033.50000    66.26553    50.53148    168.88425    90.26912    -80.83768
7034.00000    67.71677    54.70851    160.61905    88.67784    -80.63730
7034.50000    68.83126    56.46054    152.35386    87.08657    -80.43692
7035.00000    68.46000    55.51205    144.08866    85.91702    -80.23654
7035.50000    68.08873    54.56357    135.82347    85.19977    -80.03615
7036.00000    67.71747    53.61508    127.55827    84.48252    -79.83577
7036.50000    67.37417    52.66659    125.90409    83.76527    -79.63539
7037.00000    67.05924    52.34299    124.37998    83.04802    -79.43501
7037.50000    66.74429    52.97889    122.85586    82.33078    -79.23462
7038.00000    66.42935    53.27023    121.33175    81.61353    -79.03424
7038.50000    66.11441    52.08638    119.80764    80.89628    -78.83386
7039.00000    65.79947    50.90253    118.28353    80.17903    -78.63348
7039.50000    65.56713    49.71869    116.75942    79.83932    -78.43309
7040.00000    65.36971    48.54128    118.32130    79.80501    -78.23271
7040.50000    65.12828    48.85426    120.15147    79.77070    -78.03233
7041.00000    64.26620    49.16725    121.98164    79.73639    -77.83195
7041.50000    63.40413    49.48023    123.81180    79.70208    -77.63156
7042.00000    62.54206    48.98611    125.64197    80.49926    -77.43118
7042.50000    61.67998    47.47985    127.47214    81.62698    -77.23080
7043.00000    64.84198    46.17378    129.30231    82.75468    -77.11578
7043.50000    67.78005    46.75540    133.01784    83.88240    -77.22840
7044.00000    68.27235    47.33702    137.07028    85.01011    -77.34101
7044.50000    69.08662    47.18927    141.12272    85.26391    -77.45362
7045.00000    70.50077    46.13314    145.17515    85.39723    -77.56623
7045.50000    69.41902    45.07700    147.16206    85.53055    -77.67884
7046.00000    68.33727    44.02086    145.07824    85.66388    -77.79146
7046.50000    67.25552    42.96473    142.99443    85.72091    -77.90407
7047.00000    66.17378    42.57658    140.91061    85.66996    -78.01668
7047.50000    65.09203    43.36560    138.82680    85.61900    -78.12929
7048.00000    65.93493    42.32531    136.74298    85.56805    -78.24191
7048.50000    67.26983    41.28503    134.65917    85.51709    -78.35452
7049.00000    68.35480    47.46298    132.57535    85.46614    -78.46713
7049.50000    67.22440    53.33239    130.49154    85.38526    -78.57974
7050.00000    66.09399    51.63503    129.35568    85.00431    -78.69235
7050.50000    64.96359    49.93767    129.95297    84.62337    -78.80497
7051.00000    67.31134    48.24031    130.55026    84.24242    -78.91758
7051.50000    67.65934    46.59786    131.14755    83.86147    -79.03019
7052.00000    68.00734    46.19465    131.74484    83.48053    -79.14280
7052.50000    68.35534    45.79144    132.34213    83.09958    -79.25542
7053.00000    68.70334    45.38823    132.93942    82.71863    -79.36803
7053.50000    69.05134    46.48772    133.53671    82.33768    -79.48064
7054.00000    68.33539    47.82937    134.13400    81.95674    -79.59325
7054.50000    66.84918    49.17101    103.52644    81.56552    -79.70586
7055.00000    65.36297    47.83739    97.29049    80.96257    -79.81848
7055.50000    63.87676    45.77616    94.22834    80.35962    -79.93109
7056.00000    62.39055    44.19813    91.37515    79.75667    -80.04370
7056.50000    60.90433    42.62009    89.29518    79.15372    -80.15631
7057.00000    61.49189    41.26875    87.21521    78.55077    -80.26892
7057.50000    62.28381    41.82323    85.30781    77.94782    -80.38154
7058.00000    61.58177    41.90693    87.22277    78.04439    -80.49415
7058.50000    60.41279    41.06690    89.13774    78.41572    -80.60676
