#   WellGreen Tech Inc.   Digitizing Services
#   www.wellgreentech.com
#   email: sales@wellgreentech.com
#
~Version Information Block
 VERS.                2.00:     CWLS LOG ASCII STANDARD - VERSION 2.000000
 WRAP.                  NO:     One Line Per Depth Step
#
~Well Information Block
#MNEM.UNIT                     Data                         Information
#----------   ------------------------------------------   ----------------
 STRT.FT                                      400.0000:     START DEPTH
 STOP.FT                                    10100.0000:     STOP DEPTH
 STEP.FT                                        0.5000:     STEP
 NULL.                                       -999.2500:     NULL VALUE
 COMP.                       ENRON OIL AND GAS COMPANY:     COMPANY
 WELL.                                   TXL "1" NO. 1:     WELL
 FLD .                                         WILDCAT:     FIELD
 LOC .                                              63:     LOCATION
 CNTY.                                       CULBERSON:     COUNTY
 STAT.                                           TEXAS:     STATE
 CTRY.                                             USA:     COUNTRY
 SRVC.                                    SCHLUMBERGER:     SERVICE COMPANY
 DATE.                                      06/28/1989:     DATE
 API .               42109320330000:    API NUMBER
 UWI .               42109320330000:    UWI NUMBER
 TVD .                                              NO:     TVD flag
 MATRIX .G/CC                  :    Matrix Density
#
~Curve Information Block
#MNEM.UNIT       API CODE      Curve Description
#----------    -------------   -------------------
 DEPT.FT                   :   Depth in Feet
 GR  .API      35 310 01 01:   Gamma Ray
 CALI.INCHES   70 280 01 01:   Caliper
 DT  .US/FT    60 520 08 01:   Delta T
 SPHI.V/V      61 890 01 01:   Sonic Porosity
#
~Parameter Information Block
#MNEM.UNIT            Value               Description
#----------    --------------------    -------------------
 RUN .                         ONE:    Run Number
 PDAT.                          GL:    Permanent Datum
 EPD .FT                 3890.3000:    Elevation Of Perm. Datum
 LMF .               KELLY BUSHING:    Log Measured From
 EKB .FT                 3905.1000:    Elevation Of Kelly Bushing
 DF .FT                  3904.1000:    Elevation Of Derrick Floor
 GL .FT                  3890.3000:    Elevation Of Ground Level
 TD .FT                  10100.0000:    Total Depth
 BHT .DEGF               193.00 :  Bottom Hole Temperature
 BLI .FT               10100.0000:   Bottom Log Interval
 CSGSIZE.IN              9.6250:   Casing Size
 BITSIZE.IN               8.750 :  BitSize
 CSGD.FT                      405:    Casing Bottom (Driller) 1
 CSGL.FT                      405:    Casing Bottom (Logger) 1
 MUD .                      SW GEL:    Drilling Fluid Type
 MUDV .CP                  34.0000:    Drilling Fluid Viscosity
 MUDD .LB/USG               9.1000:    Drilling Fluid Density
 FL .ML/30MIN               8.0000:    Drilling Fluid Loss
 PH.                       10.0000:    Drilling Fluid Ph
 MUDS .                  CIRC TANK:    Mud Sample Source
 RM .OHMM                   0.1720:    Resistivity Of Mud Sample
 RMT .DEGF                 75.0000:    Mud Sample Temperature
 RMF .OHMM                  0.1720:    Mud Filtrate Resistivity
 RMFT.DEGF                 75.0000:    Mud Filtrate Sample Temperature
 RMB .OHMM                  0.0710:    Mud Resistivity At Bht
 TMAX .DEGF               193.0000:    Bottom Hole Temperature
#
~Other Information Block
<DescLogPlotStart>   NEURALOG PLOT DEFINITION
PLOTDEFVERSION: 3
LASFILE: D:\nds\projects\20MAY19H\las\42109320330000_BEG_RAS_RS0022815370.las
DEPTHSCALE: 240.000000
RESOLUTION: 400
DEPTHLABELFREQ: 100.000000
HEAVYGRIDFREQ: 100.000000
MEDIUMGRIDFREQ: 50.000000
LIGHTGRIDFREQ: 10.000000
#
#   TRACK 1
#
STARTTRACK: 
 LEFTX: 0.500000 inch
 RIGHTX: 3.000000 inch
 SCALETYPE: Linear
 NUMCHARTDIVISIONS: 10
CURVE: GR    0.000000   125.000000 (0,0,255)      Solid             2     Y    
BACKUP: 125.000000 250.000000 (0,0,255)      Solid             2    
ENDTRACK: 
#
#   TRACK 2
#
STARTTRACK: 
 LEFTX: 0.500000 inch
 RIGHTX: 3.000000 inch
 SCALETYPE: Linear
 NUMCHARTDIVISIONS: 10
CURVE: CALI  6.000000   16.000000  (0,131,131)    Solid             2     N    
ENDTRACK: 
#
#   TRACK 3
#
STARTTRACK: 
 LEFTX: 3.500000 inch
 RIGHTX: 8.500000 inch
 SCALETYPE: Linear
 NUMCHARTDIVISIONS: 10
CURVE: DT    100.000000 40.000000  (255,0,255)    Solid             2     Y    
BACKUP: 160.000000 100.000000 (255,0,255)    Solid             2    
CURVE: SPHI  0.300000   -0.100000  (255,0,0)      Dot               2     Y    
BACKUP: 0.700000   0.300000   (255,0,0)      Dot               2    
BACKUP: -0.100000  -0.500000  (255,0,0)      Dot               2    
ENDTRACK: 
<DescLogPlotEnd>
~A DEPTH     GR               CALI             DT               SPHI            
# ...
    4904.500 28.70            9.30             55.08            0.09            
    4905.000 24.47            9.30             56.70            0.10            
    4905.500 23.04            9.30             57.11            0.10            
    4906.000 23.29            9.30             56.38            0.10            
    4906.500 23.59            9.29             55.21            0.08            
    4907.000 22.41            9.29             54.03            0.07            
    4907.500 20.92            9.29             53.81            0.07            
    4908.000 19.81            9.29             54.23            0.08            
    4908.500 19.81            9.29             54.72            0.08            
    4909.000 19.62            9.29             54.78            0.08            
    4909.500 18.56            9.29             54.63            0.08            
    4910.000 17.52            9.29             53.85            0.07            
    4910.500 17.13            9.29             52.56            0.06            
    4911.000 17.85            9.29             52.05            0.05            
    4911.500 19.31            9.29             52.08            0.05            
    4912.000 20.76            9.29             52.21            0.06            
    4912.500 22.25            9.29             52.64            0.06            
    4913.000 21.70            9.29             53.15            0.07            
    4913.500 20.89            9.28             53.22            0.07            
    4914.000 20.36            9.28             53.01            0.06            
    4914.500 20.64            9.28             52.53            0.06            
    4915.000 22.07            9.28             51.81            0.05            
    4915.500 24.25            9.28             51.73            0.05            
    4916.000 25.89            9.28             52.25            0.06            
    4916.500 25.41            9.28             52.79            0.06            
    4917.000 24.42            9.28             53.34            0.07            
    4917.500 24.03            9.28             53.18            0.07            
    4918.000 26.09            9.29             52.79            0.06            
    4918.500 28.14            9.29             52.80            0.06            
    4919.000 30.19            9.29             53.27            0.07            
    4919.500 29.87            9.29             53.87            0.07            
    4920.000 27.93            9.29             54.48            0.08            
    4920.500 25.76            9.29             54.34            0.08            
    4921.000 24.13            9.29             53.80            0.07            
    4921.500 23.21            9.29             53.27            0.07            
    4922.000 22.65            9.29             53.01            0.06            
    4922.500 22.58            9.29             52.87            0.06            
    4923.000 23.73            9.29             52.95            0.06            
    4923.500 25.08            9.30             53.59            0.07            
    4924.000 25.59            9.32             54.21            0.08            
    4924.500 24.44            9.33             54.48            0.08            
    4925.000 22.36            9.35             54.06            0.08            
    4925.500 20.66            9.37             53.15            0.06            
    4926.000 20.68            9.38             52.12            0.05            
    4926.500 22.18            9.40             51.86            0.05            
    4927.000 24.01            9.42             51.76            0.05            
    4927.500 24.83            9.43             52.21            0.06            
    4928.000 24.90            9.43             52.95            0.06            
    4928.500 23.69            9.43             53.67            0.07            
    4929.000 22.49            9.43             53.61            0.07            
    4929.500 21.62            9.44             53.18            0.07            
    4930.000 21.22            9.44             52.76            0.06            
    4930.500 20.83            9.44             52.56            0.06            
    4931.000 20.44            9.44             52.56            0.06            
    4931.500 20.67            9.44             52.71            0.06            
    4932.000 22.52            9.44             52.86            0.06            
    4932.500 25.33            9.44             53.01            0.07            
    4933.000 28.13            9.44             53.58            0.07            
    4933.500 29.71            9.45             54.24            0.08            
    4934.000 29.89            9.45             54.73            0.08            
    4934.500 30.47            9.45             54.67            0.08            
    4935.000 31.12            9.45             54.49            0.08            
    4935.500 31.01            9.45             54.63            0.08            
    4936.000 28.83            9.45             55.02            0.08            
    4936.500 26.44            9.45             55.38            0.09            
    4937.000 25.17            9.45             55.34            0.09            
    4937.500 24.90            9.45             54.75            0.08            
    4938.000 24.80            9.45             54.14            0.07            
    4938.500 24.29            9.45             53.54            0.07            
    4939.000 23.26            9.45             53.23            0.07            
    4939.500 22.48            9.46             53.63            0.07            
    4940.000 22.67            9.46             54.11            0.08            
    4940.500 23.61            9.46             54.89            0.09            
    4941.000 25.11            9.46             55.82            0.10            
    4941.500 26.61            9.46             56.87            0.10            
    4942.000 26.94            9.47             57.86            0.11            
    4942.500 26.06            9.50             58.53            0.12            
    4943.000 25.65            9.52             58.43            0.12            
    4943.500 26.41            9.51             57.85            0.11            
    4944.000 27.56            9.50             56.90            0.10            
    4944.500 25.65            9.49             55.94            0.09            
    4945.000 21.99            9.48             54.99            0.08            
    4945.500 18.53            9.46             54.59            0.08            
    4946.000 17.21            9.46             55.36            0.09            
    4946.500 17.86            9.46             56.44            0.10            
    4947.000 18.23            9.46             57.32            0.11            
    4947.500 18.26            9.46             57.11            0.10            
    4948.000 18.30            9.46             55.43            0.08            
    4948.500 19.24            9.46             52.99            0.06            
    4949.000 21.49            9.46             52.29            0.06            
    4949.500 26.38            9.45             52.55            0.06            
    4950.000 31.37            9.45             54.46            0.08            
    4950.500 33.88            9.45             57.38            0.10            
    4951.000 29.11            9.45             58.74            0.12            
    4951.500 23.65            9.45             58.81            0.12            
    4952.000 21.17            9.45             56.23            0.09            
    4952.500 24.25            9.45             54.23            0.07            
    4953.000 30.70            9.45             53.28            0.07            
    4953.500 36.86            9.45             54.91            0.08            
