~VERSION INFORMATION
 VERS.                2.0:   CWLS LOG ASCII STANDARD - VERSION 2.0
 WRAP.                 NO:   ONE LINE PER DEPTH STEP
~WELL INFORMATION
#MNEM.UNIT      DATA TYPE    INFORMATION
#----------   ------------   ------------------------------
 STRT.FT          68.0000:   START DEPTH
 STOP.FT        1517.0000:   STOP DEPTH
 STEP.FT           0.5000:   STEP LENGTH
 NULL.          -999.2500:   NULL VALUE
 COMP. LINCOLN ROCK CORPORATION:   COMPANY
 WELL.        HOLLER #602:   WELL
 FLD .            UNNAMED:   FIELD
 LOC .                   :   LOCATION
 CNTY.          CULBERSON:   COUNTY
 STAT.              TEXAS:   STATE
 CTRY. UNITED STATES OF AMERICA:   COUNTRY
 SRVC.           Gearhart:   SERVICE COMPANY
 DATE.        24-Jun-1984:   LOGDATE
 API .     42109317410000:   API NUMBER
~CURVE INFORMATION
#MNEM.UNIT       API CODE    CURVE DESCRIPTION
#----------   ------------   ------------------------------
 DEPT.F                  :   
 CALXS.IN    60 280 13 00:   CALIPER FROM X AXIS OF X-Y CALIPER(S) FROM SONIC LOG
 GRD .GAPI   45 310 01 00:   GAMMA RAY FROM DENSITY LOG
 GRS .GAPI   60 310 01 00:   GAMMA RAY FROM SONIC LOG
 TEND.LB     45 635 00 00:   TENSION FROM DENSITY LOG
 TENR.LB     11 635 00 00:   TENSION FROM RESISTIVITY LOG
 TENS.LB     60 635 00 00:   TENSION FROM SONIC LOG
 CALYD.IN    45 280 24 00:   CALIPER FROM X AXIS OF X-Y CALIPER(S) FROM DENSITY LOG
 CNS_LS.DEC  42 890 01 00:   COMPENSATED NEUTRON POROSITY
 CDL_LS.DEC  45 890 10 00:   COMPENSATED DENSITY POROSITY LIMESTONE
 RHOB.G/C3   45 350 01 00:   BULK DENSITY
 DRHO.G/C3   45 356 01 00:   BULK DENSITY CORRECTION
 GRR .GAPI   11 310 01 00:   GAMMA RAY FROM RESISTIVITY LOG
 RLLD.OHMM   11 220 10 00:   RAW LATEROLOG DEEP RESISTIVITY
 RLLS.OHMM   11 220 09 00:   RAW LATEROLOG SHALLOW RESISTIVITY
 DT  .US/F   60 500 00 00:   DELTA-T (INTERVAL TRANSIT TIME)
 SPHI.DEC    60 890 00 00:   SONIC POROSITY
~PARAMETER INFORMATION
#MNEM.UNIT          VALUE    DESCRIPTION
#----------   ------------   ------------------------------
 PD  .                 GL:   PERMANENT DATUM
 EPD .FT             3532:   ELEVATION PERMANENT DATUM
 LMF .                 GL:   LOG MEASURED FROM
 DMF .                RKB:   DRILLING MEASURED FROM
 EKB .FT             3544:   KELLY BUSHING
 EDF .FT             3543:   DRILLING FLOOR
 EGL .FT             3532:   GROUND LEVEL
 DATE.           06/24/84:   RUN DATE
 RUN .                  1:   RUN NUMBER
 DD  .FT             1502:   DEPTH DRILLER
 DL  .FT             1506:   DEPTH LOGGER
 BLI .FT             1505:   BOTTOM LOG INTERVAL
 TLI .FT               90:   TOP LOG INTERVAL
 CS  .IN              4.5:   CASING SIZE
 CBD .FT              101:   CASING BOTTOM DRILLER
 CBL .FT             1502:   CASING BOTTOM LOGGER
 BS  .IN            7.875:   BIT SIZE
 BSD .FT             1502:   BIT SIZE AT DEPTH
 DFT .          FRESH H2O:   DRILLING FLUID TYPE
 DFD .                8.4:   DRILLING FLUID DENSITY
 DFV .                 27:   DRILLING FLUID VISCOSITY
 DFPH.                 12:   DRILLING FLUID PH
 MSS .                PIT:   MUD SAMPLE SOURCE
 RMS .OHMM           2.32:   RESISTIVITY MUD SAMPLE
 MST .DEGF             77:   MUD SAMPLE TEMPERATURE
 RMF .OHMM           2.32:   RESISTIVITY MUD FILTRATE SAMPLE
 MFST.DEGF             77:   MUD FILTRATE SAMPLE TEMPERATURE
 MFSS.               MEAS:   MUD FILTRATE SAMPLE SOURCE
 TCS .HRS            0940:   TIME CIRCULATED STOPPED
 TLAB.HRS            1319:   TIME LOGGER AT BOTTOM
 MRT .DEGF            770:   MAXIMUM RECORDED TEMPERATURE
 LUN .               7583:   LOGGING UNIT NUMBER
 LUL .              HOBBS:   LOGGING UNIT LOCATION
 ENGI.             BRYANT:   RECORDING ENGINEER
 WITN.             BURROW:   WITNESSED BY
 CLNT.            :   CLIENT CODE
 ORIG.      1" 2.5" PRINT:   ORIGIN OF DATA
 UWI .     42109317410000:   UNIQUE WELL ID
 
~OTHER INFORMATION
~A   DEPT    CALXS        GRD        GRS       TEND       TENR       TENS      CALYD      CNS_LS     CDL_LS      RHOB       DRHO          GRR     RLLD       RLLS         DT       SPHI   
# ...
  928.0000     8.4341     6.4217    10.1302  1020.2804   714.6318   874.8050     8.2538    -0.0071     0.2605     2.9488    -0.0268     4.1973  2747.4141  5809.4355    49.0053    -0.0214
  928.5000     8.4389     6.9273    10.0627  1019.7220   714.1458   870.7595     8.2564    -0.0072     0.2605     2.9476    -0.0300     5.0287  2722.8542  7972.5981    49.0070    -0.0216
  929.0000     8.4514     7.1949     9.2218  1016.9398   713.6600   866.7129     8.2625    -0.0072     0.2605     2.9464    -0.0273     5.8601  8500.7256 18046.7656    49.0073    -0.0222
  929.5000     8.4544     7.2386     8.0241  1016.3790   713.1755   862.6673     8.2589    -0.0072     0.2605     2.9452    -0.0245     6.6916 14227.1885 25169.2324    49.0073    -0.0222
  930.0000     8.4536     7.4062     6.8255   995.2383   714.5958   860.0825     8.2519    -0.0072     0.2605     2.9440    -0.0218     7.4899 32202.4043 25972.0039    49.0073    -0.0220
  930.5000     8.4535     7.7905     6.1284   993.4680   713.0887   855.0185     8.2588    -0.0073     0.2605     2.9428    -0.0191     7.4899 54657.4570 25987.6680    48.8916    -0.0227
  931.0000     8.4381     7.6244     6.0157   991.5013   713.6218   858.6225     8.2614    -0.0073     0.2605     2.9429    -0.0220     7.4899 68043.1094 25033.6191    48.8412    -0.0226
  931.5000     8.4400     7.3432     6.2832   990.7428   711.0955   870.5732     8.2727    -0.0073     0.2618     2.9439    -0.0270     7.0939 68682.3359 24114.5957    49.0482    -0.0219
  932.0000     8.4398     7.2870     6.6954   989.9855   693.0742   873.6748     8.2729    -0.0074     0.2645     2.9443    -0.0306     6.4842 61545.4648 23229.3125    49.3903    -0.0203
  932.5000     8.4407     8.5528     6.8548   987.0083   702.3715   858.8681     8.2679    -0.0074     0.2670     2.9443    -0.0306     6.6093 52817.1641 21825.4766    49.3885    -0.0183
  933.0000     8.4357     9.8180     6.6207   984.0309   713.0775   857.5147     8.2837    -0.0074     0.2641     2.9443    -0.0306     7.0850 44088.8633 19397.3867    49.5732    -0.0172
  933.5000     8.4255     9.6962     6.1927   983.2737   709.0018   857.2046     8.2531    -0.0074     0.2613     2.9443    -0.0266     8.7045 34705.4258 17878.4863    49.8286    -0.0156
  934.0000     8.4153     7.9437     5.9713   982.5164   709.0093   858.7490     8.2724    -0.0075     0.2606     2.9443    -0.0224     8.7045 28502.4102 14783.8809    50.0082    -0.0142
  934.5000     8.4057     7.1844     7.3076   979.5416   704.9336   858.4364     8.2951    -0.0075     0.2612     2.9443    -0.0250     7.6154 20748.6406 11689.2764    49.9377    -0.0145
  935.0000     8.3911     7.5552     8.9482   976.5669   704.9386   859.9820     8.2727    -0.0075     0.2622     2.9489    -0.0271     6.6802 13918.5254  8594.6709    49.8672    -0.0149
  935.5000     8.3935     7.8874     9.1174   975.8096   700.8641   859.6694     8.2568    -0.0076     0.2623     2.9589    -0.0278     6.6802 10783.0283  6118.9863    50.0483    -0.0142
  936.0000     8.3954     7.9434     7.8006   972.8361   700.8716   861.0889     8.2594    -0.0076     0.2603     2.9747    -0.0229     6.6802  7647.5308 11916.1943    50.3504    -0.0127
  936.5000     8.3978     7.4915     6.5134   972.0800   692.5723   860.1482     8.2585    -0.0076     0.2557     2.9706    -0.0154     6.4591  4512.0332 21320.7207    50.3571    -0.0119
  937.0000     8.3997     6.9372     6.5070   986.1842   705.1092   861.0629     8.2762    -0.0076     0.2498     2.9606    -0.0082     6.2753  2003.6353 30725.2461    50.3638    -0.0114
  937.5000     8.4021     6.1948     7.5099  1001.7795   711.5390   860.1222     8.2720    -0.0077     0.2464     2.9443    -0.0162     4.6559   155.3886 40709.0664    50.3704    -0.0118
  938.0000     8.3860     5.3959     8.0478  1010.3098   703.7453   861.0381     8.2679    -0.0077     0.2532     2.9531    -0.0240     4.3944  2017.7198 41925.2305    50.1159    -0.0132
  938.5000     8.3704     4.5577     7.0678  1010.4753   696.4446   860.0961     8.2602    -0.0077     0.2589     2.9654    -0.0306     4.1041 14736.4746 43141.3945    49.6811    -0.0158
  939.0000     8.3777     3.8773     5.5554  1010.6396   699.3283   861.0120     8.2525    -0.0076     0.2626     2.9562    -0.0268     3.8462 40623.5195 44421.3945    49.2329    -0.0185
  939.5000     8.3884     4.5906     4.5014  1008.5803   698.1289   860.0689     8.2603    -0.0075     0.2572     2.9471    -0.0190     4.0344 37670.0234 46403.6250    48.9114    -0.0224
  940.0000     8.3881     5.3969     8.0419  1028.6722   700.8862   879.9650     8.2422    -0.0073     0.2483     2.9379    -0.0102     4.2038 35017.5273 47278.7266    48.3455    -0.0263
  940.5000     8.3821     6.2061    12.7777  1023.1155   700.9477   880.0406     8.2363    -0.0072     0.2558     2.9287    -0.0178     4.3731 37761.8555 48540.8164    48.1146    -0.0264
  941.0000     8.3587     6.7602    11.3651  1014.2678   702.6629   884.6606     8.2362    -0.0071     0.2644     2.9232    -0.0367     4.5425 36400.3633 49193.0156    48.6127    -0.0229
  941.5000     8.3579     6.3963     7.8668  1011.9429   702.4885   890.9999     8.2357    -0.0070     0.2707     2.9266    -0.0367     4.7119 33485.7344 51044.5781    49.1071    -0.0210
  942.0000     8.3536     6.8653     5.5624  1021.0191   704.2024   897.1506     8.2318    -0.0069     0.2737     2.9286    -0.0339     4.8812 35773.9570 54101.8438    49.4563    -0.0194
  942.5000     8.3528     7.2953     5.8852  1041.8783   704.0268   891.4874     8.2279    -0.0067     0.2724     2.9306    -0.0310     5.0506 36815.8047 57159.1133    49.3708    -0.0185
  943.0000     8.3484     7.8265     6.6999  1054.5966   703.8512   888.0338     8.2394    -0.0066     0.2703     2.9326    -0.0286     5.2200 28448.3066 60216.3789    49.2969    -0.0190
  943.5000     8.3577     7.9343     7.3133  1059.3835   705.5663   882.3693     8.2402    -0.0065     0.2698     2.9346    -0.0206     5.3893 20080.8066 64726.9375    49.3480    -0.0193
  944.0000     8.3525     8.0032     7.6678  1066.4017   705.3907   880.7899     8.2374    -0.0064     0.2693     2.9362    -0.0184     5.5354 23900.4902 67444.9688    49.5079    -0.0180
  944.5000     8.3510     8.1111     7.7184  1069.6816   707.1033   879.8186     8.2381    -0.0063     0.2689     2.9437    -0.0191     5.6624 38137.7852 64871.9609    49.4791    -0.0177
  945.0000     8.3448     8.0611     7.7300  1069.1700   708.8160   881.0554     8.2353    -0.0061     0.2677     2.9500    -0.0199     5.7895 52375.0781 60544.9805    49.4503    -0.0179
  945.5000     8.3377     7.8552     7.7806  1066.4252   708.6391   880.0840     8.2265    -0.0061     0.2654     2.9563    -0.0163     5.7929 56293.7109 56218.0000    49.4215    -0.0184
  946.0000     8.3378     7.4762     7.6835  1063.6802   710.3532   881.3211     8.2408    -0.0061     0.2615     2.9626    -0.0123     5.5789 53963.5977 51891.0195    49.2865    -0.0194
  946.5000     8.3416     7.0583     7.3653  1063.1675   710.1775   880.3495     8.2515    -0.0061     0.2567     2.9690    -0.0082     5.3650 51041.7578 48310.4688    49.0449    -0.0210
  947.0000     8.3602     6.8185     6.6190  1060.4224   711.8889   881.5866     8.2659    -0.0061     0.2520     2.9747    -0.0082     5.1511 48119.9219 45227.5391    48.9522    -0.0217
  947.5000     8.3619     6.7826     5.9707  1059.9084   711.7121   880.6150     8.2502    -0.0061     0.2469     2.9747    -0.0091     4.9371 48151.5586 42144.6055    48.7653    -0.0223
  948.0000     8.3499     6.8610     5.5182  1059.3947   711.5364   881.8520     8.2496    -0.0061     0.2494     2.9605    -0.0101     4.7232 58684.7578 38708.7695    48.7804    -0.0229
  948.5000     8.3327     7.1066     5.4838  1056.6484   713.2478   880.8805     8.2528    -0.0061     0.2543     2.9538    -0.0111     4.5093 76218.9922 38736.1328    48.7174    -0.0234
  949.0000     8.3222     7.3131     5.4098  1056.1320   713.0710   885.2523     8.2613    -0.0061     0.2589     2.9474    -0.0122     4.2953 76984.0547 39168.8789    48.8009    -0.0232
