~VERSION INFORMATION
VERS. 2.0 : CWLS Log ASCII Standard - version 2.0
WRAP.  NO : One line per depth step
#--------------------------------------------------#
#----------------DRILLING INFO, INC.---------------#
#---------------WWW.DRILLINGINFO.COM---------------#
#------------------COPYRIGHT 2015------------------#
#--------------------------------------------------#
#THIS FILE MAY BE USED ONLY IN ACCORDANCE WITH A CURRENT SUBSCRIPTION AGREEMENT BETWEEN
#THE USER AND DRILLING INFO, INC. NO PART OF THIS FILE MAY BE REPRODUCED, USED, COPIED,
#MODIFIED, PROPAGATED, OR DISTRIBUTED EXCEPT IN ACCORDANCE WITH THE SUBSCRIPTION
#AGREEMENT. UNAUTHORIZED USE OR DISTRIBUTION OF ALL OR ANY PART OF THIS FILE MAY VIOLATE
#COPYRIGHT, TRADEMARK, AND/OR OTHER LAWS AND IS SUBJECT TO CIVIL AS WELL AS CRIMINAL
#SANCTIONS.
#--------------------------------------------------#
#THIS FILE IS PROVIDED "AS-IS" AND ALL WARRANTIES ARE EXPRESSLY DISCLAIMED, WHETHER
#EXPRESS, ORAL, IMPLIED, STATUTORY OR OTHERWISE, INCLUDING ANY IMPLIED WARRANTY OF FITNESS
#FOR A PARTICULAR PURPOSE, MERCHANTABILITY, TITLE OR NON-INFRINGEMENT, AND ANY WARRANTIES
#ARISING BY VIRTUE OF CUSTOM OF TRADE OR COURSE OF DEALING.  FURTHER, DRILLING INFO,
#INC. AND ITS LICENSORS DO NOT REPRESENT OR WARRANT THAT THIS FILE WILL MEET USER'S
#REQUIREMENTS OR ARE SUITABLE FOR USER'S NEEDS OR THAT THE DATA OR RESULTS PROVIDED IN
#CONJUNCTION THEREWITH ARE CORRECT, ACCURATE, TIMELY OR RELIABLE. THESE DISCLAIMERS SHALL
#APPLY REGARDLESS OF ANY FAILURE OF ESSENTIAL PURPOSE OF ANY LIMITED REMEDY.  SOME
#JURISDICTIONS DO NOT ALLOW THE EXCLUSION OF CERTAIN WARRANTIES SO SOME OF THE ABOVE
#EXCLUSIONS MAY NOT APPLY. IN NO EVENT SHALL DRILLING INFO, INC. OR ANY OF ITS AFFILIATES
#BE LIABLE UNDER ANY LEGAL THEORY, WHETHER IN TORT (INCLUDING WITHOUT LIMITATION
#NEGLIGENCE), CONTRACT, STRICT LIABILITY, STATUTORY OR OTHERWISE, FOR ANY SPECIAL,
#INCIDENTAL, CONSEQUENTIAL, EXEMPLARY, PUNITIVE OR INDIRECT DAMAGE OF ANY KIND, INCLUDING
#WITHOUT LIMITATION LOSS OF REVENUE, PROFITS, GOODWILL, USE, AND/OR DATA OR THE COST OF
#PROCUREMENT OF SUBSTITUTE GOODS OR SERVICES, EVEN IF APPRISED OF THE POSSIBILITY OF SUCH
#DAMAGES IN ADVANCE.
#--------------------------------------------------#
~WELL INFORMATION
#MNEMONIC     .UNIT              VALUE :DESCRIPTION
#--------------------------------------------------#
STRT       .FT                181 :START DEPTH
STOP       .FT                12231 :STOP DEPTH
STEP       .FT                   0.500 :STEP
NULL       .                  -999.250 :NULL
API        .                421093228700 :API NUMBER
COMP       .         CHESAPEAKE OPERATING  INC. :COMPANY
WELL       .        UNIVERSITY LANDS 4627  1 :WELL
DATE       .                06-May-2007 :LOG DATE
~CURVE INFORMATION
#MNEMONIC     .UNIT      API CODE :CURVE DESCRIPTION
#--------------------------------------------------#
DEPTH       .FT                      :Measured Depth
ILS.OHM        UNKNOWN   :ILS
GR.API        UNKNOWN   :GR
ILD.OHM        UNKNOWN   :ILD
CAL.INCH        UNKNOWN   :CAL
DT.US/FT        UNKNOWN   :DT
~A    DEPTH    ILS    GR    ILD    CAL    DT
# ...
 5781.5     335.057   66.674   266.091   12.386   -999.250
 5782     346.437   68.206   321.671   12.348   -999.250
 5782.5     208.361   69.242   195.631   11.87   -999.250
 5783     190.815   63.67   208.607   11.331   -999.250
 5783.5     333.443   58.451   318.004   11.55   -999.250
 5784     438.369   52.724   479.233   12.266   -999.250
 5784.5     324.836   49.914   335.13   12.456   -999.250
 5785     309.06   50.851   314.488   12.865   -999.250
 5785.5     301.823   52.178   304.166   13.39   -999.250
 5786     299.014   52.513   295.042   13.415   -999.250
 5786.5     530.652   51.755   483.495   13.427   -999.250
 5787     567.902   49.355   525.803   12.753   -999.250
 5787.5     642.677   45.507   568.112   12.307   -999.250
 5788     932.635   39.284   813.206   12.313   -999.250
 5788.5     921.322   33.06   808.148   12.318   -999.250
 5789     935.795   30.402   834.051   12.516   -999.250
 5789.5     791.553   28.199   742.169   12.676   -999.250
 5790     637.207   31.757   601.093   12.792   -999.250
 5790.5     487.144   35.394   498.988   11.857   -999.250
 5791     335.469   42.691   396.937   11.823   -999.250
 5791.5     144.953   50.163   250.642   11.79   -999.250
 5792     102.472   64.373   104.348   11.745   -999.250
 5792.5     102.72   60.837   91.881   11.696   -999.250
 5793     143.957   53.448   215.074   11.647   -999.250
 5793.5     632.357   44.102   503.677   11.635   -999.250
 5794     420.924   41.032   548.697   11.627   -999.250
 5794.5     257.147   47.3   374.9   11.62   -999.250
 5795     162.991   54.286   189.482   11.613   -999.250
 5795.5     190.764   58.309   186.5   11.605   -999.250
 5796     319.415   51.97   303.289   11.598   -999.250
 5796.5     476.313   46.441   551.975   11.59   -999.250
 5797     773.755   41.883   800.662   11.925   -999.250
 5797.5     746.692   37.324   767.555   12.272   -999.250
 5798     658.31   35.496   659.415   12.419   -999.250
 5798.5     501.209   36.496   541.501   12.526   -999.250
 5799     415.339   37.496   417.614   12.706   -999.250
 5799.5     421.687   38.496   403.49   12.873   -999.250
 5800     482.156   39.577   425.532   12.829   -999.250
 5800.5     569.392   41.212   470.772   12.872   -999.250
 5801     433.516   46.721   437.14   14.509   -999.250
 5801.5     226.344   57.024   221.031   15.349   -999.250
 5802     213.717   68.233   169.517   15.731   -999.250
 5802.5     200.814   79.727   151.518   15.949   -999.250
 5803     72.683   82.115   92.866   16.334   -999.250
 5803.5     72.233   79.677   56.338   16.836   -999.250
 5804     80.115   65.894   61.41   17.028   -999.250
 5804.5     184.187   56.86   155.931   12.389   -999.250
 5805     219.931   54.509   194.641   12.443   -999.250
 5805.5     148.028   65.404   158.671   12.717   -999.250
 5806     117.451   83.548   99.461   12.896   -999.250
 5806.5     112.293   92.676   98.834   13.387   -999.250
 5807     114.394   96.531   98.208   14.548   -999.250
 5807.5     121.215   93.251   97.581   14.882   -999.250
 5808     128.035   89.983   98.263   15.197   -999.250
 5808.5     124.749   99.578   102.923   15.355   -999.250
 5809     106.548   109.459   90.638   14.761   -999.250
 5809.5     104.293   115.978   87.684   14.794   -999.250
 5810     106.589   116.912   93.439   14.991   -999.250
 5810.5     117.523   113.901   99.195   15.251   -999.250
 5811     124.685   113.614   104.951   15.11   -999.250
 5811.5     127.793   113.328   110.706   15.116   -999.250
 5812     104.365   112.669   104.011   15.23   -999.250
 5812.5     101.896   107.762   93.826   15.208   -999.250
 5813     102.459   99.608   89.904   15.016   -999.250
 5813.5     139.12   91.353   122.395   14.828   -999.250
 5814     240.062   75.602   250.17   14.791   -999.250
 5814.5     330.894   65.273   256.114   14.9   -999.250
 5815     348.983   64.549   255.391   15.213   -999.250
 5815.5     284.132   65.398   231.715   15.236   -999.250
 5816     305.935   66.546   243.12   15.18   -999.250
 5816.5     412.87   66.512   297.513   11.789   -999.250
 5817     362.892   66.184   292.467   11.713   -999.250
 5817.5     275.541   74.54   256.524   11.638   -999.250
 5818     204.352   84.886   195.586   11.562   -999.250
 5818.5     164.777   93.304   144.862   11.513   -999.250
 5819     170.909   98.845   157.878   11.513   -999.250
 5819.5     178.263   93.545   161.455   11.513   -999.250
 5820     179.66   82.009   163.511   11.513   -999.250
 5820.5     177.166   69.571   156.66   11.513   -999.250
 5821     133.356   68.708   124.62   11.513   -999.250
 5821.5     78.139   72.951   78.988   11.513   -999.250
 5822     62.333   79.634   61.089   11.513   -999.250
 5822.5     77.401   83.941   88.96   11.513   -999.250
 5823     132.646   72.318   135.216   11.58   -999.250
 5823.5     233.379   67.042   181.473   11.701   -999.250
 5824     244.496   63.526   188.761   11.823   -999.250
 5824.5     152.215   64.546   137.393   11.944   -999.250
 5825     101.275   64.804   86.026   12.054   -999.250
 5825.5     88.703   59.189   88.112   11.789   -999.250
 5826     123.027   51.785   100.797   11.525   -999.250
 5826.5     215.911   43.874   190.732   11.492   -999.250
 5827     426.658   37.118   341.686   11.741   -999.250
 5827.5     399.332   36.248   370.859   12.563   -999.250
 5828     353.053   37.166   331.524   12.568   -999.250
 5828.5     294.147   40.826   280.647   12.572   -999.250
 5829     235.242   44.504   229.769   11.61   -999.250
 5829.5     185.58   48.468   178.891   11.789   -999.250
 5830     153.893   52.432   128.391   11.993   -999.250
 5830.5     84.026   54.147   78.421   12.054   -999.250
 5831     103.02   55.998   101.027   12.111   -999.250
 5831.5     99.361   59.784   100.338   12.601   -999.250
 5832     125.269   70.899   96.524   12.383   -999.250
 5832.5     180.727   79.147   159.762   12.165   -999.250
 5833     236.184   87.395   206.178   13.246   -999.250
 5833.5     254.585   90.942   219.316   14.235   -999.250
 5834     300.113   93.498   239.948   14.439   -999.250
 5834.5     245.194   94.172   203.982   14.201   -999.250
 5835     239.535   93.919   201.759   13.21   -999.250
 5835.5     226.007   91.985   189.783   13.056   -999.250
 5836     168.387   90.948   147.707   12.756   -999.250
 5836.5     118.603   95.393   106.616   12.605   -999.250
 5837     120.48   107.179   105.391   12.242   -999.250
 5837.5     120.581   119.804   104.165   13.048   -999.250
 5838     114.158   119.824   97.423   13.386   -999.250
 5838.5     105.916   109.119   87.252   14.335   -999.250
 5839     99.391   96.117   79.885   14.902   -999.250
 5839.5     99.815   79.737   80.299   14.98   -999.250
 5840     117.948   67.424   90.275   15.057   -999.250
 5840.5     145.63   55.896   105.931   15.366   -999.250
 5841     586.003   51.515   265.669   15.751   -999.250
 5841.5     753.342   50.454   311.773   15.959   -999.250
 5842     302.287   58.549   192.393   15.727   -999.250
 5842.5     223.48   66   150.835   14.678   -999.250
 5843     206.589   69.526   143.966   14.019   -999.250
 5843.5     182.619   70.694   144.298   14.101   -999.250
 5844     170.688   65.815   156.537   13.148   -999.250
 5844.5     146.969   56.784   126.379   12.603   -999.250
 5845     256.034   48.572   235.764   13.04   -999.250
 5845.5     673.679   41.899   432.831   13.237   -999.250
 5846     783.687   38.548   565.873   13.252   -999.250
 5846.5     859.243   42.004   588.407   13.268   -999.250
 5847     748.681   48.599   594.374   13.814   -999.250
 5847.5     424.503   56.961   435.306   14.147   -999.250
 5848     116.59   64.88   169.788   14.038   -999.250
 5848.5     100.045   71.774   90.409   14.062   -999.250
 5849     105.197   71.385   84.768   13.153   -999.250
 5849.5     171.996   61.007   143.296   11.074   -999.250
 5850     440.789   46.694   335.405   10.996   -999.250
 5850.5     590.888   33.963   514.262   10.918   -999.250
 5851     590.892   32.638   533.301   10.879   -999.250
