###############################################
##         ENVERUS                           ##
##         ESS - Open Hole                   ##
##         PERMIAN / DELAWARE                ##
##         Nov 03 2023  V4.0                 ##
##         42-109-32709-00-00                ##
###############################################
## Copyright 2017-2023  ENVERUS.  All Rights Reserved. 
## Confidential - Property of ENVERUS, use governed by terms and 
## conditions found within the existing Information Services Subscription Agreement 
## (as may be amended, the “ISSA”) between Customer and ENVERUS. 
## 
~VERSION INFORMATION
# MNEM.UNIT                               DATA : DESCRIPTION OF MNEMONIC
#-----.-----     ----------------------------- : -----------------------------
VERS.                                     2.00 : CWLS LOG ASCII STANDARD - VERSION 2.00
WRAP.                                       NO : MULTIPLE LINES PER DEPTH STEP
VEND.                                  ENVERUS : VENDOR
TYPE.                          ESS - OPEN HOLE : ENVERUS ESSENTIAL CURVES – ACCESSIBLE THROUGH ENVERUS PRISM(TM)
DOC.                                  32116645 : ENVERUS HEADER RAW DOCUMENT ID
#___________________________________________________________________________________________________ 
~WELL INFORMATION 
# 8SOIrMNgLSTosdYTMQVb7KPebVRgGb4NQOaGG3/cpRvPeoxWQd7So5pZ7XPWbXIrV4d26no2f3ffGwkTWQV8GA== 
# MNEM.UNIT                                              DATA : DESCRIPTION OF MNEMONIC 
#-----.-----                    ----------------------------- : ----------------------------- 
CNTY.                                               CULBERSON : COUNTY 
STATE.                                                  TEXAS : STATE 
CNTRY.                                                    USA : COUNTRY 
API.                                             42-109-32709 : API (10 Digit) 
API_14.                                    42-109-32709-00-00 : API (14 Digits) 
API_14_std.                                 42-109-32709-0000 : API (14 Digits Standard) 
UWI.                                           42109327090000 : UNIQUE WELL ID 
WELL.                                    42109327090000_API14 : WELL NAME
STRT.FT                                                  26.5 : START DEPTH
STOP.FT                                                5244.0 : STOP DEPTH
STEP.FT                                                   0.5 : STEP BETWEEN DEPTHS
NULL.                                                 -999.25 : NULL VALUE
#___________________________________________________________________________________________________ 
~PARAMETER INFORMATION 
# MNEM.UNIT                                              DATA : DESCRIPTION OF MNEMONIC 
#-----.-----                    ----------------------------- : ----------------------------- 
EKB.FT                                                   3124 : ELEVATION ABOVE MSL
#___________________________________________________________________________________________________ 
~CURVE INFORMATION 
# MNEM.UNIT           : CURVE DESCRIPTION 
#-----.-----          : ----------------------------- 
 DEPT.FT               : MEASURED DEPTH 
 CALI.IN               : CALIPER (CAL - CALIPER) 
 GR.API                : GAMMA RAY (GAMMA RAY) 
 DT.US/FT              : SONIC DELTA TRANSIT TIME (SONIC) 
 PE.B/E                : PHOTOELECTRIC EFFECT/FACTOR (PHOTOELECTRIC FACTOR) 
 RESS.OHMM             : SHALLOW INDUCTION RESISTIVITY (ILS - SHALLOW RESISTIVITY) 
 RESS_LL.OHMM          : SHALLOW LATEROLOG (LLS - SHALLOW RESISTIVITY) 
 RESD_LL.OHMM          : DEEP LATEROLOG (LLD - DEEP RESISTIVITY) 
 DPHI.V/V              : DENSITY POROSITY (DENSITY POROSITY) 
 NPHI.V/V              : NEUTRON POROSITY (NEUTRON POROSITY) 
 RHOB.G/CC             : BULK DENSITY (DENSITY) 
 #___________________________________________________________________________________________________ 
~A         DEPT           CALI             GR             DT             PE           RESS        RESS_LL        RESD_LL           DPHI           NPHI           RHOB
# ...
         2623.5          8.416         62.675        320.031         2.4260          1.379         6.0529        10.3053        0.16427        0.19170         2.4355
         2624.0          8.510         61.488        319.501         2.4260          1.397         6.0659        10.3053        0.17077        0.18300         2.4316
         2624.5          8.537         67.207        320.316         2.4458          1.423         6.2691        10.2382        0.17298        0.18363         2.4271
         2625.0          8.578         74.957        321.641         2.4655          1.382         5.5497         9.0083        0.17716        0.20541         2.4213
         2625.5          8.668         74.307        325.810         2.4655          1.177         4.5180         7.2650        0.17890        0.20107         2.4104
         2626.0          8.719         68.389        332.646         2.5812          0.957         3.8897         6.2972        0.19384        0.21219         2.3556
         2626.5          8.727         60.995        331.773         2.6627          0.903         3.4652         5.3942        0.23536        0.22266         2.2912
         2627.0          8.767         56.203        332.629         2.5641          0.993         3.5191         5.7765        0.26352        0.23255         2.2770
         2627.5          8.767         56.452        325.024         2.4458          1.525         4.0882         7.4028        0.26692        0.24793         2.2775
         2628.0          8.767         61.323        319.687         2.5444          2.321         4.6884         8.5304        0.26023        0.22805         2.3040
         2628.5          8.787         65.577        318.718         2.7039          2.346         5.2157         9.8415        0.22033        0.19332         2.3968
         2629.0          8.727         66.971        318.457         2.5390          1.458         5.6586        10.6866        0.17919        0.16557         2.4324
         2629.5          8.870         66.239        317.935         2.4390          1.150         5.0300         9.8585        0.18779        0.17512         2.4398
         2630.0          8.870         65.405        317.674         2.3866          1.450         4.6987         8.7849        0.21219        0.20036         2.3573
         2630.5          8.870         64.629        318.196         2.3960          1.543         4.0672         6.8242        0.23003        0.21551         2.3513
         2631.0          8.870         67.082        318.196         2.5013          1.099         3.9924         5.7314        0.22189        0.21361         2.3403
         2631.5          8.899         71.346        317.935         2.6354          0.765         3.5136         5.0359        0.23050        0.22406         2.3065
         2632.0          8.901         69.617        318.196         2.7416          0.734         2.8184         4.8489        0.25807        0.24408         2.2759
         2632.5          8.923         66.455        318.718         2.7269          0.807         2.7862         4.9291        0.27135        0.23985         2.2742
         2633.0          8.950         65.796        318.718         2.6189          0.817         2.8116         5.0684        0.27088        0.24059         2.2725
         2633.5          8.985         67.730        319.240         2.5444          0.818         2.8632         4.9856        0.27146        0.26382         2.2684
         2634.0          8.988         71.279        320.024         2.5247          0.781         2.6986         4.6756        0.27511        0.25343         2.2626
         2634.5          9.012         70.012        320.446         2.5247          0.746         2.4296         4.4279        0.27790        0.27311         2.2613
         2635.0          9.047         68.146        320.024         2.5247          0.693         2.3844         4.4279        0.28309        0.27661         2.2621
         2635.5          9.047         67.755        319.762         2.6225          0.708         2.3446         4.5634        0.27736        0.26644         2.2704
         2636.0          9.077         69.198        321.027         2.8468          0.740         2.3936         4.9631        0.27524        0.26257         2.2713
         2636.5          9.077         71.279        327.402         2.8994          0.840         2.5064         5.6011        0.27596        0.27546         2.2655
         2637.0          9.077         68.938        338.290         2.8529          1.020         2.8000         6.7133        0.27213        0.25384         2.2690
         2637.5          9.077         64.151        331.110         2.6811          1.191         3.3175         8.1725        0.27183        0.27417         2.2843
         2638.0          9.077         54.999        326.025         2.4414          1.330         3.6923         8.4387        0.26255        0.27257         2.3139
         2638.5          9.076         46.351        329.785         2.3268          1.272         3.5407         8.0921        0.24229        0.21452         2.3401
         2639.0          9.051         44.762        340.726         2.2944          1.073         3.2796         7.5078        0.23018        0.22326         2.3243
         2639.5          9.047         47.533        341.338         2.2944          0.915         2.9424         6.7241        0.24059        0.23275         2.2839
         2640.0          9.047         51.387        329.345         2.3342          0.927         2.7113         6.6637        0.26085        0.25050         2.2802
         2640.5          9.047         63.322        318.187         2.4052          1.080         2.8575         6.7245        0.27268        0.27758         2.2807
         2641.0          9.047         77.512        316.368         2.5168          1.264         2.7752         6.6662        0.26483        0.25403         2.3014
         2641.5          9.039         87.336        315.846         2.6100          1.143         2.4750         6.1370        0.24844        0.25266         2.3252
         2642.0          9.077         89.295        315.846         2.7018          0.924         2.1979         5.4836        0.23488        0.25011         2.3312
         2642.5          9.077         85.595        315.585         2.8153          0.811         1.6124         4.8860        0.23776        0.25026         2.3099
         2643.0          9.077         84.204        316.079         2.8806          0.857         1.5579         4.8591        0.25401        0.27484         2.2932
         2643.5          9.077         84.987        316.368         2.8806          0.931         1.5579         5.0880        0.25945        0.29159         2.2869
         2644.0          9.182         83.013        316.107         2.8737          0.963         1.4974         5.3455        0.26035        0.27582         2.2830
         2644.5          9.160         78.193        315.846         2.7904          0.985         1.6480         5.7623        0.27111        0.27453         2.2863
         2645.0          9.079         75.196        315.846         2.6786          1.176         1.5618         5.7102        0.26325        0.25823         2.2980
         2645.5          8.863         81.670        315.846         2.6156          1.224         1.5865         5.7102        0.25294        0.24010         2.3120
         2646.0          8.648         93.094        315.846         2.4843          1.096         1.6303         5.7433        0.24438        0.22188         2.3116
         2646.5          8.709        103.261        315.846         2.6415          1.092         1.5064         6.1916        0.24717        0.22622         2.3077
         2647.0          8.708        109.653        315.585         2.5058          2.003         1.5547         7.5285        0.24918        0.23748         2.4511
         2647.5          8.688        110.836        315.324         2.7219          3.590         1.9171         7.3575        0.21806        0.18960         2.4854
