###############################################
##         ENVERUS                           ##
##         ESS - Open Hole                   ##
##         PERMIAN / DELAWARE                ##
##         Nov 02 2023  V4.0                 ##
##         42-109-32255-00-00                ##
###############################################
## Copyright 2017-2023  ENVERUS.  All Rights Reserved. 
## Confidential - Property of ENVERUS, use governed by terms and 
## conditions found within the existing Information Services Subscription Agreement 
## (as may be amended, the “ISSA”) between Customer and ENVERUS. 
## 
~VERSION INFORMATION
# MNEM.UNIT                               DATA : DESCRIPTION OF MNEMONIC
#-----.-----     ----------------------------- : -----------------------------
VERS.                                     2.00 : CWLS LOG ASCII STANDARD - VERSION 2.00
WRAP.                                       NO : MULTIPLE LINES PER DEPTH STEP
VEND.                                  ENVERUS : VENDOR
TYPE.                          ESS - OPEN HOLE : ENVERUS ESSENTIAL CURVES – ACCESSIBLE THROUGH ENVERUS PRISM(TM)
DOC.                                  31869427 : ENVERUS HEADER RAW DOCUMENT ID
#___________________________________________________________________________________________________ 
~WELL INFORMATION 
# Kns/CyAZPDgS4fEM5w0azv9tYcXlBSx1nHSqICrpKgQv6F2hlFUFpw+R1SAxYfM92i4ks6BDNpB+WhJDZXFO5Q== 
# MNEM.UNIT                                              DATA : DESCRIPTION OF MNEMONIC 
#-----.-----                    ----------------------------- : ----------------------------- 
CNTY.                                               CULBERSON : COUNTY 
STATE.                                                  TEXAS : STATE 
CNTRY.                                                    USA : COUNTRY 
API.                                             42-109-32255 : API (10 Digit) 
API_14.                                    42-109-32255-00-00 : API (14 Digits) 
API_14_std.                                 42-109-32255-0000 : API (14 Digits Standard) 
UWI.                                           42109322550000 : UNIQUE WELL ID 
WELL.                             MELISSA TAYLOR STATE 27  1H : WELL NAME
STRT.FT                                                  94.0 : START DEPTH
STOP.FT                                               13828.0 : STOP DEPTH
STEP.FT                                                   0.5 : STEP BETWEEN DEPTHS
NULL.                                                 -999.25 : NULL VALUE
COMP.                              CHESAPEAKE OPERATING  INC. : COMPANY 
DATE.                                             29-NOV-2005 : LOG DATE
#___________________________________________________________________________________________________ 
~CURVE INFORMATION 
# MNEM.UNIT           : CURVE DESCRIPTION 
#-----.-----          : ----------------------------- 
 DEPT.FT               : MEASURED DEPTH 
 CALI__B.IN            : CALIPER (CAL - CAL) 
 GR__B.API             : GAMMA RAY (GR) 
 DT__B.US/FT           : SONIC DELTA TRANSIT TIME (DT) 
 DPHI__B.V/V           : DENSITY POROSITY (DPHI) 
 NPHI__B.V/V           : NEUTRON POROSITY (NPHI) 
 RHOB__B.G/CC          : BULK DENSITY (RHOB) 
 #___________________________________________________________________________________________________ 
~A         DEPT        CALI__B          GR__B          DT__B        DPHI__B        NPHI__B        RHOB__B
# ...
         7618.0          8.718         44.905         70.525     -999.25000        0.31673      -999.2500
         7618.5          8.718         45.670         71.091     -999.25000        0.31742      -999.2500
         7619.0          8.718         46.068         71.129     -999.25000        0.31700      -999.2500
         7619.5          8.718         45.690         70.233     -999.25000        0.31023      -999.2500
         7620.0          8.718         45.224         67.285     -999.25000        0.29435      -999.2500
         7620.5          8.718         43.942         63.006     -999.25000        0.23557      -999.2500
         7621.0          8.718         42.339         59.127     -999.25000        0.19839      -999.2500
         7621.5          8.718         37.912         56.493     -999.25000        0.17578      -999.2500
         7622.0          8.718         33.410         54.780     -999.25000        0.16625      -999.2500
         7622.5          8.718         29.112         55.477     -999.25000        0.16804      -999.2500
         7623.0          8.718         27.876         56.505     -999.25000        0.16715      -999.2500
         7623.5          8.718         27.831         59.282     -999.25000        0.15743      -999.2500
         7624.0          8.718         28.997         62.479     -999.25000        0.18535      -999.2500
         7624.5          8.719         32.985         69.059     -999.25000        0.24867      -999.2500
         7625.0          8.719         39.421         75.687     -999.25000        0.29331      -999.2500
         7625.5          8.720         46.256         78.980     -999.25000        0.37387      -999.2500
         7626.0          8.720         53.022         78.305     -999.25000        0.42284      -999.2500
         7626.5          8.721         57.335         77.213     -999.25000        0.42150      -999.2500
         7627.0          8.722         60.120         76.121     -999.25000        0.38546      -999.2500
         7627.5          8.722         59.319         75.489     -999.25000        0.34527      -999.2500
         7628.0          8.723         54.333         74.868     -999.25000        0.30781      -999.2500
         7628.5          8.724         51.660         74.607     -999.25000        0.30530      -999.2500
         7629.0          8.724         51.282         74.970     -999.25000        0.31634      -999.2500
         7629.5          8.725         53.340         75.642     -999.25000        0.33298      -999.2500
         7630.0          8.726         55.398         76.313     -999.25000        0.34962      -999.2500
         7630.5          8.726         57.170         76.517     -999.25000        0.35056      -999.2500
         7631.0          8.727         58.906         75.662     -999.25000        0.33688      -999.2500
         7631.5          8.728         58.228         74.345     -999.25000        0.32319      -999.2500
         7632.0          8.728         56.446         73.648     -999.25000        0.31064      -999.2500
         7632.5          8.729         54.213         73.376     -999.25000        0.29886      -999.2500
         7633.0          8.730         51.954         72.620     -999.25000        0.26440      -999.2500
         7633.5          8.730         49.695         72.754     -999.25000        0.24081      -999.2500
         7634.0          8.731         48.315         73.998     -999.25000        0.24216      -999.2500
         7634.5          8.731         49.169         75.243     -999.25000        0.25829      -999.2500
         7635.0          8.731         51.884         75.267     -999.25000        0.27442      -999.2500
         7635.5          8.731         55.197         75.077     -999.25000        0.29054      -999.2500
         7636.0          8.731         59.773         74.596     -999.25000        0.29747      -999.2500
         7636.5          8.731         58.225         74.017     -999.25000        0.29852      -999.2500
         7637.0          8.731         54.718         73.408     -999.25000        0.29327      -999.2500
         7637.5          8.731         52.620         72.081     -999.25000        0.28950      -999.2500
         7638.0          8.731         52.847         69.078     -999.25000        0.29184      -999.2500
         7638.5          8.731         53.074         62.812     -999.25000        0.28365      -999.2500
         7639.0          8.731         51.444         55.328     -999.25000        0.23551      -999.2500
         7639.5          8.731         43.488         51.787     -999.25000        0.19785      -999.2500
         7640.0          8.733         38.369         52.179     -999.25000        0.16221      -999.2500
         7640.5          8.735         34.013         51.691     -999.25000        0.14242      -999.2500
         7641.0          8.738         29.657         50.648     -999.25000        0.12060      -999.2500
         7641.5          8.741         26.559         50.181     -999.25000        0.09841      -999.2500
         7642.0          8.743         24.254         51.036     -999.25000        0.09209      -999.2500
         7642.5          8.824         21.948         53.637     -999.25000        0.12708      -999.2500
         7643.0          9.089         24.814         61.990     -999.25000        0.15863      -999.2500
         7643.5          9.457         38.198         69.981     -999.25000        0.16768      -999.2500
         7644.0          9.857         51.754         76.402        0.15471        0.17079         2.4940
         7644.5         10.307         63.001         78.263        0.16689        0.19390         2.4350
         7645.0         10.484         70.176         78.201        0.17336        0.23782         2.4400
         7645.5         10.630         77.351         75.716        0.16910        0.27088         2.4450
         7646.0         10.775         81.527         73.364        0.14289        0.30106         2.4500
         7646.5         10.854         81.299         71.201        0.12485        0.30241         2.4740
         7647.0         10.955         76.446         69.737        0.11173        0.25568         2.5280
         7647.5         11.179         71.594         69.667        0.10905        0.19482         2.5320
         7648.0         11.528         65.531         69.717        0.11134        0.15224         2.5350
         7648.5         11.888         59.083         69.120        0.11763        0.14966         2.5340
         7649.0         12.267         57.807         67.915        0.12234        0.17232         2.5120
         7649.5         12.462         58.666         66.047        0.12347        0.20212         2.5300
         7650.0         12.468         59.365         63.010        0.09256        0.22661         2.5490
         7650.5         12.473         59.687         59.844        0.09055        0.22997         2.5410
         7651.0         12.709         59.687         57.357        0.11391        0.24783         2.4160
         7651.5         12.959         59.236         56.844        0.11937        0.26392         2.2680
         7652.0         12.814         57.877         54.294        0.25813        0.26433         2.1070
         7652.5         12.239         56.518         48.974        0.33014        0.25558         2.0480
         7653.0         12.038         54.891         45.100        0.42791        0.25713         2.0090
         7653.5         11.838         51.983         45.662        0.41860        0.26763         2.1970
         7654.0         11.320         49.075         50.471        0.26009        0.27554         2.4360
         7654.5         10.787         46.168         55.887        0.13366        0.20156         2.4740
         7655.0         10.784         43.260         57.193        0.07731        0.14224         2.5120
         7655.5         10.818         43.061         55.765        0.05669        0.11342         2.5500
