~Version Information
 VERS.                  2.0:   CWLS log ASCII Standard -VERSION 2.0
 WRAP.                   NO:   One line per depth step
~Well Information Block
#MNEM.UNIT     VALUE/NAME     DESCRIPTION
#---------     -----------    ---------------------------
 STRT.F              8650.0000: START DEPTH
 STOP.F             14150.0000: STOP DEPTH
 STEP.F                 0.5000: STEP DEPTH
 NULL.                 -999.25: NULL VALUE
 LOC .     A1759-SEC34-BLK58-T2-:  LOCATION
 FL4 .        API 42-109-33169:  LOCATIONLINE4
 FL2 .     T&P RR CO-337FSL-25:  LOCATIONLINE2
 FL1 .     A1759-SEC34-BLK58-T2-:  LOCATIONLINE1
 DMF .                      KB:  DRILL MEAS FROM
 PDAT.                      GL:  PERMANENT DATUM
 CNTY.               CULBERSON:  COUNTY NAME
 FLD .     FORD, WEST (WOLFCAMP):  FIELD NAME
 WELL.         ALICE FEE 34 2H:  WELL NAME
 COMP.     CAPITAN ENERGY INC.:  COMPANY
 DATE.             27-Mar-2018:  DATE
 SVCO.             Halliburton:  SERVICECONAME
 PROV.                   TEXAS:  PROVINCE
 STAT.                   TEXAS:  STATE NAME
 CTRY.                     USA:  COUNTRY NAME
 HIDE.                        :  WELLNAMEOPERAT
 BASI.                 PERMIAN:  BASIN
 UWI .            42-109-33169LAT:  UNIQUE WELL IDENTIFIER
 API .            42-109-33169LAT:  API NUMBER
 RANG.                     N/A:  RANGE
 TOWN.                     N/A:  TOWNSHIP
 SECT.                     N/A:  SECTION
 SRVC.             Halliburton:  SERVICE COMPANY
 LMF .                      KB:  LOG MEASURED FROM
 TVDS.ft             3088.0000:  TVDSS CORRECTN
 EGL .ft             3063.0000:  GROUND ELEVATION
 APD .ft               25.0000:  DEPTH ABOVE PD
 EPD .ft             3063.0000:  ELEVATION
 BAP .ft                0.0000:  GL ELEV ONSHORE
 GVFD.g                 1.0000:  GRAVITY FIELD
 EKB .ft             3088.0000:  KB ELEVATION
 EDF .ft             3087.0000:  DF ELEVATION
~Curve Information Block
#MNEM.UNIT                 API CODE     Curve Description
#---------               -----------    ---------------------------
 DEPT.F                 00 000 000 000:  Depth
 CCL .mV                00 000 000 000:  Casing Collar Locator
 NPHI_OH.pu             00 000 000 000:  NPHI_OH
 NPHI_CHI.pu            00 000 000 000:  NPHI_CHI
 GR_OH.api              00 000 000 000:  GR_OH
 GR_CHI.api             00 000 000 000:  GR_CHI
 RHOB_OH.g/cc           00 000 000 000:  RHOB_OH
 RHOB_CHI.g/cc          00 000 000 000:  RHOB_CHI
 PE_OH.b/e              00 000 000 000:  PE_OH
 PE_CHI.b/e             00 000 000 000:  PE_CHI
 MSFL_OH.ohmm           00 000 000 000:  MSFL_OH
 MSFL_CHI.ohmm          00 000 000 000:  MSFL_CHI
 LLS_OH.ohmm            00 000 000 000:  LLS_OH
 LLS_CHI.ohmm           00 000 000 000:  LLS_CHI
 LLD_OH.ohmm            00 000 000 000:  LLD_OH
 LLD_CHI.ohmm           00 000 000 000:  LLD_CHI
 DTC_OH.uspf            00 000 000 000:  DTC_OH
 DTC_CHI.uspf           00 000 000 000:  DTC_CHI
 SPHI_CHI.pu            00 000 000 000:  SPHI_CHI
 SGF .cu                00 000 000 000:  Formation Sigma
 CRNF.NONE              00 000 000 000:  CM GrsCaptRatio
 RIN .NONE              00 000 000 000:  CM GrsInelRatio
#Other Information
#
#WARRANTY: Halliburton will use its best efforts to furnish customers with 
#accurate information and interpretations that are part of, and incident to, the services 
#provided.  However, Halliburton cannot and does not warrant the accuracy 
#or correctness of such information and interpretations.  Under no circumstances should any 
#such information or interpretation be relied upon as the sole basis for any drilling, 
#completion, production, or financial decision or any procedure involving any risk to the 
#safety of any drilling venture, drilling rig or its crew or any other third party.  The 
#Customer has full responsibility for all drilling, completion and production operation.  
#Halliburton makes no representations or warranties, either expressed or 
#implied, including, but not limited to, the implied warranties of merchantability or fitness 
#for a particular purpose, with respect to the services rendered.  In no event will 
#Halliburton be liable for failure to obtain any particular results or for 
#any damages, including, but not limited to, indirect, special or consequential damages, 
#resulting from the use of any information or interpretation provided by Halliburton.
#
~A    DEPT       CCL    NPHI_OH NPHI_CHI  GR_OH    GR_CHI  RHOB_OH RHOB_CHI  PE_OH  PE_CHI  MSFL_OH   MSFL_CHI  LLS_OH   LLS_CHI   LLD_OH   LLD_CHI  DTC_OH  DTC_CHI SPHI_CHI   SGF    CRNF   RIN   
# ...
   14123.5000    0.0000 -999.25  16.0981  -999.25 181.4460 -999.25   2.5139 -999.25 3.3497    -999.25  38.8339   -999.25  46.1982   -999.25  51.0603 -999.25 73.3570  18.2200 24.2688 0.8194 1.0770
   14124.0000    0.0000 -999.25  15.1298  -999.25 150.5354 -999.25   2.5268 -999.25 3.3760    -999.25  38.7431   -999.25  51.6074   -999.25  58.0180 -999.25 72.4122  17.5500 24.0675 0.8020 1.0748
   14124.5000   98.8130 -999.25  14.9360  -999.25 140.7248 -999.25   2.5288 -999.25 3.3935    -999.25  40.1849   -999.25  55.4430   -999.25  63.0542 -999.25 72.3392  17.5000 23.8308 0.7870 1.0772
   14125.0000    0.0000 -999.25  15.7361  -999.25 165.3454 -999.25   2.5175 -999.25 3.3708    -999.25  50.4207   -999.25  62.8158   -999.25  70.7227 -999.25 72.6300  17.7000 23.6085 0.7813 1.0801
   14125.5000    0.0000 -999.25  15.6834  -999.25 168.0620 -999.25   2.5182 -999.25 3.3776    -999.25  55.2309   -999.25  67.9935   -999.25  76.3651 -999.25 72.2288  17.4200 23.5254 0.7785 1.0824
   14126.0000    0.0000 -999.25  16.2568  -999.25 189.2632 -999.25   2.5103 -999.25 3.3727    -999.25  58.1867   -999.25  66.9249   -999.25  74.1730 -999.25 72.5555  17.6500 23.4147 0.7738 1.0837
   14126.5000    0.0000 -999.25  15.5454  -999.25 170.5210 -999.25   2.5201 -999.25 3.3955    -999.25  63.9304   -999.25  77.7785   -999.25  87.1188 -999.25 71.5546  16.9400 23.3627 0.7760 1.0858
   14127.0000    0.0000 -999.25  15.6572  -999.25 172.8310 -999.25   2.5181 -999.25 3.4021    -999.25  70.8186   -999.25  85.0656   -999.25  95.5316 -999.25 71.5093  16.9100 23.3617 0.7783 1.0915
   14127.5000    0.0000 -999.25  14.8943  -999.25 151.8902 -999.25   2.5287 -999.25 3.4367    -999.25  69.1214   -999.25  88.8753   -999.25 101.2344 -999.25 70.7911  16.4000 23.4992 0.7842 1.0949
   14128.0000    0.0000 -999.25  15.1728  -999.25 159.2658 -999.25   2.5248 -999.25 3.4242    -999.25  70.2293   -999.25  88.1387   -999.25  99.8713 -999.25 71.0513  16.5900 23.7549 0.7905 1.0932
   14128.5000    0.0000 -999.25  15.9644  -999.25 182.8512 -999.25   2.5141 -999.25 3.3849    -999.25  68.2822   -999.25  79.6762   -999.25  88.7705 -999.25 71.8439  17.1500 23.9370 0.7951 1.0868
   14129.0000    0.0000 -999.25  15.3254  -999.25 164.9148 -999.25   2.5235 -999.25 3.3954    -999.25  57.9025   -999.25  72.1475   -999.25  80.7923 -999.25 71.4944  16.9000 24.0042 0.7944 1.0785
   14129.5000    0.0000 -999.25  15.1456  -999.25 160.1710 -999.25   2.5264 -999.25 3.3867    -999.25  52.9210   -999.25  67.2524   -999.25  75.3202 -999.25 71.4656  16.8800 23.9463 0.7919 1.0760
   14130.0000    0.0000 -999.25  14.9778  -999.25 154.9476 -999.25   2.5288 -999.25 3.3881    -999.25  51.6995   -999.25  66.9145   -999.25  75.2101 -999.25 71.3552  16.8000 23.7735 0.7924 1.0773
   14130.5000    0.0000 -999.25  14.5193  -999.25 140.1588 -999.25   2.5349 -999.25 3.4148    -999.25  49.5782   -999.25  67.6489   -999.25  77.0001 -999.25 71.0458  16.5800 23.6931 0.7893 1.0822
   14131.0000    0.0000 -999.25  14.4388  -999.25 137.5308 -999.25   2.5357 -999.25 3.4338    -999.25  50.9468   -999.25  70.2018   -999.25  80.1480 -999.25 70.9469  16.5100 23.6234 0.7884 1.0868
   14131.5000    0.0000 -999.25  14.7836  -999.25 146.6454 -999.25   2.5307 -999.25 3.4221    -999.25  55.4678   -999.25  73.6869   -999.25  83.7342 -999.25 71.1654  16.6700 23.7244 0.7845 1.0877
   14132.0000 -105.1598 -999.25  14.9734  -999.25 153.3918 -999.25   2.5282 -999.25 3.4127    -999.25  55.6719   -999.25  72.3320   -999.25  81.6437 -999.25 71.2866  16.7500 23.8715 0.7833 1.0831
   14132.5000   36.1787 -999.25  14.9065  -999.25 152.6338 -999.25   2.5294 -999.25 3.4070    -999.25  53.5868   -999.25  69.9347   -999.25  78.8162 -999.25 71.2398  16.7200 23.9943 0.7814 1.0774
   14133.0000    0.0000 -999.25  14.5877  -999.25 145.4184 -999.25   2.5341 -999.25 3.4111    -999.25  51.6151   -999.25  69.1180   -999.25  78.1842 -999.25 70.9096  16.4800 24.0307 0.7796 1.0732
   14133.5000    0.0000 -999.25  14.2196  -999.25 136.2030 -999.25   2.5394 -999.25 3.4220    -999.25  47.9972   -999.25  66.4930   -999.25  75.6455 -999.25 70.6081  16.2700 23.9612 0.7778 1.0731
   14134.0000    0.0000 -999.25  14.9774  -999.25 156.4002 -999.25   2.5288 -999.25 3.3853    -999.25  57.1859   -999.25  73.0749   -999.25  82.2979 -999.25 71.0940  16.6200 23.8014 0.7723 1.0761
   14134.5000    0.0000 -999.25  15.3684  -999.25 166.5954 -999.25   2.5230 -999.25 3.3750    -999.25  64.0842   -999.25  78.6290   -999.25  88.3093 -999.25 71.3116  16.7700 23.5564 0.7702 1.0802
   14135.0000    0.0000 -999.25  15.3362  -999.25 164.6686 -999.25   2.5232 -999.25 3.3855    -999.25  66.2603   -999.25  81.6694   -999.25  92.0260 -999.25 71.2596  16.7300 23.4224 0.7637 1.0841
   14135.5000  -31.9179 -999.25  15.3234  -999.25 165.0652 -999.25   2.5232 -999.25 3.3961    -999.25  69.0716   -999.25  84.9621   -999.25  95.7502 -999.25 71.1451  16.6500 23.4025 0.7585 1.0848
   14136.0000    0.0000 -999.25  15.4068  -999.25 169.4228 -999.25   2.5222 -999.25 3.3981    -999.25  66.1238   -999.25  80.6648   -999.25  90.2853 -999.25 71.2388  16.7200 23.4780 0.7493 1.0801
   14136.5000    0.0000 -999.25  16.0458  -999.25 190.5694 -999.25   2.5138 -999.25 3.3752    -999.25  61.3320   -999.25  70.3543   -999.25  77.4828 -999.25 71.9693  17.2300 23.6880 0.7425 1.0740
   14137.0000    0.0000 -999.25  15.2026  -999.25 169.5978 -999.25   2.5259 -999.25 3.3913    -999.25  60.1773   -999.25  73.8757   -999.25  81.9851 -999.25 70.9872  16.5400 23.8876 0.7416 1.0688
   14137.5000    0.0000 -999.25  15.3000  -999.25 175.3528 -999.25   2.5250 -999.25 3.3718    -999.25  62.8176   -999.25  75.4733   -999.25  83.3670 -999.25 70.9027  16.4800 24.0928 0.7464 1.0688
   14138.0000    0.0000 -999.25  15.2612  -999.25 175.9582 -999.25   2.5257 -999.25 3.3612    -999.25  66.5285   -999.25  79.4326   -999.25  87.7683 -999.25 70.6804  16.3200 24.2115 0.7501 1.0728
   14138.5000    0.0000 -999.25  15.0894  -999.25 170.2968 -999.25   2.5280 -999.25 3.3609    -999.25  70.3589   -999.25  84.8455   -999.25  94.4837 -999.25 70.3783  16.1100 24.3509 0.7510 1.0796
   14139.0000   53.4712 -999.25  15.3791  -999.25 176.1112 -999.25   2.5237 -999.25 3.3525    -999.25  74.9644   -999.25  88.4098   -999.25  98.4785 -999.25 70.6455  16.3000 24.3302 0.7476 1.0829
   14139.5000    0.0000 -999.25  15.4321  -999.25 176.6540 -999.25   2.5228 -999.25 3.3493    -999.25  77.0172   -999.25  90.3921   -999.25 100.8725 -999.25 70.6728  16.3200 24.3466 0.7513 1.0863
   14140.0000    0.0000 -999.25  15.5210  -999.25 177.9942 -999.25   2.5215 -999.25 3.3433    -999.25  77.8861   -999.25  90.8560   -999.25 101.4772 -999.25 70.7813  16.3900 24.3724 0.7536 1.0873
   14140.5000  -57.6960 -999.25  15.4872  -999.25 177.3398 -999.25   2.5220 -999.25 3.3461    -999.25  78.9466   -999.25  92.1899   -999.25 103.0417 -999.25 70.7042  16.3400 24.2956 0.7581 1.0862
   14141.0000    0.0000 -999.25  15.6894  -999.25 183.4382 -999.25   2.5192 -999.25 3.3376    -999.25  81.5018   -999.25  93.4620   -999.25 104.0819 -999.25 70.8544  16.4500 24.2116 0.7562 1.0842
   14141.5000    0.0000 -999.25  15.8434  -999.25 188.2392 -999.25   2.5173 -999.25 3.3344    -999.25  75.6622   -999.25  86.2337   -999.25  95.3774 -999.25 71.1954  16.6900 23.8740 0.7541 1.0780
   14142.0000    0.0000 -999.25  15.7283  -999.25 184.6692 -999.25   2.5191 -999.25 3.3391    -999.25  67.1487   -999.25  77.8359   -999.25  85.9465 -999.25 71.3334  16.7800 23.6356 0.7511 1.0711
   14142.5000  -33.8702 -999.25  15.5368  -999.25 180.4006 -999.25   2.5218 -999.25 3.3574    -999.25  62.0797   -999.25  73.3454   -999.25  80.8790 -999.25 71.2458  16.7200 23.4204 0.7482 1.0665
   14143.0000    0.0000 -999.25  15.4239  -999.25 177.5824 -999.25   2.5231 -999.25 3.3720    -999.25  61.3013   -999.25  73.2221   -999.25  80.8017 -999.25 71.1318  16.6400 23.4789 0.7431 1.0663
   14143.5000    0.0000 -999.25  15.6183  -999.25 182.6620 -999.25   2.5200 -999.25 3.3790    -999.25  65.6032   -999.25  76.9856   -999.25  84.9050 -999.25 71.2207  16.7000 23.5452 0.7394 1.0710
