#   WellGreen Tech Inc.   Digitizing Services
#   www.wellgreentech.com
#   email: sales@wellgreentech.com
#
~Version Information Block
 VERS.                2.00:     CWLS LOG ASCII STANDARD - VERSION 2.000000
 WRAP.                  NO:     One Line Per Depth Step
#
~Well Information Block
#MNEM.UNIT                     Data                         Information
#----------   ------------------------------------------   ----------------
 STRT.FT                                      400.0000:     START DEPTH
 STOP.FT                                    10100.0000:     STOP DEPTH
 STEP.FT                                        0.5000:     STEP
 NULL.                                       -999.2500:     NULL VALUE
 COMP.                       ENRON OIL AND GAS COMPANY:     COMPANY
 WELL.                                   TXL "1" NO. 1:     WELL
 FLD .                                         WILDCAT:     FIELD
 LOC .                                              63:     LOCATION
 CNTY.                                       CULBERSON:     COUNTY
 STAT.                                           TEXAS:     STATE
 CTRY.                                             USA:     COUNTRY
 SRVC.                                    SCHLUMBERGER:     SERVICE COMPANY
 DATE.                                      06/28/1989:     DATE
 API .               42109320330000:    API NUMBER
 UWI .               42109320330000:    UWI NUMBER
 TVD .                                              NO:     TVD flag
 MATRIX .G/CC                  :    Matrix Density
#
~Curve Information Block
#MNEM.UNIT       API CODE      Curve Description
#----------    -------------   -------------------
 DEPT.FT                   :   Depth in Feet
 GR  .API      35 310 01 01:   Gamma Ray
 CALI.INCHES   70 280 01 01:   Caliper
 DT  .US/FT    60 520 08 01:   Delta T
 SPHI.V/V      61 890 01 01:   Sonic Porosity
#
~Parameter Information Block
#MNEM.UNIT            Value               Description
#----------    --------------------    -------------------
 RUN .                         ONE:    Run Number
 PDAT.                          GL:    Permanent Datum
 EPD .FT                 3890.3000:    Elevation Of Perm. Datum
 LMF .               KELLY BUSHING:    Log Measured From
 EKB .FT                 3905.1000:    Elevation Of Kelly Bushing
 DF .FT                  3904.1000:    Elevation Of Derrick Floor
 GL .FT                  3890.3000:    Elevation Of Ground Level
 TD .FT                  10100.0000:    Total Depth
 BHT .DEGF               193.00 :  Bottom Hole Temperature
 BLI .FT               10100.0000:   Bottom Log Interval
 CSGSIZE.IN              9.6250:   Casing Size
 BITSIZE.IN               8.750 :  BitSize
 CSGD.FT                      405:    Casing Bottom (Driller) 1
 CSGL.FT                      405:    Casing Bottom (Logger) 1
 MUD .                      SW GEL:    Drilling Fluid Type
 MUDV .CP                  34.0000:    Drilling Fluid Viscosity
 MUDD .LB/USG               9.1000:    Drilling Fluid Density
 FL .ML/30MIN               8.0000:    Drilling Fluid Loss
 PH.                       10.0000:    Drilling Fluid Ph
 MUDS .                  CIRC TANK:    Mud Sample Source
 RM .OHMM                   0.1720:    Resistivity Of Mud Sample
 RMT .DEGF                 75.0000:    Mud Sample Temperature
 RMF .OHMM                  0.1720:    Mud Filtrate Resistivity
 RMFT.DEGF                 75.0000:    Mud Filtrate Sample Temperature
 RMB .OHMM                  0.0710:    Mud Resistivity At Bht
 TMAX .DEGF               193.0000:    Bottom Hole Temperature
#
~Other Information Block
<DescLogPlotStart>   NEURALOG PLOT DEFINITION
PLOTDEFVERSION: 3
LASFILE: D:\nds\projects\20MAY19H\las\42109320330000_BEG_RAS_RS0022815370.las
DEPTHSCALE: 240.000000
RESOLUTION: 400
DEPTHLABELFREQ: 100.000000
HEAVYGRIDFREQ: 100.000000
MEDIUMGRIDFREQ: 50.000000
LIGHTGRIDFREQ: 10.000000
#
#   TRACK 1
#
STARTTRACK: 
 LEFTX: 0.500000 inch
 RIGHTX: 3.000000 inch
 SCALETYPE: Linear
 NUMCHARTDIVISIONS: 10
CURVE: GR    0.000000   125.000000 (0,0,255)      Solid             2     Y    
BACKUP: 125.000000 250.000000 (0,0,255)      Solid             2    
ENDTRACK: 
#
#   TRACK 2
#
STARTTRACK: 
 LEFTX: 0.500000 inch
 RIGHTX: 3.000000 inch
 SCALETYPE: Linear
 NUMCHARTDIVISIONS: 10
CURVE: CALI  6.000000   16.000000  (0,131,131)    Solid             2     N    
ENDTRACK: 
#
#   TRACK 3
#
STARTTRACK: 
 LEFTX: 3.500000 inch
 RIGHTX: 8.500000 inch
 SCALETYPE: Linear
 NUMCHARTDIVISIONS: 10
CURVE: DT    100.000000 40.000000  (255,0,255)    Solid             2     Y    
BACKUP: 160.000000 100.000000 (255,0,255)    Solid             2    
CURVE: SPHI  0.300000   -0.100000  (255,0,0)      Dot               2     Y    
BACKUP: 0.700000   0.300000   (255,0,0)      Dot               2    
BACKUP: -0.100000  -0.500000  (255,0,0)      Dot               2    
ENDTRACK: 
<DescLogPlotEnd>
~A DEPTH     GR               CALI             DT               SPHI            
# ...
    9409.000 249.36           9.13             84.45            0.27            
    9409.500 249.36           9.12             84.85            0.27            
    9410.000 249.37           9.10             84.98            0.27            
    9410.500 249.38           9.09             85.10            0.28            
    9411.000 249.39           9.08             85.37            0.28            
    9411.500 249.40           9.07             85.78            0.28            
    9412.000 249.41           9.05             86.18            0.28            
    9412.500 249.42           9.04             86.59            0.28            
    9413.000 249.43           9.04             86.66            0.28            
    9413.500 249.43           9.04             86.53            0.28            
    9414.000 249.44           9.04             86.24            0.28            
    9414.500 249.45           9.04             85.26            0.28            
    9415.000 249.46           9.03             84.59            0.27            
    9415.500 249.47           9.03             84.24            0.27            
    9416.000 249.48           9.03             84.90            0.27            
    9416.500 249.49           9.03             86.23            0.28            
    9417.000 249.50           9.02             87.56            0.28            
    9417.500 249.50           9.02             88.24            0.29            
    9418.000 249.51           9.02             88.28            0.29            
    9418.500 249.52           9.02             87.44            0.28            
    9419.000 249.53           9.02             86.49            0.28            
    9419.500 249.54           9.02             85.54            0.28            
    9420.000 249.55           9.02             84.64            0.27            
    9420.500 249.56           9.02             84.01            0.27            
    9421.000 249.57           9.02             83.39            0.27            
    9421.500 236.77           9.02             82.21            0.26            
    9422.000 216.39           9.02             80.78            0.26            
    9422.500 195.63           9.02             79.35            0.25            
    9423.000 179.08           9.02             78.30            0.24            
    9423.500 173.25           9.02             78.34            0.24            
    9424.000 170.41           9.02             78.65            0.25            
    9424.500 170.19           9.02             78.95            0.25            
    9425.000 170.13           9.02             79.26            0.25            
    9425.500 170.52           9.02             79.36            0.25            
    9426.000 172.47           9.02             79.43            0.25            
    9426.500 174.73           9.02             79.43            0.25            
    9427.000 176.99           9.02             79.26            0.25            
    9427.500 182.55           9.02             78.90            0.25            
    9428.000 190.19           9.02             78.54            0.25            
    9428.500 197.84           9.02             78.07            0.25            
    9429.000 205.49           9.02             77.43            0.24            
    9429.500 212.67           9.02             76.79            0.24            
    9430.000 219.56           9.02             76.16            0.23            
    9430.500 226.45           9.02             75.52            0.23            
    9431.000 232.89           9.02             74.99            0.23            
    9431.500 234.88           9.02             75.07            0.23            
    9432.000 238.12           9.02             74.83            0.23            
    9432.500 249.87           9.02             72.80            0.22            
    9433.000 249.99           9.02             70.42            0.20            
    9433.500 249.90           9.02             67.42            0.19            
    9434.000 249.82           9.02             63.12            0.16            
    9434.500 250.16           9.02             57.92            0.11            
    9435.000 226.12           9.03             53.07            0.06            
    9435.500 178.99           9.03             49.28            0.00            
    9436.000 82.37            9.03             46.54            -0.02           
    9436.500 40.91            9.03             45.28            -0.03           
    9437.000 35.56            9.02             44.50            -0.04           
    9437.500 30.35            9.01             44.48            -0.04           
    9438.000 26.62            9.00             45.05            -0.03           
    9438.500 23.74            8.99             45.62            -0.03           
    9439.000 21.57            8.99             45.82            -0.02           
    9439.500 22.20            8.98             45.95            -0.02           
    9440.000 23.92            8.98             46.00            -0.02           
    9440.500 23.88            8.97             46.05            -0.02           
    9441.000 22.69            8.97             46.30            -0.02           
    9441.500 21.47            8.97             46.79            -0.01           
    9442.000 20.50            8.97             47.73            0.00            
    9442.500 20.01            8.97             48.76            0.02            
    9443.000 19.73            8.98             49.72            0.03            
    9443.500 20.02            8.99             50.08            0.03            
    9444.000 21.51            9.01             49.31            0.02            
    9444.500 23.78            9.02             47.90            0.00            
    9445.000 26.37            9.04             46.59            -0.01           
    9445.500 30.34            9.04             46.35            -0.02           
    9446.000 34.40            9.04             46.80            -0.01           
    9446.500 35.58            9.05             47.59            0.01            
    9447.000 33.95            9.05             48.42            0.02            
    9447.500 30.27            9.04             49.24            0.03            
    9448.000 26.53            9.02             50.47            0.04            
    9448.500 23.73            9.00             51.04            0.04            
    9449.000 21.01            8.98             50.78            0.04            
    9449.500 18.29            8.96             50.12            0.03            
    9450.000 15.56            8.93             49.35            0.02            
    9450.500 12.84            8.91             48.78            0.01            
    9451.000 10.11            8.89             48.37            0.01            
    9451.500 7.38             8.87             47.99            0.01            
    9452.000 6.14             8.84             47.62            0.00            
    9452.500 6.03             8.84             47.25            -0.00           
    9453.000 6.08             8.84             46.89            -0.01           
    9453.500 6.26             8.86             47.05            -0.01           
    9454.000 6.53             8.88             47.67            0.00            
    9454.500 6.81             8.89             48.46            0.01            
    9455.000 7.33             8.91             49.24            0.02            
    9455.500 8.23             8.92             49.73            0.03            
    9456.000 9.12             8.94             49.04            0.02            
    9456.500 10.88            8.96             47.93            0.00            
    9457.000 13.10            8.95             47.06            -0.01           
    9457.500 16.39            8.95             46.53            -0.01           
    9458.000 20.84            8.95             46.83            -0.01           
