###############################################
##         ENVERUS                           ##
##         ESS - Open Hole                   ##
##         PERMIAN / DELAWARE                ##
##         Nov 03 2023  V4.0                 ##
##         42-109-32709-00-00                ##
###############################################
## Copyright 2017-2023  ENVERUS.  All Rights Reserved. 
## Confidential - Property of ENVERUS, use governed by terms and 
## conditions found within the existing Information Services Subscription Agreement 
## (as may be amended, the “ISSA”) between Customer and ENVERUS. 
## 
~VERSION INFORMATION
# MNEM.UNIT                               DATA : DESCRIPTION OF MNEMONIC
#-----.-----     ----------------------------- : -----------------------------
VERS.                                     2.00 : CWLS LOG ASCII STANDARD - VERSION 2.00
WRAP.                                       NO : MULTIPLE LINES PER DEPTH STEP
VEND.                                  ENVERUS : VENDOR
TYPE.                          ESS - OPEN HOLE : ENVERUS ESSENTIAL CURVES – ACCESSIBLE THROUGH ENVERUS PRISM(TM)
DOC.                                  32116645 : ENVERUS HEADER RAW DOCUMENT ID
#___________________________________________________________________________________________________ 
~WELL INFORMATION 
# 8SOIrMNgLSTosdYTMQVb7KPebVRgGb4NQOaGG3/cpRvPeoxWQd7So5pZ7XPWbXIrV4d26no2f3ffGwkTWQV8GA== 
# MNEM.UNIT                                              DATA : DESCRIPTION OF MNEMONIC 
#-----.-----                    ----------------------------- : ----------------------------- 
CNTY.                                               CULBERSON : COUNTY 
STATE.                                                  TEXAS : STATE 
CNTRY.                                                    USA : COUNTRY 
API.                                             42-109-32709 : API (10 Digit) 
API_14.                                    42-109-32709-00-00 : API (14 Digits) 
API_14_std.                                 42-109-32709-0000 : API (14 Digits Standard) 
UWI.                                           42109327090000 : UNIQUE WELL ID 
WELL.                                    42109327090000_API14 : WELL NAME
STRT.FT                                                  26.5 : START DEPTH
STOP.FT                                                5244.0 : STOP DEPTH
STEP.FT                                                   0.5 : STEP BETWEEN DEPTHS
NULL.                                                 -999.25 : NULL VALUE
#___________________________________________________________________________________________________ 
~PARAMETER INFORMATION 
# MNEM.UNIT                                              DATA : DESCRIPTION OF MNEMONIC 
#-----.-----                    ----------------------------- : ----------------------------- 
EKB.FT                                                   3124 : ELEVATION ABOVE MSL
#___________________________________________________________________________________________________ 
~CURVE INFORMATION 
# MNEM.UNIT           : CURVE DESCRIPTION 
#-----.-----          : ----------------------------- 
 DEPT.FT               : MEASURED DEPTH 
 CALI.IN               : CALIPER (CAL - CALIPER) 
 GR.API                : GAMMA RAY (GAMMA RAY) 
 DT.US/FT              : SONIC DELTA TRANSIT TIME (SONIC) 
 PE.B/E                : PHOTOELECTRIC EFFECT/FACTOR (PHOTOELECTRIC FACTOR) 
 RESS.OHMM             : SHALLOW INDUCTION RESISTIVITY (ILS - SHALLOW RESISTIVITY) 
 RESS_LL.OHMM          : SHALLOW LATEROLOG (LLS - SHALLOW RESISTIVITY) 
 RESD_LL.OHMM          : DEEP LATEROLOG (LLD - DEEP RESISTIVITY) 
 DPHI.V/V              : DENSITY POROSITY (DENSITY POROSITY) 
 NPHI.V/V              : NEUTRON POROSITY (NEUTRON POROSITY) 
 RHOB.G/CC             : BULK DENSITY (DENSITY) 
 #___________________________________________________________________________________________________ 
~A         DEPT           CALI             GR             DT             PE           RESS        RESS_LL        RESD_LL           DPHI           NPHI           RHOB
# ...
         4118.0          8.391         73.568        279.071         2.6259          3.844         5.4920         7.7060        0.11937        0.14187         2.3830
         4118.5          8.391         62.785        271.541         2.6036          4.997         5.9962         7.7060        0.12381        0.14223         2.3644
         4119.0          8.411         61.880        269.632         2.5838          4.626         5.4055         6.5293        0.12919        0.16134         2.3297
         4119.5          8.426         63.053        268.591         2.6443          3.914         4.2628         5.6491        0.13639        0.16788         2.2876
         4120.0          8.426         66.661        269.650         2.6627          0.202         3.7395         4.9496        0.18458        0.16830         2.2753
         4120.5          8.434         72.288        271.833         2.1145          0.201         3.2354         4.1607        0.30738        0.16552         2.1300
         4121.0          8.484         76.065        278.738         2.0917          0.200         3.0877         3.8398        0.46422        0.17425         1.8798
         4121.5          8.526         76.371        281.827         1.7815          0.200         2.8727         3.5928        0.58703        0.18297         1.6975
         4122.0          8.704         76.907        283.195         1.5779          0.200         2.7404         3.4080        0.69852        0.20155         1.5673
         4122.5          8.760         77.546        294.606         1.5385          0.200         2.6410         3.1385        0.69964        0.21657         1.4257
         4123.0          8.875         75.776        306.079         1.4505          0.202         2.6375         3.1343        0.69964        0.24292         1.4162
         4123.5          9.007         73.948        305.730         1.4398          0.202         2.8661         3.4842        0.69964        0.24637         1.4374
         4124.0          9.018         68.536        286.685         1.4398          0.564         3.4583         4.1869        0.69964        0.23763         1.4239
         4124.5          8.783         61.589        273.817         1.4743          2.149         4.4349         5.3746        0.69879        0.21490         1.5554
         4125.0          8.442         57.643        270.202         1.7517          4.425         4.7285         5.3960        0.50768        0.19633         1.8533
         4125.5          8.331         57.138        269.632         2.0146          3.926         3.8163         4.8156        0.29960        0.17224         2.2884
         4126.0          8.154         58.747        269.632         2.3077          2.152         3.2529         3.5488        0.20899        0.16550         2.4062
         4126.5          8.062         69.029        269.632         2.3468          1.025         2.6901         3.0648        0.17377        0.16550         2.4285
         4127.0          8.055         89.200        269.632         2.2682          1.017         2.4985         2.7736        0.18957        0.17628         2.3912
         4127.5          8.055        104.328        270.154         2.2515          1.070         2.8245         2.8928        0.20290        0.20808         2.3814
         4128.0          8.055         97.153        270.154         2.3317          1.347         4.0603         3.2693        0.20427        0.22984         2.3767
         4128.5          7.998         86.677        270.676         2.3725          2.223         4.2974         3.8060        0.21085        0.20689         2.3738
         4129.0          7.957         89.165        271.416         2.4133          3.179         4.4279         4.8642        0.20456        0.19078         2.3962
         4129.5          7.917         93.404        278.085         2.4935          3.838         4.3151         6.1573        0.18132        0.18481         2.4417
         4130.0          7.897         95.613        290.467         2.5247          4.118         4.2313         6.3678        0.15939        0.16574         2.4670
         4130.5          7.897        104.761        299.545         2.5247          3.407         4.4270         6.1406        0.14569        0.17581         2.4776
         4131.0          7.897        119.457        306.898         2.5247          2.756         4.6355         5.4771        0.14564        0.18214         2.4673
         4131.5          7.897        134.317        311.092         2.5247          2.501         4.8440         5.0742        0.15380        0.17237         2.4602
         4132.0          7.897        134.100        311.668         2.5049          2.436         4.4610         5.2317        0.15532        0.17525         2.4606
         4132.5          7.897        119.591        311.423         2.4852          2.476         4.5867         6.2187        0.15604        0.17917         2.4549
         4133.0          7.897        110.823        311.407         2.4655          2.602         5.6377         8.0346        0.15917        0.17582         2.4563
         4133.5          7.897        110.052        311.123         2.5239          2.619         7.5153        10.6132        0.15238        0.18019         2.4764
         4134.0          7.897        110.836        307.711         2.6233          1.924        10.0370        12.2465        0.13777        0.18086         2.5014
         4134.5          7.897        112.590        301.026         2.6450          1.154        10.1142        12.2713        0.12026        0.18191         2.5236
         4135.0          7.897        112.939        302.269         2.6824          0.813         8.4640        10.6544        0.11223        0.16805         2.5275
         4135.5          7.897        104.130        301.689         2.7462          0.770         7.3870         9.1051        0.11759        0.16193         2.5130
         4136.0          7.897         96.946        307.193         2.7613          0.742         6.9909         8.5372        0.12657        0.16114         2.5007
         4136.5          7.897         95.561        310.765         2.6616          0.702         6.6764         8.3624        0.13296        0.15530         2.4943
         4137.0          7.897         93.212        310.363         2.6233          0.693         6.4929         8.2868        0.13476        0.15295         2.4993
         4137.5          7.897         93.873        309.922         2.6332          0.742         6.4845         8.2119        0.12790        0.15968         2.5095
         4138.0          7.897         97.427        310.102         2.7022          0.774         6.6031         8.3624        0.11890        0.15592         2.5237
         4138.5          7.897         96.862        311.585         2.6698          0.809         6.7207         8.4387        0.11305        0.16286         2.5304
         4139.0          7.897         89.430        314.496         2.5699          0.748         6.5437         8.5258        0.11200        0.15155         2.5252
         4139.5          7.897         77.959        318.187         2.5641          0.685         6.7981         8.9275        0.11919        0.14852         2.5109
         4140.0          7.897         67.313        318.718         2.5641          0.651         6.9902         9.1798        0.12479        0.14661         2.5089
         4140.5          7.897         63.947        318.160         2.5838          0.671         7.2979         9.6707        0.12261        0.13899         2.5217
         4141.0          7.897         74.382        317.991         2.6426          0.676         7.8048        10.6303        0.10795        0.12411         2.5440
         4141.5          7.897         95.411        318.718         2.7022          0.697         8.3544        12.0170        0.09884        0.09766         2.5599
         4142.0          7.897        119.878        316.606         2.7439          0.717         9.8626        13.7002        0.09156        0.08698         2.5456
