###############################################
##         ENVERUS                           ##
##         ESS - Open Hole                   ##
##         PERMIAN / DELAWARE                ##
##         Nov 03 2023  V4.0                 ##
##         42-109-32620-90-00                ##
###############################################
## Copyright 2017-2023  ENVERUS.  All Rights Reserved. 
## Confidential - Property of ENVERUS, use governed by terms and 
## conditions found within the existing Information Services Subscription Agreement 
## (as may be amended, the “ISSA”) between Customer and ENVERUS. 
## 
~VERSION INFORMATION
# MNEM.UNIT                               DATA : DESCRIPTION OF MNEMONIC
#-----.-----     ----------------------------- : -----------------------------
VERS.                                     2.00 : CWLS LOG ASCII STANDARD - VERSION 2.00
WRAP.                                       NO : MULTIPLE LINES PER DEPTH STEP
VEND.                                  ENVERUS : VENDOR
TYPE.                          ESS - OPEN HOLE : ENVERUS ESSENTIAL CURVES – ACCESSIBLE THROUGH ENVERUS PRISM(TM)
DOC.                                  51092952 : ENVERUS HEADER RAW DOCUMENT ID
#___________________________________________________________________________________________________ 
~WELL INFORMATION 
# LYPeWtxrle9FodilXqet+3VuPRh8A73lGXm1Q3+VPjdIM+tEhu367IfA47DlYFnVF+yDwY76OrXOyADpoj01xA== 
# MNEM.UNIT                                              DATA : DESCRIPTION OF MNEMONIC 
#-----.-----                    ----------------------------- : ----------------------------- 
CNTY.                                               CULBERSON : COUNTY 
STATE.                                                  TEXAS : STATE 
CNTRY.                                                    USA : COUNTRY 
API.                                             42-109-32620 : API (10 Digit) 
API_14.                                    42-109-32620-90-00 : API (14 Digits) 
API_14_std.                                 42-109-32620-9000 : API (14 Digits Standard) 
UWI.                                           42109326209000 : UNIQUE WELL ID 
WELL.                               42109326200000_PREV_API14 : WELL NAME
STRT.FT                                                2339.0 : START DEPTH
STOP.FT                                               10866.0 : STOP DEPTH
STEP.FT                                                   0.5 : STEP BETWEEN DEPTHS
NULL.                                                 -999.25 : NULL VALUE
PREV_APII.                                     42109326200000 : WELL IDENTIFIER
#___________________________________________________________________________________________________ 
~PARAMETER INFORMATION 
# MNEM.UNIT                                              DATA : DESCRIPTION OF MNEMONIC 
#-----.-----                    ----------------------------- : ----------------------------- 
EKB.FT                                                   3330 : ELEVATION ABOVE MSL
#___________________________________________________________________________________________________ 
~CURVE INFORMATION 
# MNEM.UNIT           : CURVE DESCRIPTION 
#-----.-----          : ----------------------------- 
 DEPT.FT               : MEASURED DEPTH 
 GR__A.API             : GAMMA RAY (GAMMA RAY) 
 DT__A.US/FT           : SONIC DELTA TRANSIT TIME (SONIC) 
 #___________________________________________________________________________________________________ 
~A         DEPT          GR__A          DT__A
# ...
         4601.0        139.167        112.680
         4601.5        150.617        113.694
         4602.0        154.384        114.909
         4602.5        153.742        115.547
         4603.0        148.784        115.747
         4603.5        150.080        115.549
         4604.0        160.639        114.025
         4604.5        158.726        112.518
         4605.0        153.293        111.535
         4605.5        163.210        111.577
         4606.0        168.077        112.136
         4606.5        170.188        112.072
         4607.0        170.233        110.719
         4607.5        164.379        108.439
         4608.0        158.502        108.913
         4608.5        165.462        107.906
         4609.0        204.586        107.563
         4609.5        246.968        114.692
         4610.0        259.161        117.225
         4610.5        264.204        112.902
         4611.0        287.800        107.385
         4611.5        302.293         97.914
         4612.0        287.785         98.255
         4612.5        196.925        107.002
         4613.0        175.666        110.130
         4613.5        222.794        108.526
         4614.0        254.094        108.093
         4614.5        296.587        105.025
         4615.0        284.203        103.745
         4615.5        240.739        107.118
         4616.0        220.900        108.718
         4616.5        197.749        114.377
         4617.0        175.012        118.050
         4617.5        164.326        118.957
         4618.0        173.335        117.713
         4618.5        184.288        113.682
         4619.0        187.594        111.936
         4619.5        189.161        111.735
         4620.0        185.770        111.936
         4620.5        182.036        114.471
         4621.0        179.373        117.112
         4621.5        171.669        118.754
         4622.0        168.844        118.332
         4622.5        167.624        114.152
         4623.0        169.312        111.503
         4623.5        183.585        110.933
         4624.0        190.993        110.933
         4624.5        185.652        111.431
         4625.0        176.447        112.953
         4625.5        183.442        114.029
         4626.0        185.045        113.942
         4626.5        175.812        110.685
         4627.0        174.292        109.818
         4627.5        178.945        109.077
         4628.0        188.249        108.286
         4628.5        206.694        108.572
         4629.0        207.321        107.759
         4629.5        232.547        102.083
         4630.0        268.784         93.050
         4630.5        366.122         88.375
         4631.0        406.655         88.139
         4631.5        384.488         97.978
         4632.0        359.592         99.340
         4632.5        393.201         88.346
         4633.0        460.807         80.565
         4633.5        472.030         79.767
         4634.0        439.207         84.167
         4634.5        387.779         88.980
         4635.0        383.829         88.163
         4635.5        387.354         91.257
         4636.0        394.047         92.197
         4636.5        388.302         93.613
         4637.0        360.254         97.120
         4637.5        282.213         99.561
         4638.0        257.869        105.695
         4638.5        256.287        109.715
         4639.0        262.292        119.393
         4639.5        162.278        133.673
         4640.0        121.120        140.044
         4640.5         94.467        141.673
         4641.0         99.382        133.800
         4641.5        102.110        124.903
         4642.0        101.904        122.888
         4642.5        108.174        119.167
         4643.0        113.554        117.830
         4643.5        114.397        118.756
         4644.0        115.566        116.806
         4644.5        120.764        114.680
         4645.0        127.195        114.124
         4645.5        135.919        116.481
         4646.0        145.481        116.206
         4646.5        145.493        115.793
         4647.0        144.841        111.526
         4647.5        159.385        103.918
         4648.0        181.612        102.226
         4648.5        196.203        104.688
         4649.0        190.576        114.120
         4649.5        164.475        119.573
         4650.0        154.571        121.191
         4650.5        141.557        115.946
         4651.0        135.620        111.553
         4651.5        133.675        111.133
         4652.0        126.289        111.411
         4652.5        124.813        111.936
         4653.0        131.135        113.786
         4653.5        129.173        116.615
         4654.0        122.230        118.036
         4654.5        117.102        118.556
         4655.0        117.365        117.438
         4655.5        122.572        117.329
         4656.0        123.753        120.728
         4656.5        122.954        120.184
         4657.0        130.603        115.709
         4657.5        137.122        111.238
         4658.0        141.337        108.868
         4658.5        142.074        111.276
         4659.0        135.169        112.538
         4659.5        136.593        112.738
         4660.0        147.449        113.850
         4660.5        150.316        115.346
         4661.0        130.433        115.069
         4661.5        140.874        112.618
         4662.0        156.335        108.783
         4662.5        145.169        111.986
         4663.0        125.894        115.750
         4663.5        118.041        117.485
         4664.0        120.563        116.663
         4664.5        135.647        112.643
         4665.0        156.247        110.262
         4665.5        166.727        114.084
         4666.0        159.590        115.535
         4666.5        138.541        115.748
         4667.0        130.938        113.621
         4667.5        141.029        112.158
         4668.0        150.045        112.887
         4668.5        171.996        112.751
         4669.0        211.852        110.248
         4669.5        267.960        104.082
         4670.0        288.868        102.631
         4670.5        293.094        102.796
         4671.0        259.821        104.712
         4671.5        207.129        106.118
         4672.0        187.597        105.717
         4672.5        154.049        106.886
         4673.0        143.595        108.526
         4673.5        152.409        110.331
         4674.0        164.364        109.499
         4674.5        237.893         99.683
         4675.0        335.367         95.504
         4675.5        380.421         95.786
         4676.0        340.466        101.752
         4676.5        279.783        113.233
         4677.0        215.066        116.349
         4677.5        216.947        111.224
         4678.0        243.272        105.096
         4678.5        312.430        102.239
         4679.0        292.959        105.680
         4679.5        222.075        112.744
         4680.0        191.227        117.051
         4680.5        198.297        112.506
         4681.0        222.266        109.739
         4681.5        247.162        103.814
         4682.0        252.943        101.457
         4682.5        240.176        105.669
         4683.0        203.905        110.778
         4683.5        155.245        116.112
         4684.0        145.895        120.444
         4684.5        119.369        122.366
         4685.0        105.493        124.865
         4685.5         94.212        131.102
         4686.0         96.505        136.625
         4686.5        110.127        137.358
         4687.0        130.695        130.558
         4687.5        162.059        120.299
