###############################################
##         ENVERUS                           ##
##         ESS - Open Hole                   ##
##         PERMIAN / DELAWARE                ##
##         Nov 03 2023  V4.0                 ##
##         42-109-32572-90-00                ##
###############################################
## Copyright 2017-2023  ENVERUS.  All Rights Reserved. 
## Confidential - Property of ENVERUS, use governed by terms and 
## conditions found within the existing Information Services Subscription Agreement 
## (as may be amended, the “ISSA”) between Customer and ENVERUS. 
## 
~VERSION INFORMATION
# MNEM.UNIT                               DATA : DESCRIPTION OF MNEMONIC
#-----.-----     ----------------------------- : -----------------------------
VERS.                                     2.00 : CWLS LOG ASCII STANDARD - VERSION 2.00
WRAP.                                       NO : MULTIPLE LINES PER DEPTH STEP
VEND.                                  ENVERUS : VENDOR
TYPE.                          ESS - OPEN HOLE : ENVERUS ESSENTIAL CURVES – ACCESSIBLE THROUGH ENVERUS PRISM(TM)
DOC.                                  51093467 : ENVERUS HEADER RAW DOCUMENT ID
#___________________________________________________________________________________________________ 
~WELL INFORMATION 
# 8gl1O6v4swiPFL4GH+dnL3Th7drW/gNnufiOMC39xBbatiyIUGjWQRxOO2UkOAKZqu0QrDKM70MxnzzovQmAYg== 
# MNEM.UNIT                                              DATA : DESCRIPTION OF MNEMONIC 
#-----.-----                    ----------------------------- : ----------------------------- 
CNTY.                                               CULBERSON : COUNTY 
STATE.                                                  TEXAS : STATE 
CNTRY.                                                    USA : COUNTRY 
API.                                             42-109-32572 : API (10 Digit) 
API_14.                                    42-109-32572-90-00 : API (14 Digits) 
API_14_std.                                 42-109-32572-9000 : API (14 Digits Standard) 
UWI.                                           42109325729000 : UNIQUE WELL ID 
WELL.                               42109325720000_PREV_API14 : WELL NAME
STRT.FT                                                2248.5 : START DEPTH
STOP.FT                                               10757.5 : STOP DEPTH
STEP.FT                                                   0.5 : STEP BETWEEN DEPTHS
NULL.                                                 -999.25 : NULL VALUE
PREV_APII.                                     42109325720000 : WELL IDENTIFIER
#___________________________________________________________________________________________________ 
~PARAMETER INFORMATION 
# MNEM.UNIT                                              DATA : DESCRIPTION OF MNEMONIC 
#-----.-----                    ----------------------------- : ----------------------------- 
EKB.FT                                                   3340 : ELEVATION ABOVE MSL
#___________________________________________________________________________________________________ 
~CURVE INFORMATION 
# MNEM.UNIT           : CURVE DESCRIPTION 
#-----.-----          : ----------------------------- 
 DEPT.FT               : MEASURED DEPTH 
 CALI.IN               : CALIPER (CAL - CALIPER) 
 GR.API                : GAMMA RAY (GAMMA RAY) 
 DT.US/FT              : SONIC DELTA TRANSIT TIME (SONIC) 
 #___________________________________________________________________________________________________ 
~A         DEPT           CALI             GR             DT
# ...
         7858.5          8.921         82.659         67.359
         7859.0          8.921         81.012         65.773
         7859.5          8.920         81.858         66.281
         7860.0          8.920         84.409         67.229
         7860.5          8.919         88.523         68.070
         7861.0          8.919         81.987         68.364
         7861.5          8.919         82.711         69.592
         7862.0          8.918         86.376         69.763
         7862.5          8.918         92.397         69.648
         7863.0          8.917         90.167         69.648
         7863.5          8.917         83.349         69.764
         7864.0          8.917         77.714         69.075
         7864.5          8.916         58.857         61.314
         7865.0          8.916         43.433         57.046
         7865.5          8.916         31.702         55.469
         7866.0          8.915         27.699         55.293
         7866.5          8.915         27.574         55.292
         7867.0          8.914         31.113         57.574
         7867.5          8.914         31.703         60.273
         7868.0          8.914         31.512         60.565
         7868.5          8.913         30.535         60.742
         7869.0          8.913         30.521         60.309
         7869.5          8.912         30.341         59.694
         7870.0          8.912         30.715         59.369
         7870.5          8.912         31.507         59.046
         7871.0          8.911         31.323         58.864
         7871.5          8.911         33.855         59.559
         7872.0          8.911         34.051         60.527
         7872.5          8.910         31.347         55.999
         7873.0          8.910         23.584         55.300
         7873.5          8.909         20.956         53.931
         7874.0          8.909         26.199         51.895
         7874.5          8.909         45.849         57.573
         7875.0          8.908         56.445         67.123
         7875.5          8.908         73.682         68.555
         7876.0          8.907         81.626         69.222
         7876.5          8.907         88.311         73.483
         7877.0          8.907         90.010         74.282
         7877.5          8.906         91.781         74.629
         7878.0          8.906         90.240         74.856
         7878.5          8.906         86.369         74.746
         7879.0          8.905         86.441         74.545
         7879.5          8.905         87.838         73.064
         7880.0          8.905         86.783         72.587
         7880.5          8.905         84.767         72.578
         7881.0          8.905         85.095         72.388
         7881.5          8.905         82.604         71.944
         7882.0          8.905         78.460         71.496
         7882.5          8.905         78.092         71.065
         7883.0          8.905         85.032         70.996
         7883.5          8.905         91.481         71.113
         7884.0          8.905         92.917         71.560
         7884.5          8.905         91.155         72.098
         7885.0          8.905         86.248         72.109
         7885.5          8.905         83.995         71.753
         7886.0          8.905         83.017         71.092
         7886.5          8.905         82.779         70.313
         7887.0          8.905         82.192         69.720
         7887.5          8.905         84.213         69.648
         7888.0          8.905         89.716         70.281
         7888.5          8.905        101.774         72.389
         7889.0          8.905        105.035         72.461
         7889.5          8.905         94.469         69.170
         7890.0          8.905         85.246         68.353
         7890.5          8.905         37.330         63.978
         7891.0          8.905         30.830         58.659
         7891.5          8.905         30.137         57.496
         7892.0          8.905         27.844         58.265
         7892.5          8.905         27.202         58.281
         7893.0          8.905         30.461         58.281
         7893.5          8.905         31.370         58.137
         7894.0          8.905         29.642         57.614
         7894.5          8.905         27.458         57.344
         7895.0          8.905         27.593         57.304
         7895.5          8.905         43.657         57.337
         7896.0          8.905         49.759         59.256
         7896.5          8.905         61.130         58.025
         7897.0          8.905         51.729         56.612
         7897.5          8.905         46.967         56.115
         7898.0          8.905         53.007         55.722
         7898.5          8.905         61.188         59.751
         7899.0          8.905         54.410         61.112
         7899.5          8.905         43.994         58.196
         7900.0          8.905         42.733         57.893
         7900.5          8.905         45.834         57.637
         7901.0          8.905         43.973         58.223
         7901.5          8.905         35.992         57.576
         7902.0          8.905         34.834         57.132
         7902.5          8.905         36.381         57.028
         7903.0          8.906         34.794         57.865
         7903.5          8.907         31.137         58.398
         7904.0          8.907         30.724         58.043
         7904.5          8.908         31.116         57.544
         7905.0          8.909         31.507         57.368
         7905.5          8.909         31.703         56.853
         7906.0          8.910         31.703         56.304
         7906.5          8.911         31.507         56.875
         7907.0          8.911         31.703         56.901
         7907.5          8.912         31.703         56.400
         7908.0          8.913         31.507         56.023
         7908.5          8.913         31.116         55.794
         7909.0          8.914         30.528         56.131
         7909.5          8.915         30.528         56.348
         7910.0          8.915         30.436         56.554
         7910.5          8.916         30.622         57.140
         7911.0          8.917         27.145         57.257
         7911.5          8.917         26.568         57.432
         7912.0          8.918         27.839         57.461
         7912.5          8.919         28.082         57.373
         7913.0          8.919         26.715         57.359
         7913.5          8.920         25.636         57.021
         7914.0          8.921         25.832         57.255
         7914.5          8.921         28.583         57.444
         7915.0          8.922         33.361         57.780
         7915.5          8.923         32.798         57.641
         7916.0          8.923         31.085         57.218
         7916.5          8.924         28.287         57.051
         7917.0          8.925         28.180         57.051
         7917.5          8.925         27.593         57.136
         7918.0          8.926         28.071         57.441
         7918.5          8.927         30.018         57.754
         7919.0          8.927         31.591         57.779
         7919.5          8.928         32.165         57.813
         7920.0          8.929         31.034         57.788
         7920.5          8.929         30.724         57.520
         7921.0          8.930         31.000         57.344
         7921.5          8.931         30.724         57.402
         7922.0          8.931         29.043         57.379
         7922.5          8.932         30.741         57.484
         7923.0          8.933         32.245         57.754
         7923.5          8.933         33.194         57.871
         7924.0          8.934         32.020         57.776
