###############################################
##         ENVERUS                           ##
##         ESS - Open Hole                   ##
##         PERMIAN / DELAWARE                ##
##         Nov 03 2023  V4.0                 ##
##         42-109-32508-00-00                ##
###############################################
## Copyright 2017-2023  ENVERUS.  All Rights Reserved. 
## Confidential - Property of ENVERUS, use governed by terms and 
## conditions found within the existing Information Services Subscription Agreement 
## (as may be amended, the “ISSA”) between Customer and ENVERUS. 
## 
~VERSION INFORMATION
# MNEM.UNIT                               DATA : DESCRIPTION OF MNEMONIC
#-----.-----     ----------------------------- : -----------------------------
VERS.                                     2.00 : CWLS LOG ASCII STANDARD - VERSION 2.00
WRAP.                                       NO : MULTIPLE LINES PER DEPTH STEP
VEND.                                  ENVERUS : VENDOR
TYPE.                          ESS - OPEN HOLE : ENVERUS ESSENTIAL CURVES – ACCESSIBLE THROUGH ENVERUS PRISM(TM)
DOC.                                  51093165 : ENVERUS HEADER RAW DOCUMENT ID
#___________________________________________________________________________________________________ 
~WELL INFORMATION 
# 1l9uGBxUQQhBCtjIwzslcirW42fLV8cokTOAxV7sfA093x4JFuWG6+twQwU/7oNL7vvW02EVanlAmdL+peO2nw== 
# MNEM.UNIT                                              DATA : DESCRIPTION OF MNEMONIC 
#-----.-----                    ----------------------------- : ----------------------------- 
CNTY.                                               CULBERSON : COUNTY 
STATE.                                                  TEXAS : STATE 
CNTRY.                                                    USA : COUNTRY 
API.                                             42-109-32508 : API (10 Digit) 
API_14.                                    42-109-32508-00-00 : API (14 Digits) 
API_14_std.                                 42-109-32508-0000 : API (14 Digits Standard) 
UWI.                                           42109325080000 : UNIQUE WELL ID 
WELL.                                  LT. GIBSON 12 STATE 1H : WELL NAME
STRT.FT                                                1970.5 : START DEPTH
STOP.FT                                                8727.0 : STOP DEPTH
STEP.FT                                                   0.5 : STEP BETWEEN DEPTHS
NULL.                                                 -999.25 : NULL VALUE
PREV_APII.                                     42109325080000 : WELL IDENTIFIER
#___________________________________________________________________________________________________ 
~PARAMETER INFORMATION 
# MNEM.UNIT                                              DATA : DESCRIPTION OF MNEMONIC 
#-----.-----                    ----------------------------- : ----------------------------- 
EKB.FT                                                   3552 : ELEVATION ABOVE MSL
#___________________________________________________________________________________________________ 
~CURVE INFORMATION 
# MNEM.UNIT           : CURVE DESCRIPTION 
#-----.-----          : ----------------------------- 
 DEPT.FT               : MEASURED DEPTH 
 GR__A.API             : GAMMA RAY (GAMMA RAY) 
 DT__A.US/FT           : SONIC DELTA TRANSIT TIME (SONIC) 
 #___________________________________________________________________________________________________ 
~A         DEPT          GR__A          DT__A
# ...
         4232.5         11.888        106.458
         4233.0         14.453        107.203
         4233.5         -2.117        113.854
         4234.0        -36.773        118.656
         4234.5        -50.470        116.140
         4235.0        -29.811        108.374
         4235.5        -16.016        102.985
         4236.0        -17.472        102.534
         4236.5        -10.953        102.167
         4237.0         -8.911        104.976
         4237.5        -34.553        112.946
         4238.0        -77.734        119.032
         4238.5        -84.803        120.876
         4239.0        -57.124        115.226
         4239.5        -23.382        111.107
         4240.0        -25.415        111.117
         4240.5        -34.208        114.792
         4241.0        -48.552        121.861
         4241.5        -55.115        120.218
         4242.0        -55.379        115.310
         4242.5        -48.457        109.082
         4243.0        -36.596        110.167
         4243.5        -35.156        111.146
         4244.0        -35.547        112.592
         4244.5        -35.071        114.815
         4245.0        -39.814        115.688
         4245.5        -54.230        120.579
         4246.0        -63.051        123.782
         4246.5        -64.063        124.172
         4247.0        -61.983        124.172
         4247.5        -62.783        124.104
         4248.0        -68.607        123.197
         4248.5        -64.442        122.732
         4249.0        -45.282        122.887
         4249.5        -25.613        123.392
         4250.0        -34.687        122.544
         4250.5        -52.298        119.413
         4251.0        -58.210        115.023
         4251.5        -39.014        109.832
         4252.0        -22.448        109.968
         4252.5        -33.721        113.688
         4253.0        -44.649        119.133
         4253.5        -52.104        120.157
         4254.0        -61.270        119.373
         4254.5        -63.531        118.465
         4255.0        -64.844        118.908
         4255.5        -64.703        118.519
         4256.0        -50.818        118.129
         4256.5        -43.923        117.739
         4257.0        -55.547        117.739
         4257.5        -76.279        117.934
         4258.0        -78.600        115.346
         4258.5        -63.270        112.438
         4259.0        -54.620        113.806
         4259.5        -56.190        114.590
         4260.0        -65.419        115.374
         4260.5        -76.346        115.790
         4261.0        -80.038        117.296
         4261.5        -84.011        119.856
         4262.0        -74.034        120.848
         4262.5        -66.438        121.248
         4263.0        -64.460        121.054
         4263.5        -55.850        121.251
         4264.0        -72.824        121.832
         4264.5        -84.774        122.027
         4265.0        -78.516        122.222
         4265.5        -70.703        122.417
         4266.0        -78.516        122.222
         4266.5        -85.992        121.637
         4267.0        -85.875        121.637
         4267.5        -82.987        121.832
         4268.0        -78.125        122.027
         4268.5        -74.609        122.027
         4269.0        -78.611        121.590
         4269.5        -81.745        120.416
         4270.0        -79.185        119.883
         4270.5        -77.073        119.238
         4271.0        -74.984        119.103
         4271.5        -78.535        119.103
         4272.0        -82.957        118.519
         4272.5        -82.780        118.052
         4273.0        -80.109        117.463
         4273.5        -78.516        116.875
         4274.0        -78.516        116.764
         4274.5        -78.516        117.154
         4275.0        -79.297        117.154
         4275.5        -79.297        117.154
         4276.0        -77.554        117.154
         4276.5        -70.829        116.764
         4277.0        -67.742        117.072
         4277.5        -66.562        118.168
         4278.0        -64.453        119.420
         4278.5        -68.722        119.883
         4279.0        -77.734        119.364
         4279.5        -78.516        117.800
         4280.0        -79.297        116.764
         4280.5        -82.813        116.959
         4281.0        -76.953        116.959
         4281.5        -70.313        117.154
         4282.0        -70.313        117.349
         4282.5        -71.336        117.544
         4283.0        -83.518        118.096
         4283.5        -93.417        118.880
         4284.0        -84.474        118.908
         4284.5        -72.970        118.908
         4285.0        -63.024        116.831
         4285.5        -45.122        112.343
         4286.0        -12.618        108.424
         4286.5          7.031        107.962
         4287.0         -3.515        109.746
         4287.5        -25.260        114.436
         4288.0        -54.017        116.382
         4288.5        -68.846        116.764
         4289.0        -69.499        117.154
         4289.5        -62.056        117.564
         4290.0        -50.733        118.348
         4290.5        -48.721        119.022
         4291.0        -52.474        118.551
         4291.5        -50.098        118.092
         4292.0        -40.609        117.698
         4292.5        -32.634        116.525
         4293.0        -30.274        115.546
         4293.5        -19.645        114.514
         4294.0         -6.527        111.014
         4294.5         -5.859        100.475
         4295.0          4.038         97.401
         4295.5         14.592         97.145
         4296.0         14.550         99.488
         4296.5         12.891        105.065
         4297.0         10.122        107.765
         4297.5         -3.007        114.486
         4298.0        -19.320        112.366
         4298.5        -17.984        109.162
         4299.0         -3.320        108.772
         4299.5        -11.991        109.560
         4300.0        -31.351        115.043
         4300.5        -40.164        116.374
         4301.0        -50.132        117.658
         4301.5        -43.904        115.347
         4302.0        -11.167        111.379
         4302.5         35.595        106.385
         4303.0         70.054         93.564
         4303.5        140.554         87.962
         4304.0        201.654         83.267
         4304.5        222.741         84.533
         4305.0        193.342         91.768
         4305.5        142.023        100.808
         4306.0         84.858        106.857
         4306.5         54.990        106.895
         4307.0         40.503        103.183
         4307.5         48.511         99.945
         4308.0         35.729         98.978
         4308.5         20.550        100.545
         4309.0         12.204        109.458
         4309.5         -4.777        119.022
         4310.0        -55.995        127.223
         4310.5        -76.905        134.482
         4311.0        -92.974        138.987
         4311.5        -97.647        139.381
         4312.0        -91.283        139.562
         4312.5        -78.516        138.129
         4313.0        -63.145        134.062
         4313.5        -41.459        130.805
         4314.0        -30.708        121.990
         4314.5        -16.153        113.441
         4315.0         20.008        103.661
         4315.5         49.770         93.928
         4316.0         73.072         95.056
         4316.5         64.906         98.727
         4317.0         47.940        105.908
         4317.5         49.717        112.388
         4318.0         55.338        113.450
         4318.5         44.941        112.804
         4319.0         42.986        112.476
