~VERSION INFORMATION
VERS. 2.0 : CWLS Log ASCII Standard - Version 2.0
WRAP. NO : One line per depth step
#--------------------------------------------------#
#----------------DRILLING INFO, INC.---------------#
#---------------WWW.DRILLINGINFO.COM---------------#
#------------------COPYRIGHT 2015------------------#
#--------------------------------------------------#
#THIS FILE MAY BE USED ONLY IN ACCORDANCE WITH A CURRENT SUBSCRIPTION AGREEMENT BETWEEN
#THE USER AND DRILLING INFO, INC. NO PART OF THIS FILE MAY BE REPRODUCED, USED, COPIED,
#MODIFIED, PROPAGATED, OR DISTRIBUTED EXCEPT IN ACCORDANCE WITH THE SUBSCRIPTION
#AGREEMENT. UNAUTHORIZED USE OR DISTRIBUTION OF ALL OR ANY PART OF THIS FILE MAY VIOLATE
#COPYRIGHT, TRADEMARK, AND/OR OTHER LAWS AND IS SUBJECT TO CIVIL AS WELL AS CRIMINAL
#SANCTIONS.
#--------------------------------------------------#
#THIS FILE IS PROVIDED "AS-IS" AND ALL WARRANTIES ARE EXPRESSLY DISCLAIMED, WHETHER
#EXPRESS, ORAL, IMPLIED, STATUTORY OR OTHERWISE, INCLUDING ANY IMPLIED WARRANTY OF FITNESS
#FOR A PARTICULAR PURPOSE, MERCHANTABILITY, TITLE OR NON-INFRINGEMENT, AND ANY WARRANTIES
#ARISING BY VIRTUE OF CUSTOM OF TRADE OR COURSE OF DEALING.  FURTHER, DRILLING INFO,
#INC. AND ITS LICENSORS DO NOT REPRESENT OR WARRANT THAT THIS FILE WILL MEET USER'S
#REQUIREMENTS OR ARE SUITABLE FOR USER'S NEEDS OR THAT THE DATA OR RESULTS PROVIDED IN
#CONJUNCTION THEREWITH ARE CORRECT, ACCURATE, TIMELY OR RELIABLE. THESE DISCLAIMERS SHALL
#APPLY REGARDLESS OF ANY FAILURE OF ESSENTIAL PURPOSE OF ANY LIMITED REMEDY.  SOME
#JURISDICTIONS DO NOT ALLOW THE EXCLUSION OF CERTAIN WARRANTIES SO SOME OF THE ABOVE
#EXCLUSIONS MAY NOT APPLY. IN NO EVENT SHALL DRILLING INFO, INC. OR ANY OF ITS AFFILIATES
#BE LIABLE UNDER ANY LEGAL THEORY, WHETHER IN TORT (INCLUDING WITHOUT LIMITATION
#NEGLIGENCE), CONTRACT, STRICT LIABILITY, STATUTORY OR OTHERWISE, FOR ANY SPECIAL,
#INCIDENTAL, CONSEQUENTIAL, EXEMPLARY, PUNITIVE OR INDIRECT DAMAGE OF ANY KIND, INCLUDING
#WITHOUT LIMITATION LOSS OF REVENUE, PROFITS, GOODWILL, USE, AND/OR DATA OR THE COST OF
#PROCUREMENT OF SUBSTITUTE GOODS OR SERVICES, EVEN IF APPRISED OF THE POSSIBILITY OF SUCH
#DAMAGES IN ADVANCE.
#--------------------------------------------------#
~WELL INFORMATION
#MNEMONIC     .UNIT              VALUE :DESCRIPTION
#--------------------------------------------------#
STRT       .ft                51.00000 :START DEPTH
STOP       .ft                9476.00000 :STOP DEPTH
STEP       .ft                0.50000 :STEP
NULL       .                -999.25000 :NULL VALUE
COMP       .                 :COMPANY
WELL       .                 :WELL
FLD       .                 :FIELD
LOC       .                 :LOCATION
CNTY       .                 :COUNTY
STAT       .                 :STATE
CTRY       .                 :COUNTRY
SRVC       .                 :SERVICE COMPANY
DATE       .                 :DATE
API       .                42109100520000 :API NUMBER
~CURVE INFORMATION
#MNEMONIC     .UNIT      API CODE :CURVE DESCRIPTION
#--------------------------------------------------#
DEPTH       .ft                      :Measured Depth
CAL       .in        UNKNOWN   :CAL
DT       .us/ft        UNKNOWN   :DT
GR       .gAPI        UNKNOWN   :GR
~A    DEPTH    CAL    DT    GR
# ...
903.50000    10.25868    59.77949    71.96165
904.00000    10.31157    60.08137    73.17587
904.50000    10.35051    60.27829    74.39008
905.00000    10.34109    60.18298    75.60429
905.50000    10.33166    60.08768    76.81851
906.00000    10.32224    59.99238    78.03272
906.50000    10.31281    59.89708    79.24694
907.00000    10.30339    59.80178    80.46115
907.50000    10.29396    59.70648    81.46459
908.00000    10.28453    59.61117    80.05177
908.50000    10.27402    59.12424    78.63895
909.00000    10.26319    57.96373    77.22613
909.50000    10.25236    56.80322    75.81331
910.00000    10.24154    55.64271    74.40049
910.50000    10.23071    54.48220    72.81570
911.00000    10.21988    53.32169    71.19740
911.50000    10.20906    52.16119    69.57911
912.00000    10.19823    51.50929    67.92939
912.50000    10.18740    51.43763    66.27887
913.00000    10.17657    51.36596    64.62835
913.50000    10.16575    51.29429    62.97783
914.00000    10.15492    51.36443    61.32731
914.50000    10.14410    51.56780    59.67679
915.00000    10.13327    51.77117    58.02627
915.50000    10.12244    52.21801    60.05665
916.00000    10.11161    53.16053    62.90105
916.50000    10.10079    54.10304    65.74544
917.00000    10.08996    54.98512    70.87711
917.50000    10.07913    55.13038    77.87314
918.00000    10.06831    55.27564    81.52573
918.50000    10.05748    55.42090    75.71208
919.00000    10.04639    54.34844    69.89844
919.50000    10.03152    53.13333    64.21918
920.00000    10.01664    51.91821    58.56793
920.50000    10.00176    50.70309    52.91669
921.00000    9.98688    50.00473    49.16972
921.50000    9.97200    50.52461    48.04496
922.00000    9.95713    50.80005    46.92020
922.50000    9.94225    50.96607    45.79544
923.00000    9.92737    51.13209    44.67068
923.50000    9.91249    51.29811    43.54592
924.00000    9.89762    51.46414    42.42116
924.50000    9.88274    51.63016    41.29640
925.00000    9.88148    51.79618    51.37994
925.50000    9.88185    51.96220    50.82833
926.00000    9.88222    52.12823    49.04874
926.50000    9.88259    52.29425    47.26914
927.00000    9.88296    52.46027    45.48955
927.50000    9.88332    52.42332    43.70995
928.00000    9.88369    52.22157    41.93036
928.50000    9.88406    52.01983    40.15076
929.00000    9.88443    51.81809    40.83723
929.50000    9.88479    51.61634    42.32250
930.00000    9.88516    51.41460    43.80777
930.50000    9.88422    51.21286    45.29305
931.00000    9.87305    51.01111    46.77832
931.50000    9.86188    51.30921    48.26360
932.00000    9.85071    51.84823    50.00654
932.50000    9.83954    52.79434    52.95201
933.00000    9.82838    54.88094    55.89748
933.50000    9.81721    56.96754    58.84294
934.00000    9.80604    59.05415    61.78841
934.50000    9.79487    61.14075    64.73388
935.00000    9.78370    62.50750    63.11389
935.50000    9.77254    61.41761    58.12398
936.00000    9.77206    60.32773    53.13405
936.50000    9.77978    59.23784    49.91562
937.00000    9.78750    58.14795    54.65983
937.50000    9.79522    59.90865    59.40403
938.00000    9.80294    63.47650    64.14824
938.50000    9.81066    67.04436    68.89244
939.00000    9.81837    70.61222    73.64102
939.50000    9.82610    73.08194    78.43362
940.00000    9.83381    71.89163    83.22621
940.50000    9.84154    70.70131    88.01881
941.00000    9.85054    69.51099    92.81140
941.50000    9.86024    69.07274    97.60399
942.00000    9.86994    69.78310    102.39659
942.50000    9.87964    70.49346    107.18918
943.00000    9.88934    71.20382    111.98178
943.50000    9.89904    71.91418    103.97121
944.00000    9.90874    71.86633    101.23259
944.50000    9.91844    71.20709    98.49398
945.00000    9.92814    70.54786    90.38610
945.50000    9.93784    69.88862    89.11756
946.00000    9.94754    69.22939    84.67014
946.50000    9.95724    68.57015    81.38939
947.00000    9.96694    68.52600    80.58537
947.50000    9.97067    69.72052    82.23546
948.00000    9.97101    70.91505    83.88554
948.50000    9.97136    71.96529    85.53563
949.00000    9.97171    70.81318    87.18572
949.50000    9.97205    69.66107    88.83581
950.00000    9.97240    68.50896    87.19965
950.50000    9.97274    67.35685    85.05316
951.00000    9.97309    67.09646    82.90668
951.50000    9.97344    67.91529    83.58791
952.00000    9.97378    68.73412    86.88868
952.50000    9.97413    69.55295    90.18944
953.00000    9.97448    70.37178    93.49021
953.50000    9.97482    71.19061    94.67280
954.00000    9.97517    72.00944    95.29029
954.50000    9.97551    70.71308    94.53682
955.00000    9.97586    69.37366    93.63331
955.50000    9.97621    68.03424    92.72980
956.00000    9.97655    66.69482    91.82628
956.50000    9.97690    65.35539    90.92277
957.00000    9.98301    65.54932    90.01926
957.50000    9.99714    66.66169    94.37584
958.00000    10.01127    67.77407    100.89629
958.50000    10.02540    68.88645    104.25894
959.00000    10.03952    69.99882    106.26725
959.50000    10.05365    71.11120    108.20330
960.00000    10.06778    72.03615    110.13935
960.50000    10.08191    71.34707    112.07541
961.00000    10.09604    70.65799    114.01146
961.50000    10.11017    69.96891    120.10790
962.00000    10.12430    69.27983    127.32583
962.50000    10.13842    68.59075    134.54376
963.00000    10.15255    67.90167    141.76169
963.50000    10.16668    69.86786    148.97962
964.00000    10.18081    72.19013    143.17613
964.50000    10.19494    73.55025    132.79171
965.00000    10.20907    73.18003    124.46042
965.50000    10.22320    72.80981    121.94256
966.00000    10.23733    72.43958    119.42470
966.50000    10.25145    72.06936    126.23211
967.00000    10.26558    71.69914    134.45307
967.50000    10.27971    71.32892    142.67403
968.00000    10.29384    70.77456    150.89499
968.50000    10.30452    69.78942    149.43838
969.00000    10.31171    68.80428    124.92253
969.50000    10.31890    67.81914    83.10592
970.00000    10.32609    66.83400    84.29769
970.50000    10.33328    66.69006    85.48946
971.00000    10.34047    66.96940    86.68123
971.50000    10.34767    67.24875    87.87300
972.00000    10.35486    67.52809    89.06477
972.50000    10.36205    67.80744    90.25655
973.00000    10.36924    68.08678    91.44832
973.50000    10.37643    68.36612    91.72554
974.00000    10.38363    68.64547    91.23941
974.50000    10.39082    68.92481    90.75328
975.00000    10.39801    69.20416    90.26715
975.50000    10.40520    69.48350    89.78102
976.00000    10.41239    69.76284    89.29489
976.50000    10.41958    69.69757    91.91288
977.00000    10.42677    69.48986    95.06365
977.50000    10.43397    69.28216    94.20886
978.00000    10.44116    69.07445    90.61621
978.50000    10.44835    68.86675    87.02356
979.00000    10.45554    68.65904    83.43091
979.50000    10.46273    68.45134    79.83827
980.00000    10.46992    68.24363    76.24562
980.50000    10.47711    68.03593    74.35931
981.00000    10.48799    68.19349    73.06227
981.50000    10.50038    69.40916    71.76523
982.00000    10.51276    70.62483    70.46819
982.50000    10.52515    70.96794    70.46832
983.00000    10.53754    71.10380    71.99736
983.50000    10.54993    71.23967    73.52639
984.00000    10.56232    71.37553    75.05542
984.50000    10.57471    71.49710    76.58445
985.00000    10.58710    71.29929    78.50853
985.50000    10.59949    71.10148    81.40801
986.00000    10.61187    70.90367    84.30750
986.50000    10.62426    70.70586    86.72806
987.00000    10.63665    70.66872    88.63802
987.50000    10.64904    70.97912    90.54798
988.00000    10.66143    71.28953    92.72137
988.50000    10.67382    71.59994    95.95690
989.00000    10.70141    71.91034    99.19244
989.50000    10.73913    72.66284    107.58340
990.00000    10.77686    73.80596    123.73498
990.50000    10.81458    74.94909    139.88657
