###############################################
##         ENVERUS                           ##
##         ESS - Open Hole                   ##
##         PERMIAN / DELAWARE                ##
##         Nov 03 2023  V4.0                 ##
##         42-109-32538-90-00                ##
###############################################
## Copyright 2017-2023  ENVERUS.  All Rights Reserved. 
## Confidential - Property of ENVERUS, use governed by terms and 
## conditions found within the existing Information Services Subscription Agreement 
## (as may be amended, the “ISSA”) between Customer and ENVERUS. 
## 
~VERSION INFORMATION
# MNEM.UNIT                               DATA : DESCRIPTION OF MNEMONIC
#-----.-----     ----------------------------- : -----------------------------
VERS.                                     2.00 : CWLS LOG ASCII STANDARD - VERSION 2.00
WRAP.                                       NO : MULTIPLE LINES PER DEPTH STEP
VEND.                                  ENVERUS : VENDOR
TYPE.                          ESS - OPEN HOLE : ENVERUS ESSENTIAL CURVES – ACCESSIBLE THROUGH ENVERUS PRISM(TM)
DOC.                                  51093252 : ENVERUS HEADER RAW DOCUMENT ID
#___________________________________________________________________________________________________ 
~WELL INFORMATION 
# oCCetX3e+0pvkDd8h//i1tmWwvIHyfHqsQII3M49Y6eU5HggNAlLoqtwY+vCuZvzOG9Fr+Tv1xe2vto6NUMufQ== 
# MNEM.UNIT                                              DATA : DESCRIPTION OF MNEMONIC 
#-----.-----                    ----------------------------- : ----------------------------- 
CNTY.                                               CULBERSON : COUNTY 
STATE.                                                  TEXAS : STATE 
CNTRY.                                                    USA : COUNTRY 
API.                                             42-109-32538 : API (10 Digit) 
API_14.                                    42-109-32538-90-00 : API (14 Digits) 
API_14_std.                                 42-109-32538-9000 : API (14 Digits Standard) 
UWI.                                           42109325389000 : UNIQUE WELL ID 
WELL.                                                  DRD_55 : WELL NAME
STRT.FT                                                2546.5 : START DEPTH
STOP.FT                                               11260.0 : STOP DEPTH
STEP.FT                                                   0.5 : STEP BETWEEN DEPTHS
NULL.                                                 -999.25 : NULL VALUE
PREV_APII.                                     42109325380000 : WELL IDENTIFIER
#___________________________________________________________________________________________________ 
~PARAMETER INFORMATION 
# MNEM.UNIT                                              DATA : DESCRIPTION OF MNEMONIC 
#-----.-----                    ----------------------------- : ----------------------------- 
EKB.FT                                                   3182 : ELEVATION ABOVE MSL
#___________________________________________________________________________________________________ 
~CURVE INFORMATION 
# MNEM.UNIT           : CURVE DESCRIPTION 
#-----.-----          : ----------------------------- 
 DEPT.FT               : MEASURED DEPTH 
 CALI.IN               : CALIPER (CAL - CALIPER) 
 GR.API                : GAMMA RAY (GAMMA RAY) 
 DT.US/FT              : SONIC DELTA TRANSIT TIME (SONIC) 
 RESS.OHMM             : SHALLOW INDUCTION RESISTIVITY (ILS - SHALLOW RESISTIVITY) 
 RESD.OHMM             : DEEP INDUCTION RESISTIVITY (ILD - DEEP RESISTIVITY) 
 DPHI.V/V              : DENSITY POROSITY (DENSITY POROSITY) 
 NPHI.V/V              : NEUTRON POROSITY (NEUTRON POROSITY) 
 RHOB.G/CC             : BULK DENSITY (DENSITY) 
 #___________________________________________________________________________________________________ 
~A         DEPT           CALI             GR             DT           RESS           RESD           DPHI           NPHI           RHOB
# ...
        10364.0          6.169        108.686         80.082          6.168          5.381        0.06530        0.16328         2.6062
        10364.5          6.169        108.629         80.082          6.297          5.146        0.06290        0.20588         2.6084
        10365.0          6.170        101.668         80.082          6.529          5.427        0.06303        0.20347         2.6126
        10365.5          6.171         98.169         80.491          6.763          5.876        0.05873        0.19130         2.6229
        10366.0          6.171         95.766         80.491          7.401          6.090        0.04920        0.18503         2.6344
        10366.5          6.172         95.032         80.270          6.833          5.865        0.05162        0.19233         2.6104
        10367.0          6.172         97.431         79.649          6.529          5.865        0.06890        0.20883         2.5944
        10367.5          6.173        101.003         78.620          6.695          5.995        0.07270        0.21929         2.5937
        10368.0          6.173        103.005         77.628          7.157          6.488        0.07053        0.21515         2.6031
        10368.5          6.174         94.949         76.971          7.463          7.382        0.05874        0.22240         2.6193
        10369.0          6.174         93.058         76.810          7.484          7.259        0.05032        0.21855         2.6294
        10369.5          6.174         93.930         76.810          7.500          7.247        0.05777        0.18821         2.6127
        10370.0          6.174        108.096         76.337          7.580          7.705        0.06746        0.19456         2.5766
        10370.5          6.174        126.493         75.308          8.592          9.008        0.08064        0.17676         2.5180
        10371.0          6.175        124.178         74.279         10.191         10.023        0.12655        0.17391         2.4808
        10371.5          6.177        121.098         73.250         12.003         11.468        0.14386        0.19290         2.5031
        10372.0          6.179        110.286         72.810         14.760         14.830        0.13365        0.19021         2.5196
        10372.5          6.181         80.664         73.990         17.233         17.762        0.11341        0.22147         2.5531
        10373.0          6.184         70.839         76.303         19.134         19.855        0.08503        0.21538         2.5805
        10373.5          6.186         70.829         79.549         18.029         18.282        0.08713        0.17440         2.5246
        10374.0          6.188         91.058         81.835         13.579         14.199        0.11553        0.18126         2.5155
        10374.5          6.190        112.263         82.864         11.514         11.859        0.11861        0.17711         2.5235
        10375.0          6.192        106.442         82.340         11.605         11.760        0.11440        0.20322         2.5242
        10375.5          6.183        101.977         80.079         12.535         12.539        0.11950        0.19760         2.5187
        10376.0          6.174         97.623         76.582         13.825         14.504        0.11451        0.19147         2.5333
        10376.5          6.166         86.015         72.908         17.659         18.526        0.10741        0.20708         2.5433
        10377.0          6.168         66.494         69.872         24.543         27.436        0.09970        0.14358         2.5582
        10377.5          6.169         49.469         68.261         39.567         42.771        0.08641        0.09096         2.5899
        10378.0          6.171         41.825         67.403         63.364         72.087        0.06053        0.08572         2.6132
        10378.5          6.172         42.433         67.812         78.064         94.529        0.06346        0.08888         2.6040
        10379.0          6.174         61.093         68.814         80.945         90.665        0.06812        0.09196         2.5956
        10379.5          6.175         96.911         69.843         76.773         80.889        0.07101        0.09892         2.5815
        10380.0          6.177         99.452         70.266         62.454         63.845        0.08939        0.12963         2.5700
        10380.5          6.178         91.237         70.266         54.291         55.142        0.08164        0.16253         2.5866
        10381.0          6.180         91.646         69.237         52.304         52.395        0.06874        0.17605         2.6001
        10381.5          6.181         86.531         67.574         55.529         53.915        0.09419        0.14540         2.5396
        10382.0          6.183         90.402         65.113         68.212         66.891        0.12128        0.07521         2.5145
        10382.5          6.182         60.622         62.006        100.729        103.137        0.09980        0.07885         2.5800
        10383.0          6.178         38.999         59.361        156.833        179.761        0.06497        0.08434         2.6239
        10383.5          6.174         33.148         57.098        241.325        384.915        0.04851        0.06880         2.6329
        10384.0          6.170         30.345         55.700        457.179        668.494        0.05317        0.03450         2.6264
        10384.5          6.166         23.781         55.133        797.274       1365.540        0.05154        0.02845         2.6487
        10385.0          6.162         19.574         55.133       1046.551       2044.450        0.02699        0.02560         2.6894
        10385.5          6.158         19.082         56.051       1265.166       2800.402        0.00276        0.02333         2.7182
        10386.0          6.175         18.359         57.595       1431.301       3730.240        0.00000        0.02208         2.7251
        10386.5          6.183         24.252         59.588       1406.832       3044.072        0.00000        0.02142         2.7240
        10387.0          6.183         34.716         61.501       1159.058       1190.202        0.00278        0.02362         2.6946
        10387.5          6.183         61.994         62.998        184.379        232.994        0.02149        0.05709         2.6651
        10388.0          6.183         81.032         64.027        125.126        106.855        0.03382        0.09185         2.6357
        10388.5          6.183         81.301         64.540         72.234         68.813        0.05376        0.11428         2.6110
        10389.0          6.183         74.851         65.267         60.909         52.087        0.06367        0.11916         2.6314
        10389.5          6.183         69.327         66.417         71.405         59.022        0.05068        0.10051         2.6333
        10390.0          6.183         55.667         68.514         88.672         71.664        0.04751        0.10107         2.6136
        10390.5          6.183         41.474         70.329        101.792         80.351        0.06899        0.10824         2.5680
        10391.0          6.183         66.327         71.838         97.814         78.225        0.11690        0.10244         2.5230
        10391.5          6.183         96.970         72.867         72.880         63.929        0.12449        0.15849         2.4962
        10392.0          6.183        129.180         73.538         64.157         54.382        0.12846        0.24353         2.4838
        10392.5          6.183        131.922         73.699         68.252         60.114        0.14042        0.22582         2.4921
        10393.0          6.183         97.069         74.319         80.910         67.382        0.12239        0.20910         2.5441
