~Version Information
 VERS.                  2.0:   CWLS log ASCII Standard -VERSION 2.0
 WRAP.                   NO:   One line per depth step
~Well Information Block
#MNEM.UNIT       Data Type    Information
#---------     -----------    ---------------------------
 STRT.F              3503.5000:
 STOP.F             12186.0000:
 STEP.F                 0.5000:
 NULL.               -999.2500:
 UWI .            42-109-32278:  API WELLHOLE NUMBER
 COMP.     SAMSON LONE STAR LP:  COMPANY NAME
 COUN.               CULBERSON:  COUNTY
 DAT2.                   02000:  LOGGING DATE 2
 DAT3.                   02000:  LOGGING DATE 3
 DAT4.                   02000:  LOGGING DATE 4
 DATE.                   02000:  LOGGING DATE
 DMF .           KELLY BUSHING:  DRILLING MEASURED
 LOC .    1521' FWL AND 2040' FSL:  FIELD LOCATION
 FL1 .    1521' FWL AND 2040' FSL:  FIELD LOCATION LINE 1
 FL2 .        SEC. 14, BLK. 46:  FIELD LOCATION LINE 2
 FLD .                 WILDCAT:  FIELD NAME
 HDAT.                   02000:  DATUM
 LMF .                    K.B.:  LOG MEASURED FROM
 OS1 .                    XRMI:  OTHER SERVICES LINE 1
 OS2 .               LSS / FWS:  OTHER SERVICES LINE 2
 OS3 .                 SDL/DSN:  OTHER SERVICES LINE 3
 OS4 .                DLL/MGRD:  OTHER SERVICES LINE 4
 PDAT.            GROUND LEVEL:  PERMANENT DATUM
 R1  .    TOOLSTRING: RWCH/D4TS/NGRT/LFS_D2/XRMI/CENT:  REMARKS LINE 1
 R2  .    LOGGING INTERVALS AS PER CUSTOMER REQUEST.:  REMARKS LINE 2
 RDT2.                   02000:  CASING DATE 2
 RDT3.                   02000:  CASING DATE 3
 RDT4.                   02000:  CASING DATE 4
 RDT5.                   02000:  CASING DATE 5
 SON .                 4992511:  SERVICE/TICKET ORDER NUMBER
 PROV.                   TEXAS:  STATE
 WELL.    UNIVERSITY LANDS 46-14 No. 2:  WELL NAME
~Parameter Information Block
#MNEM.UNIT       Value        Description
#---------     -----------    ---------------------------
~Curve Information Block
#MNEM.UNIT                 API CODE     Curve Description
#---------               -----------    ---------------------------
 DEPT.F                 00 000 000 000:  
 LLD .ohmm              00 000 000 000:  LLD                                    
 LLS .ohmm              00 000 000 000:  LLS                                    
 NPHI.decp              00 000 000 000:  Neutron Porosity                       
 GR  .api               00 000 000 000:  Gamma API                              
 MGRD.ohmm              00 000 000 000:  MCGRD                                  
 DRHO.g/cc              00 000 000 000:  DensityCorr                            
 DPHI.decp              00 000 000 000:  DensityPorosity                        
 PE  .b/e               00 000 000 000:  Pe                                     
 RHOB.g/cc              00 000 000 000:  Density                                
 XPHI.decp              00 000 000 000:  CrossplotPhi                           
 CALI.in                00 000 000 000:  Caliper                                
 DTC .                  00 000 000 000:  DELTA-T COMPRESSIONAL - FWS
 GR2 .GAPI              00 000 000 000:  NATURAL GAMMA - FWS
 SPHI.DECP              00 000 000 000:  SONIC POROSITY MTX=47.6 (DTC)
~A  DEPT        LLD        LLS        NPHI       GR         MGRD       DRHO       DPHI       PE         RHOB       XPHI       CALI       DTC        GR2        SPHI   
# ...
 5929.0000   121.5986   118.2199     0.0949    72.0550    90.2424     0.0495     0.0598     3.6479     2.6077     0.0869    10.5863    63.8469    69.3576     0.1149 
 5929.5000   111.9855   106.6922     0.1057    89.1576    49.4150     0.0445     0.0740     3.3362     2.5835     0.0902    10.5863    63.5602    78.8963     0.1129 
 5930.0000    91.6482    84.1564     0.1204   113.8514    31.6293     0.0408     0.0964     2.9837     2.5451     0.1146    10.5863    63.4622    92.7746     0.1122 
 5930.5000    77.7776    68.4293     0.1364   120.3583    33.2063     0.0386     0.1008     2.8352     2.5376     0.1217    10.5863    65.0406   103.7513     0.1233 
 5931.0000    72.5249    63.3130     0.1376   113.6381    33.8543     0.0393     0.0889     2.8472     2.5579     0.1242    10.5939    67.2669   111.7413     0.1391 
 5931.5000    69.2661    59.3735     0.1392   115.8070    32.6712     0.0437     0.0782     2.9489     2.5763     0.1187    10.5939    68.0858   116.7021     0.1449 
 5932.0000    69.4976    58.1400     0.1431   119.3805    36.8760     0.0479     0.0677     3.1467     2.5942     0.1158    10.5939    68.1669   116.3362     0.1455 
 5932.5000    73.2302    61.1401     0.1419   114.0292    40.9388     0.0473     0.0619     3.2987     2.6041     0.1145    10.6092    68.4356   113.5963     0.1474 
 5933.0000    77.8906    64.8152     0.1440   110.3491    35.3848     0.0436     0.0735     3.1524     2.5843     0.1287    10.6015    69.8469   113.9367     0.1573 
 5933.5000    87.9223    74.6764     0.1635   118.6160    42.6292     0.0502     0.0909     2.8446     2.5545     0.1419    10.6015    70.3270   117.7147     0.1607 
 5934.0000   101.8771    86.9230     0.1699   129.3896    72.4165     0.0654     0.0961     2.8494     2.5456     0.1427    10.6092    69.7828   117.8083     0.1569 
 5934.5000   116.1556    99.0818     0.1679   125.3717    80.2563     0.0686     0.0917     3.1582     2.5532     0.1427    10.6168    69.8374   111.1967     0.1573 
 5935.0000   133.7982   113.0940     0.1613   111.7181    87.5974     0.0632     0.0838     3.3587     2.5666     0.1334    10.6092    69.4362    99.5989     0.1544 
 5935.5000   149.0088   126.0854     0.1435   101.7090   115.5925     0.0611     0.0721     3.4480     2.5867     0.1272    10.6015    68.2540    87.1501     0.1461 
 5936.0000   160.9121   137.0167     0.1230   100.1622   123.4260     0.0584     0.0680     3.6206     2.5937     0.1055    10.6015    66.9588    77.0923     0.1369 
 5936.5000   171.6105   144.9917     0.1141   101.2289   119.4739     0.0574     0.0751     3.7583     2.5816     0.1027    10.5939    65.9007    73.7993     0.1294 
 5937.0000   178.3204   147.8660     0.1125    89.1220   122.6778     0.0600     0.0778     3.7319     2.5769     0.1029    10.5939    65.2823    78.4623     0.1251 
 5937.5000   182.5428   149.5531     0.1153    70.6149   132.9379     0.0609     0.0746     3.6259     2.5824     0.1033    10.5863    65.0255    84.2995     0.1232 
 5938.0000   187.6507   152.9724     0.1148    73.2816   140.6791     0.0633     0.0678     3.5847     2.5940     0.0969    10.5939    65.1274    85.7035     0.1240 
 5938.5000   192.6899   156.0029     0.1074    84.9619   143.5449     0.0678     0.0626     3.6819     2.6029     0.0969    10.6015    65.1329    80.6747     0.1240 
 5939.0000   202.6096   160.7480     0.1012    84.2152   142.6953     0.0696     0.0644     3.8308     2.5999     0.0925    10.6015    64.5846    73.6887     0.1201 
 5939.5000   218.6624   173.3160     0.0922    76.6417   144.9704     0.0714     0.0637     3.8731     2.6011     0.0852    10.6015    63.0967    67.4175     0.1096 
 5940.0000   229.9441   185.5289     0.0828    66.9171   188.2268     0.0743     0.0470     3.8419     2.6297     0.0797    10.5939    61.7793    63.7416     0.1003 
 5940.5000   239.0888   197.0492     0.0803    58.0635   199.7122     0.0742     0.0155     3.9354     2.6835     0.0674    10.5939    61.3210    64.2096     0.0970 
 5941.0000   242.9673   205.0062     0.0760    63.0947    69.3570     0.0706     0.0068     3.9832     2.6983     0.0569    10.5939    60.3387    70.6850     0.0901 
 5941.5000   237.8893   201.5455     0.0724    78.3840    58.9672     0.0652     0.0386     3.7677     2.6441     0.0641    10.6092    60.8567    74.9566     0.0938 
 5942.0000   236.8562   206.0615     0.0802    80.5707    90.2326     0.0644     0.0666     3.7181     2.5961     0.0843    10.6168    63.4263    72.7272     0.1119 
 5942.5000   246.3053   220.3970     0.0858    75.0239   101.9900     0.0675     0.0782     3.9151     2.5763     0.0843    10.6092    65.9583    66.8219     0.1298 
 5943.0000   254.1211   232.2146     0.0802    74.7039    79.0896     0.0660     0.0943     3.8479     2.5487     0.0892    10.6092    68.2963    66.4134     0.1464 
 5943.5000   270.6267   253.9579     0.0791    79.9485    99.3636     0.0647     0.0943     3.6968     2.5488     0.0891    10.6092    66.7624    68.6428     0.1355 
 5944.0000   248.7852   251.0016     0.0854    86.5619   270.6888     0.0677     0.0675     3.9374     2.5945     0.0823    10.6092    65.4111    71.1700     0.1260 
 5944.5000   194.0692   205.8011     0.0846    88.8375   204.2892     0.0621     0.0306     4.2524     2.6576     0.0694    10.6092    63.9399    75.0501     0.1156 
 5945.0000   147.9155   158.4313     0.0853    86.4908    88.9821     0.0389     0.0226     4.2182     2.6714     0.0674    10.6092    63.5580    78.3091     0.1129 
 5945.5000   118.6823   118.7373     0.0931    88.9087    61.1352     0.0243     0.0575     3.9837     2.6116     0.0836    10.6092    63.8546    85.4653     0.1150 
 5946.0000   107.6043   104.6196     0.1117   100.0022    64.6828     0.0386     0.0805     3.7602     2.5724     0.1115    10.6092    65.3777    95.0040     0.1257 
 5946.5000   114.9336   113.2909     0.1364   106.1890    91.5244     0.0489     0.0846     3.6510     2.5653     0.1250    10.6092    66.2300   103.7258     0.1318 
 5947.0000   136.9975   139.8234     0.1515   104.0557   139.9976     0.0449     0.0869     3.6948     2.5614     0.1277    10.6092    66.2528   102.9089     0.1319 
 5947.5000   170.0778   173.6330     0.1488    98.2955   143.4599     0.0435     0.0779     3.7992     2.5768     0.1197    10.6092    65.9606    93.9403     0.1298 
 5948.0000   205.4850   204.2266     0.1349    83.0419   166.6026     0.0399     0.0718     3.8329     2.5872     0.1083    10.6092    65.6536    83.6699     0.1277 
 5948.5000   232.7551   226.7431     0.1168    78.5084   177.8058     0.0332     0.0730     3.7615     2.5851     0.1002    10.6092    65.5730    75.7053     0.1271 
 5949.0000   255.7230   244.3274     0.1077    85.9219   196.3359     0.0302     0.0745     3.7512     2.5827     0.0986    10.6015    64.6989    69.5107     0.1209 
 5949.5000   297.3885   283.7884     0.1042    77.4951   291.4853     0.0289     0.0736     3.9339     2.5841     0.0962    10.6015    63.4789    64.4308     0.1123 
 5950.0000   349.8162   331.4260     0.0901    69.8149   360.0947     0.0278     0.0685     4.1188     2.5929     0.0778    10.5863    62.4470    61.4526     0.1050 
 5950.5000   395.6382   373.9826     0.0750    72.7483   338.6207     0.0287     0.0616     4.1601     2.6047     0.0718    10.5786    61.7614    61.1208     0.1002 
 5951.0000   424.2786   392.0984     0.0745    72.4283   420.6375     0.0321     0.0516     4.1573     2.6217     0.0678    10.5863    61.3123    63.2566     0.0970 
 5951.5000   421.6881   375.4209     0.0723    75.6284   313.9031     0.0350     0.0493     4.1162     2.6257     0.0678    10.5786    61.6114    65.4179     0.0991 
 5952.0000   405.2834   356.3602     0.0688    85.8686   287.0584     0.0369     0.0588     4.0589     2.6095     0.0687    10.5786    61.3208    65.4349     0.0970 
 5952.5000   405.1277   348.5984     0.0637    83.0063   369.5081     0.0406     0.0639     4.1829     2.6007     0.0637    10.5863    60.2978    60.9038     0.0898 
 5953.0000   407.5153   361.4475     0.0543    69.1927   492.2205     0.0461     0.0542     4.4469     2.6173     0.0637    10.5939    58.9521    54.0370     0.0803 
