###############################################
##         ENVERUS                           ##
##         EPlus - Open Hole                 ##
##         PERMIAN / DELAWARE                ##
##         Copyright ©                       ##
##         Enverus Version - V4.0            ##
##         Nov 20 2023                       ##
##         42-109-32509-00-00                ##
###############################################
## Copyright 2017-2023  ENVERUS.  All Rights Reserved. 
## Confidential - Property of ENVERUS, use governed by terms and 
## conditions found within the existing Information Services Subscription Agreement 
## (as may be amended, the “ISSA”) between Customer and ENVERUS. 
## 
#___________________________________________________________________________________________________
~VERSION INFORMATION
# MNEM.UNIT                               DATA : DESCRIPTION OF MNEMONIC
#-----.-----     ----------------------------- : -----------------------------
VERS.                                     2.00 : CWLS LOG ASCII STANDARD - VERSION 2.00
WRAP.                                       NO : MULTIPLE LINES PER DEPTH STEP
VEND.                                  ENVERUS : VENDOR
ENV_TYPE.                    EPLUS - OPEN HOLE : Enverus Essential Plus Curves – Accessible through Enverus Core(TM)
ENV_VERS.                                 V4.0 : EPlus - Open Hole Version number 
ENV_DOC.                     32870164,32928772 : ENVERUS Header Document id
ENV_REF.                               PERMIAN : ENVERUS BASIN OR PLAY APPLIED REFERENCE LIMITS 
#___________________________________________________________________________________________________ 
~WELL INFORMATION 
# uyaQ8P8kQDJ9DXFS5hR1PxmExEOYaAUkY5f3/tnOS+scoPAUWgXA1zCIHGRbWCuSuUcwDzaESCjqjWQ81XhadA== 
# MNEM.UNIT                                              DATA : DESCRIPTION OF MNEMONIC 
#-----.-----                    ----------------------------- : ----------------------------- 
CNTY.                                               CULBERSON : COUNTY 
STATE.                                                  TEXAS : STATE 
CNTRY.                                                    USA : COUNTRY 
API.                                             42-109-32509 : API (10 Digit) 
API_14.                                    42-109-32509-00-00 : API (14 Digits) 
API_14_std.                                 42-109-32509-0000 : API (14 Digits Standard) 
UWI.                                           42109325090000 : UNIQUE WELL ID
STRT.FT                                                1990.5 : START DEPTH
STOP.FT                                                9149.5 : STOP DEPTH
STEP.FT                                                   0.5 : STEP DEPTH
NULL.                                               -999.2500 : NULL VALUE
WELL.                                ANIMAL KINGDOM 44 FEE 2H : WELL NAME 
GR_ELEV.                                                 3349 : GROUND ELEVATION 
SLAT.                                                 31.8939 : SURFACE LATITUDE 
SLONG.                                              -104.1853 : SURFACE LONGITUDE
#___________________________________________________________________________________________________ 
~CURVE INFORMATION 
# MNEM.UNIT           : CURVE DESCRIPTION 
#-----.-----          : ----------------------------- 
DEPT.FT               : MEASURED DEPTH 
CALI_E.IN             : ENVERUS CALIPER - CLEANED BLENDED AND LUMPED 
CALI_F.               : ENVERUS CALIPER - OUTLIER INDICATOR - 0=(IN BOUNDS) 1=(OUT OF BOUNDS) 2=(REPEATING) 
CALI_S.               : ENVERUS CALIPER - SOURCE INDICATOR 
CALI_U.               : ENVERUS CALIPER - OPTION INDICATOR - 0=(NO OPTION) 1=(OTHER OPTIONS) 
GR_E.API              : ENVERUS GAMMA RAY - CLEANED BLENDED AND LUMPED 
GR_F.                 : ENVERUS GAMMA RAY - OUTLIER INDICATOR - 0=(IN BOUNDS) 1=(OUT OF BOUNDS) 2=(REPEATING) 
GR_S.                 : ENVERUS GAMMA RAY - SOURCE INDICATOR 
GR_U.                 : ENVERUS GAMMA RAY - OPTION INDICATOR - 0=(NO OPTION) 1=(OTHER OPTIONS) 
DT_E.US/FT            : ENVERUS SONIC TRAVEL TIME - CLEANED BLENDED AND LUMPED 
DT_F.                 : ENVERUS SONIC TRAVEL TIME - OUTLIER INDICATOR - 0=(IN BOUNDS) 1=(OUT OF BOUNDS) 2=(REPEATING) 
DT_S.                 : ENVERUS SONIC TRAVEL TIME - SOURCE INDICATOR 
DT_U.                 : ENVERUS SONIC TRAVEL TIME - OPTION INDICATOR - 0=(NO OPTION) 1=(OTHER OPTIONS)
#___________________________________________________________________________________________________ 
~A         DEPT         CALI_E         CALI_F         CALI_S         CALI_U           GR_E           GR_F           GR_S           GR_U           DT_E           DT_F           DT_S           DT_U
# ...
        9104.00          8.568           0.00           0.00           0.00       -999.250        -999.25        -999.25        -999.25       79.60500           0.00           0.00           0.00
        9104.50          8.588           0.00           0.00           0.00       -999.250        -999.25        -999.25        -999.25       79.10200           0.00           0.00           0.00
        9105.00          8.568           2.00           0.00           0.00       -999.250        -999.25        -999.25        -999.25       78.07000           0.00           0.00           0.00
        9105.50          8.568           2.00           0.00           0.00       -999.250        -999.25        -999.25        -999.25       77.93800           0.00           0.00           0.00
        9106.00          8.568           2.00           0.00           0.00       -999.250        -999.25        -999.25        -999.25       77.60700           0.00           0.00           0.00
        9106.50          8.568           2.00           0.00           0.00       -999.250        -999.25        -999.25        -999.25       77.17100           0.00           0.00           0.00
        9107.00          8.568           2.00           0.00           0.00       -999.250        -999.25        -999.25        -999.25       78.32200           0.00           0.00           0.00
        9107.50          8.568           2.00           0.00           0.00       -999.250        -999.25        -999.25        -999.25       78.36100           0.00           0.00           0.00
        9108.00          8.568           2.00           0.00           0.00       -999.250        -999.25        -999.25        -999.25       78.39200           0.00           0.00           0.00
        9108.50          8.568           2.00           0.00           0.00       -999.250        -999.25        -999.25        -999.25       78.58000           0.00           0.00           0.00
        9109.00          8.568           2.00           0.00           0.00       -999.250        -999.25        -999.25        -999.25       78.07000           0.00           0.00           0.00
        9109.50          8.568           2.00           0.00           0.00       -999.250        -999.25        -999.25        -999.25       74.23700           0.00           0.00           0.00
        9110.00          8.568           2.00           0.00           0.00       -999.250        -999.25        -999.25        -999.25       73.21700           0.00           0.00           0.00
        9110.50          8.549           2.00           0.00           0.00       -999.250        -999.25        -999.25        -999.25       72.86500           0.00           0.00           0.00
        9111.00          8.549           2.00           0.00           0.00       -999.250        -999.25        -999.25        -999.25       72.40100           0.00           0.00           0.00
        9111.50          8.549           2.00           0.00           0.00       -999.250        -999.25        -999.25        -999.25       74.02000           0.00           0.00           0.00
        9112.00          8.549           2.00           0.00           0.00       -999.250        -999.25        -999.25        -999.25       76.24200           0.00           0.00           0.00
        9112.50          8.549           2.00           0.00           0.00       -999.250        -999.25        -999.25        -999.25       74.98900           0.00           0.00           0.00
        9113.00          8.549           2.00           0.00           0.00       -999.250        -999.25        -999.25        -999.25       74.78600           0.00           0.00           0.00
        9113.50          8.549           2.00           0.00           0.00       -999.250        -999.25        -999.25        -999.25       74.66500           0.00           0.00           0.00
        9114.00          8.549           2.00           0.00           0.00       -999.250        -999.25        -999.25        -999.25       73.20200           0.00           0.00           0.00
        9114.50          8.549           2.00           0.00           0.00       -999.250        -999.25        -999.25        -999.25       66.29500           0.00           0.00           1.00
        9115.00          8.549           2.00           0.00           0.00       -999.250        -999.25        -999.25        -999.25       66.79900           0.00           0.00           1.00
        9115.50          8.549           2.00           0.00           0.00       -999.250        -999.25        -999.25        -999.25       66.90700           0.00           0.00           1.00
        9116.00          8.553           0.00           0.00           0.00       -999.250        -999.25        -999.25        -999.25       67.57200           0.00           0.00           1.00
        9116.50          8.549           0.00           0.00           0.00       -999.250        -999.25        -999.25        -999.25       75.38100           0.00           0.00           0.00
        9117.00          8.549           0.00           0.00           0.00       -999.250        -999.25        -999.25        -999.25       78.85800           0.00           0.00           0.00
        9117.50          8.549           0.00           0.00           0.00       -999.250        -999.25        -999.25        -999.25       79.28000           0.00           0.00           0.00
        9118.00          8.568           0.00           0.00           0.00       -999.250        -999.25        -999.25        -999.25       79.16300           0.00           0.00           0.00
        9118.50          8.594           0.00           0.00           0.00       -999.250        -999.25        -999.25        -999.25       79.16300           0.00           0.00           0.00
        9119.00          8.627           0.00           0.00           0.00       -999.250        -999.25        -999.25        -999.25       79.37000           0.00           0.00           0.00
        9119.50          8.627           0.00           0.00           0.00       -999.250        -999.25        -999.25        -999.25       80.03700           0.00           0.00           0.00
        9120.00          8.627           0.00           0.00           0.00       -999.250        -999.25        -999.25        -999.25       80.65700           0.00           0.00           0.00
        9120.50          8.646           0.00           0.00           0.00       -999.250        -999.25        -999.25        -999.25       79.79600           0.00           0.00           0.00
        9121.00          8.588           0.00           0.00           0.00       -999.250        -999.25        -999.25        -999.25       79.47300           0.00           0.00           0.00
        9121.50          8.559           0.00           0.00           0.00       -999.250        -999.25        -999.25        -999.25       77.83700           0.00           0.00           0.00
        9122.00          8.456           0.00           0.00           0.00       -999.250        -999.25        -999.25        -999.25       77.25100           0.00           0.00           0.00
        9122.50          8.324           0.00           0.00           0.00       -999.250        -999.25        -999.25        -999.25       80.52000           0.00           0.00           0.00
        9123.00          7.675           0.00           0.00           0.00       -999.250        -999.25        -999.25        -999.25       81.73200           0.00           0.00           0.00
        9123.50       -999.250        -999.25        -999.25        -999.25       -999.250        -999.25        -999.25        -999.25       81.58000           0.00           0.00           0.00
        9124.00       -999.250        -999.25        -999.25        -999.25       -999.250        -999.25        -999.25        -999.25       81.11200           0.00           0.00           0.00
