# Exported from Transform Software 5.2.0 on 30-Oct-2019 by user kathryn.gehrke
# DI Transform - A Product of Drillinginfo, Inc. - www.drillinginfo.com
#
~VERSION INFORMATION
 VERS.        2.0 : LAS ASCII STANDARD - VERSION 2.0
 WRAP.         NO : ONE LINE PER DEPTH STEP

~WELL INFORMATION
#MNEM.UNIT       DATA TYPE       INFORMATION
#---------       ---------       -----------
 STRT.ft                  40 : Start Depth
 STOP.ft                9358 : Stop Depth
 STEP.ft                 0.5 : Step Length
 NULL.               -999.25 : Null Value
 COMP.                       : Company
 WELL.  42109330610000_API14 : Well Name
 FLD.                        : Field Name
 LOC.                        : Well Location
 CNTY.                       : County
 STAT.                       : State or Province
 CTRY.                       : Country
 SRVC.                       : Service Company
 DATE.                       : Date
 API.         42109330610000 : Well Identifier

~CURVE INFORMATION
#MNEM.UNIT       API CODE       CURVE DESCRIPTION
#---------       --------       -----------------
 DEPT.ft        : <Measured Depth>
 DT.us/ft       : Sonic
 GR.gAPI        : Gamma Ray

~PARAMETER INFORMATION
#MNEM.UNIT       VALUE       DESCRIPTION
#---------       -----       -----------
 EKB.ft      3200.5 : Elevation above MSL

~A      DEPT          DT          GR
# ...
      1884.5    242.6854     16.8813
        1885    242.6854     16.3527
      1885.5    242.6854     17.0265
        1886    242.6854     18.7098
      1886.5    242.6854     17.9387
        1887    242.6854     15.1485
      1887.5    242.6854     13.2265
        1888    242.6854     14.9593
      1888.5    242.6854     18.4693
        1889    242.6854     16.7365
      1889.5    242.6854     14.1884
        1890    242.6854      15.921
      1890.5    242.6854     18.2766
        1891    242.6854     16.8815
      1891.5    242.6854     15.7761
        1892    242.6854     17.1711
      1892.5    242.6854     18.2287
        1893    242.6854     20.1046
      1893.5    242.6854     21.1144
        1894    242.6854     19.2864
      1894.5    242.6854     16.8816
        1895     243.487     16.5932
      1895.5     243.487     15.0057
        1896     243.487     13.9479
      1896.5     243.487     15.2948
        1897     243.487     15.6313
      1897.5     243.487     15.8237
        1898     243.487     16.3047
      1898.5     243.487     16.1603
        1899     243.487     14.7174
      1899.5     243.487     14.4289
        1900     243.487     14.6693
      1900.5     243.487     15.1503
        1901     243.487     14.9098
      1901.5     243.487     14.8617
        1902     243.487     16.3046
      1902.5     243.487     17.2665
        1903    245.0902     16.4008
      1903.5    245.8918     14.8138
        1904    245.8918     12.6013
      1904.5    245.8918     11.0621
        1905    245.8918     12.3604
      1905.5    245.8918     13.8997
        1906    245.0902     15.1021
      1906.5    244.2886      16.545
        1907     243.487     17.3146
      1907.5    242.6854      15.776
        1908    242.6854     14.6693
      1908.5    242.6854     16.9776
        1909    242.6854      20.296
      1909.5    242.6854     21.1623
        1910    242.6854     20.0566
      1910.5    241.8838     18.7575
        1911    241.8838     16.6415
      1911.5    241.8838     16.1122
        1912    241.8838       17.41
      1912.5    241.8838     17.7956
        1913    241.8838     17.3146
      1913.5    241.8838     16.8337
        1914    241.8838     15.4876
      1914.5    241.8838     14.2368
        1915    241.8838     14.5724
      1915.5    241.8838     16.7367
        1916    241.8838     17.7956
      1916.5    241.8838     16.8337
        1917    241.8838     16.3527
      1917.5    241.8838     17.3146
        1918     242.528     16.6902
      1918.5    242.6854     16.7851
        1919    242.6854     18.4685
      1919.5    242.6854     17.7956
        1920    241.8838     16.1608
      1920.5    241.8838     16.3527
        1921    241.8838     16.5932
      1921.5    241.8838      16.785
        1922    241.8838     18.9494
      1922.5    241.8838     20.4409
        1923    241.8838     18.9522
      1923.5    241.8838     20.2949
        1924    241.8838     21.6433
      1924.5    241.8838     19.6738
        1925    241.8838     15.9692
      1925.5    241.8838     15.1503
        1926    241.8838      15.823
      1926.5    241.8838     15.9205
        1927    241.8838     14.4776
      1927.5    242.6854     13.9479
        1928    242.6854     15.1015
      1928.5    242.6854     15.0074
        1929    242.6854     14.6693
      1929.5    242.6854     14.6693
        1930    242.6854     15.8229
      1930.5    242.6854     17.5063
        1931    242.6854     17.3635
      1931.5    242.6854     16.5932
        1932    241.8838     15.9206
      1932.5    241.8838     15.6313
        1933    241.8838      17.119
      1933.5    241.8838     20.5346
        1934    241.8838     21.4517
      1934.5    241.8838     17.9914
        1935    241.8838     16.8337
      1935.5    241.8838     16.5932
        1936    241.8838     15.4398
      1936.5    241.8838     13.9479
        1937    241.8838     13.9479
      1937.5    241.8838     14.8118
        1938    242.6854      16.927
      1938.5    242.6854     20.0532
        1939    242.6854     21.1623
      1939.5    242.6854     20.2004
        1940    242.6854     17.8938
      1940.5    242.6854      15.489
        1941    242.6854     15.5821
      1941.5    242.6854      17.025
        1942    242.6854      16.932
      1942.5     243.487     15.9209
        1943     243.487     16.4948
      1943.5    244.9306     17.9869
        1944    245.0902      18.517
      1944.5    245.8918     16.5004
        1945    245.8918     13.1337
      1945.5    245.8918     11.5431
        1946    245.8918     13.3684
      1946.5    245.8918      15.582
        1947    245.8918     15.8717
      1947.5    245.8918      14.287
        1948     243.487     14.3796
      1948.5     243.487     16.0136
        1949     243.487     16.8337
      1949.5    242.6854     15.4401
        1950    242.6854     14.6693
      1950.5    242.6854     15.1503
        1951    242.6854     15.3908
      1951.5    242.6854     14.9098
        1952    242.6854     15.5819
      1952.5    242.6854     16.5438
        1953    242.6854     16.5932
      1953.5    242.6854     17.0741
        1954    242.6854     16.5932
      1954.5    242.6854     16.8337
        1955    242.6854     18.6091
      1955.5    242.6854     21.5443
        1956    242.6854     20.7309
      1956.5    242.6854     19.5285
        1957    242.6854     18.2766
      1957.5    242.0446     18.0856
        1958    241.0822     17.3146
      1958.5    241.0822     18.0361
        1959    241.0822     18.2766
      1959.5    241.7228      17.223
        1960    241.8838     16.8337
      1960.5    242.6854     16.8337
        1961    242.6854     17.0741
      1961.5    242.6854     16.6925
        1962    242.6854     16.1122
      1962.5    242.6854     16.5932
        1963    242.6854     16.5932
      1963.5    242.6854     16.5932
        1964    242.6854     17.0244
      1964.5    242.6854     17.0741
        1965    242.6854     18.3678
      1965.5    242.6854     20.8721
        1966    242.6854     20.9716
      1966.5    242.6854     18.1356
        1967    242.6854     15.2499
      1967.5    242.6854     13.4669
        1968    243.3252     13.6576
      1968.5     243.487     14.4289
        1969     243.487     14.4289
      1969.5     243.487     15.3409
        1970     243.487     16.4934
      1970.5     243.487     17.0243
        1971     243.487     18.2267
      1971.5     243.487      18.086
        1972     243.487     15.6812
      1972.5     243.487     13.9479
        1973     243.487     16.6339
      1973.5    242.6854     17.9861
        1974    242.6854     15.4907
      1974.5    242.6854     13.8979
        1975    242.6854     17.5456
      1975.5    242.6854     21.3028
        1976    242.6854     21.6433
      1976.5    242.6854     21.6433
        1977    242.6854     22.3147
      1977.5    242.6854     22.8457
        1978     243.487      21.503
      1978.5     243.487       20.01
        1979     243.487     19.2385
      1979.5     243.487     20.3908
        1980    242.6854     22.5551
      1980.5    242.6854     23.9478
        1981    242.6854     24.5291
      1981.5    242.6854     22.4149
        1982     243.487     21.6433
      1982.5     243.487     22.1242
        1983     243.487     20.7818
      1983.5    244.2886     19.0482
        1984    245.0902      19.479
      1984.5    245.8918     21.1121
        1985    245.8918     20.2507
      1985.5    245.8918     20.5808
        1986    245.8918     22.3647
      1986.5    245.2535     23.0359
        1987    244.2886     23.0359
      1987.5    243.6504     24.7192
        1988     243.487     24.6297
      1988.5     243.487     21.5035
        1989     243.487     20.9218
      1989.5    242.6854     20.9218
        1990    242.6854     22.0739
      1990.5    242.6854     23.4663
        1991    242.6854       25.01
      1991.5    241.8838     22.9466
        1992    241.8838     21.0227
      1992.5    241.8838     19.2385
