###############################################
##         ENVERUS                           ##
##         ESS - Open Hole                   ##
##         PERMIAN / DELAWARE                ##
##         Nov 02 2023  V4.0                 ##
##         42-109-31383-00-00                ##
###############################################
## Copyright 2017-2023  ENVERUS.  All Rights Reserved. 
## Confidential - Property of ENVERUS, use governed by terms and 
## conditions found within the existing Information Services Subscription Agreement 
## (as may be amended, the “ISSA”) between Customer and ENVERUS. 
## 
~VERSION INFORMATION
# MNEM.UNIT                               DATA : DESCRIPTION OF MNEMONIC
#-----.-----     ----------------------------- : -----------------------------
VERS.                                     2.00 : CWLS LOG ASCII STANDARD - VERSION 2.00
WRAP.                                       NO : MULTIPLE LINES PER DEPTH STEP
VEND.                                  ENVERUS : VENDOR
TYPE.                          ESS - OPEN HOLE : ENVERUS ESSENTIAL CURVES – ACCESSIBLE THROUGH ENVERUS PRISM(TM)
DOC.                                  31887493 : ENVERUS HEADER RAW DOCUMENT ID
#___________________________________________________________________________________________________ 
~WELL INFORMATION 
# e8MMFGpko9nixUfuEkfb9P8cKS4olzuguLrtdgPIjARTX3oRymgI2EYtnk6GmA/F0PbYW2Z7xnLx5OgyGayifw== 
# MNEM.UNIT                                              DATA : DESCRIPTION OF MNEMONIC 
#-----.-----                    ----------------------------- : ----------------------------- 
CNTY.                                               CULBERSON : COUNTY 
STATE.                                                  TEXAS : STATE 
CNTRY.                                                    USA : COUNTRY 
API.                                             42-109-31383 : API (10 Digit) 
API_14.                                    42-109-31383-00-00 : API (14 Digits) 
API_14_std.                                 42-109-31383-0000 : API (14 Digits Standard) 
UWI.                                           42109313830000 : UNIQUE WELL ID 
WELL.                                          KIRK  T. A.  1 : WELL NAME
STRT.FT                                                  43.0 : START DEPTH
STOP.FT                                               16492.0 : STOP DEPTH
STEP.FT                                                   0.5 : STEP BETWEEN DEPTHS
NULL.                                                 -999.25 : NULL VALUE
COMP.                                             EXXON CORP. : COMPANY 
DATE.                                             05-AUG-1981 : LOG DATE
#___________________________________________________________________________________________________ 
~CURVE INFORMATION 
# MNEM.UNIT           : CURVE DESCRIPTION 
#-----.-----          : ----------------------------- 
 DEPT.FT               : MEASURED DEPTH 
 CALI.IN               : CALIPER (CAL - CAL) 
 GR.API                : GAMMA RAY (GR) 
 SP.MV                 : SPONTANEOUS POTENTIAL (SP) 
 DT.US/FT              : SONIC DELTA TRANSIT TIME (DT) 
 RESS.OHMM             : SHALLOW INDUCTION RESISTIVITY (ILS - ILS) 
 RESD.OHMM             : DEEP INDUCTION RESISTIVITY (ILD - ILD) 
 NPHI.V/V              : NEUTRON POROSITY (NPHI) 
 #___________________________________________________________________________________________________ 
~A         DEPT           CALI             GR             SP             DT           RESS           RESD           NPHI
# ...
        12739.5         11.942         51.783       -999.250         71.640         16.666         12.040     -999.25000
        12740.0         11.943         51.955       -999.250         72.455         11.321         11.491     -999.25000
        12740.5         11.942         52.127       -999.250         71.741          9.920         10.893     -999.25000
        12741.0         11.940         52.298       -999.250         71.027          9.367         10.207     -999.25000
        12741.5         11.938         52.470       -999.250         70.313          9.368          9.522     -999.25000
        12742.0         11.937         52.641       -999.250         69.599          9.369          8.836     -999.25000
        12742.5         11.935         52.813       -999.250         68.003          9.370          8.151     -999.25000
        12743.0         11.934         52.984       -999.250         66.404          9.371          7.639     -999.25000
        12743.5         11.932         53.156       -999.250         64.804          9.372          7.867     -999.25000
        12744.0         11.931         54.142       -999.250         63.205         10.006          8.096     -999.25000
        12744.5         11.929         55.152       -999.250         62.641         11.687          8.324     -999.25000
        12745.0         11.928         56.163       -999.250         63.617         13.368          8.553     -999.25000
        12745.5         11.926         52.396       -999.250         64.594         14.607          8.781     -999.25000
        12746.0         11.925         53.533       -999.250         65.570         14.563          9.010     -999.25000
        12746.5         11.923         54.670       -999.250         67.180         14.352          9.126     -999.25000
        12747.0         11.909         55.808       -999.250         69.590         13.551          9.225     -999.25000
        12747.5         11.876         49.063       -999.250         71.999         12.750          9.323     -999.25000
        12748.0         11.842         50.684       -999.250         71.801         11.949          9.196     -999.25000
        12748.5         11.809         52.304       -999.250         71.411         11.149          8.761     -999.25000
        12749.0         11.775         53.924       -999.250         71.020         10.348          8.326     -999.25000
        12749.5         11.742         53.580       -999.250         70.685          9.547          7.891     -999.25000
        12750.0         11.708         52.836       -999.250         70.403          9.645          7.608     -999.25000
        12750.5         11.675         52.093       -999.250         70.121          9.880          7.619     -999.25000
        12751.0         11.641         51.349       -999.250         69.838         10.115          7.629     -999.25000
        12751.5         11.608         50.606       -999.250         69.386         10.350          7.639     -999.25000
        12752.0         11.574         49.862       -999.250         68.933         10.586          7.649     -999.25000
        12752.5         11.540         49.645       -999.250         68.480         10.821          7.659     -999.25000
        12753.0         11.507         50.993       -999.250         68.534         11.056          7.669     -999.25000
        12753.5         11.473         52.342       -999.250         68.613         11.291          7.679     -999.25000
        12754.0         11.440         53.690       -999.250         68.691         11.328          7.921     -999.25000
        12754.5         11.406         54.627       -999.250         68.622         11.329          8.180     -999.25000
        12755.0         11.373         54.783       -999.250         68.458         11.330          8.439     -999.25000
        12755.5         11.339         54.938       -999.250         68.294         11.370          8.698     -999.25000
        12756.0         11.306         55.093       -999.250         68.177         11.689          8.958     -999.25000
        12756.5         11.272         55.248       -999.250         68.916         12.008          9.217     -999.25000
        12757.0         11.239         55.403       -999.250         69.655         12.327          9.476     -999.25000
        12757.5         11.205         55.558       -999.250         70.395         12.647          9.544     -999.25000
        12758.0         11.167         50.768       -999.250         71.134         12.936          9.505     -999.25000
        12758.5         11.128         48.603       -999.250         71.873         13.006          9.465     -999.25000
        12759.0         11.088         51.338       -999.250         72.405         13.076          9.426     -999.25000
        12759.5         11.049         54.072       -999.250         71.859         11.974          9.387     -999.25000
        12760.0         11.009         56.806       -999.250         71.313         10.494          9.348     -999.25000
        12760.5         10.969         59.540       -999.250         70.767          9.351          9.421     -999.25000
        12761.0         10.930         60.772       -999.250         70.221          9.724          9.963     -999.25000
        12761.5         10.890         58.014       -999.250         69.675         10.097         10.504     -999.25000
        12762.0         10.851         55.255       -999.250         69.129         10.470         11.045     -999.25000
        12762.5         10.811         52.497       -999.250         68.583         10.844         11.409     -999.25000
        12763.0         10.771         54.209       -999.250         68.809         11.217         11.451     -999.25000
        12763.5         10.732         56.166       -999.250         69.217         11.590         11.493     -999.25000
        12764.0         10.692         58.123       -999.250         69.624         11.647         11.535     -999.25000
        12764.5         10.653         60.079       -999.250         69.362         11.662         11.576     -999.25000
        12765.0         10.613         60.312       -999.250         68.745         11.676         11.618     -999.25000
        12765.5         10.574         58.055       -999.250         67.868         11.691         11.660     -999.25000
        12766.0         10.534         55.798       -999.250         66.496         11.705         11.702     -999.25000
        12766.5         10.494         53.540       -999.250         65.124         12.333         11.744     -999.25000
        12767.0         10.474         51.283       -999.250         63.752         13.666         11.786     -999.25000
        12767.5         10.454         54.243       -999.250         62.893         14.999         11.828     -999.25000
        12768.0         10.434         58.793       -999.250         63.852         16.332         12.056     -999.25000
        12768.5         10.415         63.343       -999.250         64.810         17.665         12.285     -999.25000
        12769.0         10.395         67.893       -999.250         65.001         17.773         12.514     -999.25000
        12769.5         10.376         71.177       -999.250         64.630         17.994         13.619     -999.25000
        12770.0         10.356         71.364       -999.250         64.160         18.617         15.388     -999.25000
        12770.5         10.336         71.551       -999.250         63.223         21.166         17.157     -999.25000
        12771.0         10.317         71.738       -999.250         63.144         24.914         18.798     -999.25000
        12771.5         10.297         71.925       -999.250         63.627         40.939         20.174     -999.25000
        12772.0         10.277         72.112       -999.250         64.111         44.165         21.549     -999.25000
        12772.5         10.258         72.299       -999.250         64.594         44.169         22.924     -999.25000
