~VERSION INFORMATION
 VERS.                2.0:   CWLS LOG ASCII STANDARD - VERSION 2.0
 WRAP.                 NO:   ONE LINE PER DEPTH STEP
~WELL INFORMATION
#MNEM.UNIT      DATA TYPE    INFORMATION
#----------   ------------   ------------------------------
 STRT.FT        8672.0000:   START DEPTH
 STOP.FT       14432.0000:   STOP DEPTH
 STEP.FT           0.5000:   STEP LENGTH
 NULL.          -999.2500:   NULL VALUE
 COMP. CAPITAN ENERGY, INCORPORATED:   COMPANY
 WELL.  MOTHER FEE 28 #1H:   WELL
 FLD . FORD, WEST (WOLFCAMP)	:   FIELD
 LOC .                   :   LOCATION
 CNTY.          CULBERSON:   COUNTY
 STAT.              TEXAS:   STATE
 CTRY. UNITED STATES OF AMERICA:   COUNTRY
 SRVC.        HALLIBURTON:   SERVICE COMPANY
 DATE.        16-Nov-2015:   LOGDATE
 API .     42109328880000:   API NUMBER
~CURVE INFORMATION
#MNEM.UNIT       API CODE    CURVE DESCRIPTION
#----------   ------------   ------------------------------
 DEPT.FT                 :   
 CALD_C.IN   45 280 60 00:   CALIPER FROM DENSITY COMPOSITE LOG
 DCOR.G/C3   45 356 01 00:   DENSITY CORRECTION
 DPHI_LS.DEC 45 890 10 00:   DENSITY POROSITY LIMESTONE
 DT_CH.US/F  60 501 00 00:   DELTA FROM THE FULL WAVE SONIC IN CASED HOLE
 GRD .GAPI   45 310 01 00:   GAMMA RAY FROM DENSITY LOG
 LLDC.OHMM   11 220 10 00:   CORRECTED LATEROLOG DEEP RESISTIVITY
 LLSC.OHMM   11 220 09 00:   CORRECTED LATEROLOG SHALLOW RESISTIVITY
 MSFLC.OHMM  11 270 04 00:   CORRECTED MICRO SPHERICALLY FOCUSED RESISTIVITY
 NPHI_LS.DEC 42 890 01 00:   NEUTRON POROSITY LIMESTONE
 PE  .B/E    45 358 01 00:   PHOTO ELECTRIC CROSS SECTION
 RHOB_CH.G/C3 45 350 01 00:   
~PARAMETER INFORMATION
#MNEM.UNIT          VALUE    DESCRIPTION
#----------   ------------   ------------------------------
 DATE.           11/16/15:   RUN DATE
 RUN .                  1:   RUN NUMBER
 BLI .FT            14432:   BOTTOM LOG INTERVAL
 TLI .FT             8672:   TOP LOG INTERVAL
 ORIG.     1" 2" 5" PRINT:   ORIGIN OF DATA
 UWI .     42109328880000:   UNIQUE WELL ID
~OTHER INFORMATION
~A   DEPT         CALD_C      DCOR       DPHI_LS      DT_CH       GRD        LLDC        LLSC        MSFLC       NPHI_LS         PE      RHOB_CH
# ...
 10576.0000   -999.2500   -999.2500      0.1007     75.9909    133.7806     19.0258     17.7932     11.6149      0.1737      3.0850      2.5480
 10576.5000   -999.2500   -999.2500      0.1017     76.4144    142.5055     21.1740     17.6834     11.9021      0.1765      3.0747      2.5470
 10577.0000   -999.2500   -999.2500      0.0995     76.4908    140.5593     19.7314     16.8785     11.0912      0.1773      3.0658      2.5480
 10577.5000   -999.2500   -999.2500      0.0972     76.6019    135.1932     17.9174     15.5447     10.1589      0.1766      3.0320      2.5496
 10578.0000   -999.2500   -999.2500      0.0976     76.9352    134.0209     17.1399     14.2110     10.0405      0.1783      2.9742      2.5492
 10578.5000   -999.2500   -999.2500      0.1010     77.2374    146.9099     16.3491     13.4675     10.0454      0.1823      2.8802      2.5464
 10579.0000   -999.2500   -999.2500      0.1023     77.4152    137.4004     15.4902     13.6711      9.0986      0.1785      2.7952      2.5436
 10579.5000   -999.2500   -999.2500      0.1066     77.5929    146.0345     17.0075     15.2422     10.0831      0.1820      2.7549      2.5378
 10580.0000   -999.2500   -999.2500      0.1092     77.9002    152.6705     18.7808     16.4489     10.8241      0.1837      2.7542      2.5330
 10580.5000   -999.2500   -999.2500      0.1111     78.7255    155.5644     20.7845     18.4522     11.6936      0.1857      2.7535      2.5289
 10581.0000   -999.2500   -999.2500      0.1139     77.1130    162.7584     21.8125     18.1844     11.9603      0.1896      2.7662      2.5303
 10581.5000   -999.2500   -999.2500      0.1063     77.1130    145.0080     18.1159     15.4323      9.9626      0.1807      2.7947      2.5334
 10582.0000   -999.2500   -999.2500      0.1076     77.1130    149.3123     20.4021     17.0871     11.0790      0.1814      2.8110      2.5335
 10582.5000   -999.2500   -999.2500      0.1089     77.0269    153.3670     22.4703     18.7419     12.0579      0.1822      2.8340      2.5327
 10583.0000   -999.2500   -999.2500      0.1094     76.8836    157.0393     24.7483     21.0611     13.6372      0.1829      2.8591      2.5307
 10583.5000   -999.2500   -999.2500      0.1100     76.3418    159.3888     27.2572     22.2346     14.4403      0.1834      2.8747      2.5335
 10584.0000   -999.2500   -999.2500      0.1065     75.2024    150.5206     20.6910     19.1564     11.7430      0.1764      2.8994      2.5396
 10584.5000   -999.2500   -999.2500      0.1025     75.0640    131.5810     19.0828     16.1655     10.6551      0.1711      2.9026      2.5398
 10585.0000   -999.2500   -999.2500      0.1012     74.8602    126.5746     21.4290     17.7036     11.4731      0.1712      2.9237      2.5400
 10585.5000   -999.2500   -999.2500      0.1055     74.6999    137.3003     23.8460     19.6206     12.5460      0.1728      2.9485      2.5399
 10586.0000   -999.2500   -999.2500      0.1018     75.1858    127.8730     21.5709     18.0708     13.0553      0.1690      2.9424      2.5398
 10586.5000   -999.2500   -999.2500      0.1060     75.2009    140.6036     24.7483     20.2422     12.8753      0.1728      2.9554      2.5396
 10587.0000   -999.2500   -999.2500      0.1032     75.2161    133.3754     20.7074     18.0708     11.6723      0.1711      2.9456      2.5407
 10587.5000   -999.2500   -999.2500      0.1042     75.2313    134.6752     20.7074     17.5918     11.3420      0.1715      2.9628      2.5425
 10588.0000   -999.2500   -999.2500      0.1008     75.2465    128.6477     17.7827     15.4322     10.4076      0.1702      3.0364      2.5443
 10588.5000   -999.2500   -999.2500      0.0987     75.5721    121.0585     17.3908     15.2422     10.2150      0.1693      3.0678      2.5448
 10589.0000   -999.2500   -999.2500      0.0981     75.8976    122.2583     20.7915     16.6980     11.2991      0.1716      3.0783      2.5448
 10589.5000   -999.2500   -999.2500      0.1042     75.7710    139.2385     26.4593     21.8245     15.0658      0.1755      3.1174      2.5448
 10590.0000   -999.2500   -999.2500      0.1065     75.4977    146.6096     27.7680     23.4400     14.7799      0.1736      3.1174      2.5448
 10590.5000   -999.2500   -999.2500      0.1025     75.4977    137.3003     25.7687     21.9823     14.0541      0.1713      3.1174      2.5448
 10591.0000   -999.2500   -999.2500      0.1031     75.4977    136.0991     26.6649     21.9611     14.0674      0.1701      3.1173      2.5445
 10591.5000   -999.2500   -999.2500      0.1031     75.4977    141.2042     25.0903     19.9506     13.2088      0.1710      3.0971      2.5430
 10592.0000   -999.2500   -999.2500      0.1028     75.5699    132.4955     23.6852     20.5813     13.0979      0.1713      3.0954      2.5416
 10592.5000   -999.2500   -999.2500      0.1045     75.6421    139.0020     25.2128     21.1604     13.7955      0.1731      3.0898      2.5401
 10593.0000   -999.2500   -999.2500      0.1045     75.7143    137.4004     24.7299     20.6453     13.5417      0.1734      3.0936      2.5395
 10593.5000   -999.2500   -999.2500      0.1049     75.7865    136.6997     24.1775     20.2006     13.5489      0.1741      3.0769      2.5395
 10594.0000   -999.2500   -999.2500      0.1052     75.8587    140.8038     23.8460     19.9519     13.2973      0.1749      3.0712      2.5395
 10594.5000   -999.2500   -999.2500      0.1049     75.9310    142.5055     24.7483     20.4746     13.3568      0.1739      3.0262      2.5402
 10595.0000   -999.2500   -999.2500      0.1031     75.2510    137.8008     24.1132     20.1777     12.6889      0.1724      2.9978      2.5439
 10595.5000   -999.2500   -999.2500      0.0981     74.2978    126.9328     19.9321     15.9172     10.5330      0.1680      2.9959      2.5477
 10596.0000   -999.2500   -999.2500      0.0961     74.5311    123.8869     18.1897     16.1655      9.6314      0.1670      2.9375      2.5514
 10596.5000   -999.2500   -999.2500      0.0983     74.4587    128.0911     19.8048     16.5195     10.7266      0.1688      2.9402      2.5551
 10597.0000   -999.2500   -999.2500      0.0955     74.0277    116.9800     18.3189     14.5760     10.5293      0.1659      2.9149      2.5588
 10597.5000   -999.2500   -999.2500      0.0907     73.5967    105.9690     15.4421     13.0571      8.7008      0.1617      2.9149      2.5609
 10598.0000   -999.2500   -999.2500      0.0958     73.1657    128.6631     21.4112     16.7771     12.0603      0.1672      2.9590      2.5611
 10598.5000   -999.2500   -999.2500      0.0955     72.7347    131.0072     28.3938     23.7276     14.2512      0.1674      2.9709      2.5601
 10599.0000   -999.2500   -999.2500      0.0912     72.3037    119.1863     24.6565     21.9611     13.1087      0.1605      3.0098      2.5592
 10599.5000   -999.2500   -999.2500      0.0946     72.0647    125.8070     34.1876     28.8358     16.4810      0.1599      3.0364      2.5583
 10600.0000   -999.2500   -999.2500      0.0954     72.0324    127.6436     37.5138     30.9633     17.4706      0.1568      3.0566      2.5573
 10600.5000   -999.2500   -999.2500      0.0944     72.0376    126.1263     37.5138     30.3838     17.5621      0.1543      3.0769      2.5564
 10601.0000   -999.2500   -999.2500      0.0944     72.0428    126.1695     36.9606     29.8950     17.4614      0.1529      3.0826      2.5555
 10601.5000   -999.2500   -999.2500      0.0942     72.0480    126.7269     36.6871     29.4061     17.1333      0.1525      3.0971      2.5549
 10602.0000   -999.2500   -999.2500      0.0934     72.0532    122.4091     32.8191     27.8427     15.6992      0.1532      3.1038      2.5575
 10602.5000   -999.2500   -999.2500      0.0909     72.0584    115.5415     28.4172     23.7769     14.1320      0.1533      3.1173      2.5608
 10603.0000   -999.2500   -999.2500      0.0896     72.0636    112.9762     26.4593     22.3034     13.4790      0.1545      3.1335      2.5639
 10603.5000   -999.2500   -999.2500      0.0920     72.0688    119.1824     30.3973     24.7534     15.2082      0.1547      3.1578      2.5650
