#   WellGreen Tech Inc.   Digitizing Services
#   www.wellgreentech.com
#   email: sales@wellgreentech.com
#
~Version Information Block
 VERS.                2.00:     CWLS LOG ASCII STANDARD - VERSION 2.000000
 WRAP.                  NO:     One Line Per Depth Step
#
~Well Information Block
#MNEM.UNIT                     Data                         Information
#----------   ------------------------------------------   ----------------
 STRT.FT                                      400.0000:     START DEPTH
 STOP.FT                                    10100.0000:     STOP DEPTH
 STEP.FT                                        0.5000:     STEP
 NULL.                                       -999.2500:     NULL VALUE
 COMP.                       ENRON OIL AND GAS COMPANY:     COMPANY
 WELL.                                   TXL "1" NO. 1:     WELL
 FLD .                                         WILDCAT:     FIELD
 LOC .                                              63:     LOCATION
 CNTY.                                       CULBERSON:     COUNTY
 STAT.                                           TEXAS:     STATE
 CTRY.                                             USA:     COUNTRY
 SRVC.                                    SCHLUMBERGER:     SERVICE COMPANY
 DATE.                                      06/28/1989:     DATE
 API .               42109320330000:    API NUMBER
 UWI .               42109320330000:    UWI NUMBER
 TVD .                                              NO:     TVD flag
 MATRIX .G/CC                  :    Matrix Density
#
~Curve Information Block
#MNEM.UNIT       API CODE      Curve Description
#----------    -------------   -------------------
 DEPT.FT                   :   Depth in Feet
 GR  .API      35 310 01 01:   Gamma Ray
 CALI.INCHES   70 280 01 01:   Caliper
 DT  .US/FT    60 520 08 01:   Delta T
 SPHI.V/V      61 890 01 01:   Sonic Porosity
#
~Parameter Information Block
#MNEM.UNIT            Value               Description
#----------    --------------------    -------------------
 RUN .                         ONE:    Run Number
 PDAT.                          GL:    Permanent Datum
 EPD .FT                 3890.3000:    Elevation Of Perm. Datum
 LMF .               KELLY BUSHING:    Log Measured From
 EKB .FT                 3905.1000:    Elevation Of Kelly Bushing
 DF .FT                  3904.1000:    Elevation Of Derrick Floor
 GL .FT                  3890.3000:    Elevation Of Ground Level
 TD .FT                  10100.0000:    Total Depth
 BHT .DEGF               193.00 :  Bottom Hole Temperature
 BLI .FT               10100.0000:   Bottom Log Interval
 CSGSIZE.IN              9.6250:   Casing Size
 BITSIZE.IN               8.750 :  BitSize
 CSGD.FT                      405:    Casing Bottom (Driller) 1
 CSGL.FT                      405:    Casing Bottom (Logger) 1
 MUD .                      SW GEL:    Drilling Fluid Type
 MUDV .CP                  34.0000:    Drilling Fluid Viscosity
 MUDD .LB/USG               9.1000:    Drilling Fluid Density
 FL .ML/30MIN               8.0000:    Drilling Fluid Loss
 PH.                       10.0000:    Drilling Fluid Ph
 MUDS .                  CIRC TANK:    Mud Sample Source
 RM .OHMM                   0.1720:    Resistivity Of Mud Sample
 RMT .DEGF                 75.0000:    Mud Sample Temperature
 RMF .OHMM                  0.1720:    Mud Filtrate Resistivity
 RMFT.DEGF                 75.0000:    Mud Filtrate Sample Temperature
 RMB .OHMM                  0.0710:    Mud Resistivity At Bht
 TMAX .DEGF               193.0000:    Bottom Hole Temperature
#
~Other Information Block
<DescLogPlotStart>   NEURALOG PLOT DEFINITION
PLOTDEFVERSION: 3
LASFILE: D:\nds\projects\20MAY19H\las\42109320330000_BEG_RAS_RS0022815370.las
DEPTHSCALE: 240.000000
RESOLUTION: 400
DEPTHLABELFREQ: 100.000000
HEAVYGRIDFREQ: 100.000000
MEDIUMGRIDFREQ: 50.000000
LIGHTGRIDFREQ: 10.000000
#
#   TRACK 1
#
STARTTRACK: 
 LEFTX: 0.500000 inch
 RIGHTX: 3.000000 inch
 SCALETYPE: Linear
 NUMCHARTDIVISIONS: 10
CURVE: GR    0.000000   125.000000 (0,0,255)      Solid             2     Y    
BACKUP: 125.000000 250.000000 (0,0,255)      Solid             2    
ENDTRACK: 
#
#   TRACK 2
#
STARTTRACK: 
 LEFTX: 0.500000 inch
 RIGHTX: 3.000000 inch
 SCALETYPE: Linear
 NUMCHARTDIVISIONS: 10
CURVE: CALI  6.000000   16.000000  (0,131,131)    Solid             2     N    
ENDTRACK: 
#
#   TRACK 3
#
STARTTRACK: 
 LEFTX: 3.500000 inch
 RIGHTX: 8.500000 inch
 SCALETYPE: Linear
 NUMCHARTDIVISIONS: 10
CURVE: DT    100.000000 40.000000  (255,0,255)    Solid             2     Y    
BACKUP: 160.000000 100.000000 (255,0,255)    Solid             2    
CURVE: SPHI  0.300000   -0.100000  (255,0,0)      Dot               2     Y    
BACKUP: 0.700000   0.300000   (255,0,0)      Dot               2    
BACKUP: -0.100000  -0.500000  (255,0,0)      Dot               2    
ENDTRACK: 
<DescLogPlotEnd>
~A DEPTH     GR               CALI             DT               SPHI            
# ...
    6191.500 86.40            9.49             80.97            0.26            
    6192.000 83.27            9.48             80.21            0.25            
    6192.500 80.36            9.48             79.23            0.25            
    6193.000 81.50            9.47             78.73            0.25            
    6193.500 84.12            9.46             78.63            0.25            
    6194.000 88.08            9.45             77.87            0.24            
    6194.500 91.30            9.44             76.65            0.24            
    6195.000 93.31            9.43             75.71            0.23            
    6195.500 96.31            9.43             75.08            0.23            
    6196.000 103.20           9.43             75.09            0.23            
    6196.500 112.47           9.43             75.77            0.23            
    6197.000 112.31           9.43             76.46            0.24            
    6197.500 101.70           9.44             76.65            0.24            
    6198.000 92.26            9.44             75.74            0.23            
    6198.500 86.20            9.44             74.53            0.23            
    6199.000 85.64            9.44             75.03            0.23            
    6199.500 94.27            9.44             76.14            0.23            
    6200.000 101.46           9.44             77.39            0.24            
    6200.500 108.23           9.44             78.59            0.25            
    6201.000 110.04           9.44             78.62            0.25            
    6201.500 105.83           9.44             77.20            0.24            
    6202.000 99.12            9.45             74.85            0.23            
    6202.500 92.42            9.45             72.90            0.22            
    6203.000 87.34            9.45             71.66            0.21            
    6203.500 87.51            9.45             72.90            0.22            
    6204.000 91.84            9.45             74.74            0.23            
    6204.500 94.90            9.45             77.02            0.24            
    6205.000 94.96            9.45             78.90            0.25            
    6205.500 92.64            9.45             80.00            0.25            
    6206.000 88.75            9.45             80.25            0.25            
    6206.500 80.26            9.45             78.17            0.25            
    6207.000 69.58            9.44             74.30            0.23            
    6207.500 58.90            9.44             70.44            0.21            
    6208.000 49.55            9.44             66.70            0.18            
    6208.500 54.22            9.44             64.28            0.16            
    6209.000 69.16            9.44             66.11            0.18            
    6209.500 87.02            9.45             70.29            0.20            
    6210.000 104.33           9.47             74.47            0.22            
    6210.500 105.15           9.48             77.22            0.24            
    6211.000 97.94            9.49             77.25            0.24            
    6211.500 91.75            9.47             76.40            0.24            
    6212.000 89.31            9.46             76.02            0.23            
    6212.500 88.72            9.44             76.17            0.23            
    6213.000 85.82            9.42             76.48            0.24            
    6213.500 78.85            9.42             75.93            0.23            
    6214.000 67.97            9.43             73.14            0.21            
    6214.500 56.53            9.43             68.00            0.18            
    6215.000 49.39            9.43             62.87            0.15            
    6215.500 58.17            9.43             60.51            0.13            
    6216.000 76.65            9.44             64.76            0.17            
    6216.500 95.76            9.44             71.28            0.21            
    6217.000 103.77           9.44             77.39            0.24            
    6217.500 100.72           9.44             80.38            0.25            
    6218.000 95.37            9.45             79.14            0.25            
    6218.500 90.42            9.45             76.66            0.24            
    6219.000 87.61            9.45             74.20            0.22            
    6219.500 86.03            9.45             72.85            0.22            
    6220.000 82.74            9.45             72.19            0.21            
    6220.500 77.52            9.45             71.66            0.21            
    6221.000 77.80            9.45             71.82            0.21            
    6221.500 86.34            9.44             73.17            0.22            
    6222.000 91.72            9.44             76.67            0.24            
    6222.500 94.22            9.44             80.35            0.25            
    6223.000 92.05            9.43             83.28            0.27            
    6223.500 89.91            9.43             84.15            0.27            
    6224.000 87.16            9.43             83.13            0.27            
    6224.500 82.47            9.43             80.77            0.25            
    6225.000 77.76            9.43             77.83            0.24            
    6225.500 75.81            9.43             75.94            0.23            
    6226.000 80.58            9.43             75.82            0.23            
    6226.500 86.54            9.42             77.70            0.24            
    6227.000 91.88            9.42             79.58            0.25            
    6227.500 94.29            9.42             81.13            0.26            
    6228.000 95.40            9.42             81.70            0.26            
    6228.500 95.73            9.42             81.90            0.26            
    6229.000 93.93            9.42             82.02            0.26            
    6229.500 89.45            9.43             81.78            0.26            
    6230.000 83.97            9.43             79.83            0.25            
    6230.500 78.01            9.43             77.22            0.24            
    6231.000 76.63            9.44             75.26            0.23            
    6231.500 85.01            9.44             74.70            0.23            
    6232.000 96.58            9.44             75.61            0.23            
    6232.500 104.00           9.43             77.64            0.24            
    6233.000 107.57           9.43             79.38            0.25            
    6233.500 109.06           9.43             80.25            0.25            
    6234.000 110.02           9.43             80.73            0.26            
    6234.500 107.58           9.43             80.83            0.26            
    6235.000 101.12           9.43             79.25            0.25            
    6235.500 93.63            9.43             75.49            0.23            
    6236.000 86.43            9.43             71.73            0.21            
    6236.500 84.35            9.43             68.40            0.19            
    6237.000 84.53            9.43             68.79            0.19            
    6237.500 83.27            9.43             70.51            0.20            
    6238.000 80.82            9.43             72.80            0.22            
    6238.500 78.34            9.43             74.32            0.22            
    6239.000 78.59            9.42             73.66            0.22            
    6239.500 80.54            9.42             72.20            0.22            
    6240.000 82.04            9.42             72.54            0.21            
    6240.500 83.21            9.42             73.24            0.22            
