###############################################
##         ENVERUS                           ##
##         ESS - Open Hole                   ##
##         PERMIAN / DELAWARE                ##
##         Nov 03 2023  V4.0                 ##
##         42-109-32507-90-00                ##
###############################################
## Copyright 2017-2023  ENVERUS.  All Rights Reserved. 
## Confidential - Property of ENVERUS, use governed by terms and 
## conditions found within the existing Information Services Subscription Agreement 
## (as may be amended, the “ISSA”) between Customer and ENVERUS. 
## 
~VERSION INFORMATION
# MNEM.UNIT                               DATA : DESCRIPTION OF MNEMONIC
#-----.-----     ----------------------------- : -----------------------------
VERS.                                     2.00 : CWLS LOG ASCII STANDARD - VERSION 2.00
WRAP.                                       NO : MULTIPLE LINES PER DEPTH STEP
VEND.                                  ENVERUS : VENDOR
TYPE.                          ESS - OPEN HOLE : ENVERUS ESSENTIAL CURVES – ACCESSIBLE THROUGH ENVERUS PRISM(TM)
DOC.                                  51094130 : ENVERUS HEADER RAW DOCUMENT ID
#___________________________________________________________________________________________________ 
~WELL INFORMATION 
# OeTAuI96vYP/1gAnXdiC+b2e5mg9bdq0rVS4GA6NX+ctg1PKQ5RhcqUsdOd2aOUDNf5EtC5635oDT1THDUi6iw== 
# MNEM.UNIT                                              DATA : DESCRIPTION OF MNEMONIC 
#-----.-----                    ----------------------------- : ----------------------------- 
CNTY.                                               CULBERSON : COUNTY 
STATE.                                                  TEXAS : STATE 
CNTRY.                                                    USA : COUNTRY 
API.                                             42-109-32507 : API (10 Digit) 
API_14.                                    42-109-32507-90-00 : API (14 Digits) 
API_14_std.                                 42-109-32507-9000 : API (14 Digits Standard) 
UWI.                                           42109325079000 : UNIQUE WELL ID 
WELL.                               42109325070000_PREV_API14 : WELL NAME
STRT.FT                                                2104.5 : START DEPTH
STOP.FT                                                9085.0 : STOP DEPTH
STEP.FT                                                   0.5 : STEP BETWEEN DEPTHS
NULL.                                                 -999.25 : NULL VALUE
PREV_APII.                                     42109325070000 : WELL IDENTIFIER
#___________________________________________________________________________________________________ 
~PARAMETER INFORMATION 
# MNEM.UNIT                                              DATA : DESCRIPTION OF MNEMONIC 
#-----.-----                    ----------------------------- : ----------------------------- 
EKB.FT                                                 3578.5 : ELEVATION ABOVE MSL
#___________________________________________________________________________________________________ 
~CURVE INFORMATION 
# MNEM.UNIT           : CURVE DESCRIPTION 
#-----.-----          : ----------------------------- 
 DEPT.FT               : MEASURED DEPTH 
 GR__A.API             : GAMMA RAY (GAMMA RAY) 
 DT__A.US/FT           : SONIC DELTA TRANSIT TIME (SONIC) 
 #___________________________________________________________________________________________________ 
~A         DEPT          GR__A          DT__A
# ...
         4366.5        144.147        107.800
         4367.0        145.419        109.404
         4367.5        145.419        112.774
         4368.0        146.521        114.344
         4368.5        156.307        116.623
         4369.0        163.568        115.440
         4369.5        156.204        113.291
         4370.0        153.586        109.865
         4370.5        155.166        106.336
         4371.0        149.117        108.676
         4371.5        149.570        112.867
         4372.0        153.893        113.535
         4372.5        157.543        111.374
         4373.0        162.282        105.719
         4373.5        168.307        103.213
         4374.0        172.660        103.140
         4374.5        168.482        103.256
         4375.0        154.343        103.603
         4375.5        152.872        104.046
         4376.0        163.741        104.576
         4376.5        169.726        104.187
         4377.0        176.433        104.064
         4377.5        173.226        105.374
         4378.0        166.226        106.412
         4378.5        152.894        107.781
         4379.0        149.518        108.371
         4379.5        148.431        110.684
         4380.0        142.081        113.084
         4380.5        138.417        116.430
         4381.0        154.323        117.624
         4381.5        163.903        118.208
         4382.0        165.692        118.890
         4382.5        160.594        119.182
         4383.0        151.728        118.244
         4383.5        171.747        115.621
         4384.0        185.361        112.449
         4384.5        213.481        106.199
         4385.0        240.401         93.864
         4385.5        283.311         82.836
         4386.0        304.261         80.148
         4386.5        329.361         78.274
         4387.0        322.820         87.654
         4387.5        293.192         98.148
         4388.0        287.093         98.924
         4388.5        300.962         95.866
         4389.0        328.867         92.185
         4389.5        330.182         90.750
         4390.0        319.020         91.615
         4390.5        238.499        107.081
         4391.0        172.347        119.162
         4391.5        117.662        134.106
         4392.0        109.603        138.053
         4392.5        114.108        135.438
         4393.0        129.022        127.290
         4393.5        154.732        111.817
         4394.0        168.332        106.926
         4394.5        177.887        104.382
         4395.0        162.615        105.432
         4395.5        163.215        107.146
         4396.0        169.892        109.791
         4396.5        172.861        111.347
         4397.0        163.691        111.087
         4397.5        170.824        110.149
         4398.0        181.531        106.791
         4398.5        229.410        104.287
         4399.0        248.440        104.388
         4399.5        245.471        103.906
         4400.0        243.665         99.952
         4400.5        287.189         95.467
         4401.0        334.410         95.970
         4401.5        329.944         95.666
         4402.0        321.218         92.723
         4402.5        355.310         83.476
         4403.0        395.051         79.930
         4403.5        338.295         93.244
         4404.0        274.469        102.821
         4404.5        218.410        109.755
         4405.0        205.050        110.799
         4405.5        204.678        110.014
         4406.0        203.857        109.424
         4406.5        202.029        106.975
         4407.0        209.454        102.645
         4407.5        229.886        101.422
         4408.0        246.739        101.700
         4408.5        242.005        104.561
         4409.0        247.151        104.357
         4409.5        278.607         95.110
         4410.0        304.679         92.596
         4410.5        291.186         93.393
         4411.0        248.267        101.362
         4411.5        228.034        104.899
         4412.0        224.587        108.367
         4412.5        214.922        114.261
         4413.0        188.999        120.890
         4413.5        163.524        124.549
         4414.0        163.192        122.808
         4414.5        199.172        112.110
         4415.0        231.772        101.529
         4415.5        268.158        102.346
         4416.0        262.103        104.909
         4416.5        221.741        108.343
         4417.0        204.769        113.908
         4417.5        206.159        111.686
         4418.0        208.120        109.969
         4418.5        212.948        105.008
         4419.0        222.222        104.372
         4419.5        207.277        108.098
         4420.0        190.274        112.356
         4420.5        143.556        118.591
         4421.0        128.060        123.192
         4421.5        123.977        119.189
         4422.0        124.341        121.357
         4422.5        124.404        124.283
         4423.0        130.950        124.281
         4423.5        157.503        118.633
         4424.0        174.849        111.522
         4424.5        198.224        108.166
         4425.0        175.262        116.233
         4425.5        157.110        124.206
         4426.0        149.588        128.290
         4426.5        147.625        132.883
         4427.0        136.790        136.764
         4427.5        121.570        137.431
         4428.0        116.179        133.663
         4428.5        129.228        129.234
         4429.0        136.842        124.151
         4429.5        134.893        124.981
         4430.0        139.394        124.528
         4430.5        156.170        116.074
         4431.0        183.505        111.507
         4431.5        192.585        109.675
         4432.0        178.688        113.535
         4432.5        149.797        121.964
         4433.0        143.966        124.360
         4433.5        144.934        124.074
         4434.0        149.624        124.204
         4434.5        151.641        128.494
         4435.0        143.140        136.702
         4435.5        137.670        130.083
         4436.0        147.332        121.342
         4436.5        195.891        115.416
         4437.0        224.861        113.931
         4437.5        180.748        118.009
         4438.0        159.049        124.656
         4438.5        137.622        129.727
         4439.0        138.181        128.251
         4439.5        146.127        124.848
         4440.0        156.392        123.690
         4440.5        161.953        127.402
         4441.0        140.636        133.213
         4441.5        114.918        138.702
         4442.0        114.230        142.460
         4442.5        104.317        147.485
         4443.0         83.375        148.171
         4443.5         82.427        143.261
         4444.0         92.159        137.187
         4444.5        114.392        124.854
         4445.0        134.639        117.958
         4445.5        152.846        116.066
         4446.0        162.715        117.528
         4446.5        153.896        125.867
         4447.0        136.921        131.824
         4447.5        124.100        132.308
         4448.0        117.884        130.939
         4448.5        115.406        130.477
         4449.0        113.049        129.564
         4449.5        108.463        129.309
         4450.0        105.646        128.919
         4450.5        110.783        128.530
         4451.0        114.934        128.335
         4451.5        113.514        127.751
         4452.0        115.270        126.803
         4452.5        123.358        125.249
         4453.0        127.096        124.440
