###############################################
##         ENVERUS                           ##
##         ESS - Open Hole                   ##
##         PERMIAN / DELAWARE                ##
##         Nov 02 2023  V4.0                 ##
##         42-109-32297-90-00                ##
###############################################
## Copyright 2017-2023  ENVERUS.  All Rights Reserved. 
## Confidential - Property of ENVERUS, use governed by terms and 
## conditions found within the existing Information Services Subscription Agreement 
## (as may be amended, the “ISSA”) between Customer and ENVERUS. 
## 
~VERSION INFORMATION
# MNEM.UNIT                               DATA : DESCRIPTION OF MNEMONIC
#-----.-----     ----------------------------- : -----------------------------
VERS.                                     2.00 : CWLS LOG ASCII STANDARD - VERSION 2.00
WRAP.                                       NO : MULTIPLE LINES PER DEPTH STEP
VEND.                                  ENVERUS : VENDOR
TYPE.                          ESS - OPEN HOLE : ENVERUS ESSENTIAL CURVES – ACCESSIBLE THROUGH ENVERUS PRISM(TM)
DOC.                                  52921007 : ENVERUS HEADER RAW DOCUMENT ID
#___________________________________________________________________________________________________ 
~WELL INFORMATION 
# EM3SY5Bwx6x9YoJmjxbMXtwK21/gMzSEmeWIZ71LA4UD3Y8PQw/mHJ0IHc4n7dRi3zAL189RIdETacnakexX1Q== 
# MNEM.UNIT                                              DATA : DESCRIPTION OF MNEMONIC 
#-----.-----                    ----------------------------- : ----------------------------- 
CNTY.                                               CULBERSON : COUNTY 
STATE.                                                  TEXAS : STATE 
CNTRY.                                                    USA : COUNTRY 
API.                                             42-109-32297 : API (10 Digit) 
API_14.                                    42-109-32297-90-00 : API (14 Digits) 
API_14_std.                                 42-109-32297-9000 : API (14 Digits Standard) 
UWI.                                           42109322979000 : UNIQUE WELL ID 
WELL.                          MELISSA TAYLOR STATE 105-3  1H : WELL NAME
STRT.FT                                                 200.0 : START DEPTH
STOP.FT                                               10260.0 : STOP DEPTH
STEP.FT                                                   0.5 : STEP BETWEEN DEPTHS
NULL.                                                 -999.25 : NULL VALUE
PREV_API.                                        421093229700 : API NUMBER 
COMP.                              CHESAPEAKE OPERATING  INC. : COMPANY 
DATE.                                             17-JUN-2008 : LOG DATE
#___________________________________________________________________________________________________ 
~CURVE INFORMATION 
# MNEM.UNIT           : CURVE DESCRIPTION 
#-----.-----          : ----------------------------- 
 DEPT.FT               : MEASURED DEPTH 
 CALI.IN               : CALIPER (CAL - CAL) 
 GR.API                : GAMMA RAY (GR) 
 DT.US/FT              : SONIC DELTA TRANSIT TIME (DT) 
 RESS.OHMM             : SHALLOW INDUCTION RESISTIVITY (ILS - ILS) 
 RESD.OHMM             : DEEP INDUCTION RESISTIVITY (ILD - ILD) 
 DPHI.V/V              : DENSITY POROSITY (DPHI) 
 NPHI.V/V              : NEUTRON POROSITY (NPHI) 
 RHOB.G/CC             : BULK DENSITY (RHOB) 
 #___________________________________________________________________________________________________ 
~A         DEPT           CALI             GR             DT           RESS           RESD           DPHI           NPHI           RHOB
# ...
         8430.5         22.979        118.971         79.479          9.084         12.210        0.58315        0.31906         1.6970
         8431.0         22.357        118.211         80.432          8.649         11.547        0.60416        0.32009         1.7070
         8431.5         22.478        117.308         78.683          7.931         11.155        0.58044        0.32858         1.6940
         8432.0         22.537        116.654         76.896          7.430         10.763        0.51522        0.33425         1.6800
         8432.5         21.646        117.086         75.108          7.431         10.415        0.46128        0.33374         1.8640
         8433.0         20.786        117.602         73.103          7.489         10.448        0.37134        0.32317         1.9790
         8433.5         20.655        119.320         70.464          7.862         10.481        0.25776        0.29661         2.2720
         8434.0         20.853        121.038         70.921          8.234         10.616        0.20193        0.26576         2.2040
         8434.5         20.221        122.756         72.970          8.701         11.095        0.21314        0.26624         2.1880
         8435.0         19.304        122.251         75.326          9.727         12.635        0.22994        0.26738         2.1810
         8435.5         18.265        117.125         80.560         10.753         14.175        0.27394        0.28172         2.0910
         8436.0         17.742        111.416         96.769         11.779         15.532        0.34795        0.29607         1.9970
         8436.5         19.157        102.922        101.622         11.746         15.416        0.47497        0.36139         1.9030
         8437.0         20.211         95.470        104.958         11.230         14.457        0.60210        0.44755         1.8100
         8437.5         20.259         93.095        108.293         10.714         13.629        0.63470        0.53151         1.7160
         8438.0         19.377         92.090        105.327         10.166         12.828        0.68390        0.50906         1.6220
         8438.5         18.102         92.536         99.477          9.023         12.027        0.61335        0.47115         1.5280
         8439.0         17.937         93.556         89.159          7.879         11.352        0.54555        0.43324         1.6230
         8439.5         18.487         99.264         75.684          7.837         10.704        0.48017        0.39550         1.7240
         8440.0         19.468        104.971         79.890          8.204         10.473        0.45664        0.36704         1.8790
         8440.5         20.181        107.112         86.829          8.884         10.820        0.43285        0.34866         2.2510
         8441.0         18.790        104.062         87.088          9.468         12.190        0.39496        0.35130         2.2170
         8441.5         17.122        100.711         84.095          9.895         12.532        0.30748        0.35395         2.1840
         8442.0         17.407        100.896         83.113          9.636         12.533        0.26327        0.36096         2.1280
         8442.5         17.691        104.074         82.131          9.377         12.533        0.30418        0.36953         2.0670
         8443.0         18.577        106.194         80.653          9.118         12.534        0.39021        0.37350         2.0060
         8443.5         18.938        108.252         78.919          9.402         12.735        0.43549        0.35787         1.9810
         8444.0         18.468        109.898         77.186          9.855         13.958        0.45085        0.34225         1.9610
         8444.5         17.839        110.982         75.452         10.309         15.181        0.41223        0.32825         1.9410
         8445.0         17.222        109.485         74.860         10.539         15.698        0.36346        0.32959         2.0980
         8445.5         16.657        107.988         77.263         10.694         15.594        0.31233        0.35501         2.1780
         8446.0         16.120        108.072         79.735         12.175         15.490        0.29069        0.38042         2.1510
         8446.5         16.027        108.776         82.207         13.671         18.204        0.36445        0.40584         2.0420
         8447.0         16.240        109.234         83.065         14.491         18.872        0.58368        0.43126         1.9540
         8447.5         16.643        107.703         81.323         15.310         19.539        0.59803        0.45201         1.8810
         8448.0         17.047        105.678         77.199         15.873         20.207        0.54840        0.45177         1.8470
         8448.5         17.468        102.534         73.074         15.788         20.646        0.47808        0.40348         1.9940
         8449.0         17.891        102.500         70.524         14.630         20.467        0.39037        0.34260         2.3770
         8449.5         17.966        103.860         72.487         12.654         18.362        0.29408        0.26983         2.3090
         8450.0         17.591        106.490         74.451         11.446         14.756        0.15762        0.16996         2.2420
         8450.5         17.216        109.119         76.172         12.782         15.423        0.16971        0.16792         2.2080
         8451.0         17.803        111.438         77.352         14.119         16.089        0.20531        0.21934         2.1960
         8451.5         19.271        111.262         78.533         15.455         17.017        0.27025        0.27075         2.1830
         8452.0         19.784        110.100         77.025         15.320         17.988        0.37257        0.31318         2.1530
         8452.5         19.588        108.696         75.337         14.352         16.469        0.37998        0.34406         2.1190
         8453.0         18.696        107.248         74.107         12.964         14.711        0.37516        0.37495         2.0860
         8453.5         17.805        105.717         74.268         11.777         13.705        0.31547        0.38775         2.0810
         8454.0         16.659        104.843         74.904         11.732         13.343        0.29441        0.38076         2.1620
         8454.5         16.627        104.471         75.721         11.686         13.344        0.27717        0.34609         2.4050
         8455.0         16.596        103.315         76.538         12.173         13.367        0.26309        0.31141         2.5240
         8455.5         16.706        102.159         77.356         12.804         14.233        0.17042        0.28390         2.6140
         8456.0         17.080        102.947         78.173         13.434         15.093        0.10807        0.26007         2.6060
         8456.5         17.583        108.656         78.100         13.317         15.038        0.05801        0.26135         2.5980
         8457.0         17.951        114.186         77.758         13.194         14.984        0.06800        0.26276         2.5730
         8457.5         17.959        113.904         77.643         13.070         15.041        0.06246        0.25235         2.5200
         8458.0         17.963        113.622         77.587         12.968         14.996        0.07030        0.24088         2.5370
         8458.5         17.963        113.273         76.918         12.865         14.827        0.09393        0.23916         2.5870
         8459.0         17.931        113.389         75.857         12.926         14.658        0.11444        0.24914         2.6360
         8459.5         17.818        112.934         74.797         13.082         14.489        0.09924        0.26297         2.5660
