# Exported from Transform Software 5.2.0 on 30-Oct-2019 by user kathryn.gehrke
# DI Transform - A Product of Drillinginfo, Inc. - www.drillinginfo.com
#
~VERSION INFORMATION
 VERS.        2.0 : LAS ASCII STANDARD - VERSION 2.0
 WRAP.         NO : ONE LINE PER DEPTH STEP

~WELL INFORMATION
#MNEM.UNIT       DATA TYPE       INFORMATION
#---------       ---------       -----------
 STRT.ft                  40 : Start Depth
 STOP.ft                9358 : Stop Depth
 STEP.ft                 0.5 : Step Length
 NULL.               -999.25 : Null Value
 COMP.                       : Company
 WELL.  42109330610000_API14 : Well Name
 FLD.                        : Field Name
 LOC.                        : Well Location
 CNTY.                       : County
 STAT.                       : State or Province
 CTRY.                       : Country
 SRVC.                       : Service Company
 DATE.                       : Date
 API.         42109330610000 : Well Identifier

~CURVE INFORMATION
#MNEM.UNIT       API CODE       CURVE DESCRIPTION
#---------       --------       -----------------
 DEPT.ft        : <Measured Depth>
 DT.us/ft       : Sonic
 GR.gAPI        : Gamma Ray

~PARAMETER INFORMATION
#MNEM.UNIT       VALUE       DESCRIPTION
#---------       -----       -----------
 EKB.ft      3200.5 : Elevation above MSL

~A      DEPT          DT          GR
# ...
        7418    240.2806     29.5705
      7418.5    240.2806     25.6817
        7419    240.2806     25.2505
      7419.5    240.2806     25.7315
        7420    240.2806     27.4646
      7420.5    240.2806      32.183
        7421    240.2806     37.1336
      7421.5    240.2806     41.2217
        7422    240.2806     46.4209
      7422.5    240.2806     48.0465
        7423    240.2806     45.3018
      7423.5    240.2806     44.2485
        7424    240.2806     44.8785
      7424.5    240.2806     44.8288
        7425    240.1132     47.2336
      7425.5     239.479     49.0581
        7426    238.8446     48.3367
      7426.5     239.479     46.6533
        7427     239.479     45.8823
      7427.5     239.479     44.7295
        7428     239.479      43.718
      7428.5     239.479     41.5041
        7429    240.2806     38.7102
      7429.5    240.2806     34.2826
        7430    240.2806     31.7435
      7430.5     239.479     33.9643
        7431     239.479     40.4078
      7431.5     239.479     43.5765
        7432     239.479     41.7448
      7432.5     239.479     36.9846
        7433     239.479     35.7822
      7433.5     239.479     35.1102
        7434     239.479     34.8697
      7434.5     239.479     39.0632
        7435     239.479     46.1358
      7435.5     239.479     50.2112
        7436     239.479     47.5102
      7436.5     239.479     39.2846
        7437     239.479     32.7979
      7437.5     239.479     30.4918
        7438     239.479     35.9856
      7438.5     239.479     44.6921
        7439     239.479     48.5279
      7439.5     239.479     43.6631
        7440     239.479     39.2419
      7440.5     239.479     36.0664
        7441     239.479     33.1864
      7441.5     239.479      33.815
        7442     239.479     36.8428
      7442.5     239.479     40.2095
        7443     239.479      41.942
      7443.5    240.2806     46.1777
        7444    240.2806     51.0803
      7444.5    240.2806     51.6051
        7445     239.479     46.7413
      7445.5     239.479     41.3136
        7446    240.2806     41.6523
      7446.5    240.2806     44.5871
        7447     239.479     46.0251
      7447.5     239.479     39.7727
        7448    240.2806     36.4107
      7448.5    240.2806     44.7388
        7449    240.2806     55.7962
      7449.5    240.2806     57.5684
        7450    240.2806     52.2289
      7450.5    240.2806     49.2986
        7451    240.2806     49.8285
      7451.5    241.0822     50.1137
        7452    242.6854     46.6044
      7452.5     243.487     43.1398
        7453     243.487      38.856
      7453.5    242.6854     34.3399
        7454    242.6854     32.3222
      7454.5    242.5206     34.8737
        7455    241.0822     42.8172
      7455.5    240.2806     52.6729
        7456     239.479     56.0772
      7456.5     239.479     48.4307
        7457     239.479     43.2866
      7457.5     239.479     43.8163
        7458    240.2806     45.2104
      7458.5    240.2806     46.5592
        7459    240.2806     51.1283
      7459.5    240.2806     50.7382
        7460    240.2806     43.3289
      7460.5    240.2806     41.7981
        7461    240.2806     46.7507
      7461.5    240.2806     46.9882
        7462    240.2806     41.6976
      7462.5    240.2806     36.9367
        7463    240.2806     34.7724
      7463.5    240.2806     32.6568
        7464    240.2806      31.022
      7464.5    240.2806     32.5622
        7465    240.2806     36.2666
      7465.5    240.2806     39.0551
        7466    240.2806     38.7636
      7466.5    240.2806      35.205
        7467    240.2806     31.2625
      7467.5    240.2806     31.1191
        7468    240.2806     32.7054
      7468.5    240.2806     32.5134
        7469    240.2806     32.9944
      7469.5    240.2806     35.6397
        7470    240.2806     35.9752
      7470.5    240.2806     34.2434
        7471    240.2806      32.657
      7471.5    240.2806     32.3213
        7472    240.2806     33.6673
      7472.5     239.479     34.0999
        7473     239.479     33.4269
      7473.5    240.2806     32.7054
        7474    240.2806     33.1864
      7474.5     239.479     35.4004
        7475     239.479     39.6806
      7475.5     239.479     41.1222
        7476     239.479     41.2189
      7476.5     239.479     42.0369
        7477     239.479     39.1974
      7477.5     239.479     33.3786
        7478     239.479     35.7843
      7478.5     239.479     42.5659
        7479     239.479     44.5365
      7479.5     239.479     36.8411
        7480     239.479     33.1864
      7480.5     239.479     37.9007
        7481     239.479     43.5752
      7481.5     239.479     42.6129
        7482     239.479     40.5931
      7482.5     239.479      39.487
        7483     239.479     38.8135
      7483.5     239.479      35.014
        7484    238.6774     33.9559
      7484.5    238.6774     35.7836
        7485     239.479     37.9479
      7485.5     239.479     36.3126
        7486     239.479     36.7454
      7486.5    238.6774     38.2363
        7487    238.6774     40.7854
      7487.5    238.6774     42.3727
        7488    238.6774     42.7576
      7488.5    238.6774     40.5933
        7489    238.6774     41.4107
      7489.5    238.6774     42.5172
        7490    238.6774       38.91
      7490.5     239.479      37.996
        7491     239.479     37.3712
      7491.5    238.6774     35.2549
        7492    238.6774     35.0135
      7492.5     239.479     38.2844
        7493     239.479      39.342
      7493.5     239.479     40.4008
        7494    238.6774     40.9296
      7494.5     239.479      45.354
        7495    240.4419     49.9231
      7495.5    241.0822     51.3673
        7496    241.0822     49.4435
      7496.5    241.8838     45.2134
        7497    242.6854     37.8542
      7497.5    241.8838     35.9272
        7498    240.9211     42.6112
      7498.5    240.1196     52.8563
        7499    238.6774     57.2822
      7499.5    238.8383     51.3713
        7500     239.479       39.25
      7500.5     239.479     37.3699
        7501     239.479     46.2656
      7501.5     239.479     54.4917
        7502     239.479     56.8488
      7502.5     239.479     62.2324
        7503    240.2806     69.3038
      7503.5    240.2806     68.1061
        7504    240.2806     60.5085
      7504.5    240.2806     54.1583
        7505    240.2806     51.2224
      7505.5    240.2806     52.3746
        7506    241.0822     57.6176
      7506.5    240.2806     60.9843
        7507    240.2806      61.661
      7507.5    241.0822     56.8544
        7508    241.0822     48.9156
      7508.5    240.2806     40.4988
        7509    240.2806     35.3032
      7509.5    240.2806     33.7623
        7510    240.2806     35.6386
      7510.5    240.2806     36.0721
        7511    240.4405     34.7275
      7511.5    241.0822     33.7147
        7512    241.0822     39.1001
      7512.5    241.0822     39.7303
        7513    241.0822     35.6422
      7513.5    241.2419     35.7332
        7514    241.8838     41.9857
      7514.5    241.0822     46.5075
        7515    241.0822     51.8454
      7515.5    240.2806     57.8573
        7516    240.2806     63.6288
      7516.5    241.0822     62.2414
        7517    240.2806     54.4001
      7517.5    240.2806     53.6703
        7518    240.2806     59.9699
      7518.5    240.2806     67.1371
        7519    240.1213     71.4228
      7519.5     239.479     67.0515
        7520     239.479     50.7079
      7520.5     239.479     37.8545
        7521     239.479     37.1284
      7521.5     239.479     42.4189
        7522    239.6379     42.3295
      7522.5    240.2806     37.1381
        7523    240.4394     33.9599
      7523.5    241.0822      33.521
        7524    241.0822     36.6944
      7524.5    241.0822     40.7825
        7525    241.0822     45.7855
      7525.5    241.0822     48.0962
        7526    241.0822     49.1051
