###############################################
##         ENVERUS                           ##
##         ESS - Open Hole                   ##
##         PERMIAN / DELAWARE                ##
##         Nov 03 2023  V4.0                 ##
##         42-109-32978-00-00                ##
###############################################
## Copyright 2017-2023  ENVERUS.  All Rights Reserved. 
## Confidential - Property of ENVERUS, use governed by terms and 
## conditions found within the existing Information Services Subscription Agreement 
## (as may be amended, the “ISSA”) between Customer and ENVERUS. 
## 
~VERSION INFORMATION
# MNEM.UNIT                               DATA : DESCRIPTION OF MNEMONIC
#-----.-----     ----------------------------- : -----------------------------
VERS.                                     2.00 : CWLS LOG ASCII STANDARD - VERSION 2.00
WRAP.                                       NO : MULTIPLE LINES PER DEPTH STEP
VEND.                                  ENVERUS : VENDOR
TYPE.                          ESS - OPEN HOLE : ENVERUS ESSENTIAL CURVES – ACCESSIBLE THROUGH ENVERUS PRISM(TM)
DOC.                                  43644371 : ENVERUS HEADER RAW DOCUMENT ID
#___________________________________________________________________________________________________ 
~WELL INFORMATION 
# sF+t5dzO8TjfhJXm5BhYJSGKqyGjnVcKAr1GJS+XHP+EILfiOmlFF7qBSMjafOrEHsreRpz+nmfYFwcq0MlVOA== 
# MNEM.UNIT                                              DATA : DESCRIPTION OF MNEMONIC 
#-----.-----                    ----------------------------- : ----------------------------- 
CNTY.                                               CULBERSON : COUNTY 
STATE.                                                  TEXAS : STATE 
CNTRY.                                                    USA : COUNTRY 
API.                                             42-109-32978 : API (10 Digit) 
API_14.                                    42-109-32978-00-00 : API (14 Digits) 
API_14_std.                                 42-109-32978-0000 : API (14 Digits Standard) 
UWI.                                           42109329780000 : UNIQUE WELL ID 
WELL.                                    42109329780000_API14 : WELL NAME
STRT.FT                                                 179.0 : START DEPTH
STOP.FT                                                9893.5 : STOP DEPTH
STEP.FT                                                   0.5 : STEP BETWEEN DEPTHS
NULL.                                                 -999.25 : NULL VALUE
#___________________________________________________________________________________________________ 
~PARAMETER INFORMATION 
# MNEM.UNIT                                              DATA : DESCRIPTION OF MNEMONIC 
#-----.-----                    ----------------------------- : ----------------------------- 
EKB.FT                                                   3282 : ELEVATION ABOVE MSL
#___________________________________________________________________________________________________ 
~CURVE INFORMATION 
# MNEM.UNIT           : CURVE DESCRIPTION 
#-----.-----          : ----------------------------- 
 DEPT.FT               : MEASURED DEPTH 
 GR.API                : GAMMA RAY (GAMMA RAY) 
 DT.US/FT              : SONIC DELTA TRANSIT TIME (SONIC) 
 #___________________________________________________________________________________________________ 
~A         DEPT             GR             DT
# ...
         9227.0         43.872        277.994
         9227.5         41.928        277.994
         9228.0         38.993        277.994
         9228.5         37.605        277.994
         9229.0         36.820        277.994
         9229.5         34.808        277.994
         9230.0         32.173        277.994
         9230.5         33.507        277.994
         9231.0         38.010        277.994
         9231.5         41.731        277.994
         9232.0         41.783        277.994
         9232.5         40.915        277.994
         9233.0         39.694        277.994
         9233.5         37.999        277.994
         9234.0         34.023        277.994
         9234.5         29.475        277.994
         9235.0         28.703        277.994
         9235.5         32.672        277.994
         9236.0         35.515        277.994
         9236.5         35.098        277.994
         9237.0         35.098        277.994
         9237.5         36.625        277.994
         9238.0         38.724        277.994
         9238.5         38.324        277.994
         9239.0         37.187        277.994
         9239.5         36.769        277.994
         9240.0         37.044        277.994
         9240.5         38.858        277.994
         9241.0         38.022        277.994
         9241.5         38.022        277.994
         9242.0         38.223        277.994
         9242.5         37.747        277.994
         9243.0         34.530        277.994
         9243.5         31.463        277.994
         9244.0         30.033        277.994
         9244.5         31.955        277.437
         9245.0         33.460        277.437
         9245.5         34.680        277.437
         9246.0         33.251        277.437
         9246.5         29.816        277.437
         9247.0         27.359        276.880
         9247.5         30.218        276.880
         9248.0         36.510        276.323
         9248.5         41.181        276.323
         9249.0         42.251        276.323
         9249.5         39.911        276.323
         9250.0         36.860        276.323
         9250.5         32.724        276.323
         9251.0         31.638        275.766
         9251.5         31.337        275.766
         9252.0         30.718        275.766
         9252.5         28.988        275.721
         9253.0         27.861        275.209
         9253.5         29.366        275.209
         9254.0         32.442        275.209
         9254.5         36.134        275.209
         9255.0         37.481        275.766
         9255.5         39.694        275.766
         9256.0         39.811        275.766
         9256.5         40.947        276.257
         9257.0         39.694        276.880
         9257.5         38.824        276.880
         9258.0         37.319        276.880
         9258.5         35.933        276.880
         9259.0         35.933        276.880
         9259.5         36.567        276.880
         9260.0         34.402        276.880
         9260.5         32.305        276.880
         9261.0         32.200        276.880
         9261.5         35.971        277.929
         9262.0         39.895        279.109
         9262.5         38.737        279.109
         9263.0         33.966        279.109
         9263.5         30.474        279.109
         9264.0         28.830        279.109
         9264.5         29.666        278.282
         9265.0         30.554        276.323
         9265.5         33.865        276.323
         9266.0         37.187        276.323
         9266.5         37.235        276.323
         9267.0         35.933        276.323
         9267.5         35.550        276.370
         9268.0         36.351        276.880
         9268.5         35.278        276.880
         9269.0         32.639        276.880
         9269.5         31.755        276.880
         9270.0         31.755        277.437
         9270.5         31.469        277.437
         9271.0         31.337        277.437
         9271.5         32.703        278.552
         9272.0         35.718        278.552
         9272.5         37.275        278.552
         9273.0         39.276        278.552
         9273.5         38.022        278.552
         9274.0         35.659        278.552
         9274.5         30.830        278.552
         9275.0         29.284        278.552
         9275.5         30.788        278.552
         9276.0         32.173        278.552
         9276.5         32.591        278.552
         9277.0         33.211        278.552
         9277.5         34.733        278.552
         9278.0         36.769        278.552
         9278.5         37.843        278.552
         9279.0         40.482        278.552
         9279.5         40.732        278.552
         9280.0         40.475        278.552
         9280.5         38.571        278.552
         9281.0         37.187        278.552
         9281.5         35.981        278.552
         9282.0         35.098        278.552
         9282.5         34.680        278.552
         9283.0         34.393        278.552
         9283.5         34.353        278.552
         9284.0         37.557        278.552
         9284.5         38.440        278.552
         9285.0         36.850        278.552
         9285.5         32.721        278.552
         9286.0         31.875        278.552
         9286.5         31.617        278.552
         9287.0         29.049        278.552
         9287.5         28.031        278.552
         9288.0         31.089        278.552
         9288.5         36.712        277.994
         9289.0         38.301        277.437
         9289.5         35.316        277.437
         9290.0         33.881        277.437
         9290.5         35.529        277.437
         9291.0         37.187        277.437
         9291.5         36.630        277.437
         9292.0         35.302        277.437
         9292.5         37.033        277.437
         9293.0         39.995        277.437
         9293.5         42.739        277.437
         9294.0         44.824        277.437
         9294.5         49.489        277.437
         9295.0         58.622        277.437
         9295.5         70.813        277.437
         9296.0         75.506        277.437
         9296.5         68.754        277.437
         9297.0         51.335        277.437
         9297.5         38.518        277.437
         9298.0         37.006        277.437
         9298.5         44.362        277.437
         9299.0         53.924        277.437
         9299.5         55.997        277.437
         9300.0         49.210        277.387
         9300.5         42.430        276.880
         9301.0         37.605        276.880
         9301.5         38.022        276.880
         9302.0         36.982        276.880
         9302.5         34.414        276.880
         9303.0         34.277        276.880
         9303.5         38.117        278.156
         9304.0         40.529        279.666
         9304.5         41.673        279.666
         9305.0         45.239        279.666
         9305.5         50.892        279.666
         9306.0         56.946        280.223
         9306.5         57.288        279.726
         9307.0         53.607        277.437
         9307.5         47.671        277.437
         9308.0         50.315        277.437
         9308.5         56.267        277.437
         9309.0         60.540        277.437
         9309.5         59.349        277.437
         9310.0         51.448        277.437
         9310.5         44.516        277.437
         9311.0         39.154        277.437
         9311.5         38.395        277.437
         9312.0         39.276        277.994
         9312.5         39.732        278.552
         9313.0         42.024        278.552
         9313.5         48.488        278.552
