###############################################
##         ENVERUS                           ##
##         EPlus - Open Hole                 ##
##         PERMIAN / DELAWARE                ##
##         Copyright ©                       ##
##         Enverus Version - V4.0            ##
##         Sep 24 2024                       ##
##         42-109-32966-00-00                ##
###############################################
## Copyright 2017-2024  ENVERUS.  All Rights Reserved. 
## Confidential - Property of ENVERUS, use governed by terms and 
## conditions found within the existing Information Services Subscription Agreement 
## (as may be amended, the “ISSA”) between Customer and ENVERUS. 
## 
#___________________________________________________________________________________________________
~VERSION INFORMATION
# MNEM.UNIT                               DATA : DESCRIPTION OF MNEMONIC
#-----.-----     ----------------------------- : -----------------------------
VERS.                                     2.00 : CWLS LOG ASCII STANDARD - VERSION 2.00
WRAP.                                       NO : MULTIPLE LINES PER DEPTH STEP
VEND.                                  ENVERUS : VENDOR
ENV_TYPE.                    EPLUS - OPEN HOLE : Enverus Essential Plus Curves – Accessible through Enverus Core(TM)
ENV_VERS.                                 V4.0 : EPlus - Open Hole Version number 
ENV_DOC.                              56286132 : ENVERUS Header Document id
ENV_REF.                         UNITED_STATES : ENVERUS BASIN OR PLAY APPLIED REFERENCE LIMITS 
#___________________________________________________________________________________________________ 
~WELL INFORMATION 
# uyaQ8P8kQDJ9DXFS5hR1PxmExEOYaAUkY5f3/tnOS+scoPAUWgXA1zCIHGRbWCuSuUcwDzaESCjqjWQ81XhadA== 
# MNEM.UNIT                                              DATA : DESCRIPTION OF MNEMONIC 
#-----.-----                    ----------------------------- : ----------------------------- 
CNTY.                                               CULBERSON : COUNTY 
STATE.                                                  TEXAS : STATE 
CNTRY.                                                    USA : COUNTRY 
API.                                             42-109-32966 : API (10 Digit) 
API_14.                                    42-109-32966-00-00 : API (14 Digits) 
API_14_std.                                 42-109-32966-0000 : API (14 Digits Standard) 
UWI.                                           42109329660000 : UNIQUE WELL ID
STRT.FT                                                  8650 : START DEPTH
STOP.FT                                                 10430 : STOP DEPTH
STEP.FT                                                   0.5 : STEP DEPTH
NULL.                                               -999.2500 : NULL VALUE
WELL.                                    COTTONWOOD WEST 2202 : WELL NAME 
GR_ELEV.                                                 3579 : GROUND ELEVATION 
SLAT.                                               31.578474 : SURFACE LATITUDE 
SLONG.                                            -104.147646 : SURFACE LONGITUDE
#___________________________________________________________________________________________________ 
~CURVE INFORMATION 
# MNEM.UNIT           : CURVE DESCRIPTION 
#-----.-----          : ----------------------------- 
DEPT.FT               : MEASURED DEPTH 
CALI_E.IN             : ENVERUS CALIPER - CLEANED BLENDED AND LUMPED 
CALI_F.               : ENVERUS CALIPER - OUTLIER INDICATOR - 0=(IN BOUNDS) 1=(OUT OF BOUNDS) 2=(REPEATING) 
CALI_S.               : ENVERUS CALIPER - SOURCE INDICATOR 
CALI_U.               : ENVERUS CALIPER - OPTION INDICATOR - 0=(NO OPTION) 1=(OTHER OPTIONS) 
GR_E.API              : ENVERUS GAMMA RAY - CLEANED BLENDED AND LUMPED 
GR_F.                 : ENVERUS GAMMA RAY - OUTLIER INDICATOR - 0=(IN BOUNDS) 1=(OUT OF BOUNDS) 2=(REPEATING) 
GR_S.                 : ENVERUS GAMMA RAY - SOURCE INDICATOR 
GR_U.                 : ENVERUS GAMMA RAY - OPTION INDICATOR - 0=(NO OPTION) 1=(OTHER OPTIONS) 
DRHO_E.G/CC           : ENVERUS DENSITY CORRECTION  - CLEANED BLENDED AND LUMPED 
DRHO_F.               : ENVERUS DENSITY CORRECTION - OUTLIER INDICATOR - 0=(IN BOUNDS) 1=(OUT OF BOUNDS) 2=(REPEATING) 
DRHO_S.               : ENVERUS DENSITY CORRECTION - SOURCE INDICATOR 
DRHO_U.               : ENVERUS DENSITY CORRECTION - OPTION INDICATOR - 0=(NO OPTION) 1=(OTHER OPTIONS) 
RESS_LL_E.OHMM        : ENVERUS OPEN HOLE SHALLOW RESISTIVITY LATERAL LOG 
RESS_LL_F.            : ENVERUS OPEN HOLE SHALLOW RESISTIVITY LATERAL LOG - OUTLIER INDICATOR - 0=(IN BOUNDS) 1=(OUT OF BOUNDS) 2=(REPEATING) 
RESS_LL_S.            : ENVERUS OPEN HOLE SHALLOW RESISTIVITY LATERAL LOG - SOURCE INDICATOR 
RESS_LL_U.            : ENVERUS OPEN HOLE SHALLOW RESISTIVITY LATERAL LOG - OPTION INDICATOR - 0=(NO OPTION) 1=(OTHER OPTIONS) 
RESD_LL_E.OHMM        : ENVERUS OPEN HOLE DEEP RESISTIVITY LATERAL LOG 
RESD_LL_F.            : ENVERUS OPEN HOLE DEEP RESISTIVITY LATERAL LOG - OUTLIER INDICATOR - 0=(IN BOUNDS) 1=(OUT OF BOUNDS) 2=(REPEATING) 
RESD_LL_S.            : ENVERUS OPEN HOLE DEEP RESISTIVITY LATERAL LOG - SOURCE INDICATOR 
RESD_LL_U.            : ENVERUS OPEN HOLE DEEP RESISTIVITY LATERAL LOG - OPTION INDICATOR - 0=(NO OPTION) 1=(OTHER OPTIONS) 
NPHI_E.V/V            : ENVERUS NEUTRON POROSITY - CLEANED BLENDED AND LUMPED 
NPHI_F.               : ENVERUS NEUTRON POROSITY - OUTLIER INDICATOR - 0=(IN BOUNDS) 1=(OUT OF BOUNDS) 2=(REPEATING) 
NPHI_S.               : ENVERUS NEUTRON POROSITY - SOURCE INDICATOR 
NPHI_U.               : ENVERUS NEUTRON POROSITY - OPTION INDICATOR - 0=(NO OPTION) 1=(OTHER OPTIONS) 
RHOB_E.G/CC           : ENVERUS BULK DENSITY - CLEANED BLENDED AND LUMPED 
RHOB_F.               : ENVERUS BULK DENSITY - OUTLIER INDICATOR - 0=(IN BOUNDS) 1=(OUT OF BOUNDS) 2=(REPEATING) 
RHOB_S.               : ENVERUS BULK DENSITY - SOURCE INDICATOR 
RHOB_U.               : ENVERUS BULK DENSITY - OPTION INDICATOR - 0=(NO OPTION) 1=(OTHER OPTIONS) 
DPHI_265_E.V/V        : ENVERUS DENSITY POROSITY WITH MATRIX OF 2.65 G/CC - CLEANED BLENDED AND LUMPED 
DPHI_271_E.V/V        : ENVERUS DENSITY POROSITY WITH MATRIX OF 2.71 G/CC  - CLEANED BLENDED AND LUMPED 
DPHI_F.               : ENVERUS DENSITY POROSITY - OUTLIER INDICATOR - 0=(IN BOUNDS) 1=(OUT OF BOUNDS) 2=(REPEATING) 
DPHI_S.               : ENVERUS DENSITY POROSITY - SOURCE INDICATOR 
DPHI_U.               : ENVERUS DENSITY POROSITY - OPTION INDICATOR - 0=(NO OPTION) 1=(OTHER OPTIONS) 
PE_E.B/E              : ENVERUS PHOTOELECTRIC - CLEANED BLENDED AND LUMPED 
PE_F.                 : ENVERUS PHOTOELECTRIC - OUTLIER INDICATOR - 0=(IN BOUNDS) 1=(OUT OF BOUNDS) 2=(REPEATING) 
PE_S.                 : ENVERUS PHOTOELECTRIC - SOURCE INDICATOR 
PE_U.                 : ENVERUS PHOTOELECTRIC - OPTION INDICATOR - 0=(NO OPTION) 1=(OTHER OPTIONS) 
DT_E.US/FT            : ENVERUS SONIC TRAVEL TIME - CLEANED BLENDED AND LUMPED 
DT_F.                 : ENVERUS SONIC TRAVEL TIME - OUTLIER INDICATOR - 0=(IN BOUNDS) 1=(OUT OF BOUNDS) 2=(REPEATING) 
DT_S.                 : ENVERUS SONIC TRAVEL TIME - SOURCE INDICATOR 
DT_U.                 : ENVERUS SONIC TRAVEL TIME - OPTION INDICATOR - 0=(NO OPTION) 1=(OTHER OPTIONS)
#___________________________________________________________________________________________________ 
~A         DEPT         CALI_E         CALI_F         CALI_S         CALI_U           GR_E           GR_F           GR_S           GR_U         DRHO_E         DRHO_F         DRHO_S         DRHO_U      RESS_LL_E      RESS_LL_F      RESS_LL_S      RESS_LL_U      RESD_LL_E      RESD_LL_F      RESD_LL_S      RESD_LL_U         NPHI_E         NPHI_F         NPHI_S         NPHI_U         RHOB_E         RHOB_F         RHOB_S         RHOB_U     DPHI_265_E     DPHI_271_E         DPHI_F         DPHI_S         DPHI_U           PE_E           PE_F           PE_S           PE_U           DT_E           DT_F           DT_S           DT_U
# ...
       10008.50          8.845           0.00           0.00           0.00         93.435           0.00           0.00           0.00        0.00770           0.00           0.00           0.00       171.2198           0.00           0.00           0.00       131.0102           0.00           0.00           0.00        0.12970           0.00         271.00           0.00        2.55730           0.00         271.00           0.00        0.05620        0.08930           0.00         271.00           0.00         3.9322           0.00           0.00           0.00       70.32200           0.00           0.00           0.00
       10009.00          8.849           0.00           0.00           0.00         85.671           0.00           0.00           0.00        0.00220           0.00           0.00           0.00       236.5118           0.00           0.00           0.00       175.0913           0.00           0.00           0.00        0.11370           0.00         271.00           0.00        2.59184           0.00         271.00           0.00        0.03520        0.06910           0.00         271.00           0.00         4.2378           0.00           0.00           0.00       69.40300           0.00           0.00           0.00
       10009.50          8.852           0.00           0.00           0.00         84.732           0.00           0.00           0.00        0.00050           0.00           0.00           0.00       301.8037           0.00           0.00           0.00       219.1724           0.00           0.00           0.00        0.09350           0.00         271.00           0.00        2.62638           0.00         271.00           0.00        0.01430        0.04890           0.00         271.00           0.00         4.5435           0.00           0.00           0.00       68.48400           0.00           0.00           0.00
       10010.00          8.855           0.00           0.00           0.00         97.490           0.00           0.00           0.00        0.00490           0.00           0.00           0.00       349.2132           0.00           0.00           0.00       245.2519           0.00           0.00           0.00        0.08480           0.00         271.00           0.00        2.61390           0.00         271.00           0.00        0.02190        0.05620           0.00         271.00           0.00         4.5635           0.00           0.00           0.00       67.97300           0.00           0.00           0.00
       10010.50          8.861           0.00           0.00           0.00        123.757           0.00           0.00           0.00        0.01240           0.00           0.00           0.00       308.1679           0.00           0.00           0.00       212.1251           0.00           0.00           0.00        0.09810           0.00         271.00           0.00        2.57748           0.00         271.00           0.00        0.04400        0.07750           0.00         271.00           0.00         4.1552           0.00           0.00           0.00       68.47600           0.00           0.00           0.00
       10011.00          8.867           0.00           0.00           0.00        150.024           0.00           0.00           0.00        0.02060           0.00           0.00           0.00       238.9067           0.00           0.00           0.00       170.7725           0.00           0.00           0.00        0.11870           0.00         271.00           0.00        2.54105           0.00         271.00           0.00        0.06600        0.09880           0.00         271.00           0.00         3.7470           0.00           0.00           0.00       69.31000           0.00           0.00           0.00
       10011.50          8.872           0.00           0.00           0.00        150.623           0.00           0.00           0.00        0.02430           0.00           0.00           0.00       169.6455           0.00           0.00           0.00       129.4199           0.00           0.00           0.00        0.13920           0.00         271.00           0.00        2.50463           0.00         271.00           0.00        0.08810        0.12010           0.00         271.00           0.00         3.3388           0.00           0.00           0.00       70.14400           0.00           0.00           0.00
       10012.00          8.878           0.00           0.00           0.00        140.814           0.00           0.00           0.00        0.02190           0.00           0.00           0.00       112.7637           0.00           0.00           0.00       103.2411           0.00           0.00           0.00        0.15980           0.00         271.00           0.00        2.45487           0.00         271.00           0.00        0.11830        0.14920           0.00         271.00           0.00         3.0120           0.00           0.00           0.00       70.77200           0.00           0.00           0.00
       10012.50          8.884           0.00           0.00           0.00        131.004           0.00           0.00           0.00        0.01760           0.00           0.00           0.00        94.3191           0.00           0.00           0.00        98.3871           0.00           0.00           0.00        0.18030           0.00         271.00           0.00        2.41503           0.00         271.00           0.00        0.14240        0.17250           0.00         271.00           0.00         3.0249           0.00           0.00           0.00       71.08900           0.00           0.00           0.00
       10013.00          8.890           0.00           0.00           0.00        127.077           0.00           0.00           0.00        0.00980           0.00           0.00           0.00        96.3835           0.00           0.00           0.00       103.5874           0.00           0.00           0.00        0.18090           0.00         271.00           0.00        2.39536           0.00         271.00           0.00        0.15430        0.18400           0.00         271.00           0.00         3.0470           0.00           0.00           0.00       72.49900           0.00           0.00           0.00
       10013.50          8.896           0.00           0.00           0.00        132.268           0.00           0.00           0.00        0.00740           0.00           0.00           0.00       101.7561           0.00           0.00           0.00       113.0732           0.00           0.00           0.00        0.17260           0.00         271.00           0.00        2.37193           0.00         271.00           0.00        0.16850        0.19770           0.00         271.00           0.00         3.0628           0.00           0.00           0.00       73.91900           0.00           0.00           0.00
       10014.00          8.902           0.00           0.00           0.00        141.923           0.00           0.00           0.00        0.00890           0.00           0.00           0.00       103.7746           0.00           0.00           0.00       114.8051           0.00           0.00           0.00        0.17070           0.00         271.00           0.00        2.34851           0.00         271.00           0.00        0.18270        0.21140           0.00         271.00           0.00         3.0690           0.00           0.00           0.00       75.52100           0.00           0.00           0.00
       10014.50          8.915           0.00           0.00           0.00        149.320           0.00           0.00           0.00        0.01870           0.00           0.00           0.00        92.4055           0.00           0.00           0.00       104.1991           0.00           0.00           0.00        0.17650           0.00         271.00           0.00        2.34440           0.00         271.00           0.00        0.18520        0.21380           0.00         271.00           0.00         3.0049           0.00           0.00           0.00       75.69000           0.00           0.00           0.00
