~VERSION INFORMATION
VERS. 2.0 : CWLS Log ASCII Standard - Version 2.0
WRAP. NO : One line per depth step
#--------------------------------------------------#
#----------------DRILLING INFO, INC.---------------#
#---------------WWW.DRILLINGINFO.COM---------------#
#------------------COPYRIGHT 2015------------------#
#--------------------------------------------------#
#THIS FILE MAY BE USED ONLY IN ACCORDANCE WITH A CURRENT SUBSCRIPTION AGREEMENT BETWEEN
#THE USER AND DRILLING INFO, INC. NO PART OF THIS FILE MAY BE REPRODUCED, USED, COPIED,
#MODIFIED, PROPAGATED, OR DISTRIBUTED EXCEPT IN ACCORDANCE WITH THE SUBSCRIPTION
#AGREEMENT. UNAUTHORIZED USE OR DISTRIBUTION OF ALL OR ANY PART OF THIS FILE MAY VIOLATE
#COPYRIGHT, TRADEMARK, AND/OR OTHER LAWS AND IS SUBJECT TO CIVIL AS WELL AS CRIMINAL
#SANCTIONS.
#--------------------------------------------------#
#THIS FILE IS PROVIDED "AS-IS" AND ALL WARRANTIES ARE EXPRESSLY DISCLAIMED, WHETHER
#EXPRESS, ORAL, IMPLIED, STATUTORY OR OTHERWISE, INCLUDING ANY IMPLIED WARRANTY OF FITNESS
#FOR A PARTICULAR PURPOSE, MERCHANTABILITY, TITLE OR NON-INFRINGEMENT, AND ANY WARRANTIES
#ARISING BY VIRTUE OF CUSTOM OF TRADE OR COURSE OF DEALING.  FURTHER, DRILLING INFO,
#INC. AND ITS LICENSORS DO NOT REPRESENT OR WARRANT THAT THIS FILE WILL MEET USER'S
#REQUIREMENTS OR ARE SUITABLE FOR USER'S NEEDS OR THAT THE DATA OR RESULTS PROVIDED IN
#CONJUNCTION THEREWITH ARE CORRECT, ACCURATE, TIMELY OR RELIABLE. THESE DISCLAIMERS SHALL
#APPLY REGARDLESS OF ANY FAILURE OF ESSENTIAL PURPOSE OF ANY LIMITED REMEDY.  SOME
#JURISDICTIONS DO NOT ALLOW THE EXCLUSION OF CERTAIN WARRANTIES SO SOME OF THE ABOVE
#EXCLUSIONS MAY NOT APPLY. IN NO EVENT SHALL DRILLING INFO, INC. OR ANY OF ITS AFFILIATES
#BE LIABLE UNDER ANY LEGAL THEORY, WHETHER IN TORT (INCLUDING WITHOUT LIMITATION
#NEGLIGENCE), CONTRACT, STRICT LIABILITY, STATUTORY OR OTHERWISE, FOR ANY SPECIAL,
#INCIDENTAL, CONSEQUENTIAL, EXEMPLARY, PUNITIVE OR INDIRECT DAMAGE OF ANY KIND, INCLUDING
#WITHOUT LIMITATION LOSS OF REVENUE, PROFITS, GOODWILL, USE, AND/OR DATA OR THE COST OF
#PROCUREMENT OF SUBSTITUTE GOODS OR SERVICES, EVEN IF APPRISED OF THE POSSIBILITY OF SUCH
#DAMAGES IN ADVANCE.
#--------------------------------------------------#
~WELL INFORMATION
#MNEMONIC     .UNIT              VALUE :DESCRIPTION
#--------------------------------------------------#
STRT       .ft                25.00000 :START DEPTH
STOP       .ft                17086.00000 :STOP DEPTH
STEP       .ft                0.50000 :STEP
NULL       .                -999.25000 :NULL VALUE
COMP       .                 :COMPANY
WELL       .                 :WELL
FLD       .                 :FIELD
LOC       .                 :LOCATION
CNTY       .                 :COUNTY
STAT       .                 :STATE
CTRY       .                 :COUNTRY
SRVC       .                 :SERVICE COMPANY
DATE       .                 :DATE
API       .                42109309270000 :API NUMBER
~CURVE INFORMATION
#MNEMONIC     .UNIT      API CODE :CURVE DESCRIPTION
#--------------------------------------------------#
DEPTH       .ft                      :Measured Depth
CAL       .in        UNKNOWN   :CAL
DT       .us/ft        UNKNOWN   :DT
GR       .gAPI        UNKNOWN   :GR
~A    DEPTH    CAL    DT    GR
# ...
266.50000    -999.25000    -999.25000    54.53889
267.00000    -999.25000    -999.25000    56.22755
267.50000    -999.25000    -999.25000    57.91621
268.00000    -999.25000    -999.25000    59.60487
268.50000    -999.25000    -999.25000    61.29354
269.00000    -999.25000    -999.25000    62.98220
269.50000    -999.25000    -999.25000    63.96517
270.00000    -999.25000    -999.25000    63.04655
270.50000    -999.25000    -999.25000    62.12794
271.00000    -999.25000    -999.25000    61.78306
271.50000    -999.25000    -999.25000    63.61344
272.00000    -999.25000    -999.25000    65.44382
272.50000    -999.25000    -999.25000    67.27420
273.00000    -999.25000    -999.25000    67.60814
273.50000    -999.25000    -999.25000    67.16006
274.00000    -999.25000    -999.25000    66.74432
274.50000    -999.25000    -999.25000    67.70442
275.00000    -999.25000    -999.25000    68.66451
275.50000    -999.25000    -999.25000    68.47119
276.00000    -999.25000    163.49484    66.32367
276.50000    -999.25000    167.34423    64.17614
277.00000    -999.25000    171.70039    64.00862
277.50000    -999.25000    176.05655    64.47282
278.00000    -999.25000    175.49488    64.93702
278.50000    -999.25000    168.29444    65.40122
279.00000    -999.25000    161.09400    64.78844
279.50000    -999.25000    150.62037    63.89545
280.00000    -999.25000    155.03148    63.17727
280.50000    -999.25000    159.44258    63.34753
281.00000    -999.25000    166.00229    63.51779
281.50000    -999.25000    172.56300    62.85373
282.00000    -999.25000    179.53044    61.42712
282.50000    -999.25000    186.52752    60.00051
283.00000    -999.25000    193.52460    59.89802
283.50000    -999.25000    200.52168    59.94432
284.00000    -999.25000    207.51876    59.99061
284.50000    -999.25000    174.45321    60.03691
285.00000    -999.25000    165.43705    61.51830
285.50000    -999.25000    169.34234    64.44751
286.00000    -999.25000    172.76452    65.98545
286.50000    -999.25000    176.07519    63.83438
287.00000    -999.25000    179.38586    60.22287
287.50000    -999.25000    182.57050    56.56529
288.00000    -999.25000    185.42386    56.90501
288.50000    -999.25000    188.27722    58.25386
289.00000    -999.25000    191.13057    59.60270
289.50000    -999.25000    193.98393    60.95155
290.00000    -999.25000    191.74124    62.30039
290.50000    -999.25000    184.71834    63.64924
291.00000    -999.25000    193.48297    58.52229
291.50000    -999.25000    202.24759    52.35504
292.00000    -999.25000    170.74142    52.56055
292.50000    -999.25000    162.30219    52.76606
293.00000    -999.25000    148.17194    52.97157
293.50000    -999.25000    151.15797    53.17708
294.00000    -999.25000    154.14401    52.04839
294.50000    -999.25000    157.13004    50.81876
295.00000    -999.25000    162.24476    49.58913
295.50000    -999.25000    163.84755    48.35950
296.00000    -999.25000    161.45238    47.99377
296.50000    -999.25000    160.83986    48.34056
297.00000    -999.25000    172.18305    48.68735
297.50000    -999.25000    179.69822    49.03415
298.00000    -999.25000    176.57154    51.21472
298.50000    -999.25000    173.44485    54.69557
299.00000    -999.25000    170.31817    58.17641
299.50000    -999.25000    167.19149    57.44863
300.00000    -999.25000    164.06481    56.31276
300.50000    -999.25000    160.93813    55.17689
301.00000    -999.25000    158.36501    55.26989
301.50000    -999.25000    156.42190    57.17157
302.00000    -999.25000    154.47878    59.07324
302.50000    -999.25000    152.53567    60.97491
303.00000    -999.25000    153.19112    61.23351
303.50000    -999.25000    155.49863    61.22738
304.00000    -999.25000    157.80615    61.49343
304.50000    -999.25000    158.96372    62.71890
305.00000    -999.25000    158.27542    63.94438
305.50000    -999.25000    157.58712    64.57738
306.00000    -999.25000    156.89882    64.76403
306.50000    -999.25000    155.54968    64.95067
307.00000    -999.25000    152.11925    65.13731
307.50000    -999.25000    150.29501    65.32395
308.00000    -999.25000    152.32860    65.79985
308.50000    -999.25000    154.36218    66.38216
309.00000    -999.25000    156.39577    66.96446
309.50000    -999.25000    158.42936    67.54677
310.00000    -999.25000    166.57034    67.39517
310.50000    -999.25000    160.71765    67.02166
311.00000    -999.25000    154.86496    66.64816
311.50000    -999.25000    155.86521    66.27466
312.00000    -999.25000    157.46465    65.90116
312.50000    -999.25000    159.06409    65.41711
313.00000    -999.25000    160.66353    62.84666
313.50000    -999.25000    159.97624    60.27621
314.00000    -999.25000    159.20544    63.53156
314.50000    -999.25000    148.40695    67.66257
315.00000    -999.25000    145.41058    71.79357
315.50000    -999.25000    145.21466    75.92457
316.00000    -999.25000    145.01874    74.51025
316.50000    -999.25000    144.82281    72.25597
317.00000    -999.25000    144.62689    70.00168
317.50000    -999.25000    145.62354    67.74740
318.00000    -999.25000    146.71776    67.01646
318.50000    -999.25000    150.40898    66.40303
319.00000    -999.25000    154.65242    65.78960
319.50000    -999.25000    158.72468    64.78455
320.00000    -999.25000    161.54554    63.71400
320.50000    -999.25000    164.36640    65.33159
321.00000    -999.25000    167.18725    66.90433
321.50000    -999.25000    158.51462    65.68197
322.00000    -999.25000    153.84844    64.45961
322.50000    -999.25000    153.33387    63.22527
323.00000    -999.25000    155.26739    61.95764
323.50000    -999.25000    157.20092    60.69002
324.00000    -999.25000    159.19865    59.42240
324.50000    -999.25000    165.38699    58.70610
325.00000    -999.25000    171.57533    58.16957
325.50000    -999.25000    177.76366    57.58347
326.00000    -999.25000    179.89134    56.62107
326.50000    -999.25000    175.68312    55.65868
327.00000    -999.25000    171.47489    57.60956
327.50000    -999.25000    160.82613    59.80098
328.00000    -999.25000    160.69507    61.03596
328.50000    -999.25000    162.06058    59.70227
329.00000    -999.25000    163.84103    58.36859
329.50000    -999.25000    166.67122    57.03490
330.00000    -999.25000    169.50141    55.70122
330.50000    -999.25000    172.33161    57.86105
331.00000    -999.25000    173.48962    60.03710
331.50000    -999.25000    170.78670    58.61448
332.00000    -999.25000    168.08378    57.19186
332.50000    -999.25000    165.50777    56.80052
333.00000    -999.25000    168.55856    57.53547
333.50000    -999.25000    170.55140    58.27042
334.00000    -999.25000    172.54423    59.00537
334.50000    -999.25000    174.53707    59.52676
335.00000    -999.25000    176.52991    57.25948
335.50000    -999.25000    177.03698    55.83790
336.00000    -999.25000    174.76108    56.23954
336.50000    -999.25000    175.70570    56.64118
337.00000    -999.25000    178.24142    57.04282
337.50000    -999.25000    177.36494    57.44446
338.00000    -999.25000    175.02264    57.84611
338.50000    -999.25000    172.68035    57.42244
339.00000    -999.25000    170.33806    56.43705
339.50000    -999.25000    168.13354    55.45165
340.00000    -999.25000    171.70786    54.46626
340.50000    -999.25000    175.28218    53.48086
341.00000    -999.25000    178.85650    52.49547
341.50000    -999.25000    174.51677    53.90855
342.00000    -999.25000    167.44421    55.63720
342.50000    -999.25000    161.51883    57.36584
343.00000    -999.25000    160.63402    57.85948
343.50000    -999.25000    159.74922    57.64387
344.00000    -999.25000    160.52435    57.00267
344.50000    -999.25000    162.42848    55.56755
345.00000    -999.25000    164.33261    52.00907
345.50000    -999.25000    166.23675    53.38303
346.00000    -999.25000    165.78591    54.58817
346.50000    -999.25000    165.14690    54.26458
347.00000    -999.25000    164.50790    53.94099
347.50000    -999.25000    163.86889    55.09632
