~VERSION INFORMATION
VERS. 2.0 : CWLS Log ASCII Standard - version 2.0
WRAP.  NO : One line per depth step
#--------------------------------------------------#
#----------------DRILLING INFO, INC.---------------#
#---------------WWW.DRILLINGINFO.COM---------------#
#------------------COPYRIGHT 2015------------------#
#--------------------------------------------------#
#THIS FILE MAY BE USED ONLY IN ACCORDANCE WITH A CURRENT SUBSCRIPTION AGREEMENT BETWEEN
#THE USER AND DRILLING INFO, INC. NO PART OF THIS FILE MAY BE REPRODUCED, USED, COPIED,
#MODIFIED, PROPAGATED, OR DISTRIBUTED EXCEPT IN ACCORDANCE WITH THE SUBSCRIPTION
#AGREEMENT. UNAUTHORIZED USE OR DISTRIBUTION OF ALL OR ANY PART OF THIS FILE MAY VIOLATE
#COPYRIGHT, TRADEMARK, AND/OR OTHER LAWS AND IS SUBJECT TO CIVIL AS WELL AS CRIMINAL
#SANCTIONS.
#--------------------------------------------------#
#THIS FILE IS PROVIDED "AS-IS" AND ALL WARRANTIES ARE EXPRESSLY DISCLAIMED, WHETHER
#EXPRESS, ORAL, IMPLIED, STATUTORY OR OTHERWISE, INCLUDING ANY IMPLIED WARRANTY OF FITNESS
#FOR A PARTICULAR PURPOSE, MERCHANTABILITY, TITLE OR NON-INFRINGEMENT, AND ANY WARRANTIES
#ARISING BY VIRTUE OF CUSTOM OF TRADE OR COURSE OF DEALING.  FURTHER, DRILLING INFO,
#INC. AND ITS LICENSORS DO NOT REPRESENT OR WARRANT THAT THIS FILE WILL MEET USER'S
#REQUIREMENTS OR ARE SUITABLE FOR USER'S NEEDS OR THAT THE DATA OR RESULTS PROVIDED IN
#CONJUNCTION THEREWITH ARE CORRECT, ACCURATE, TIMELY OR RELIABLE. THESE DISCLAIMERS SHALL
#APPLY REGARDLESS OF ANY FAILURE OF ESSENTIAL PURPOSE OF ANY LIMITED REMEDY.  SOME
#JURISDICTIONS DO NOT ALLOW THE EXCLUSION OF CERTAIN WARRANTIES SO SOME OF THE ABOVE
#EXCLUSIONS MAY NOT APPLY. IN NO EVENT SHALL DRILLING INFO, INC. OR ANY OF ITS AFFILIATES
#BE LIABLE UNDER ANY LEGAL THEORY, WHETHER IN TORT (INCLUDING WITHOUT LIMITATION
#NEGLIGENCE), CONTRACT, STRICT LIABILITY, STATUTORY OR OTHERWISE, FOR ANY SPECIAL,
#INCIDENTAL, CONSEQUENTIAL, EXEMPLARY, PUNITIVE OR INDIRECT DAMAGE OF ANY KIND, INCLUDING
#WITHOUT LIMITATION LOSS OF REVENUE, PROFITS, GOODWILL, USE, AND/OR DATA OR THE COST OF
#PROCUREMENT OF SUBSTITUTE GOODS OR SERVICES, EVEN IF APPRISED OF THE POSSIBILITY OF SUCH
#DAMAGES IN ADVANCE.
#--------------------------------------------------#
~WELL INFORMATION
#MNEMONIC     .UNIT              VALUE :DESCRIPTION
#--------------------------------------------------#
STRT       .FT                35 :START DEPTH
STOP       .FT                15948 :STOP DEPTH
STEP       .FT                   0.500 :STEP
NULL       .                  -999.250 :NULL
API        .                421093136200 :API NUMBER
COMP       .         ARRINGTON DAVID H. OIL & GAS INC :COMPANY
WELL       .        SCOTT UNIT  1 :WELL
DATE       .                17-Jun-1991 :LOG DATE
~CURVE INFORMATION
#MNEMONIC     .UNIT      API CODE :CURVE DESCRIPTION
#--------------------------------------------------#
DEPTH       .FT                      :Measured Depth
CAL.INCH        UNKNOWN   :CAL
DT.US/FT        UNKNOWN   :DT
GR.API        UNKNOWN   :GR
~A    DEPTH    CAL    DT    GR
# ...
 12179     7.428   58.936   86.571
 12179.5     7.435   60.968   87.378
 12180     7.441   62.077   107.392
 12180.5     7.448   61.422   107.881
 12181     7.454   60.195   104.055
 12181.5     7.461   59.591   98.551
 12182     7.467   60.578   94.619
 12182.5     7.474   62.003   99.189
 12183     7.48   63.646   104.562
 12183.5     7.487   65.29   109.936
 12184     7.494   65.577   115.309
 12184.5     7.49   65.436   117.755
 12185     7.474   65.295   119.378
 12185.5     7.457   65.996   115.727
 12186     7.46   65.991   109.913
 12186.5     7.481   65.901   110.103
 12187     7.49   65.811   110.293
 12187.5     7.498   65.992   112.516
 12188     7.506   66.42   118.236
 12188.5     7.515   67.184   129.431
 12189     7.523   68.432   132.751
 12189.5     7.532   69.235   135.564
 12190     7.54   69.351   136.557
 12190.5     7.548   69.602   132.92
 12191     7.557   69.601   127.348
 12191.5     7.539   64.464   113.777
 12192     7.515   59.804   98.134
 12192.5     7.49   56.263   86.691
 12193     7.479   54.632   76.335
 12193.5     7.479   54.273   71.859
 12194     7.479   55.959   71.002
 12194.5     7.479   59.441   85.852
 12195     7.479   63.116   103.636
 12195.5     7.479   66.166   121.42
 12196     7.479   65.927   123.141
 12196.5     7.479   63.985   113.64
 12197     7.479   60.81   98.603
 12197.5     7.479   58.212   83.566
 12198     7.478   57.819   79.274
 12198.5     7.478   57.427   81.26
 12199     7.478   57.84   83.247
 12199.5     7.478   58.578   81.66
 12200     7.478   58.799   79.874
 12200.5     7.481   59.665   82.384
 12201     7.483   61.357   91.7
 12201.5     7.485   63.801   102.596
 12202     7.488   64.422   110.065
 12202.5     7.49   65.06   117.534
 12203     7.493   65.421   120.53
 12203.5     7.495   63.116   120.216
 12204     7.497   61.954   110.88
 12204.5     7.5   62.058   103.374
 12205     7.502   61.779   100.253
 12205.5     7.505   62.141   104.816
 12206     7.507   63.897   109.379
 12206.5     7.509   63.734   108.402
 12207     7.512   62.779   98.729
 12207.5     7.514   60.803   86.994
 12208     7.517   58.912   80.574
 12208.5     7.519   57.655   77.874
 12209     7.521   56.398   74.305
 12209.5     7.524   55.34   70.196
 12210     7.526   54.765   66.087
 12210.5     7.529   54.983   64.872
 12211     7.531   56.278   66.842
 12211.5     7.533   58.041   71.135
 12212     7.536   60.402   75.428
 12212.5     7.538   61.009   79.721
 12213     7.55   61.37   81.074
 12213.5     7.584   61.73   81.78
 12214     7.619   62.091   82.486
 12214.5     7.651   62.137   83.192
 12215     7.652   61.951   83.898
 12215.5     7.654   61.757   81.403
 12216     7.655   61.656   78.492
 12216.5     7.657   61.617   78.175
 12217     7.658   61.443   77.857
 12217.5     7.66   60.853   75.604
 12218     7.661   60.396   73.177
 12218.5     7.663   60.428   71.674
 12219     7.664   60.928   71.295
 12219.5     7.666   61.687   70.917
 12220     7.679   61.911   70.539
 12220.5     7.696   62.332   71.981
 12221     7.712   62.762   75.3
 12221.5     7.729   62.912   78.112
 12222     7.719   62.526   77.728
 12222.5     7.709   62.141   77.343
 12223     7.7   61.716   77.3
 12223.5     7.69   60.282   77.449
 12224     7.68   59.078   77.155
 12224.5     7.67   58.265   76.862
 12225     7.666   58.811   79.804
 12225.5     7.666   60.841   89.096
 12226     7.666   61.762   98.388
 12226.5     7.666   61.854   97.243
 12227     7.666   61.429   95.822
 12227.5     7.666   61.369   94.401
 12228     7.666   61.417   92.981
 12228.5     7.666   61.464   91.56
 12229     7.666   61.511   90.139
 12229.5     7.667   61.558   88.718
 12230     7.667   61.606   87.298
 12230.5     7.667   61.653   86.64
 12231     7.667   62.628   94.869
 12231.5     7.667   62.692   98.953
 12232     7.667   61.109   91.663
 12232.5     7.667   56.055   84.374
 12233     7.669   55.652   77.183
 12233.5     7.672   56.38   77.721
 12234     7.675   57.956   80.091
 12234.5     7.678   60.729   92.325
 12235     7.68   61.561   99.132
 12235.5     7.683   62.14   92.948
 12236     7.685   61.217   85.407
 12236.5     7.686   59.833   78.486
 12237     7.688   59.635   78.165
 12237.5     7.689   59.746   77.844
 12238     7.691   60.678   79.331
 12238.5     7.692   61.63   87.254
 12239     7.694   62.415   97.789
 12239.5     7.695   63.201   108.193
 12240     7.697   64.224   111.779
 12240.5     7.698   64.847   100.483
 12241     7.7   64.297   87.612
 12241.5     7.701   62.095   78.541
 12242     7.703   57.816   71.221
 12242.5     7.704   57.526   73.446
 12243     7.706   57.267   75.672
 12243.5     7.707   57.277   77.898
 12244     7.709   58.26   83.991
 12244.5     7.71   59.441   94.047
 12245     7.712   61.378   104.104
 12245.5     7.713   64.145   112.587
 12246     7.715   66.023   111.984
 12246.5     7.716   65.917   103.755
 12247     7.718   64.452   95.525
 12247.5     7.719   63.247   87.296
 12248     7.721   62.09   82.492
 12248.5     7.722   61.692   81.085
 12249     7.724   61.294   80.458
 12249.5     7.725   60.896   79.831
 12250     7.727   61.308   79.229
 12250.5     7.728   61.957   82.507
 12251     7.73   61.942   85.694
 12251.5     7.731   61.66   85.527
 12252     7.733   60.131   85.179
 12252.5     7.738   58.404   81.358
 12253     7.746   57.449   77.537
 12253.5     7.754   57.657   76.232
 12254     7.762   59.167   76.004
 12254.5     7.77   60.445   75.776
 12255     7.778   60.889   75.548
 12255.5     7.786   60.92   75.32
 12256     7.794   60.823   76.762
 12256.5     7.802   60.678   79.185
 12257     7.81   60.533   80.058
 12257.5     7.818   60.389   80.48
 12258     7.826   60.703   79.417
 12258.5     7.834   61.058   77.978
 12259     7.842   61.413   76.539
 12259.5     7.85   61.461   75.101
 12260     7.858   61.137   73.662
 12260.5     7.866   61.025   72.223
 12261     7.874   61.166   70.784
 12261.5     7.878   61.937   72.511
 12262     7.879   62.847   74.708
 12262.5     7.879   62.632   75.725
 12263     7.879   61.515   75.663
 12263.5     7.879   60.738   75.601
 12264     7.879   60.121   82.083
 12264.5     7.879   59.273   89.094
 12265     7.88   58.874   92.826
 12265.5     7.88   58.568   90.275
 12266     7.882   58.028   85.033
 12266.5     7.887   59.977   79.791
 12267     7.892   61.294   76.188
 12267.5     7.897   61.086   76.7
 12268     7.901   59.357   77.749
 12268.5     7.906   57.241   78.798
 12269     7.911   56.857   79.281
 12269.5     7.916   57.469   79.283
 12270     7.922   59.159   79.134
 12270.5     7.928   60.985   76.896
 12271     7.934   62.09   76.998
 12271.5     7.94   62.797   78.775
 12272     7.946   62.731   80.552
 12272.5     7.952   62.051   80.464
 12273     7.958   61.37   80.082
 12273.5     7.964   60.925   80.184
 12274     7.97   60.746   81.601
 12274.5     7.976   61.051   83.018
 12275     7.981   61.163   84.435
 12275.5     7.987   61.128   85.851
 12276     7.993   61.092   84.545
 12276.5     7.991   61.363   79.892
 12277     7.988   61.717   76.986
 12277.5     7.985   62.351   75.29
 12278     7.982   62.984   73.593
 12278.5     7.977   62.706   71.897
 12279     7.969   62.479   70.943
 12279.5     7.961   62.228   71.512
 12280     7.952   61.159   85.695
 12280.5     7.944   60.462   91.303
 12281     7.936   60.094   92.766
 12281.5     7.928   61.015   94.228
 12282     7.919   62.803   109.779
 12282.5     7.902   63.452   115.539
 12283     7.883   63.577   118.746
 12283.5     7.863   63.484   118.7
 12284     7.844   62.714   118.232
 12284.5     7.824   60.26   113.455
 12285     7.805   57.643   102.604
 12285.5     7.785   55.144   91.754
 12286     7.766   55.415   87.187
 12286.5     7.746   57.388   91.205
 12287     7.749   58.756   99.613
 12287.5     7.752   60.2   108.021
 12288     7.755   59.966   112.018
 12288.5     7.758   59.36   111.397
 12289     7.761   59.51   110.776
 12289.5     7.764   60.774   110.573
 12290     7.767   61.263   123.674
