# Exported from Transform Software 5.2.0 on 27-Jun-2019 by user brian.umlang
# DI Transform - A Product of Drillinginfo, Inc. - www.drillinginfo.com
#
~VERSION INFORMATION
 VERS.        2.0 : LAS ASCII STANDARD - VERSION 2.0
 WRAP.         NO : ONE LINE PER DEPTH STEP

~WELL INFORMATION
#MNEM.UNIT       DATA TYPE       INFORMATION
#---------       ---------       -----------
 STRT.ft                   0 : Start Depth
 STOP.ft               12430 : Stop Depth
 STEP.ft                 0.5 : Step Length
 NULL.               -999.25 : Null Value
 COMP.                       : Company
 WELL.  42109313590000_API14 : Well Name
 FLD.                        : Field Name
 LOC.                        : Well Location
 CNTY.                       : County
 STAT.                       : State or Province
 CTRY.                       : Country
 SRVC.                       : Service Company
 DATE.                       : Date
 API.         42109313590000 : Well Identifier

~CURVE INFORMATION
#MNEM.UNIT       API CODE       CURVE DESCRIPTION
#---------       --------       -----------------
 DEPT.ft          : <Measured Depth>
 CAL.in           : Caliper
 DPHI.%           : Density Porosity
 DT.us/ft         : Sonic
 GR.gAPI          : Gamma Ray
 ILD.ohmm         : Deep Resistivity
 ILM.ohmm         : Medium Resistivity
 ILS.ohmm         : Shallow Resistivity
 NPHI.%           : Neutron Porosity
 RHOB.g/cm3       : Density
 SP.mV            : Spontaneous Potential

~PARAMETER INFORMATION
#MNEM.UNIT       VALUE       DESCRIPTION
#---------       -----       -----------
 EKB.ft      3771 : Elevation above MSL

~A      DEPT         CAL        DPHI          DT          GR         ILD         ILM         ILS        NPHI        RHOB          SP
# ...
     11620.5     10.4782     14.0218     71.6196      53.497     -999.25     -999.25     -999.25      5.8692      2.4705     -999.25
       11621      10.504      13.654     72.4649     54.0675     -999.25     -999.25     -999.25      5.1955      2.4819     -999.25
     11621.5      10.504     13.5481     72.2244     54.0675     -999.25     -999.25     -999.25      4.3145       2.498     -999.25
       11622     10.5243     13.5481     72.2492     53.5656     -999.25     -999.25     -999.25      3.5976      2.4342     -999.25
     11622.5     10.6256     13.5481     73.3897     52.2988     -999.25     -999.25     -999.25      3.7099      2.2748     -999.25
       11623     10.6429     13.5575     74.1497     48.1151     -999.25     -999.25     -999.25      3.5976       2.269     -999.25
     11623.5     10.6429     13.7612     74.1285     48.1151     -999.25     -999.25     -999.25      4.3323      2.2824     -999.25
       11624      10.614     13.8652     73.7112     48.1151     -999.25     -999.25     -999.25      4.8842       2.291     -999.25
     11624.5     10.5747     14.0709     73.9325     48.2546     -999.25     -999.25     -999.25      5.6406      2.3329     -999.25
       11625     10.6562      18.022     75.2449     49.4454     -999.25     -999.25     -999.25      7.2317      2.4448     -999.25
     11625.5     10.6627     24.4458     75.8317     53.2684     -999.25     -999.25     -999.25      7.4342      2.4923     -999.25
       11626     10.7222       28.05     75.9434     56.2714     -999.25     -999.25     -999.25      7.5178      2.4955     -999.25
     11626.5     10.7222     26.5527     75.3211     56.7956     -999.25     -999.25     -999.25      7.6415      2.4736     -999.25
       11627     10.7093     19.8579     74.8274     64.7321     -999.25     -999.25     -999.25      9.1934      2.4618     -999.25
     11627.5     10.5196      7.3247     73.8679     65.8542     -999.25     -999.25     -999.25      9.3062      2.3898     -999.25
       11628     10.4246      4.3275      71.784     68.1985     -999.25     -999.25     -999.25       9.517      2.3592     -999.25
     11628.5     10.4841      0.6262     69.5626     72.2781     -999.25     -999.25     -999.25     10.5127      2.3388     -999.25
       11629     10.4841     22.2088     63.2858     73.1647     -999.25     -999.25     -999.25     11.3492      2.3893     -999.25
     11629.5     10.5437     22.5903     75.9217     71.6861     -999.25     -999.25     -999.25     11.0343      2.3916     -999.25
       11630     10.5437     25.2585     75.9937     69.7859     -999.25     -999.25     -999.25      10.233      2.3951     -999.25
     11630.5     10.5437     18.6737     75.5443     68.4879     -999.25     -999.25     -999.25      9.0289      2.3984     -999.25
       11631     10.5437     18.3463     90.2184     67.7083     -999.25     -999.25     -999.25      8.4737      2.4004     -999.25
     11631.5     10.5437     20.6278     93.4135     69.9584     -999.25     -999.25     -999.25      8.3123      2.4016     -999.25
       11632     10.5437     21.6821     89.1083     70.6398     -999.25     -999.25     -999.25      7.8069      2.3997     -999.25
     11632.5     10.5178     26.4207     73.8971      69.373     -999.25     -999.25     -999.25     11.6566      2.3977     -999.25
       11633     10.5713     26.4755     57.0417     68.5506     -999.25     -999.25     -999.25     12.2002      2.3942     -999.25
     11633.5     10.6674     29.5679       53.42     68.0794     -999.25     -999.25     -999.25     12.2002      2.3941     -999.25
       11634     10.3728     29.3018     56.8349     63.3934     -999.25     -999.25     -999.25     12.2002      2.5611     -999.25
     11634.5     10.2857     16.2549     64.4712     45.1725     -999.25     -999.25     -999.25      3.0934      2.6345     -999.25
       11635     10.2857     15.2037     64.4968     32.1619     -999.25     -999.25     -999.25      2.8909      2.6835     -999.25
     11635.5     10.2857      8.3424     59.6969      24.766     -999.25     -999.25     -999.25      3.0004      2.6934     -999.25
       11636     10.2452      9.4665      53.333     24.8869     -999.25     -999.25     -999.25      3.3529      2.7071     -999.25
     11636.5     10.1423     15.6155     53.4657     27.5298     -999.25     -999.25     -999.25       2.442      2.7109     -999.25
       11637      9.7743     18.2079      54.093     28.2738     -999.25     -999.25     -999.25      2.2395      2.7145     -999.25
     11637.5       9.631     19.3756     52.8252     28.6127     -999.25     -999.25     -999.25      2.1705      2.7143     -999.25
       11638      9.6215     19.1177     52.3729     29.7619     -999.25     -999.25     -999.25      2.1705      2.7129     -999.25
     11638.5      9.6227     18.4011     52.3246     29.4103     -999.25     -999.25     -999.25      2.2101      2.7109     -999.25
       11639      9.6905     18.3053     51.9325     30.6771     -999.25     -999.25     -999.25      2.1705      2.6475     -999.25
     11639.5      9.6905     17.2518     51.5431       31.25     -999.25     -999.25     -999.25      2.0435      2.4141     -999.25
       11640      9.6527     12.6272     52.0476     32.4667     -999.25     -999.25     -999.25      1.8511      2.4099     -999.25
     11640.5      9.7702       8.275      52.442     32.7415     -999.25     -999.25     -999.25      1.4172      2.3993     -999.25
       11641     10.1492      8.4785     53.3515     34.2563     -999.25     -999.25     -999.25      1.5362      2.3716     -999.25
     11641.5     10.2506      9.4739     54.6811     36.1485     -999.25     -999.25     -999.25      1.6155      2.3772     -999.25
       11642     10.2659     17.0897     55.3521     42.4943     -999.25     -999.25     -999.25      3.3335      2.3753     -999.25
     11642.5     10.2659     18.6557     54.5959     44.1195     -999.25     -999.25     -999.25      3.4633      2.3719     -999.25
       11643     10.2659     20.4063     54.3687      45.524     -999.25     -999.25     -999.25      3.6195      2.3699     -999.25
     11643.5     10.2659     20.4063     55.4582      44.479     -999.25     -999.25     -999.25      4.3105      2.3635     -999.25
       11644     10.2659     20.4764     56.7335     42.0687     -999.25     -999.25     -999.25      6.8087      2.2312     -999.25
     11644.5      10.246     21.1624     59.7703     37.5412     -999.25     -999.25     -999.25      6.6947       2.163     -999.25
       11645      10.246     26.0659     66.8424     35.7143     -999.25     -999.25     -999.25      6.2147       2.161     -999.25
     11645.5     10.1667     29.7318     68.2435     35.4663     -999.25     -999.25     -999.25      6.4196      2.1589     -999.25
       11646     10.1667     30.2696     68.6253     35.7391     -999.25     -999.25     -999.25      6.8721      2.1566     -999.25
     11646.5     10.1667     30.0793      68.978     44.2994     -999.25     -999.25     -999.25      7.4933      2.1419     -999.25
       11647     10.5501     30.0793     68.6352     67.5634     -999.25     -999.25     -999.25      8.5695      2.1419     -999.25
     11647.5     10.9905     30.1397     68.3763     67.9563     -999.25     -999.25     -999.25       9.864      2.1419     -999.25
       11648     11.1911     30.1732     67.7792     68.3609     -999.25     -999.25     -999.25     11.2091      2.1419     -999.25
     11648.5     11.2924     30.0793     66.2583     69.6277     -999.25     -999.25     -999.25     13.3317       2.153     -999.25
       11649     11.2724     29.8871     66.3281     68.4904     -999.25     -999.25     -999.25     14.1352      2.3534     -999.25
     11649.5     11.2579     29.8396     66.6006     69.1852     -999.25     -999.25     -999.25     12.9156      2.3968     -999.25
       11650     11.4179     24.1327     69.8458      70.452     -999.25     -999.25     -999.25      8.3895      2.3989     -999.25
     11650.5     11.4728     20.5978     75.4076     70.6845     -999.25     -999.25     -999.25      7.2507      2.4009     -999.25
