###############################################
##         ENVERUS                           ##
##         ESS - Open Hole                   ##
##         PERMIAN / DELAWARE                ##
##         Nov 02 2023  V4.0                 ##
##         42-109-31375-00-00                ##
###############################################
## Copyright 2017-2023  ENVERUS.  All Rights Reserved. 
## Confidential - Property of ENVERUS, use governed by terms and 
## conditions found within the existing Information Services Subscription Agreement 
## (as may be amended, the “ISSA”) between Customer and ENVERUS. 
## 
~VERSION INFORMATION
# MNEM.UNIT                               DATA : DESCRIPTION OF MNEMONIC
#-----.-----     ----------------------------- : -----------------------------
VERS.                                     2.00 : CWLS LOG ASCII STANDARD - VERSION 2.00
WRAP.                                       NO : MULTIPLE LINES PER DEPTH STEP
VEND.                                  ENVERUS : VENDOR
TYPE.                          ESS - OPEN HOLE : ENVERUS ESSENTIAL CURVES – ACCESSIBLE THROUGH ENVERUS PRISM(TM)
DOC.                                  32006335 : ENVERUS HEADER RAW DOCUMENT ID
#___________________________________________________________________________________________________ 
~WELL INFORMATION 
# Eb7Zbut2Nwqt2ftj1i2q6V2Ye1Joym9Qrd6BFF0aHeZ6Mf1z+VAuEcbs4uVngcAWjTW62nvWGWatc34NWk2mnA== 
# MNEM.UNIT                                              DATA : DESCRIPTION OF MNEMONIC 
#-----.-----                    ----------------------------- : ----------------------------- 
CNTY.                                               CULBERSON : COUNTY 
STATE.                                                  TEXAS : STATE 
CNTRY.                                                    USA : COUNTRY 
API.                                             42-109-31375 : API (10 Digit) 
API_14.                                    42-109-31375-00-00 : API (14 Digits) 
API_14_std.                                 42-109-31375-0000 : API (14 Digits Standard) 
UWI.                                           42109313750000 : UNIQUE WELL ID 
WELL.                                      7806 JV-P DUVAL  1 : WELL NAME
STRT.FT                                                     0 : START DEPTH
STOP.FT                                               15739.0 : STOP DEPTH
STEP.FT                                                   0.5 : STEP BETWEEN DEPTHS
NULL.                                                 -999.25 : NULL VALUE
COMP.                                  BTA OIL PRODUCERS  LLC : COMPANY 
DATE.                                             26-MAY-1978 : LOG DATE
#___________________________________________________________________________________________________ 
~CURVE INFORMATION 
# MNEM.UNIT           : CURVE DESCRIPTION 
#-----.-----          : ----------------------------- 
 DEPT.FT               : MEASURED DEPTH 
 CALI.IN               : CALIPER (CAL - CAL) 
 GR.API                : GAMMA RAY (GR) 
 DT.US/FT              : SONIC DELTA TRANSIT TIME (DT) 
 #___________________________________________________________________________________________________ 
~A         DEPT           CALI             GR             DT
# ...
         3168.0         15.197         33.639         77.702
         3168.5         15.197         32.101         78.454
         3169.0         15.196         30.564         79.206
         3169.5         15.195         29.026         79.958
         3170.0         15.194         29.401         80.709
         3170.5         15.194         29.786         81.461
         3171.0         15.193         31.441         82.213
         3171.5         15.192         33.177         82.606
         3172.0         15.191         34.852         82.275
         3172.5         15.191         35.301         81.945
         3173.0         15.190         35.750         81.614
         3173.5         15.189         36.199         81.284
         3174.0         15.188         35.450         81.845
         3174.5         15.188         33.070         82.531
         3175.0         15.187         30.645         84.596
         3175.5         15.186         28.221         88.125
         3176.0         15.186         27.637         88.817
         3176.5         15.185         27.264         88.227
         3177.0         15.184         30.052         87.637
         3177.5         15.183         31.863         87.047
         3178.0         15.183         32.942         86.882
         3178.5         15.182         33.497         87.694
         3179.0         15.181         33.123         86.952
         3179.5         15.180         32.749         85.954
         3180.0         15.180         32.376         84.956
         3180.5         15.179         31.787         83.958
         3181.0         15.178         30.431         82.961
         3181.5         15.177         29.074         84.179
         3182.0         15.177         27.822         86.199
         3182.5         15.177         26.925         88.219
         3183.0         15.177         26.268         90.111
         3183.5         15.178         27.052         89.277
         3184.0         15.178         27.835         88.443
         3184.5         15.178         28.618         87.609
         3185.0         15.179         27.223         87.237
         3185.5         15.179         25.661         87.184
         3186.0         15.179         24.098         86.745
         3186.5         15.180         22.457         85.486
         3187.0         15.180         22.687         84.227
         3187.5         15.180         24.559         84.239
         3188.0         15.181         26.343         84.569
         3188.5         15.181         27.500         84.899
         3189.0         15.181         28.656         85.160
         3189.5         15.182         29.813         84.520
         3190.0         15.182         30.819         83.880
         3190.5         15.182         29.038         83.240
         3191.0         15.182         27.256         83.187
         3191.5         15.183         26.916         83.563
         3192.0         15.183         26.655         83.939
         3192.5         15.183         26.395         84.133
         3193.0         15.184         26.134         83.914
         3193.5         15.184         26.521         84.040
         3194.0         15.184         27.060         84.181
         3194.5         15.185         27.694         84.322
         3195.0         15.185         28.773         84.463
         3195.5         15.185         30.071         83.002
         3196.0         15.186         32.743         81.188
         3196.5         15.185         35.415         79.374
         3197.0         15.182         35.534         77.828
         3197.5         15.179         35.197         76.475
         3198.0         15.176         34.861         75.123
         3198.5         15.173         34.525         75.550
         3199.0         15.170         34.484         76.854
         3199.5         15.167         34.564         78.157
         3200.0         15.164         34.644         78.733
         3200.5         15.171         34.724         75.461
         3201.0         15.178         35.981         72.189
         3201.5         15.184         38.065         71.182
         3202.0         15.191         40.148         71.855
         3202.5         15.198         42.232         72.528
         3203.0         15.200         44.315         72.393
         3203.5         15.195         44.589         71.912
         3204.0         15.190         44.065         71.430
         3204.5         15.185         43.541         70.949
         3205.0         15.180         43.017         70.680
         3205.5         15.175         42.493         70.905
         3206.0         15.170         41.968         71.130
         3206.5         15.165         42.223         71.355
         3207.0         15.160         42.713         71.580
         3207.5         15.155         43.203         71.805
         3208.0         15.150         43.693         72.030
         3208.5         15.144         44.183         72.255
         3209.0         15.102         44.673         72.480
         3209.5         15.061         46.481         72.705
         3210.0         15.019         51.035         72.930
         3210.5         14.678         52.878         71.542
         3211.0         14.628         49.970         69.289
         3211.5         14.579         47.062         67.031
         3212.0         14.529         44.568         64.958
         3212.5         14.482         42.326         64.073
         3213.0         14.450         41.761         63.187
         3213.5         14.417         41.588         62.648
         3214.0         14.384         41.658         64.078
         3214.5         14.351         43.066         65.507
         3215.0         14.318         44.474         66.936
         3215.5         14.285         47.337         67.843
         3216.0         14.255         54.448         68.369
         3216.5         14.230         61.558         69.406
         3217.0         14.206         68.669         70.679
         3217.5         14.181         75.780         71.952
         3218.0         14.157         82.891         73.226
         3218.5         14.132         80.852         73.971
         3219.0         14.107         76.731         72.121
         3219.5         14.073         68.051         70.114
         3220.0         14.040         59.159         68.101
         3220.5         14.015         50.267         65.670
         3221.0         14.016         45.344         65.875
         3221.5         14.016         47.847         66.649
         3222.0         14.016         52.392         67.423
         3222.5         14.064         57.616         68.197
         3223.0         14.040         54.049         67.315
         3223.5         14.015         50.481         66.362
         3224.0         13.991         46.914         65.410
         3224.5         13.967         43.346         64.607
         3225.0         13.943         42.516         64.780
         3225.5         13.930         43.055         64.953
         3226.0         13.924         43.708         65.125
         3226.5         13.918         47.594         65.298
         3227.0         13.912         46.607         65.421
         3227.5         13.906         45.109         64.770
         3228.0         13.900         43.610         64.120
         3228.5         13.894         42.111         63.470
         3229.0         13.888         40.935         62.819
         3229.5         13.881         42.289         63.164
         3230.0         13.875         44.622         63.895
         3230.5         13.869         48.594         64.625
         3231.0         13.863         51.406         65.356
         3231.5         13.857         52.487         66.086
         3232.0         13.846         53.568         66.523
         3232.5         13.832         54.649         66.928
         3233.0         13.818         54.656         67.334
         3233.5         13.805         54.008         67.580
