###############################################
##         ENVERUS                           ##
##         ESS - Open Hole                   ##
##         PERMIAN / DELAWARE                ##
##         Nov 03 2023  V4.0                 ##
##         42-109-32572-90-00                ##
###############################################
## Copyright 2017-2023  ENVERUS.  All Rights Reserved. 
## Confidential - Property of ENVERUS, use governed by terms and 
## conditions found within the existing Information Services Subscription Agreement 
## (as may be amended, the “ISSA”) between Customer and ENVERUS. 
## 
~VERSION INFORMATION
# MNEM.UNIT                               DATA : DESCRIPTION OF MNEMONIC
#-----.-----     ----------------------------- : -----------------------------
VERS.                                     2.00 : CWLS LOG ASCII STANDARD - VERSION 2.00
WRAP.                                       NO : MULTIPLE LINES PER DEPTH STEP
VEND.                                  ENVERUS : VENDOR
TYPE.                          ESS - OPEN HOLE : ENVERUS ESSENTIAL CURVES – ACCESSIBLE THROUGH ENVERUS PRISM(TM)
DOC.                                  51093467 : ENVERUS HEADER RAW DOCUMENT ID
#___________________________________________________________________________________________________ 
~WELL INFORMATION 
# 8gl1O6v4swiPFL4GH+dnL3Th7drW/gNnufiOMC39xBbatiyIUGjWQRxOO2UkOAKZqu0QrDKM70MxnzzovQmAYg== 
# MNEM.UNIT                                              DATA : DESCRIPTION OF MNEMONIC 
#-----.-----                    ----------------------------- : ----------------------------- 
CNTY.                                               CULBERSON : COUNTY 
STATE.                                                  TEXAS : STATE 
CNTRY.                                                    USA : COUNTRY 
API.                                             42-109-32572 : API (10 Digit) 
API_14.                                    42-109-32572-90-00 : API (14 Digits) 
API_14_std.                                 42-109-32572-9000 : API (14 Digits Standard) 
UWI.                                           42109325729000 : UNIQUE WELL ID 
WELL.                               42109325720000_PREV_API14 : WELL NAME
STRT.FT                                                2248.5 : START DEPTH
STOP.FT                                               10757.5 : STOP DEPTH
STEP.FT                                                   0.5 : STEP BETWEEN DEPTHS
NULL.                                                 -999.25 : NULL VALUE
PREV_APII.                                     42109325720000 : WELL IDENTIFIER
#___________________________________________________________________________________________________ 
~PARAMETER INFORMATION 
# MNEM.UNIT                                              DATA : DESCRIPTION OF MNEMONIC 
#-----.-----                    ----------------------------- : ----------------------------- 
EKB.FT                                                   3340 : ELEVATION ABOVE MSL
#___________________________________________________________________________________________________ 
~CURVE INFORMATION 
# MNEM.UNIT           : CURVE DESCRIPTION 
#-----.-----          : ----------------------------- 
 DEPT.FT               : MEASURED DEPTH 
 CALI.IN               : CALIPER (CAL - CALIPER) 
 GR.API                : GAMMA RAY (GAMMA RAY) 
 DT.US/FT              : SONIC DELTA TRANSIT TIME (SONIC) 
 #___________________________________________________________________________________________________ 
~A         DEPT           CALI             GR             DT
# ...
        10102.5          9.392         27.286         50.458
        10103.0          9.393         35.634         54.479
        10103.5          9.394         81.601         86.353
        10104.0          9.395         95.572         86.662
        10104.5          9.396        150.918         92.408
        10105.0          9.397        158.724         93.086
        10105.5          9.398        159.729         91.665
        10106.0          9.399        152.126         89.773
        10106.5          9.400        133.623         85.368
        10107.0          9.402        125.491         85.590
        10107.5          9.403        123.875         86.068
        10108.0          9.404        123.689         86.597
        10108.5          9.405        126.373         87.500
        10109.0          9.406        135.143         89.546
        10109.5          9.407        147.397         92.122
        10110.0          9.408        150.886         90.037
        10110.5          9.409        148.924         89.452
        10111.0          9.410        148.715         89.219
        10111.5          9.408        142.159         89.042
        10112.0          9.399        138.547         89.105
        10112.5          9.390        136.693         91.387
        10113.0          9.320        137.573         91.387
        10113.5          9.301        131.621         93.476
        10114.0          9.208        128.379         92.383
        10114.5          9.121        120.664         89.635
        10115.0          9.072        126.773         87.856
        10115.5          9.072        130.306         82.862
        10116.0          9.094        116.401         79.361
        10116.5          9.117         85.649         75.944
        10117.0          9.119         91.168         72.227
        10117.5          9.122        104.127         76.761
        10118.0          9.124        107.346         79.840
        10118.5          9.126        137.169         88.120
        10119.0          9.128        139.112         89.238
        10119.5          9.131        127.983         91.524
        10120.0          9.133        125.847         91.740
        10120.5          9.135        118.496         79.673
        10121.0          9.137        102.965         79.034
        10121.5          9.140        104.055         79.961
        10122.0          9.158        112.720         80.775
        10122.5          9.166        111.762         82.580
        10123.0          9.170        104.523         79.571
        10123.5          9.175         99.113         83.139
        10124.0          9.180        103.622         83.935
        10124.5          9.185        112.430         84.403
        10125.0          9.180        113.658         86.997
        10125.5          9.173        105.823         84.175
        10126.0          9.165        104.557         83.691
        10126.5          9.162        105.505         86.046
        10127.0          9.162        108.385         85.771
        10127.5          9.162        120.886         85.654
        10128.0          9.162        124.630         85.410
        10128.5          9.162        127.006         87.843
        10129.0          9.162        124.369         85.479
        10129.5          9.162        118.081         78.368
        10130.0          9.162        112.757         77.897
        10130.5          9.162         88.261         76.546
        10131.0          9.162         74.088         71.715
        10131.5          9.162         72.642         82.711
        10132.0          9.162         72.758         87.168
        10132.5          9.162         92.384         89.617
        10133.0          9.162        111.784         89.629
        10133.5          9.162         91.895         85.084
        10134.0          9.160         85.966         81.856
        10134.5          9.148         71.670         81.461
        10135.0          9.137         77.046         92.689
        10135.5          9.125        121.205         93.540
        10136.0          9.124        137.086         93.774
        10136.5          9.141        129.259         91.636
        10137.0          9.148        113.701         87.293
        10137.5          9.156        105.480         85.540
        10138.0          9.162        104.624         86.573
        10138.5          9.162        118.997         89.074
        10139.0          9.165        125.972         88.062
        10139.5          9.188        126.223         87.344
        10140.0          9.210        127.144         87.620
        10140.5          9.230        147.431         90.330
        10141.0          9.230        160.354         92.856
        10141.5          9.239        171.666         95.713
        10142.0          9.267        182.979         96.525
        10142.5          9.296        171.687         96.477
        10143.0          9.324        153.880         94.511
        10143.5          9.342        151.563         84.799
        10144.0          9.335        146.187         81.789
        10144.5          9.328        116.837         78.230
        10145.0          9.322         97.342         72.461
        10145.5          9.312         73.745         63.321
        10146.0          9.301         67.709         62.000
        10146.5          9.297         57.696         65.123
        10147.0          9.309         69.786         76.971
        10147.5          9.320        104.961         81.509
        10148.0          9.350        110.828         83.547
        10148.5          9.377        109.555         82.625
        10149.0          9.395        103.794         83.581
        10149.5          9.405        107.798         86.335
        10150.0          9.425        110.255         84.871
        10150.5          9.453        112.916         82.294
        10151.0          9.455        116.165         82.246
        10151.5          9.478        123.435         83.507
        10152.0          9.478        124.153         85.367
        10152.5          9.478        129.138         90.911
        10153.0          9.482        156.178         95.175
        10153.5          9.523        178.243         96.484
        10154.0          9.523        177.805         95.949
        10154.5          9.523        167.007         93.190
        10155.0          9.523        164.908         88.542
        10155.5          9.523        160.335         87.152
        10156.0          9.523        154.804         87.450
        10156.5          9.523        151.422         88.249
        10157.0          9.523        151.468         89.132
        10157.5          9.523        140.891         88.260
        10158.0          9.523        135.940         86.845
        10158.5          9.514        120.413         69.408
        10159.0          9.495        100.428         70.929
        10159.5          9.476         90.363         74.365
        10160.0          9.457        113.186         75.771
        10160.5          9.465        157.156         85.963
        10161.0          9.503        163.992         88.546
        10161.5          9.503        160.092         83.607
        10162.0          9.503        149.418         83.097
        10162.5          9.542        134.802         84.395
        10163.0          9.519        148.231         85.877
        10163.5          9.503        168.574         87.693
        10164.0          9.503        168.249         86.442
        10164.5          9.503        151.935         82.823
        10165.0          9.562        138.582         84.365
        10165.5          9.503        143.875         85.680
        10166.0          9.503        149.333         86.570
        10166.5          9.503        167.204         91.409
        10167.0          9.503        172.817         92.821
        10167.5          9.503        176.540         88.470
        10168.0          9.503        177.299         87.542
