###############################################
##         ENVERUS                           ##
##         ESS - Open Hole                   ##
##         PERMIAN / DELAWARE                ##
##         Nov 02 2023  V4.0                 ##
##         42-109-32255-00-00                ##
###############################################
## Copyright 2017-2023  ENVERUS.  All Rights Reserved. 
## Confidential - Property of ENVERUS, use governed by terms and 
## conditions found within the existing Information Services Subscription Agreement 
## (as may be amended, the “ISSA”) between Customer and ENVERUS. 
## 
~VERSION INFORMATION
# MNEM.UNIT                               DATA : DESCRIPTION OF MNEMONIC
#-----.-----     ----------------------------- : -----------------------------
VERS.                                     2.00 : CWLS LOG ASCII STANDARD - VERSION 2.00
WRAP.                                       NO : MULTIPLE LINES PER DEPTH STEP
VEND.                                  ENVERUS : VENDOR
TYPE.                          ESS - OPEN HOLE : ENVERUS ESSENTIAL CURVES – ACCESSIBLE THROUGH ENVERUS PRISM(TM)
DOC.                                  31869427 : ENVERUS HEADER RAW DOCUMENT ID
#___________________________________________________________________________________________________ 
~WELL INFORMATION 
# Kns/CyAZPDgS4fEM5w0azv9tYcXlBSx1nHSqICrpKgQv6F2hlFUFpw+R1SAxYfM92i4ks6BDNpB+WhJDZXFO5Q== 
# MNEM.UNIT                                              DATA : DESCRIPTION OF MNEMONIC 
#-----.-----                    ----------------------------- : ----------------------------- 
CNTY.                                               CULBERSON : COUNTY 
STATE.                                                  TEXAS : STATE 
CNTRY.                                                    USA : COUNTRY 
API.                                             42-109-32255 : API (10 Digit) 
API_14.                                    42-109-32255-00-00 : API (14 Digits) 
API_14_std.                                 42-109-32255-0000 : API (14 Digits Standard) 
UWI.                                           42109322550000 : UNIQUE WELL ID 
WELL.                             MELISSA TAYLOR STATE 27  1H : WELL NAME
STRT.FT                                                  94.0 : START DEPTH
STOP.FT                                               13828.0 : STOP DEPTH
STEP.FT                                                   0.5 : STEP BETWEEN DEPTHS
NULL.                                                 -999.25 : NULL VALUE
COMP.                              CHESAPEAKE OPERATING  INC. : COMPANY 
DATE.                                             29-NOV-2005 : LOG DATE
#___________________________________________________________________________________________________ 
~CURVE INFORMATION 
# MNEM.UNIT           : CURVE DESCRIPTION 
#-----.-----          : ----------------------------- 
 DEPT.FT               : MEASURED DEPTH 
 CALI__B.IN            : CALIPER (CAL - CAL) 
 GR__B.API             : GAMMA RAY (GR) 
 DT__B.US/FT           : SONIC DELTA TRANSIT TIME (DT) 
 DPHI__B.V/V           : DENSITY POROSITY (DPHI) 
 NPHI__B.V/V           : NEUTRON POROSITY (NPHI) 
 RHOB__B.G/CC          : BULK DENSITY (RHOB) 
 #___________________________________________________________________________________________________ 
~A         DEPT        CALI__B          GR__B          DT__B        DPHI__B        NPHI__B        RHOB__B
# ...
        10506.0         11.272         68.807         63.449        0.06221        0.12382         2.5820
        10506.5         11.351         69.289         63.688        0.08173        0.11813         2.5640
        10507.0         11.413         71.699         64.066        0.10032        0.12073         2.5460
        10507.5         11.474         75.104         64.333        0.10390        0.13122         2.5490
        10508.0         11.535         77.464         64.249        0.10083        0.14370         2.5520
        10508.5         11.615         77.678         64.355        0.09501        0.14452         2.5550
        10509.0         11.694         75.979         65.002        0.09625        0.14243         2.5480
        10509.5         11.774         70.906         65.649        0.10695        0.13572         2.5380
        10510.0         11.853         66.105         66.143        0.11990        0.12912         2.5280
        10510.5         11.933         62.378         66.034        0.12193        0.12252         2.5180
        10511.0         12.012         60.865         65.210        0.11963        0.11909         2.5180
        10511.5         12.093         64.631         64.119        0.12167        0.11979         2.5230
        10512.0         12.173         66.563         63.110        0.12196        0.12066         2.5290
        10512.5         12.253         68.407         62.350        0.11161        0.12154         2.5340
        10513.0         12.334         68.152         62.219        0.10490        0.12060         2.5390
        10513.5         12.414         66.379         62.219        0.10613        0.11788         2.5310
        10514.0         12.495         64.580         61.920        0.11307        0.11656         2.5220
        10514.5         12.575         63.761         61.476        0.11895        0.11732         2.5140
        10515.0         12.642         64.140         61.152        0.12420        0.11805         2.5200
        10515.5         12.688         64.520         61.299        0.12353        0.11733         2.5280
        10516.0         12.733         66.055         61.990        0.12135        0.11662         2.5350
        10516.5         12.779         67.680         63.046        0.11071        0.11779         2.5430
        10517.0         12.825         67.033         63.147        0.10015        0.12359         2.5510
        10517.5         12.904         65.520         63.061        0.09541        0.13297         2.5520
        10518.0         12.984         65.460         63.889        0.09933        0.14446         2.5420
        10518.5         13.064         66.775         65.129        0.10677        0.15563         2.5340
        10519.0         13.143         67.741         66.382        0.11209        0.15582         2.5260
        10519.5         13.229         66.773         67.803        0.11742        0.15516         2.5180
        10520.0         13.331         65.805         69.223        0.12285        0.15197         2.5100
        10520.5         13.432         64.837         69.803        0.12852        0.14646         2.5020
        10521.0         13.533         64.194         69.509        0.13082        0.14094         2.5050
        10521.5         13.634         64.772         68.475        0.12956        0.13837         2.5090
        10522.0         13.696         65.350         67.441        0.12650        0.14145         2.5120
        10522.5         13.734         65.927         66.607        0.12324        0.14652         2.5160
        10523.0         13.773         65.723         65.824        0.12108        0.15139         2.5200
        10523.5         13.811         65.434         66.034        0.12241        0.15077         2.5230
        10524.0         13.819         65.145         66.426        0.11648        0.15016         2.5220
        10524.5         13.797         65.925         66.558        0.11553        0.14966         2.5150
        10525.0         13.774         67.442         65.809        0.11593        0.15581         2.5120
        10525.5         13.736         68.777         63.817        0.12254        0.15567         2.5240
        10526.0         13.698         67.803         62.549        0.12312        0.14823         2.5350
        10526.5         13.659         66.830         62.015        0.10843        0.13851         2.5470
        10527.0         13.621         66.262         62.419        0.09643        0.12879         2.5580
        10527.5         13.578         65.757         62.824        0.09485        0.12479         2.5490
        10528.0         13.498         66.425         64.105        0.10489        0.12228         2.5220
        10528.5         13.418         68.268         65.386        0.12893        0.12709         2.5090
        10529.0         13.339         69.703         66.666        0.12711        0.13526         2.5190
        10529.5         13.259         70.169         67.106        0.11902        0.14998         2.5290
        10530.0         13.179         70.238         67.382        0.11378        0.15568         2.5350
        10530.5         13.080         69.104         67.315        0.11047        0.15820         2.5400
        10531.0         12.973         68.669         66.845        0.11017        0.16071         2.5450
        10531.5         12.866         69.502         66.516        0.10218        0.16328         2.5500
        10532.0         12.759         70.334         66.276        0.09936        0.16585         2.5530
        10532.5         12.651         70.719         65.277        0.09845        0.16821         2.5520
        10533.0         12.544         69.358         63.322        0.09924        0.16781         2.5530
        10533.5         12.437         67.570         60.606        0.09935        0.16140         2.5640
        10534.0         12.329         65.527         60.117        0.09465        0.15059         2.5740
        10534.5         12.222         63.484         60.656        0.08361        0.13746         2.5850
        10535.0         12.151         62.500         62.216        0.07411        0.12409         2.5950
        10535.5         12.094         62.707         63.923        0.07145        0.11184         2.5480
        10536.0         12.036         62.914         65.630        0.07735        0.10452         2.5060
        10536.5         11.978         63.122         67.162        0.10048        0.11141         2.5170
        10537.0         11.933         63.823         68.460        0.11980        0.12178         2.5280
        10537.5         11.891         64.523         68.468        0.12761        0.13215         2.5390
        10538.0         11.849         66.875         68.188        0.11898        0.14464         2.5500
        10538.5         11.807         69.179         67.418        0.09546        0.15878         2.5620
        10539.0         11.766         71.280         66.447        0.08734        0.16125         2.5610
        10539.5         11.724         72.673         65.620        0.09110        0.15984         2.5520
        10540.0         11.682         72.673         65.354        0.09653        0.15110         2.5430
        10540.5         11.640         71.777         65.550        0.10668        0.13638         2.5340
        10541.0         11.599         69.760         65.932        0.10929        0.12093         2.5320
        10541.5         11.557         67.742         66.314        0.11259        0.11378         2.5350
        10542.0         11.515         66.075         66.696        0.10488        0.11356         2.5390
        10542.5         11.473         64.637         66.987        0.10308        0.11761         2.5340
        10543.0         11.424         63.198         66.538        0.10909        0.12165         2.5310
        10543.5         11.361         63.087         65.206        0.11286        0.12183         2.5350
