###############################################
##         ENVERUS                           ##
##         ESS - Open Hole                   ##
##         PERMIAN / DELAWARE                ##
##         Nov 02 2023  V4.0                 ##
##         42-109-30915-00-00                ##
###############################################
## Copyright 2017-2023  ENVERUS.  All Rights Reserved. 
## Confidential - Property of ENVERUS, use governed by terms and 
## conditions found within the existing Information Services Subscription Agreement 
## (as may be amended, the “ISSA”) between Customer and ENVERUS. 
## 
~VERSION INFORMATION
# MNEM.UNIT                               DATA : DESCRIPTION OF MNEMONIC
#-----.-----     ----------------------------- : -----------------------------
VERS.                                     2.00 : CWLS LOG ASCII STANDARD - VERSION 2.00
WRAP.                                       NO : MULTIPLE LINES PER DEPTH STEP
VEND.                                  ENVERUS : VENDOR
TYPE.                          ESS - OPEN HOLE : ENVERUS ESSENTIAL CURVES – ACCESSIBLE THROUGH ENVERUS PRISM(TM)
DOC.                                  32305988 : ENVERUS HEADER RAW DOCUMENT ID
#___________________________________________________________________________________________________ 
~WELL INFORMATION 
# YiEbrulvYUtXh1D3opxUtnvhUVpPAvxlEBgV2kjbCTHvWrxGcz1+vOa1jEIuqGtoxi0rQ+ZQV9RU/rHAPCAAKQ== 
# MNEM.UNIT                                              DATA : DESCRIPTION OF MNEMONIC 
#-----.-----                    ----------------------------- : ----------------------------- 
CNTY.                                               CULBERSON : COUNTY 
STATE.                                                  TEXAS : STATE 
CNTRY.                                                    USA : COUNTRY 
API.                                             42-109-30915 : API (10 Digit) 
API_14.                                    42-109-30915-00-00 : API (14 Digits) 
API_14_std.                                 42-109-30915-0000 : API (14 Digits Standard) 
UWI.                                           42109309150000 : UNIQUE WELL ID 
WELL.                             VELMA CASEY ROUNSAVILLE A 1 : WELL NAME
STRT.FT                                                  82.0 : START DEPTH
STOP.FT                                               11225.0 : STOP DEPTH
STEP.FT                                                   0.5 : STEP BETWEEN DEPTHS
NULL.                                                 -999.25 : NULL VALUE
#___________________________________________________________________________________________________ 
~CURVE INFORMATION 
# MNEM.UNIT           : CURVE DESCRIPTION 
#-----.-----          : ----------------------------- 
 DEPT.FT               : MEASURED DEPTH 
 CALI.IN               : CALIPER (CAL - CAL) 
 GR.API                : GAMMA RAY (GR) 
 DT.US/FT              : SONIC DELTA TRANSIT TIME (DT) 
 NPHI.V/V              : NEUTRON POROSITY (NPHI) 
 RHOB.G/CC             : BULK DENSITY (RHOB) 
 #___________________________________________________________________________________________________ 
~A         DEPT           CALI             GR             DT           NPHI           RHOB
# ...
         9454.0          7.511        110.591         66.577        0.15199         2.6677
         9454.5          7.512        111.952         66.043        0.15269         2.6647
         9455.0          7.512        113.312         65.543        0.15339         2.6617
         9455.5          7.512        113.433         65.807        0.15409         2.6587
         9456.0          7.512        112.987         66.070        0.15479         2.6581
         9456.5          7.513        112.540         66.334        0.15549         2.6589
         9457.0          7.513        112.094         66.136        0.15619         2.6602
         9457.5          7.513        111.647         65.862        0.15643         2.6694
         9458.0          7.513        111.116         65.589        0.15555         2.6786
         9458.5          7.513        107.518         65.315        0.15467         2.6877
         9459.0          7.514        104.408         66.015        0.15379         2.6861
         9459.5          7.514        106.014         66.996        0.15291         2.6753
         9460.0          7.514        107.620         67.977        0.15204         2.6645
         9460.5          7.514        109.227         68.860        0.15116         2.6536
         9461.0          7.515        110.833         69.073        0.15562         2.6516
         9461.5          7.515        115.491         69.286        0.16350         2.6689
         9462.0          7.515        121.106         69.499        0.17139         2.6861
         9462.5          7.515        122.842         69.713        0.17927         2.6767
         9463.0          7.515        124.411         69.926        0.18574         2.6622
         9463.5          7.516        125.980         70.139        0.18404         2.6477
         9464.0          7.516        127.549         69.653        0.18233         2.6361
         9464.5          7.516        129.119         67.578        0.18063         2.6481
         9465.0          7.516        130.688         65.504        0.17893         2.6602
         9465.5          7.517        132.257         63.429        0.17723         2.6722
         9466.0          7.517        133.826         61.354        0.17553         2.6842
         9466.5          7.517        133.972         60.005        0.17377         2.6819
         9467.0          7.517        130.628         58.831        0.15615         2.6704
         9467.5          7.517        127.284         60.370        0.13854         2.6589
         9468.0          7.518        123.763         61.909        0.11352         2.6474
         9468.5          7.518        118.050         62.469        0.07250         2.6359
         9469.0          7.518        112.338         62.633        0.07102         2.6244
         9469.5          7.518        106.625         62.797        0.07974         2.6129
         9470.0          7.519         99.759         62.962        0.08846         2.6059
         9470.5          7.519         94.821         63.489        0.09718         2.6168
         9471.0          7.519         89.883         64.239        0.10590         2.6278
         9471.5          7.519         84.946         64.988        0.11462         2.6388
         9472.0          7.520         87.301         65.737        0.12334         2.6386
         9472.5          7.520         90.667         65.628        0.12489         2.6334
         9473.0          7.520         94.033         64.717        0.11913         2.6282
         9473.5          7.520         96.407         63.807        0.11337         2.6230
         9474.0          7.520         95.122         62.897        0.10761         2.6178
         9474.5          7.521         93.838         61.987        0.10237         2.6085
         9475.0          7.521         92.553         61.822        0.10568         2.5945
         9475.5          7.521         91.268         62.278        0.10899         2.5806
         9476.0          7.521         94.426         62.734        0.11230         2.5667
         9476.5          7.522         98.807         62.796        0.11561         2.5571
         9477.0          7.522        103.188         62.151        0.11542         2.5624
         9477.5          7.522        103.058         61.506        0.10482         2.5678
         9478.0          7.522        101.439         60.861        0.09422         2.5732
         9478.5          7.522         99.819         60.217        0.09067         2.5785
         9479.0          7.523         98.199         59.572        0.08807         2.5839
         9479.5          7.523         96.579         58.927        0.08547         2.5892
         9480.0          7.523         94.959         58.282        0.08287         2.5870
         9480.5          7.523         93.339         57.817        0.08027         2.5800
         9481.0          7.524         91.400         58.006        0.07767         2.5731
         9481.5          7.524         87.481         58.195        0.07507         2.5661
         9482.0          7.524         83.562         58.385        0.06620         2.5592
         9482.5          7.524         79.643         58.574        0.05561         2.5556
         9483.0          7.524         75.725         58.764        0.04502         2.5574
         9483.5          7.525         71.806         58.849        0.03443         2.5592
         9484.0          7.525         72.754         58.698        0.03568         2.5609
         9484.5          7.525         73.836         58.547        0.03707         2.5644
         9485.0          7.525         74.919         58.395        0.03847         2.5718
         9485.5          7.526         76.001         58.244        0.03986         2.5793
         9486.0          7.526         77.083         58.093        0.04246         2.5868
         9486.5          7.526         78.165         58.314        0.04538         2.5943
         9487.0          7.526         79.247         59.080        0.04831         2.6018
         9487.5          7.527         80.329         59.840        0.05123         2.5945
         9488.0          7.527         81.411         60.596        0.05415         2.5815
         9488.5          7.527         82.422         61.352        0.05708         2.5708
         9489.0          7.527         81.172         62.108        0.06000         2.5891
         9489.5          7.527         79.922         62.864        0.06813         2.6074
         9490.0          7.528         78.672         63.620        0.08624         2.6225
         9490.5          7.528         79.684         64.376        0.10435         2.6121
         9491.0          7.528         88.056         65.133        0.11620         2.6017
         9491.5          7.528         96.428         65.105        0.11084         2.5913
         9492.0          7.529        101.528         64.903        0.10548         2.5809
         9492.5          7.529         98.518         64.702        0.10012         2.5705
         9493.0          7.529         95.508         64.501        0.09476         2.5601
         9493.5          7.529         92.498         64.299        0.08940         2.5497
         9494.0          7.529         89.488         64.571        0.08750         2.5393
         9494.5          7.530         86.478         64.939        0.09281         2.5288
         9495.0          7.530         83.468         65.255        0.09812         2.5277
         9495.5          7.530         84.400         65.087        0.10343         2.5322
         9496.0          7.530         85.886         64.920        0.10874         2.5368
         9496.5          7.531         87.372         64.752        0.11746         2.5414
         9497.0          7.531         88.857         64.584        0.13065         2.5459
         9497.5          7.531         90.343         64.381        0.14384         2.5505
