###############################################
##         ENVERUS                           ##
##         ESS - Open Hole                   ##
##         PERMIAN / DELAWARE                ##
##         Nov 02 2023  V4.0                 ##
##         42-109-31383-00-00                ##
###############################################
## Copyright 2017-2023  ENVERUS.  All Rights Reserved. 
## Confidential - Property of ENVERUS, use governed by terms and 
## conditions found within the existing Information Services Subscription Agreement 
## (as may be amended, the “ISSA”) between Customer and ENVERUS. 
## 
~VERSION INFORMATION
# MNEM.UNIT                               DATA : DESCRIPTION OF MNEMONIC
#-----.-----     ----------------------------- : -----------------------------
VERS.                                     2.00 : CWLS LOG ASCII STANDARD - VERSION 2.00
WRAP.                                       NO : MULTIPLE LINES PER DEPTH STEP
VEND.                                  ENVERUS : VENDOR
TYPE.                          ESS - OPEN HOLE : ENVERUS ESSENTIAL CURVES – ACCESSIBLE THROUGH ENVERUS PRISM(TM)
DOC.                                  31887493 : ENVERUS HEADER RAW DOCUMENT ID
#___________________________________________________________________________________________________ 
~WELL INFORMATION 
# e8MMFGpko9nixUfuEkfb9P8cKS4olzuguLrtdgPIjARTX3oRymgI2EYtnk6GmA/F0PbYW2Z7xnLx5OgyGayifw== 
# MNEM.UNIT                                              DATA : DESCRIPTION OF MNEMONIC 
#-----.-----                    ----------------------------- : ----------------------------- 
CNTY.                                               CULBERSON : COUNTY 
STATE.                                                  TEXAS : STATE 
CNTRY.                                                    USA : COUNTRY 
API.                                             42-109-31383 : API (10 Digit) 
API_14.                                    42-109-31383-00-00 : API (14 Digits) 
API_14_std.                                 42-109-31383-0000 : API (14 Digits Standard) 
UWI.                                           42109313830000 : UNIQUE WELL ID 
WELL.                                          KIRK  T. A.  1 : WELL NAME
STRT.FT                                                  43.0 : START DEPTH
STOP.FT                                               16492.0 : STOP DEPTH
STEP.FT                                                   0.5 : STEP BETWEEN DEPTHS
NULL.                                                 -999.25 : NULL VALUE
COMP.                                             EXXON CORP. : COMPANY 
DATE.                                             05-AUG-1981 : LOG DATE
#___________________________________________________________________________________________________ 
~CURVE INFORMATION 
# MNEM.UNIT           : CURVE DESCRIPTION 
#-----.-----          : ----------------------------- 
 DEPT.FT               : MEASURED DEPTH 
 CALI.IN               : CALIPER (CAL - CAL) 
 GR.API                : GAMMA RAY (GR) 
 SP.MV                 : SPONTANEOUS POTENTIAL (SP) 
 DT.US/FT              : SONIC DELTA TRANSIT TIME (DT) 
 RESS.OHMM             : SHALLOW INDUCTION RESISTIVITY (ILS - ILS) 
 RESD.OHMM             : DEEP INDUCTION RESISTIVITY (ILD - ILD) 
 NPHI.V/V              : NEUTRON POROSITY (NPHI) 
 #___________________________________________________________________________________________________ 
~A         DEPT           CALI             GR             SP             DT           RESS           RESD           NPHI
# ...
         2254.0       -999.250          3.570        -38.949       -999.250         26.186         29.834       -0.01032
         2254.5       -999.250          5.032        -38.867       -999.250         26.159         29.788       -0.01017
         2255.0       -999.250          6.494        -38.785       -999.250         26.132         29.741       -0.01002
         2255.5       -999.250          7.134        -38.704       -999.250         26.106         29.695       -0.00972
         2256.0       -999.250          7.466        -38.622       -999.250         26.079         29.648       -0.00923
         2256.5       -999.250          6.889        -38.540       -999.250         26.052         29.601       -0.00882
         2257.0       -999.250          5.052        -38.459       -999.250         26.025         29.555       -0.00886
         2257.5       -999.250          4.957        -38.377       -999.250         25.998         29.508       -0.00890
         2258.0       -999.250          5.055        -38.295       -999.250         25.971         29.535       -0.00895
         2258.5       -999.250          6.692        -38.214       -999.250         25.944         29.606       -0.00899
         2259.0       -999.250          7.641        -38.132       -999.250         25.917         29.678       -0.00903
         2259.5       -999.250          7.162        -38.050       -999.250         25.891         29.749       -0.00907
         2260.0       -999.250          6.682        -37.969       -999.250         25.864         29.821       -0.00931
         2260.5       -999.250          6.203        -37.887       -999.250         25.837         29.892       -0.00959
         2261.0       -999.250          6.070        -37.805       -999.250         25.810         29.963       -0.00983
         2261.5       -999.250          6.262        -37.724       -999.250         25.783         30.035       -0.01001
         2262.0       -999.250          6.453        -37.642       -999.250         25.756         30.106       -0.01018
         2262.5       -999.250          5.712        -37.562       -999.250         25.729         30.118       -0.01035
         2263.0       -999.250          5.227        -37.497       -999.250         25.702         30.053       -0.01053
         2263.5       -999.250          5.442        -37.431       -999.250         25.675         29.988       -0.01060
         2264.0       -999.250          5.645        -37.366       -999.250         25.649         29.923       -0.01064
         2264.5       -999.250          4.483        -37.300       -999.250         25.622         29.858       -0.01062
         2265.0       -999.250          3.738        -37.235       -999.250         25.603         29.793       -0.01034
         2265.5       -999.250          4.792        -37.169       -999.250         25.628         29.728       -0.01006
         2266.0       -999.250          5.846        -37.104       -999.250         25.654         29.663       -0.00977
         2266.5       -999.250          4.755        -37.000       -999.250         25.680         29.598       -0.00949
         2267.0       -999.250          3.885        -36.890       -999.250         25.706         29.533       -0.00920
         2267.5       -999.250          3.910        -36.780       -999.250         25.732         29.468       -0.00892
         2268.0       -999.250          4.496        -36.669       -999.250         25.758         29.403       -0.00863
         2268.5       -999.250          5.476        -36.559       -999.250         25.784         29.338       -0.00848
         2269.0       -999.250          6.365        -36.449       -999.250         25.810         29.273       -0.00837
         2269.5       -999.250          6.125        -36.338       -999.250         25.835         29.208       -0.00826
         2270.0       -999.250          5.885        -36.228       -999.250         25.861         29.143       -0.00815
         2270.5       -999.250          5.645        -36.118       -999.250         25.887         29.078       -0.00823
         2271.0       -999.250          5.712        -36.007       -999.250         25.913         29.013       -0.00838
         2271.5       -999.250          6.146        -35.897       -999.250         25.939         28.948       -0.00852
         2272.0       -999.250          6.581        -35.749       -999.250         25.965         28.883       -0.00867
         2272.5       -999.250          7.016        -35.599       -999.250         25.991         28.818       -0.00882
         2273.0       -999.250          7.451        -35.450       -999.250         26.017         28.753       -0.00902
         2273.5       -999.250          6.977        -35.300       -999.250         26.043         28.688       -0.01006
         2274.0       -999.250          6.231        -35.197       -999.250         26.068         28.623       -0.00938
         2274.5       -999.250          6.358        -35.415       -999.250         26.094         28.558       -0.00870
         2275.0       -999.250          7.089        -35.632       -999.250         26.120         28.493       -0.00802
         2275.5       -999.250          7.821        -35.850       -999.250         26.146         28.428       -0.00734
         2276.0       -999.250          8.176        -36.067       -999.250         26.172         28.363       -0.00666
         2276.5       -999.250          8.201        -36.285       -999.250         26.198         28.298       -0.00598
         2277.0       -999.250          8.226        -36.502       -999.250         26.224         28.233       -0.00529
         2277.5       -999.250          8.251        -36.720       -999.250         26.250         28.168       -0.00461
         2278.0       -999.250          7.907        -36.937       -999.250         26.275         28.103       -0.00393
         2278.5       -999.250          7.270        -37.138       -999.250         26.301         28.038       -0.00325
         2279.0       -999.250          6.634        -36.978       -999.250         26.327         28.081       -0.00312
         2279.5       -999.250          6.431        -36.818       -999.250         26.353         28.124       -0.00418
         2280.0       -999.250          6.428        -36.659       -999.250         26.379         28.167       -0.00524
         2280.5       -999.250          5.509        -36.499       -999.250         26.416         28.210       -0.00630
         2281.0       -999.250          4.591        -36.339       -999.250         26.472         28.253       -0.00736
         2281.5       -999.250          3.969        -36.179       -999.250         26.529         28.297       -0.00841
         2282.0       -999.250          3.720        -36.020       -999.250         26.585         28.340       -0.00947
         2282.5       -999.250          4.962        -35.860       -999.250         26.642         28.383       -0.00962
         2283.0       -999.250          6.142        -35.700       -999.250         26.698         28.426       -0.00951
         2283.5       -999.250          6.421        -35.707       -999.250         26.755         28.469       -0.00941
         2284.0       -999.250          6.699        -35.718       -999.250         26.811         28.512       -0.00931
         2284.5       -999.250          6.978        -35.728       -999.250         26.868         28.555       -0.00920
         2285.0       -999.250          6.857        -35.739       -999.250         26.925         28.598       -0.00910
         2285.5       -999.250          5.695        -35.750       -999.250         26.981         28.641       -0.00900
         2286.0       -999.250          4.533        -35.761       -999.250         27.038         28.651       -0.00889
         2286.5       -999.250          3.371        -35.772       -999.250         27.094         28.657       -0.00879
         2287.0       -999.250          3.633        -35.783       -999.250         27.151         28.663       -0.00868
