~Version Information
 VERS.                  2.0:   CWLS log ASCII Standard -VERSION 2.0
 WRAP.                   NO:   One line per depth step
~Well Information Block
#MNEM.UNIT     VALUE/NAME     DESCRIPTION
#---------     -----------    ---------------------------
 STRT.F              8432.0000: START DEPTH
 STOP.F             13842.0000: STOP DEPTH
 STEP.F                 0.5000: STEP DEPTH
 NULL.                 -999.25: NULL VALUE
 LOC .     100' FNL & 990' FEL:  LOCATION
 FL6 .       API  42-109-33163:  LOCATIONLINE6
 FL4 .           ABSTRACT 1006:  LOCATIONLINE4
 FL3 .        T&P RR CO SURVEY:  LOCATIONLINE3
 FL2 .     SECTION 36, BLOCK 59 T2:  LOCATIONLINE2
 FL1 .     100' FNL & 990' FEL:  LOCATIONLINE1
 DMF .                      KB:  DRILL MEAS FROM
 PDAT.                      GL:  PERMANENT DATUM
 CNTY.               CULBERSON:  COUNTY NAME
 FLD .     FORD, WEST (WOLFCAMP):  FIELD NAME
 WELL.         SCOTT FEE 36 2H:  WELL NAME
 COMP.     CAPITAN ENERGY INC.:  COMPANY
 DATE.             11-Oct-2017:  DATE
 SVCO.             Halliburton:  SERVICECONAME
 PROV.                   TEXAS:  PROVINCE
 STAT.                   TEXAS:  STATE NAME
 CTRY.           UNITED STATES:  COUNTRY NAME
 HIDE.                        :  WELLNAMEOPERAT
 BASI.                 PERMIAN:  BASIN
 UWI .            42-109-33163Lat:  UNIQUE WELL IDENTIFIER
 API .            42-109-33163Lat:  API NUMBER
 RANG.                     N/A:  RANGE
 TOWN.                     N/A:  TOWNSHIP
 SECT.                     N/A:  SECTION
 SON .               904352259:  JOB NUMBER
 SRVC.             Halliburton:  SERVICE COMPANY
 LMF .                      KB:  LOG MEASURED FROM
 EGL .ft             3174.0000:  GROUND ELEVATION
 BAP .ft                0.0000:  GL ELEV ONSHORE
 GVFD.g                 1.0000:  GRAVITY FIELD
 EKB .ft             3200.0000:  KB ELEVATION
 EDF .ft             3199.0000:  DF ELEVATION
~Curve Information Block
#MNEM.UNIT                 API CODE     Curve Description
#---------               -----------    ---------------------------
 DEPT.F                 00 000 000 000:  Depth
 CCL .V                 00 000 000 000:  Casing Collar Locator
 NPHI_OH.pu             00 000 000 000:  NPHI_OH
 NPHI_CHI.pu            00 000 000 000:  NPHI_CHI
 GR_CHI.api             00 000 000 000:  GR_CHI
 GR_OH.api              00 000 000 000:  GR_OH
 RHOB_OH.g/cc           00 000 000 000:  RHOB_OH
 RHOB_CHI.g/cc          00 000 000 000:  RHOB_CHI
 PE_CHI.b/e             00 000 000 000:  PE_CHI
 PE_OH.b/e              00 000 000 000:  PE_OH
 MSFL_OH.ohmm           00 000 000 000:  MSFL_OH
 MSFL_CHI.ohmm          00 000 000 000:  MSFL_CHI
 LLS_OH.ohmm            00 000 000 000:  LLS_OH
 LLS_CHI.ohmm           00 000 000 000:  LLS_CHI
 LLD_OH.ohmm            00 000 000 000:  LLD_OH
 LLD_CHI.ohmm           00 000 000 000:  LLD_CHI
 DTC_OH.uspf            00 000 000 000:  DTC_OH
 DTC_CHI.uspf           00 000 000 000:  DTC_CHI
 SPHI_CHI.pu            00 000 000 000:  SPHI_CHI
 SGF .cu                00 000 000 000:  Formation Sigma
 CRNF.NONE              00 000 000 000:  CM GrsCaptRatio
 RIN .NONE              00 000 000 000:  CM GrsInelRatio
~A    DEPT      CCL   NPHI_OH NPHI_CHI  GR_CHI   GR_OH   RHOB_OH RHOB_CHI PE_CHI  PE_OH   MSFL_OH  MSFL_CHI  LLS_OH   LLS_CHI   LLD_OH  LLD_CHI  DTC_OH  DTC_CHI SPHI_CHI   SGF    CRNF   RIN   
# ...
   10238.0000  0.0000 -999.25  15.7676 138.5246  -999.25 -999.25   2.4978 3.0518 -999.25   -999.25  35.1693   -999.25  41.8656  -999.25  42.2695 -999.25 72.1163  17.3100 24.7073 0.9676 1.0302
   10238.5000  0.0000 -999.25  15.6374 134.8040  -999.25 -999.25   2.4994 3.0766 -999.25   -999.25  35.5958   -999.25  42.4441  -999.25  42.8576 -999.25 71.8113  17.1900 24.4407 0.9616 1.0316
   10239.0000  0.0000 -999.25  15.6012 135.4388  -999.25 -999.25   2.4995 3.0773 -999.25   -999.25  35.9705   -999.25  42.9532  -999.25  43.3751 -999.25 71.7432  17.0900 24.3576 0.9547 1.0307
   10239.5000  0.0000 -999.25  15.5969 137.4355  -999.25 -999.25   2.4993 3.0768 -999.25   -999.25  36.7822   -999.25  44.0586  -999.25  44.4989 -999.25 71.7617  17.0800 24.1837 0.9513 1.0288
   10240.0000  0.0000 -999.25  15.4593 133.5770  -999.25 -999.25   2.5019 3.1017 -999.25   -999.25  37.0390   -999.25  44.4089  -999.25  44.8551 -999.25 71.4413  16.9300 23.9242 0.9499 1.0249
   10240.5000  0.0000 -999.25  15.3750 132.8413  -999.25 -999.25   2.5033 3.1126 -999.25   -999.25  37.5821   -999.25  45.1511  -999.25  45.6098 -999.25 71.2621  16.7700 23.6989 0.9545 1.0213
   10241.0000  0.0000 -999.25  15.2551 126.1940  -999.25 -999.25   2.5093 3.1664 -999.25   -999.25  38.4074   -999.25  46.2817  -999.25  46.7597 -999.25 70.8660  16.5400 23.3046 0.9548 1.0194
   10241.5000  0.0000 -999.25  15.2731 127.9941  -999.25 -999.25   2.5084 3.1671 -999.25   -999.25  39.1386   -999.25  47.2863  -999.25  47.7815 -999.25 70.9370  16.4900 23.1475 0.9500 1.0195
   10242.0000  0.0000 -999.25  15.3562 129.2836  -999.25 -999.25   2.5076 3.1803 -999.25   -999.25  40.4520   -999.25  49.0971  -999.25  49.6238 -999.25 71.1095  16.5900 23.0456 0.9420 1.0233
   10242.5000  0.0000 -999.25  15.4677 135.1802  -999.25 -999.25   2.5031 3.1492 -999.25   -999.25  40.9874   -999.25  49.8378  -999.25  50.3775 -999.25 71.4390  16.7900 23.0448 0.9369 1.0282
   10243.0000  0.0000 -999.25  15.3961 131.8572  -999.25 -999.25   2.5056 3.1735 -999.25   -999.25  41.3386   -999.25  50.3242  -999.25  50.8724 -999.25 71.1911  16.7400 23.1610 0.9356 1.0296
   10243.5000  0.0000 -999.25  15.3162 131.2971  -999.25 -999.25   2.5067 3.1769 -999.25   -999.25  41.3413   -999.25  50.3280  -999.25  50.8764 -999.25 71.0105  16.5900 23.1842 0.9347 1.0276
   10244.0000  0.0000 -999.25  15.3147 136.4935  -999.25 -999.25   2.5034 3.1383 -999.25   -999.25  40.9412   -999.25  49.7737  -999.25  50.3123 -999.25 71.1521  16.6300 23.2039 0.9251 1.0232
   10244.5000  0.0000 -999.25  15.1780 128.8914  -999.25 -999.25   2.5097 3.1873 -999.25   -999.25  40.8617   -999.25  49.6638  -999.25  50.2004 -999.25 70.7302  16.4500 23.1536 0.9167 1.0176
   10245.0000  0.0000 -999.25  15.1441 128.5639  -999.25 -999.25   2.5105 3.1893 -999.25   -999.25  40.7944   -999.25  49.5706  -999.25  50.1056 -999.25 70.6790  16.3300 23.0559 0.9114 1.0137
   10245.5000  0.0000 -999.25  15.0034 125.6068  -999.25 -999.25   2.5145 3.2107 -999.25   -999.25  40.9665   -999.25  49.8088  -999.25  50.3480 -999.25 70.3413  16.1500 22.8262 0.9114 1.0077
   10246.0000  0.0000 -999.25  14.9042 125.9470  -999.25 -999.25   2.5157 3.2131 -999.25   -999.25  41.3029   -999.25  50.2748  -999.25  50.8222 -999.25 70.1763  16.0000 22.5283 0.9103 1.0004
   10246.5000  0.0000 -999.25  14.7052 118.7746  -999.25 -999.25   2.5250 3.2844 -999.25   -999.25  42.1048   -999.25  51.3875  -999.25  51.9547 -999.25 69.7143  15.7400 22.0191 0.8984 0.9905
   10247.0000  0.0000 -999.25  14.7755 127.5011  -999.25 -999.25   2.5183 3.2458 -999.25   -999.25  43.1679   -999.25  52.8675  -999.25  53.4612 -999.25 70.0074  15.7800 21.4637 0.8825 0.9802
   10247.5000  0.0000 -999.25  14.6985 125.6544  -999.25 -999.25   2.5226 3.3063 -999.25   -999.25  45.0477   -999.25  55.4965  -999.25  56.1380 -999.25 69.8520  15.7700 20.7660 0.8687 0.9713
   10248.0000  0.0000 -999.25  14.2049 110.2179  -999.25 -999.25   2.5411 3.4670 -999.25   -999.25  47.1915   -999.25  58.5133  -999.25  59.2107 -999.25 69.0455  15.3400 20.1838 0.8634 0.9649
   10248.5000  0.0000 -999.25  13.8647 106.0888  -999.25 -999.25   2.5475 3.5390 -999.25   -999.25  50.0296   -999.25  62.5365  -999.25  63.3101 -999.25 68.6464  14.9700 19.6248 0.8628 0.9618
   10249.0000  0.0000 -999.25  13.7807 107.9381  -999.25 -999.25   2.5478 3.5536 -999.25   -999.25  52.5282   -999.25  66.1047  -999.25  66.9472 -999.25 68.5344  14.8300 19.1946 0.8651 0.9591
   10249.5000  0.0000 -999.25  13.5520 105.3415  -999.25 -999.25   2.5517 3.5985 -999.25   -999.25  55.0445   -999.25  69.7221  -999.25  70.6360 -999.25 68.3655  14.7200 19.0919 0.8638 0.9557
   10250.0000  0.0000 -999.25  13.6422 108.5530  -999.25 -999.25   2.5503 3.5982 -999.25   -999.25  57.0629   -999.25  72.6402  -999.25  73.6126 -999.25 68.4848  14.7400 19.0735 0.8635 0.9517
   10250.5000  0.0000 -999.25  13.0799  98.5661  -999.25 -999.25   2.5591 3.6575 -999.25   -999.25  57.5555   -999.25  73.3547  -999.25  74.3416 -999.25 68.1120  14.5900 19.1421 0.8627 0.9482
   10251.0000  0.0000 -999.25  12.7389  93.9386  -999.25 -999.25   2.5634 3.6718 -999.25   -999.25  57.6443   -999.25  73.4835  -999.25  74.4729 -999.25 67.8914  14.4000 19.1473 0.8614 0.9445
   10251.5000  0.0000 -999.25  12.7370  93.8873  -999.25 -999.25   2.5634 3.6669 -999.25   -999.25  57.3142   -999.25  73.0046  -999.25  73.9844 -999.25 67.8806  14.3500 19.0921 0.8599 0.9441
   10252.0000  0.0000 -999.25  12.7124  93.6398  -999.25 -999.25   2.5636 3.6663 -999.25   -999.25  57.2892   -999.25  72.9684  -999.25  73.9474 -999.25 67.8585  14.3300 18.9881 0.8572 0.9439
   10252.5000  0.0000 -999.25  12.9682  97.9637  -999.25 -999.25   2.5603 3.6427 -999.25   -999.25  57.5546   -999.25  73.3533  -999.25  74.3402 -999.25 68.0195  14.4100 18.8117 0.8584 0.9433
   10253.0000  0.0000 -999.25  13.1578 101.3033  -999.25 -999.25   2.5576 3.6316 -999.25   -999.25  58.0578   -999.25  74.0840  -999.25  75.0857 -999.25 68.1415  14.5000 18.6669 0.8598 0.9446
   10253.5000  0.0000 -999.25  12.7748  95.5361  -999.25 -999.25   2.5623 3.6729 -999.25   -999.25  58.9214   -999.25  75.3401  -999.25  76.3673 -999.25 67.8867  14.4000 18.4896 0.8613 0.9464
   10254.0000  0.0000 -999.25  12.2967  88.5152  -999.25 -999.25   2.5681 3.7223 -999.25   -999.25  59.6400   -999.25  76.3870  -999.25  77.4357 -999.25 67.6050  14.2100 18.4603 0.8617 0.9479
   10254.5000  0.0000 -999.25  12.8711  96.9102  -999.25 -999.25   2.5614 3.6927 -999.25   -999.25  60.5317   -999.25  77.6888  -999.25  78.7643 -999.25 68.0025  14.3400 18.4911 0.8542 0.9486
   10255.0000  0.0000 -999.25  12.9562  98.6163  -999.25 -999.25   2.5606 3.6763 -999.25   -999.25  60.6803   -999.25  77.9060  -999.25  78.9860 -999.25 68.0849  14.4700 18.5270 0.8469 0.9448
   10255.5000  0.0000 -999.25  12.5912  93.5997  -999.25 -999.25   2.5651 3.6864 -999.25   -999.25  60.5241   -999.25  77.6777  -999.25  78.7530 -999.25 67.8704  14.3800 18.4832 0.8376 0.9402
   10256.0000  0.0000 -999.25  12.6139  95.6268  -999.25 -999.25   2.5642 3.6447 -999.25   -999.25  60.3425   -999.25  77.4124  -999.25  78.4821 -999.25 67.8283  14.3100 18.2560 0.8329 0.9343
   10256.5000  0.0000 -999.25  11.9586  87.9911  -999.25 -999.25   2.5712 3.6541 -999.25   -999.25  60.5641   -999.25  77.7362  -999.25  78.8127 -999.25 67.4222  14.1000 17.9640 0.8274 0.9294
   10257.0000  0.0000 -999.25  10.5766  72.6773  -999.25 -999.25   2.5858 3.6938 -999.25   -999.25  61.7270   -999.25  79.4379  -999.25  80.5496 -999.25 66.6754  13.6500 17.7006 0.8192 0.9251
   10257.5000  0.0000 -999.25  11.3490  83.5762  -999.25 -999.25   2.5768 3.6417 -999.25   -999.25  63.2543   -999.25  81.6797  -999.25  82.8382 -999.25 67.0885  13.6900 17.4474 0.8166 0.9215
   10258.0000  0.0000 -999.25  11.5630  87.6901  -999.25 -999.25   2.5740 3.6181 -999.25   -999.25  64.6645   -999.25  83.7562  -999.25  84.9585 -999.25 67.1872  13.8300 17.2542 0.8123 0.9193
   10258.5000  0.0000 -999.25  10.9535  81.6018  -999.25 -999.25   2.5800 3.6286 -999.25   -999.25  66.0497   -999.25  85.8020  -999.25  87.0477 -999.25 66.8739  13.7000 17.0798 0.8086 0.9172
