# Exported from Transform Software 5.2.0 on 25-May-2018 by user brian.umlang
# DI Transform - A Product of Drillinginfo, Inc. - www.drillinginfo.com
#
~VERSION INFORMATION
 VERS.        2.0 : LAS ASCII STANDARD - VERSION 2.0
 WRAP.         NO : ONE LINE PER DEPTH STEP

~WELL INFORMATION
#MNEM.UNIT       DATA TYPE       INFORMATION
#---------       ---------       -----------
# Enverus has updated the API/UWI.  The previous names are renamed to  PREV_API / PREV_UWI
API.         42-109-32508-00-00 : API (14 Digits with Dashes)
UWI.             42109325080000 : UNIQUE WELL ID

 STRT.ft                1970 : Start Depth
 STOP.ft                8730 : Stop Depth
 STEP.ft                 0.5 : Step Length
 NULL.               -999.25 : Null Value
 COMP.                       : Company
 WELL.  42109325080000_API14 : Well Name
 FLD.                        : Field Name
 LOC.                        : Well Location
 CNTY.                       : County
 STAT.                       : State or Province
 CTRY.                       : Country
 SRVC.                       : Service Company
 DATE.                       : Date
PREV_APII.         42109325080000 : Well Identifier

~CURVE INFORMATION
#MNEM.UNIT       API CODE       CURVE DESCRIPTION
#---------       --------       -----------------
 DEPT.ft        : <Measured Depth>
 CAL.in         : Caliper
 DT.us/ft       : Pressure Wave Sonic
 GR.gAPI        : Gamma Ray

~PARAMETER INFORMATION
#MNEM.UNIT       VALUE       DESCRIPTION
#---------       -----       -----------
 EKB.ft      3552 : Elevation above MSL

~A      DEPT         CAL          DT          GR
# ...
        5988     14.5026     87.7071    107.6625
      5988.5     14.5026     87.1795    112.7403
        5989     14.5026     87.3246     114.722
      5989.5     14.5026     87.9425    127.8937
        5990     14.5026     89.2085    142.1577
      5990.5     14.5026     90.0184    158.3984
        5991     14.5026       90.39    150.5817
      5991.5     14.5026     88.4846    131.4342
        5992     14.5026     85.3285    119.9523
      5992.5     14.5026     83.2643    107.1325
        5993     14.5026     81.9149    108.5662
      5993.5     14.5026     80.9171    120.2297
        5994     14.5026     80.0362    112.2905
      5994.5     14.5026     76.2185     74.1033
        5995     14.5026     70.4951      65.819
      5995.5     14.5026     64.8151     49.0334
        5996     14.5026     60.5642     40.8019
      5996.5     14.5026      58.683     27.6411
        5997     14.5026     57.8262     32.8728
      5997.5     14.5026      58.655     57.4096
        5998     14.5026     65.7431     68.6809
      5998.5     14.5026     72.6966    105.2475
        5999     14.5026     78.8121    122.9571
      5999.5     14.5026     77.6314    133.2102
        6000     14.5026     76.5418    115.1255
      6000.5     14.5026     75.5753    101.3303
        6001     14.5026     75.3216    108.2058
      6001.5     14.5026     86.3334    127.0797
        6002     14.5026     88.8544    135.3116
      6002.5     14.5026     87.2097    132.5058
        6003     14.5026     83.0668    115.3165
      6003.5     14.5026     79.7072     85.9344
        6004     14.5026     77.5863     82.4581
      6004.5     14.5026     75.5146      95.869
        6005     14.5026     73.4724    102.6156
      6005.5     14.5026     75.3665    107.8476
        6006     14.5026     79.7831    111.3639
      6006.5     14.5026     85.8355    125.6533
        6007     14.5026     89.2424    142.5042
      6007.5     14.5026     86.6953    153.7309
        6008     14.5026     82.3075    144.8431
      6008.5     14.5026      77.195     92.1349
        6009     14.5026     67.7123     72.3285
      6009.5     14.5026      61.062     41.2265
        6010     14.5026     56.7532     33.5435
      6010.5     14.5026     52.7746     21.9227
        6011     14.5026     58.2714     18.3867
      6011.5     14.5026     60.5017     16.4062
        6012     14.5026     61.3241     19.8023
      6012.5     14.5026     61.9573      30.542
        6013     14.5026     63.0164     44.9192
      6013.5     14.5026     66.5784     74.9635
        6014     14.5026     71.2615     86.0817
      6014.5     14.5026      76.723    137.3193
        6015     14.5026     84.0889    151.1532
      6015.5     14.5026     85.2067    156.1489
        6016     14.5026     84.1436    154.9482
      6016.5     14.5026     83.6022    133.2694
        6017     14.5026     83.1084     112.011
      6017.5     14.5026     82.3457    103.2988
        6018     14.5026     81.5096    128.7453
      6018.5     14.5026      80.441    132.0842
        6019     14.5026     78.3609    126.2181
      6019.5     14.5026     77.8475    140.9619
        6020     14.5026      78.921    150.8016
      6020.5     14.5026     79.2398    151.6465
        6021     14.5026     79.5667     128.503
      6021.5     14.5026     83.1647    122.6127
        6022     14.5026     84.7368    122.8933
      6022.5     14.5026     83.6686    110.5256
        6023     14.5026     80.9874     95.0491
      6023.5     14.5026     80.0813    103.1992
        6024     14.5026     80.5848    116.1596
      6024.5     14.5026     79.9723    111.6404
        6025     14.5026     79.1068     92.3002
      6025.5     14.5026     70.3502     63.3664
        6026     14.5026     64.3743     48.6328
      6026.5     14.5026     58.8662     25.3045
        6027     14.5026     58.3133     14.7102
      6027.5     14.5026     58.6894     16.9195
        6028     14.5024      60.121     24.6412
      6028.5      14.502     66.6387     47.7117
        6029     14.5016     72.9892     83.9341
      6029.5     14.5012     53.0977    112.1271
        6030     14.5008     71.1259    113.2749
      6030.5     14.5004     90.5788    116.5982
        6031        14.5     90.6433    126.2786
      6031.5     14.4996      89.635    138.1063
        6032     14.4992     87.0056    148.8281
      6032.5     14.4988     86.3701    138.0338
        6033     14.4984     85.9649    114.1579
      6033.5      14.498     87.0642    108.5938
        6034     14.4976     86.0188    107.3955
      6034.5     14.4972     80.0061     94.0316
        6035     14.4968     78.5587     92.4173
      6035.5     14.4964     79.9871    101.5309
        6036      14.496     83.0007     110.913
      6036.5     14.4956     84.8489    121.1273
        6037     14.4952     86.5369    132.0345
      6037.5     14.4948     87.2259    142.6424
        6038     14.4944     87.5439    143.1641
      6038.5      14.494     87.0039    134.9125
        6039     14.4936     84.7531    130.7879
      6039.5     14.4932     83.3918     137.184
        6040     14.4928     83.3333    141.2863
      6040.5     14.4924     83.1926    140.5063
        6041      14.492     82.0889    129.8568
      6041.5     14.4916     79.5238    116.4904
        6042     14.4912     76.8633    106.1582
      6042.5     14.4908     73.6598     89.6846
        6043     14.4904     72.6588     84.6703
      6043.5       14.49     71.8091     94.8306
        6044     14.4896     71.3388     94.3525
      6044.5     14.4892     71.1111     65.2011
        6045     14.4888     71.4843     66.8901
      6045.5     14.4884     72.3977     73.9485
        6046      14.488     72.3977     74.9783
      6046.5     14.4876     72.3392     70.9936
        6047     14.4872     71.5183     72.6019
      6047.5     14.4868     71.7018     60.0292
        6048     14.4864     72.8166     49.0469
      6048.5      14.486     73.3767     53.6794
        6049     14.4856      73.258      71.442
      6049.5     14.4852     72.1811     83.7046
        6050     14.4848      70.572     84.9228
      6050.5     14.4844     68.5053     63.3898
        6051      14.484      66.887     56.6928
      6051.5     14.4836     66.0819     58.1643
        6052     14.4832      67.063     66.3845
      6052.5     14.4828     68.1659     71.7331
        6053     14.4824     69.0521     72.3837
      6053.5      14.482     69.8773     67.2208
        6054     14.4816     70.1722     67.1821
      6054.5     14.4812      70.409     76.3383
        6055     14.4808     70.6441     78.9035
      6055.5     14.4804     71.2342     78.1885
        6056       14.48     72.3032     72.8406
      6056.5     14.4796     70.6073     61.3131
        6057     14.4792     67.5166     43.0803
      6057.5     14.4788     62.8922     27.4561
        6058     14.4784     59.8095     23.4375
      6058.5      14.478     57.5742     23.4061
        6059     14.4776     57.0548     21.6804
      6059.5     14.4772     57.2522     15.7808
        6060     14.4768     57.7727     22.6999
      6060.5     14.4764          58     26.0631
        6061      14.476     55.9924     23.3857
      6061.5     14.4756     55.3634     12.6394
        6062     14.4752     55.1867     11.5834
      6062.5     14.4748     55.0101     11.1969
        6063     14.4744     53.9943     17.5237
      6063.5      14.474     54.3491     40.1596
        6064     14.4736      56.742     77.9455
      6064.5     14.4732     75.0849    102.6194
        6065     14.4728     84.8305    134.8877
      6065.5     14.4724     86.1922    140.8485
        6066      14.472     83.6565    123.7354
      6066.5     14.4716     81.0021     88.8294
        6067     14.4712     78.1229     83.9634
      6067.5     14.4708      75.772    103.6018
        6068     14.4704     80.9683    132.4926
      6068.5       14.47     85.9655    144.5173
        6069     14.4696      86.684     151.875
      6069.5     14.4692     84.3293    134.3934
