~VERSION INFORMATION
VERS. 2.0 : CWLS Log ASCII Standard - Version 2.0
WRAP. NO : One line per depth step
#--------------------------------------------------#
#----------------DRILLING INFO, INC.---------------#
#---------------WWW.DRILLINGINFO.COM---------------#
#------------------COPYRIGHT 2015------------------#
#--------------------------------------------------#
#THIS FILE MAY BE USED ONLY IN ACCORDANCE WITH A CURRENT SUBSCRIPTION AGREEMENT BETWEEN
#THE USER AND DRILLING INFO, INC. NO PART OF THIS FILE MAY BE REPRODUCED, USED, COPIED,
#MODIFIED, PROPAGATED, OR DISTRIBUTED EXCEPT IN ACCORDANCE WITH THE SUBSCRIPTION
#AGREEMENT. UNAUTHORIZED USE OR DISTRIBUTION OF ALL OR ANY PART OF THIS FILE MAY VIOLATE
#COPYRIGHT, TRADEMARK, AND/OR OTHER LAWS AND IS SUBJECT TO CIVIL AS WELL AS CRIMINAL
#SANCTIONS.
#--------------------------------------------------#
#THIS FILE IS PROVIDED "AS-IS" AND ALL WARRANTIES ARE EXPRESSLY DISCLAIMED, WHETHER
#EXPRESS, ORAL, IMPLIED, STATUTORY OR OTHERWISE, INCLUDING ANY IMPLIED WARRANTY OF FITNESS
#FOR A PARTICULAR PURPOSE, MERCHANTABILITY, TITLE OR NON-INFRINGEMENT, AND ANY WARRANTIES
#ARISING BY VIRTUE OF CUSTOM OF TRADE OR COURSE OF DEALING.  FURTHER, DRILLING INFO,
#INC. AND ITS LICENSORS DO NOT REPRESENT OR WARRANT THAT THIS FILE WILL MEET USER'S
#REQUIREMENTS OR ARE SUITABLE FOR USER'S NEEDS OR THAT THE DATA OR RESULTS PROVIDED IN
#CONJUNCTION THEREWITH ARE CORRECT, ACCURATE, TIMELY OR RELIABLE. THESE DISCLAIMERS SHALL
#APPLY REGARDLESS OF ANY FAILURE OF ESSENTIAL PURPOSE OF ANY LIMITED REMEDY.  SOME
#JURISDICTIONS DO NOT ALLOW THE EXCLUSION OF CERTAIN WARRANTIES SO SOME OF THE ABOVE
#EXCLUSIONS MAY NOT APPLY. IN NO EVENT SHALL DRILLING INFO, INC. OR ANY OF ITS AFFILIATES
#BE LIABLE UNDER ANY LEGAL THEORY, WHETHER IN TORT (INCLUDING WITHOUT LIMITATION
#NEGLIGENCE), CONTRACT, STRICT LIABILITY, STATUTORY OR OTHERWISE, FOR ANY SPECIAL,
#INCIDENTAL, CONSEQUENTIAL, EXEMPLARY, PUNITIVE OR INDIRECT DAMAGE OF ANY KIND, INCLUDING
#WITHOUT LIMITATION LOSS OF REVENUE, PROFITS, GOODWILL, USE, AND/OR DATA OR THE COST OF
#PROCUREMENT OF SUBSTITUTE GOODS OR SERVICES, EVEN IF APPRISED OF THE POSSIBILITY OF SUCH
#DAMAGES IN ADVANCE.
#--------------------------------------------------#
~WELL INFORMATION
#MNEMONIC     .UNIT              VALUE :DESCRIPTION
#--------------------------------------------------#
STRT       .ft                52.00000 :START DEPTH
STOP       .ft                8797.00000 :STOP DEPTH
STEP       .ft                0.50000 :STEP
NULL       .                -999.25000 :NULL VALUE
COMP       .                 :COMPANY
WELL       .                 :WELL
FLD       .                 :FIELD
LOC       .                 :LOCATION
CNTY       .                 :COUNTY
STAT       .                 :STATE
CTRY       .                 :COUNTRY
SRVC       .                 :SERVICE COMPANY
DATE       .                 :DATE
API       .                42109700290000 :API NUMBER
~CURVE INFORMATION
#MNEMONIC     .UNIT      API CODE :CURVE DESCRIPTION
#--------------------------------------------------#
DEPTH       .ft                      :Measured Depth
DT       .us/ft        UNKNOWN   :DT
GR       .gAPI        UNKNOWN   :GR
ILD       .ohmm        UNKNOWN   :ILD
ILS       .ohmm        UNKNOWN   :ILS
SP       .mV        UNKNOWN   :SP
~A    DEPTH    DT    GR    ILD    ILS    SP
# ...
5314.50000    72.50280    90.76499    94.11626    113.56917    -54.88036
5315.00000    72.76642    91.49686    93.37433    109.74820    -54.94810
5315.50000    72.74402    99.45380    91.54209    105.92724    -55.01585
5316.00000    72.38213    105.78910    84.91192    102.10627    -55.08360
5316.50000    72.02024    110.39963    78.28176    99.82853    -55.15135
5317.00000    71.65836    109.10028    70.34676    96.58490    -55.21909
5317.50000    71.29647    105.86110    61.06463    90.39025    -55.28684
5318.00000    71.15093    102.62191    51.78250    84.19560    -55.35459
5318.50000    71.02220    101.63670    46.76529    78.00095    -55.44878
5319.00000    71.54096    102.51130    43.18600    71.83919    -55.54634
5319.50000    72.14161    103.38590    41.88695    68.31769    -55.64390
5320.00000    72.74225    104.26051    41.27889    64.79620    -55.74146
5320.50000    73.34290    105.13511    40.67082    61.31844    -55.83902
5321.00000    73.15599    106.00971    40.06276    59.55074    -55.93658
5321.50000    72.52179    106.88432    39.45469    57.78305    -56.03414
5322.00000    71.69644    107.75892    39.55011    57.52146    -56.13170
5322.50000    69.84984    108.63352    40.13424    57.67920    -56.22926
5323.00000    68.00324    107.44843    40.71836    57.83694    -56.32682
5323.50000    66.15664    105.32352    41.30248    57.99468    -56.42438
5324.00000    64.31005    103.19860    41.79838    58.15242    -56.52194
5324.50000    62.46345    101.07369    41.39299    57.93656    -56.61950
5325.00000    60.65248    94.12037    40.98761    57.64644    -56.71705
5325.50000    60.55609    82.54537    40.58222    56.68141    -56.81461
5326.00000    60.45970    70.97035    40.17683    55.71639    -56.91217
5326.50000    61.69981    59.39534    39.77145    54.75136    -56.85138
5327.00000    62.97667    56.70613    39.73516    53.78634    -56.74432
5327.50000    63.99817    62.38059    40.69217    53.74378    -56.63727
5328.00000    64.27460    68.05505    41.64918    53.84604    -56.53021
5328.50000    64.55104    73.72950    42.60619    55.01785    -56.42315
5329.00000    64.62837    79.40396    42.98228    56.18966    -56.31609
5329.50000    64.59963    78.76615    42.57690    57.36147    -56.20904
5330.00000    64.57089    77.59849    42.17152    58.53328    -56.10198
5330.50000    64.54215    77.76711    41.76614    59.70509    -55.99492
5331.00000    64.51032    78.62189    41.36076    60.14222    -55.88787
5331.50000    64.38185    79.46780    40.95538    59.80862    -55.78081
5332.00000    64.25337    78.95494    40.55000    59.47503    -55.67375
5332.50000    64.12490    78.44209    41.39160    59.14143    -55.56670
5333.00000    63.99642    77.92923    44.97425    59.86700    -55.45964
5333.50000    63.86795    77.41638    48.55690    62.31501    -55.35258
5334.00000    63.73947    78.22265    53.36071    64.76302    -55.30434
5334.50000    63.76232    79.07700    64.57257    67.31951    -55.25842
5335.00000    64.02753    79.17086    75.12165    76.63099    -55.21250
5335.50000    64.29275    77.57062    84.47346    85.94247    -55.16658
5336.00000    64.55796    75.97039    90.58792    91.09838    -55.12066
5336.50000    64.82318    74.59957    93.84131    95.02552    -55.07474
5337.00000    64.75573    74.81232    97.09470    98.95266    -55.02882
5337.50000    64.54503    74.52295    103.48093    133.11995    -54.98291
5338.00000    64.33432    73.27437    124.17709    149.88551    -54.93699
5338.50000    64.12362    72.02579    140.18484    152.04022    -54.89107
5339.00000    63.91292    72.38084    156.19258    154.19494    -54.84515
5339.50000    63.73380    73.70113    172.20033    156.34965    -54.89722
5340.00000    63.86000    75.02142    188.20808    158.50436    -55.11968
5340.50000    63.98620    76.34170    204.21583    160.65907    -55.34215
5341.00000    64.11240    77.66199    214.12130    162.81379    -55.56461
5341.50000    63.51924    78.98228    212.96395    164.96850    -55.78708
5342.00000    62.91819    78.45552    211.80659    167.12321    -56.00955
5342.50000    62.68324    77.72332    210.64923    169.27792    -56.23201
5343.00000    62.84293    76.99111    209.49187    171.43264    -56.45448
5343.50000    63.00262    76.25891    219.62012    173.58735    -56.67694
5344.00000    63.16231    75.52670    231.93464    175.74206    -56.89941
5344.50000    63.32200    73.80241    244.24916    177.89677    -57.12187
5345.00000    63.48169    71.05877    256.56368    179.21403    -57.34434
5345.50000    63.64138    68.31513    268.87820    179.54324    -57.56681
5346.00000    63.80108    66.59769    281.19272    179.87246    -57.78927
5346.50000    63.51152    67.79806    293.50724    180.20168    -57.85132
5347.00000    63.03516    68.99842    302.10373    180.53090    -57.19619
5347.50000    62.55879    70.19879    290.56128    180.86012    -56.54106
5348.00000    62.76022    71.39916    279.01883    181.18933    -55.88593
5348.50000    63.28211    69.20124    267.47637    181.51855    -55.23080
5349.00000    63.79354    66.41336    255.93392    181.84777    -54.57568
5349.50000    64.08614    63.86899    246.83859    182.17699    -53.92055
5350.00000    64.37874    64.26395    239.31689    182.50621    -53.97002
5350.50000    64.67133    64.65890    231.79519    182.83542    -54.25772
5351.00000    64.24411    65.05386    224.27349    183.16464    -54.54543
5351.50000    63.75050    65.44881    217.96879    183.49386    -54.83313
5352.00000    63.25688    65.84377    227.18872    185.18750    -55.12084
5352.50000    62.76327    66.23873    236.40865    190.67825    -55.40855
5353.00000    62.26966    64.25554    245.62858    196.16899    -55.69625
5353.50000    61.77604    61.83692    254.84851    201.65973    -55.98396
5354.00000    61.28243    59.41829    264.06844    207.15048    -56.27166
5354.50000    61.29241    56.99967    320.28461    212.64122    -56.55937
5355.00000    62.25261    54.58104    379.41316    218.13197    -56.84707
5355.50000    63.21282    52.90203    438.54172    223.62271    -56.87456
5356.00000    64.17303    52.90313    497.67027    229.11346    -56.83126
5356.50000    65.08958    52.90423    556.79882    234.60420    -56.78797
5357.00000    65.19044    53.62689    587.84080    240.09495    -56.74467
5357.50000    65.29130    54.79097    617.90692    245.58569    -56.70138
5358.00000    65.15234    55.95505    712.11041    249.87095    -56.65808
5358.50000    64.73488    56.83787    714.15579    251.40864    -56.61479
5359.00000    64.31742    57.47738    716.20117    252.94632    -56.57149
5359.50000    63.89996    68.97106    718.24656    254.48401    -56.52820
5360.00000    63.48251    70.80425    720.29194    256.02170    -56.48490
5360.50000    63.02042    72.12678    722.33732    257.55938    -56.44161
5361.00000    62.55385    71.95938    724.38271    259.09707    -56.39831
5361.50000    62.08727    71.76100    726.42809    260.63476    -56.57727
5362.00000    61.62070    69.10704    728.47348    262.17244    -56.93966
5362.50000    61.15413    66.45309    729.73566    263.71013    -57.30206
5363.00000    61.66199    64.81166    730.08227    265.24781    -57.66445
5363.50000    62.34108    66.38858    730.42889    266.78550    -58.02684
5364.00000    63.01320    67.96550    730.77551    266.63324    -58.38923
5364.50000    63.68274    69.41866    731.12213    263.31549    -58.48251
5365.00000    64.35228    70.79060    731.46874    259.99773    -58.48207
5365.50000    65.01068    72.15651    731.81536    256.67998    -58.48163
5366.00000    64.91919    73.51338    732.16198    253.36222    -58.48119
5366.50000    64.82770    74.87026    719.17935    250.04447    -58.48075
5367.00000    64.73620    76.77640    701.06565    246.72671    -58.48031
5367.50000    64.17877    78.86142    682.48778    243.40896    -58.47987
5368.00000    62.97752    80.59485    660.27182    240.09120    -58.47942
5368.50000    62.20724    79.91600    638.05587    236.77345    -58.47898
5369.00000    61.95024    79.23714    615.83992    233.45569    -58.39961
