~Version Information
 VERS.                  2.0:   CWLS log ASCII Standard -VERSION 2.0
 WRAP.                   NO:   One line per depth step
~Well Information Block
#MNEM.UNIT     VALUE/NAME     DESCRIPTION
#---------     -----------    ---------------------------
 STRT.F              8400.0000: START DEPTH
 STOP.F             14130.0000: STOP DEPTH
 STEP.F                 0.5000: STEP DEPTH
 NULL.                 -999.25: NULL VALUE
 LOC .            42-109-33596:  LOCATION
 FL1 .            42-109-33596:  LOCATIONLINE1
 PROV.                      TX:  PROVINCE
 STAT.                      TX:  STATE NAME
 CNTY.               CULBERSON:  COUNTY NAME
 FLD .              WOLFCAMP B:  FIELD NAME
 WELL.           DALE STATE 5H:  WELL NAME
 COMP.     CAPITAN ENERGY INC.:  COMPANY
 DMF .             Drill Floor:  DRILL MEAS FROM
 PDAT.                      GL:  PERMANENT DATUM
 DATE.             11-Feb-2020:  DATE
 SVCO.             Halliburton:  SERVICECONAME
 HIDE.                        :  WELLNAMEOPERAT
 BASI.                 PERMIAN:  BASIN
 UWI .            42-109-33596:  UNIQUE WELL IDENTIFIER
 API .            42-109-33596:  API NUMBER
 RANG.                     N/A:  RANGE
 TOWN.                     N/A:  TOWNSHIP
 SECT.                     N/A:  SECTION
 SON .               906289953:  JOB NUMBER
 CTRY.                        :  COUNTRY
 SRVC.             Halliburton:  SERVICE COMPANY
 LMF .             Drill Floor:  LOG MEASURED FROM
 TVDS.ft             3291.0000:  TVDSS CORRECTN
 EGL .ft             3266.0000:  GROUND ELEVATION
 APD .ft               25.0000:  DEPTH ABOVE PD
 EPD .ft             3266.0000:  ELEVATION
 BAP .ft                0.0000:  GL ELEV ONSHORE
 GVFD.g                 1.0000:  GRAVITY FIELD
 EKB .ft             3291.0000:  KB ELEVATION
 EDF .ft             3291.0000:  DF ELEVATION
~Curve Information Block
#MNEM.UNIT                 API CODE     Curve Description
#---------               -----------    ---------------------------
 DEPT.F                 00 000 000 000:  Depth
 CCL .V                 00 000 000 000:  Casing Collar Locator
 NPHI_OH.pu             00 000 000 000:  NPHI_OH
 NPHI_CHI.decp          00 000 000 000:  NPHI_CHI
 GR_OH.api              00 000 000 000:  GR_OH
 GR_CHI.api             00 000 000 000:  GR_CHI
 RHOB_OH.g/cc           00 000 000 000:  RHOB_OH
 RHOB_CHI.g/cc          00 000 000 000:  RHOB_CHI
 PE_OH.NONE             00 000 000 000:  PE_OH
 PE_CHI.NONE            00 000 000 000:  PE_CHI
 LLS_CHI.ohmm           00 000 000 000:  LLS_CHI
 LLS_OH.ohmm            00 000 000 000:  LLS_OH
 LLD_OH.ohmm            00 000 000 000:  LLD_OH
 LLD_CHI.ohmm           00 000 000 000:  LLD_CHI
 DTC_OH.uspf            00 000 000 000:  DTC_OH
 DTC_CHI.uspf           00 000 000 000:  DTC_CHI
 SPHW_CHI.decp          00 000 000 000:  SPHW_CHI
#Other Information
#
#WARRANTY: Halliburton will use its best efforts to furnish customers with 
#accurate information and interpretations that are part of, and incident to, the services 
#provided.  However, Halliburton cannot and does not warrant the accuracy 
#or correctness of such information and interpretations.  Under no circumstances should any 
#such information or interpretation be relied upon as the sole basis for any drilling, 
#completion, production, or financial decision or any procedure involving any risk to the 
#safety of any drilling venture, drilling rig or its crew or any other third party.  The 
#Customer has full responsibility for all drilling, completion and production operation.  
#Halliburton makes no representations or warranties, either expressed or 
#implied, including, but not limited to, the implied warranties of merchantability or fitness 
#for a particular purpose, with respect to the services rendered.  In no event will 
#Halliburton be liable for failure to obtain any particular results or for 
#any damages, including, but not limited to, indirect, special or consequential damages, 
#resulting from the use of any information or interpretation provided by Halliburton.
#
~A    DEPT      CCL   NPHI_OH NPHI_CHI  GR_OH    GR_CHI  RHOB_OH RHOB_CHI  PE_OH  PE_CHI LLS_CHI   LLS_OH    LLD_OH    LLD_CHI  DTC_OH  DTC_CHI SPHW_CHI 
# ...
    9539.5000  0.0073 -999.25   0.0922  -999.25  75.6273 -999.25   2.5956 -999.25 3.3063  36.1104   -999.25   -999.25   49.0638 -999.25 69.1628 0.1525
    9540.0000  0.0553 -999.25   0.1026  -999.25  87.5221 -999.25   2.5817 -999.25 3.2313  40.1764   -999.25   -999.25   51.8997 -999.25 69.9830 0.1583
    9540.5000  0.0189 -999.25   0.0938  -999.25  78.3913 -999.25   2.5938 -999.25 3.3278  38.7873   -999.25   -999.25   52.5546 -999.25 69.4275 0.1544
    9541.0000 -0.0393 -999.25   0.0918  -999.25  76.6474 -999.25   2.5956 -999.25 3.3318  38.2361   -999.25   -999.25   52.1604 -999.25 69.0861 0.1520
    9541.5000 -0.0060 -999.25   0.0808  -999.25  65.7141 -999.25   2.6108 -999.25 3.4403  35.7773   -999.25   -999.25   51.3211 -999.25 68.2230 0.1458
    9542.0000  0.0124 -999.25   0.0785  -999.25  63.0909 -999.25   2.6132 -999.25 3.4460  34.9429   -999.25   -999.25   50.3768 -999.25 67.9100 0.1436
    9542.5000  0.0314 -999.25   0.0934  -999.25  78.1536 -999.25   2.5911 -999.25 3.2630  37.1671   -999.25   -999.25   49.7164 -999.25 68.6885 0.1491
    9543.0000 -0.0293 -999.25   0.0948  -999.25  80.0176 -999.25   2.5895 -999.25 3.2543  37.8040   -999.25   -999.25   50.4020 -999.25 68.7656 0.1497
    9543.5000  0.0182 -999.25   0.0916  -999.25  77.2079 -999.25   2.5945 -999.25 3.3126  38.8679   -999.25   -999.25   52.9444 -999.25 68.5341 0.1480
    9544.0000 -0.0125 -999.25   0.0962  -999.25  83.1996 -999.25   2.5887 -999.25 3.2975  41.8333   -999.25   -999.25   56.1830 -999.25 69.0044 0.1514
    9544.5000 -0.0812 -999.25   0.0843  -999.25  72.4096 -999.25   2.6080 -999.25 3.4897  41.6341   -999.25   -999.25   60.0412 -999.25 68.5558 0.1482
    9545.0000  0.0163 -999.25   0.0829  -999.25  71.9787 -999.25   2.6113 -999.25 3.5415  42.1560   -999.25   -999.25   61.7712 -999.25 68.8062 0.1500
    9545.5000  0.0033 -999.25   0.0871  -999.25  76.4919 -999.25   2.6051 -999.25 3.4958  42.6188   -999.25   -999.25   61.6374 -999.25 69.2677 0.1532
    9546.0000  0.0074 -999.25   0.0822  -999.25  72.3318 -999.25   2.6127 -999.25 3.5716  42.6739   -999.25   -999.25   63.2063 -999.25 68.9564 0.1510
    9546.5000 -0.0128 -999.25   0.0775  -999.25  68.3874 -999.25   2.6201 -999.25 3.6544  43.9596   -999.25   -999.25   66.3807 -999.25 68.5561 0.1482
    9547.0000  0.0104 -999.25   0.0691  -999.25  61.2216 -999.25   2.6343 -999.25 3.8101  45.1910   -999.25   -999.25   71.0812 -999.25 68.0790 0.1448
    9547.5000 -0.0007 -999.25   0.0738  -999.25  65.8023 -999.25   2.6261 -999.25 3.7542  47.3505   -999.25   -999.25   72.3333 -999.25 68.4613 0.1475
    9548.0000  0.0053 -999.25   0.0749  -999.25  66.5096 -999.25   2.6224 -999.25 3.7163  47.5393   -999.25   -999.25   71.4320 -999.25 68.4176 0.1472
    9548.5000  0.0124 -999.25   0.0823  -999.25  72.7224 -999.25   2.6085 -999.25 3.5783  48.0262   -999.25   -999.25   68.7522 -999.25 68.7012 0.1492
    9549.0000 -0.0020 -999.25   0.0844  -999.25  74.0741 -999.25   2.6045 -999.25 3.5324  48.2366   -999.25   -999.25   67.8269 -999.25 68.6185 0.1486
    9549.5000 -0.0178 -999.25   0.0886  -999.25  77.8643 -999.25   2.5985 -999.25 3.4756  48.8078   -999.25   -999.25   67.2520 -999.25 68.8254 0.1501
    9550.0000 -0.0007 -999.25   0.0903  -999.25  79.3273 -999.25   2.5956 -999.25 3.4453  48.9700   -999.25   -999.25   66.7108 -999.25 68.8192 0.1501
    9550.5000 -0.0091 -999.25   0.0816  -999.25  70.9352 -999.25   2.6073 -999.25 3.5491  48.2701   -999.25   -999.25   67.9651 -999.25 68.1476 0.1453
    9551.0000 -0.0058 -999.25   0.0771  -999.25  66.8884 -999.25   2.6120 -999.25 3.6033  49.0639   -999.25   -999.25   69.6794 -999.25 67.7833 0.1427
    9551.5000 -0.0238 -999.25   0.0737  -999.25  64.1021 -999.25   2.6152 -999.25 3.6572  51.5532   -999.25   -999.25   73.3660 -999.25 67.4789 0.1406
    9552.0000  0.0591 -999.25   0.0651  -999.25  56.6649 -999.25   2.6282 -999.25 3.8022  53.2421   -999.25   -999.25   78.4431 -999.25 67.0474 0.1375
    9552.5000  0.0060 -999.25   0.0749  -999.25  65.9986 -999.25   2.6134 -999.25 3.6785  55.3885   -999.25   -999.25   78.0050 -999.25 67.7127 0.1422
    9553.0000 -0.0461 -999.25   0.0740  -999.25  65.2663 -999.25   2.6163 -999.25 3.7020  54.0514   -999.25   -999.25   77.2034 -999.25 67.8605 0.1433
    9553.5000  0.0508 -999.25   0.0607  -999.25  52.7690 -999.25   2.6401 -999.25 3.9051  49.7491   -999.25   -999.25   77.0824 -999.25 67.3024 0.1393
    9554.0000  0.0081 -999.25   0.0628  -999.25  54.6147 -999.25   2.6392 -999.25 3.8835  47.8629   -999.25   -999.25   74.5660 -999.25 67.6002 0.1414
    9554.5000 -0.0665 -999.25   0.0740  -999.25  65.1123 -999.25   2.6227 -999.25 3.7272  48.0421   -999.25   -999.25   71.6029 -999.25 68.4550 0.1475
    9555.0000 -0.0333 -999.25   0.0738  -999.25  64.9924 -999.25   2.6224 -999.25 3.7254  49.0239   -999.25   -999.25   72.7991 -999.25 68.2407 0.1460
    9555.5000 -0.0145 -999.25   0.0694  -999.25  61.3434 -999.25   2.6287 -999.25 3.7967  50.4252   -999.25   -999.25   76.0466 -999.25 67.8512 0.1432
    9556.0000 -0.0720 -999.25   0.0686  -999.25  61.1702 -999.25   2.6288 -999.25 3.8185  52.5197   -999.25   -999.25   79.0668 -999.25 67.7289 0.1424
    9556.5000 -0.0038 -999.25   0.0624  -999.25  55.6924 -999.25   2.6384 -999.25 3.9111  52.0894   -999.25   -999.25   80.9101 -999.25 67.2952 0.1393
    9557.0000  0.0429 -999.25   0.0614  -999.25  54.3970 -999.25   2.6395 -999.25 3.9053  50.3055   -999.25   -999.25   78.6106 -999.25 67.1470 0.1382
    9557.5000  0.0847 -999.25   0.0631  -999.25  55.5202 -999.25   2.6357 -999.25 3.8462  48.5867   -999.25   -999.25   75.0993 -999.25 67.1042 0.1379
    9558.0000 -0.0082 -999.25   0.0723  -999.25  63.4256 -999.25   2.6206 -999.25 3.6817  47.2959   -999.25   -999.25   69.9363 -999.25 67.6238 0.1416
    9558.5000  0.0682 -999.25   0.0643  -999.25  55.9406 -999.25   2.6341 -999.25 3.8011  46.0016   -999.25   -999.25   70.9613 -999.25 67.1462 0.1382
    9559.0000  0.0277 -999.25   0.0597  -999.25  51.9061 -999.25   2.6439 -999.25 3.8999  45.7239   -999.25   -999.25   73.0134 -999.25 67.0539 0.1376
    9559.5000  0.0000 -999.25   0.0679  -999.25  60.1232 -999.25   2.6331 -999.25 3.8162  46.9976   -999.25   -999.25   72.9129 -999.25 67.8903 0.1435
    9560.0000  0.0000 -999.25   0.0700  -999.25  62.3732 -999.25   2.6299 -999.25 3.7982  48.2899   -999.25   -999.25   74.1410 -999.25 68.0581 0.1447
    9560.5000  0.0000 -999.25   0.0553  -999.25  48.0310 -999.25   2.6505 -999.25 3.9786  47.2960   -999.25   -999.25   76.9520 -999.25 66.6870 0.1350
    9561.0000  0.0000 -999.25   0.0646  -999.25  57.0474 -999.25   2.6323 -999.25 3.8188  50.3394   -999.25   -999.25   76.6748 -999.25 66.9607 0.1369
    9561.5000 -0.0031 -999.25   0.0646  -999.25  56.7535 -999.25   2.6286 -999.25 3.7926  52.5442   -999.25   -999.25   78.2575 -999.25 66.6430 0.1347
    9562.0000 -0.0746 -999.25   0.0635  -999.25  55.8413 -999.25   2.6293 -999.25 3.8155  54.4992   -999.25   -999.25   80.8445 -999.25 66.5641 0.1341
    9562.5000 -0.0623 -999.25   0.0674  -999.25  59.5875 -999.25   2.6240 -999.25 3.7784  55.7808   -999.25   -999.25   81.2511 -999.25 66.9716 0.1370
    9563.0000 -0.0029 -999.25   0.0653  -999.25  57.5867 -999.25   2.6297 -999.25 3.8291  54.1919   -999.25   -999.25   80.6805 -999.25 67.1273 0.1381
    9563.5000  0.0000 -999.25   0.0683  -999.25  60.3553 -999.25   2.6278 -999.25 3.8002  52.0473   -999.25   -999.25   77.7132 -999.25 67.6120 0.1415
    9564.0000  0.0000 -999.25   0.0723  -999.25  63.6864 -999.25   2.6214 -999.25 3.7197  50.1090   -999.25   -999.25   73.7392 -999.25 67.8274 0.1431
    9564.5000  0.0000 -999.25   0.0715  -999.25  62.6610 -999.25   2.6214 -999.25 3.7027  48.9224   -999.25   -999.25   72.0563 -999.25 67.5460 0.1411
    9565.0000  0.0000 -999.25   0.0666  -999.25  57.7584 -999.25   2.6262 -999.25 3.7352  48.7423   -999.25   -999.25   72.4349 -999.25 66.8429 0.1361
    9565.5000  0.0000 -999.25   0.0677  -999.25  58.7087 -999.25   2.6230 -999.25 3.7071  50.0034   -999.25   -999.25   73.2351 -999.25 66.6951 0.1350
