~VERSION INFORMATION
VERS. 2.0 : CWLS Log ASCII Standard - Version 2.0
WRAP. NO : One line per depth step
#--------------------------------------------------#
#----------------DRILLING INFO, INC.---------------#
#---------------WWW.DRILLINGINFO.COM---------------#
#------------------COPYRIGHT 2015------------------#
#--------------------------------------------------#
#THIS FILE MAY BE USED ONLY IN ACCORDANCE WITH A CURRENT SUBSCRIPTION AGREEMENT BETWEEN
#THE USER AND DRILLING INFO, INC. NO PART OF THIS FILE MAY BE REPRODUCED, USED, COPIED,
#MODIFIED, PROPAGATED, OR DISTRIBUTED EXCEPT IN ACCORDANCE WITH THE SUBSCRIPTION
#AGREEMENT. UNAUTHORIZED USE OR DISTRIBUTION OF ALL OR ANY PART OF THIS FILE MAY VIOLATE
#COPYRIGHT, TRADEMARK, AND/OR OTHER LAWS AND IS SUBJECT TO CIVIL AS WELL AS CRIMINAL
#SANCTIONS.
#--------------------------------------------------#
#THIS FILE IS PROVIDED "AS-IS" AND ALL WARRANTIES ARE EXPRESSLY DISCLAIMED, WHETHER
#EXPRESS, ORAL, IMPLIED, STATUTORY OR OTHERWISE, INCLUDING ANY IMPLIED WARRANTY OF FITNESS
#FOR A PARTICULAR PURPOSE, MERCHANTABILITY, TITLE OR NON-INFRINGEMENT, AND ANY WARRANTIES
#ARISING BY VIRTUE OF CUSTOM OF TRADE OR COURSE OF DEALING.  FURTHER, DRILLING INFO,
#INC. AND ITS LICENSORS DO NOT REPRESENT OR WARRANT THAT THIS FILE WILL MEET USER'S
#REQUIREMENTS OR ARE SUITABLE FOR USER'S NEEDS OR THAT THE DATA OR RESULTS PROVIDED IN
#CONJUNCTION THEREWITH ARE CORRECT, ACCURATE, TIMELY OR RELIABLE. THESE DISCLAIMERS SHALL
#APPLY REGARDLESS OF ANY FAILURE OF ESSENTIAL PURPOSE OF ANY LIMITED REMEDY.  SOME
#JURISDICTIONS DO NOT ALLOW THE EXCLUSION OF CERTAIN WARRANTIES SO SOME OF THE ABOVE
#EXCLUSIONS MAY NOT APPLY. IN NO EVENT SHALL DRILLING INFO, INC. OR ANY OF ITS AFFILIATES
#BE LIABLE UNDER ANY LEGAL THEORY, WHETHER IN TORT (INCLUDING WITHOUT LIMITATION
#NEGLIGENCE), CONTRACT, STRICT LIABILITY, STATUTORY OR OTHERWISE, FOR ANY SPECIAL,
#INCIDENTAL, CONSEQUENTIAL, EXEMPLARY, PUNITIVE OR INDIRECT DAMAGE OF ANY KIND, INCLUDING
#WITHOUT LIMITATION LOSS OF REVENUE, PROFITS, GOODWILL, USE, AND/OR DATA OR THE COST OF
#PROCUREMENT OF SUBSTITUTE GOODS OR SERVICES, EVEN IF APPRISED OF THE POSSIBILITY OF SUCH
#DAMAGES IN ADVANCE.
#--------------------------------------------------#
~WELL INFORMATION
#MNEMONIC     .UNIT              VALUE :DESCRIPTION
#--------------------------------------------------#
STRT       .ft                25.00000 :START DEPTH
STOP       .ft                17086.00000 :STOP DEPTH
STEP       .ft                0.50000 :STEP
NULL       .                -999.25000 :NULL VALUE
COMP       .                 :COMPANY
WELL       .                 :WELL
FLD       .                 :FIELD
LOC       .                 :LOCATION
CNTY       .                 :COUNTY
STAT       .                 :STATE
CTRY       .                 :COUNTRY
SRVC       .                 :SERVICE COMPANY
DATE       .                 :DATE
API       .                42109309270000 :API NUMBER
~CURVE INFORMATION
#MNEMONIC     .UNIT      API CODE :CURVE DESCRIPTION
#--------------------------------------------------#
DEPTH       .ft                      :Measured Depth
CAL       .in        UNKNOWN   :CAL
DT       .us/ft        UNKNOWN   :DT
GR       .gAPI        UNKNOWN   :GR
~A    DEPTH    CAL    DT    GR
# ...
10326.50000    9.50117    52.76185    31.44750
10327.00000    9.50126    52.74354    34.27482
10327.50000    9.50135    52.72524    37.10215
10328.00000    9.50144    52.87843    39.92948
10328.50000    9.50699    53.39598    41.69742
10329.00000    9.58694    53.91353    28.78993
10329.50000    9.66690    54.43107    21.23135
10330.00000    9.74685    53.51386    23.25584
10330.50000    9.82681    52.57969    25.28034
10331.00000    9.87447    51.64551    27.30484
10331.50000    9.86247    51.65428    29.32933
10332.00000    9.85047    52.28639    28.84877
10332.50000    9.83847    52.91850    27.78912
10333.00000    9.82647    53.22383    36.84376
10333.50000    9.82751    52.48705    47.24452
10334.00000    9.83870    51.75028    57.64528
10334.50000    9.84989    55.96185    68.04604
10335.00000    9.86108    62.47326    78.44680
10335.50000    9.87228    68.86622    88.84757
10336.00000    9.88347    75.25918    99.24833
10336.50000    9.89466    76.13143    107.98520
10337.00000    9.90585    74.68212    103.65113
10337.50000    9.91705    73.23281    99.31705
10338.00000    9.92824    71.78350    94.98297
10338.50000    9.93943    71.47056    91.55662
10339.00000    9.95062    71.75817    90.11318
10339.50000    9.96182    72.04578    89.18964
10340.00000    9.97301    72.33339    90.52641
10340.50000    9.98420    75.64374    92.39476
10341.00000    9.99539    75.59227    99.27112
10341.50000    9.98471    75.54080    105.69740
10342.00000    9.97156    77.15341    105.76468
10342.50000    9.95840    78.88536    105.83196
10343.00000    9.94525    78.90175    105.89925
10343.50000    9.93209    78.28913    105.96654
10344.00000    9.91893    77.81217    101.12923
10344.50000    9.90578    76.24823    95.38037
10345.00000    9.89262    74.59556    91.60739
10345.50000    9.87947    73.54239    88.85827
10346.00000    9.86631    72.48923    86.10915
10346.50000    9.85315    71.43606    83.36003
10347.00000    9.84924    71.69234    83.99524
10347.50000    9.84577    71.22237    84.99364
10348.00000    9.84229    70.38097    85.99205
10348.50000    9.83882    69.55109    86.99045
10349.00000    9.83535    68.72121    74.81237
10349.50000    9.83187    65.95413    57.10725
10350.00000    9.82840    61.97015    39.40214
10350.50000    9.82492    57.98618    42.21857
10351.00000    9.83645    54.00220    51.10532
10351.50000    9.85251    57.94535    61.10247
10352.00000    9.86857    63.65696    74.29627
10352.50000    9.88462    68.55689    87.49007
10353.00000    9.90067    71.65628    91.99428
10353.50000    9.90608    72.87619    94.36952
10354.00000    9.88920    72.15536    96.74476
10354.50000    9.87232    71.43453    98.61893
10355.00000    9.85544    70.78598    97.82969
10355.50000    9.83856    71.29170    97.04045
10356.00000    9.82169    71.79742    96.25121
10356.50000    9.80481    71.85828    87.90355
10357.00000    9.78793    70.31597    79.38777
10357.50000    9.77105    68.77366    70.87199
10358.00000    9.75417    67.23135    62.35621
10358.50000    9.74225    65.68904    53.84043
10359.00000    9.80419    64.14673    65.49638
10359.50000    9.86612    62.60442    77.23027
10360.00000    9.92806    63.26801    88.96417
10360.50000    9.98999    65.81288    101.05584
10361.00000    10.05192    73.08155    112.95258
10361.50000    10.11386    79.72660    111.98855
10362.00000    10.06999    75.47604    111.02451
10362.50000    10.02313    71.22547    110.06048
10363.00000    9.97627    68.01517    79.67803
10363.50000    9.92940    66.87976    75.68201
10364.00000    9.88254    66.08401    71.68599
10364.50000    9.83568    65.46192    67.68997
10365.00000    9.85016    64.83984    62.57731
10365.50000    9.88006    64.21776    55.74163
10366.00000    9.90995    63.59567    48.90595
10366.50000    9.93985    62.92303    42.07027
10367.00000    9.96974    59.77280    35.45628
10367.50000    9.99964    56.62256    37.96531
10368.00000    10.02953    53.88099    45.33796
10368.50000    9.91801    55.78607    58.30161
10369.00000    9.80648    57.69115    71.26526
10369.50000    9.84393    74.84199    84.22891
10370.00000    9.89394    73.46689    97.03403
10370.50000    9.94395    72.09178    89.00016
10371.00000    9.99396    70.71668    80.96630
10371.50000    10.04396    69.34157    72.93243
10372.00000    10.09397    67.96646    76.42753
10372.50000    10.14398    66.59136    84.69471
10373.00000    10.19399    66.79428    92.96190
10373.50000    10.15964    68.51927    101.22908
10374.00000    10.10351    70.24425    106.95861
10374.50000    10.04738    71.96924    98.16300
10375.00000    9.99125    73.69423    89.36739
10375.50000    9.93513    74.01646    83.00255
10376.00000    9.87900    70.62416    80.46585
10376.50000    9.85941    65.41414    77.92915
10377.00000    9.86332    65.26055    75.39246
10377.50000    9.86722    65.10696    77.23354
10378.00000    9.87113    64.95337    81.44317
10378.50000    9.87504    64.79977    85.65281
10379.00000    9.87895    64.96492    89.86244
10379.50000    9.88285    65.22648    94.07207
10380.00000    9.88556    65.48803    93.52579
10380.50000    9.87857    65.74959    87.75438
10381.00000    9.87157    65.22053    78.67324
10381.50000    9.86457    64.15021    61.88741
10382.00000    9.85758    63.07989    45.10159
10382.50000    9.85058    62.00957    28.31577
10383.00000    9.84358    60.93925    23.31710
10383.50000    9.83658    59.79327    20.00913
10384.00000    9.82958    58.04261    16.70115
10384.50000    9.82905    56.29195    16.05123
10385.00000    9.82911    54.54129    16.72538
10385.50000    9.82918    52.79063    17.39954
10386.00000    9.82925    51.03997    18.07369
10386.50000    9.82931    51.59186    18.74784
10387.00000    9.82937    52.53269    19.42199
10387.50000    9.82944    52.51155    20.09614
10388.00000    9.82950    52.38398    20.77030
10388.50000    9.82957    52.25642    31.33077
10389.00000    9.82963    52.12885    44.62372
10389.50000    9.82970    53.16909    57.91666
10390.00000    9.82976    55.55935    71.20961
10390.50000    9.82983    60.15102    76.39359
10391.00000    9.82929    64.74269    79.45888
10391.50000    9.82722    65.67849    82.52417
10392.00000    9.82515    64.38159    82.55861
10392.50000    9.82308    63.08468    65.47336
10393.00000    9.82101    61.34142    48.38811
10393.50000    9.81894    58.53089    39.24192
10394.00000    9.81687    55.72037    47.95930
10394.50000    9.81480    52.90984    56.67667
10395.00000    9.81273    55.05277    65.39405
10395.50000    9.81066    57.88484    74.11142
10396.00000    9.80859    60.71691    80.43161
10396.50000    9.80651    69.46063    85.85521
10397.00000    9.80444    70.10218    88.00327
10397.50000    9.80237    70.62719    88.53417
10398.00000    9.79447    70.52087    89.06508
10398.50000    9.78323    70.41455    89.59598
10399.00000    9.77199    70.30824    90.12688
10399.50000    9.76075    70.20192    84.88889
10400.00000    9.74951    70.04573    79.22067
10400.50000    9.73827    69.33072    81.34230
10401.00000    9.72703    68.61571    85.86573
10401.50000    9.71579    67.90070    90.38916
10402.00000    9.70454    68.48305    94.91259
10402.50000    9.69330    69.56659    94.83480
10403.00000    9.69234    68.37883    91.58961
10403.50000    9.70743    67.29920    70.35068
10404.00000    9.72252    66.23813    55.05057
10404.50000    9.73761    64.81847    54.25893
10405.00000    9.75270    62.58484    53.46729
10405.50000    9.76780    60.35121    53.80002
10406.00000    9.78289    58.11757    62.49573
10406.50000    9.79798    59.45159    71.19143
10407.00000    9.81307    61.36463    79.88714
10407.50000    9.82816    63.27767    88.58284
10408.00000    9.84326    65.19071    94.82028
10408.50000    9.85835    72.06207    98.86017
10409.00000    9.85247    71.42839    99.53347
10409.50000    9.84189    70.79471    96.17891
10410.00000    9.83132    70.16103    92.82434
10410.50000    9.82075    68.05618    89.46977
10411.00000    9.81017    65.67025    91.37693
