~VERSION INFORMATION
VERS. 2.0 : CWLS Log ASCII Standard - Version 2.0
WRAP. NO : One line per depth step
#--------------------------------------------------#
#----------------DRILLING INFO, INC.---------------#
#---------------WWW.DRILLINGINFO.COM---------------#
#------------------COPYRIGHT 2015------------------#
#--------------------------------------------------#
#THIS FILE MAY BE USED ONLY IN ACCORDANCE WITH A CURRENT SUBSCRIPTION AGREEMENT BETWEEN
#THE USER AND DRILLING INFO, INC. NO PART OF THIS FILE MAY BE REPRODUCED, USED, COPIED,
#MODIFIED, PROPAGATED, OR DISTRIBUTED EXCEPT IN ACCORDANCE WITH THE SUBSCRIPTION
#AGREEMENT. UNAUTHORIZED USE OR DISTRIBUTION OF ALL OR ANY PART OF THIS FILE MAY VIOLATE
#COPYRIGHT, TRADEMARK, AND/OR OTHER LAWS AND IS SUBJECT TO CIVIL AS WELL AS CRIMINAL
#SANCTIONS.
#--------------------------------------------------#
#THIS FILE IS PROVIDED "AS-IS" AND ALL WARRANTIES ARE EXPRESSLY DISCLAIMED, WHETHER
#EXPRESS, ORAL, IMPLIED, STATUTORY OR OTHERWISE, INCLUDING ANY IMPLIED WARRANTY OF FITNESS
#FOR A PARTICULAR PURPOSE, MERCHANTABILITY, TITLE OR NON-INFRINGEMENT, AND ANY WARRANTIES
#ARISING BY VIRTUE OF CUSTOM OF TRADE OR COURSE OF DEALING.  FURTHER, DRILLING INFO,
#INC. AND ITS LICENSORS DO NOT REPRESENT OR WARRANT THAT THIS FILE WILL MEET USER'S
#REQUIREMENTS OR ARE SUITABLE FOR USER'S NEEDS OR THAT THE DATA OR RESULTS PROVIDED IN
#CONJUNCTION THEREWITH ARE CORRECT, ACCURATE, TIMELY OR RELIABLE. THESE DISCLAIMERS SHALL
#APPLY REGARDLESS OF ANY FAILURE OF ESSENTIAL PURPOSE OF ANY LIMITED REMEDY.  SOME
#JURISDICTIONS DO NOT ALLOW THE EXCLUSION OF CERTAIN WARRANTIES SO SOME OF THE ABOVE
#EXCLUSIONS MAY NOT APPLY. IN NO EVENT SHALL DRILLING INFO, INC. OR ANY OF ITS AFFILIATES
#BE LIABLE UNDER ANY LEGAL THEORY, WHETHER IN TORT (INCLUDING WITHOUT LIMITATION
#NEGLIGENCE), CONTRACT, STRICT LIABILITY, STATUTORY OR OTHERWISE, FOR ANY SPECIAL,
#INCIDENTAL, CONSEQUENTIAL, EXEMPLARY, PUNITIVE OR INDIRECT DAMAGE OF ANY KIND, INCLUDING
#WITHOUT LIMITATION LOSS OF REVENUE, PROFITS, GOODWILL, USE, AND/OR DATA OR THE COST OF
#PROCUREMENT OF SUBSTITUTE GOODS OR SERVICES, EVEN IF APPRISED OF THE POSSIBILITY OF SUCH
#DAMAGES IN ADVANCE.
#--------------------------------------------------#
~WELL INFORMATION
#MNEMONIC     .UNIT              VALUE :DESCRIPTION
#--------------------------------------------------#
STRT       .ft                25.00000 :START DEPTH
STOP       .ft                17086.00000 :STOP DEPTH
STEP       .ft                0.50000 :STEP
NULL       .                -999.25000 :NULL VALUE
COMP       .                 :COMPANY
WELL       .                 :WELL
FLD       .                 :FIELD
LOC       .                 :LOCATION
CNTY       .                 :COUNTY
STAT       .                 :STATE
CTRY       .                 :COUNTRY
SRVC       .                 :SERVICE COMPANY
DATE       .                 :DATE
API       .                42109309270000 :API NUMBER
~CURVE INFORMATION
#MNEMONIC     .UNIT      API CODE :CURVE DESCRIPTION
#--------------------------------------------------#
DEPTH       .ft                      :Measured Depth
CAL       .in        UNKNOWN   :CAL
DT       .us/ft        UNKNOWN   :DT
GR       .gAPI        UNKNOWN   :GR
~A    DEPTH    CAL    DT    GR
# ...
16998.00000    9.00168    46.87711    15.15744
16998.50000    9.01860    47.16266    15.50014
16999.00000    9.03552    47.44822    16.97132
16999.50000    9.02712    47.73377    18.44249
17000.00000    8.98458    47.60328    19.91367
17000.50000    8.94203    47.35847    19.33186
17001.00000    8.89948    47.11366    18.60654
17001.50000    8.87277    46.88766    18.33358
17002.00000    8.89402    46.68193    19.68506
17002.50000    8.91527    46.47620    21.03655
17003.00000    8.93652    46.27047    22.38803
17003.50000    8.95777    46.06474    23.57820
17004.00000    8.97903    45.85901    22.82819
17004.50000    8.93596    45.79738    22.07818
17005.00000    8.87265    46.20537    21.32817
17005.50000    8.80934    46.61335    20.57816
17006.00000    8.80326    46.62359    20.04680
17006.50000    8.80000    46.30503    20.39735
17007.00000    8.79674    45.98648    20.50106
17007.50000    8.79348    45.79737    20.44570
17008.00000    8.79023    45.97409    20.39033
17008.50000    8.78697    46.02887    20.33496
17009.00000    8.78371    45.87857    20.27959
17009.50000    8.78045    45.72827    20.08682
17010.00000    8.77720    45.57797    19.51234
17010.50000    8.76259    45.42767    18.93786
17011.00000    8.71993    45.53973    18.36339
17011.50000    8.67727    45.66656    17.78891
17012.00000    8.62075    45.79339    17.21443
17012.50000    8.55053    45.99207    17.13445
17013.00000    8.48032    46.51093    17.13167
17013.50000    8.41011    47.02980    17.12889
17014.00000    8.33990    47.54867    17.12610
17014.50000    8.26969    46.54080    16.98325
17015.00000    8.24866    45.58730    14.74025
17015.50000    8.45054    45.91203    12.49725
17016.00000    8.65241    46.13792    13.33930
17016.50000    8.73986    46.24548    14.90481
17017.00000    8.73486    46.35304    16.47033
17017.50000    8.72987    46.46061    18.03584
17018.00000    8.72488    46.56817    18.06752
17018.50000    8.71988    47.04431    17.43122
17019.00000    8.71489    47.80107    16.79492
17019.50000    8.74157    47.22553    16.15863
17020.00000    8.82884    46.64127    15.52233
17020.50000    8.91612    46.05700    16.91001
17021.00000    8.91474    45.92501    17.43945
17021.50000    8.86380    46.45229    15.42609
17022.00000    8.81286    46.97957    17.52018
17022.50000    8.77074    46.49816    19.61426
17023.00000    8.77904    46.29130    21.70834
17023.50000    8.78734    46.14101    23.80242
17024.00000    8.79564    45.99073    25.70146
17024.50000    8.78532    45.84044    24.67263
17025.00000    8.76736    45.69015    23.64381
17025.50000    8.74941    45.53986    22.61498
17026.00000    8.73145    45.38958    21.58615
17026.50000    8.71349    45.23929    20.55733
17027.00000    8.69554    45.08900    19.56920
17027.50000    8.67758    45.07747    19.37069
17028.00000    8.65963    45.26991    19.17218
17028.50000    8.65703    45.46234    18.97368
17029.00000    8.67826    45.65478    18.77517
17029.50000    8.69950    45.84721    18.25098
17030.00000    8.69197    46.03965    17.62523
17030.50000    8.66858    46.23208    16.99947
17031.00000    8.64519    46.42452    16.37372
17031.50000    8.62180    46.76859    15.74796
17032.00000    8.59842    47.28513    15.62980
17032.50000    8.57503    47.25823    16.43012
17033.00000    8.55164    46.75160    17.23043
17033.50000    8.52828    46.56474    18.03075
17034.00000    8.50675    46.92412    18.83106
17034.50000    8.48522    47.28351    19.51785
17035.00000    8.46369    47.64289    19.35153
17035.50000    8.44216    47.35145    19.18520
17036.00000    8.42064    47.00255    19.01888
17036.50000    8.39210    46.65366    18.85256
17037.00000    8.35550    46.30476    18.68623
17037.50000    8.31891    45.95587    18.51991
17038.00000    8.28232    46.20760    18.35358
17038.50000    8.24572    47.15971    18.18726
17039.00000    8.27404    47.59793    18.19803
17039.50000    8.34648    47.43195    18.35330
17040.00000    8.41892    47.26597    18.50857
17040.50000    8.49136    47.09999    18.66384
17041.00000    8.56380    46.93401    18.81911
17041.50000    8.63624    46.76803    18.96809
17042.00000    8.66610    46.60205    19.09738
17042.50000    8.65334    46.43607    19.22667
17043.00000    8.64058    46.43243    19.35596
17043.50000    8.62782    46.49050    19.48524
17044.00000    8.61507    46.54857    19.61453
17044.50000    8.60231    46.60664    19.74382
17045.00000    8.58955    45.72159    19.87311
17045.50000    8.57680    57.05837    20.00240
17046.00000    8.56404    54.74781    20.13169
17046.50000    8.55128    52.43726    20.26098
17047.00000    8.53852    50.12670    19.89342
17047.50000    8.52577    47.81614    19.20035
17048.00000    8.34469    47.15402    18.50727
17048.50000    8.17273    47.54243    18.08142
17049.00000    8.19132    47.93085    18.14460
17049.50000    8.20990    48.06484    18.20777
17050.00000    8.22849    47.98158    18.27095
17050.50000    8.24708    47.89832    18.27000
17051.00000    8.26567    47.81506    17.64502
17051.50000    8.28425    47.73179    17.02004
17052.00000    8.30284    47.64853    16.89025
17052.50000    8.32143    47.56527    17.53555
17053.00000    8.34001    47.48896    18.18085
17053.50000    8.35860    47.46144    18.82614
17054.00000    8.35012    47.43391    19.47144
17054.50000    8.27435    47.40639    -999.25000
17055.00000    8.19859    47.37887    -999.25000
17055.50000    8.12282    47.35135    -999.25000
17056.00000    8.04706    47.32383    -999.25000
17056.50000    7.97129    47.29630    -999.25000
17057.00000    7.89553    47.26878    -999.25000
17057.50000    7.83836    47.25571    -999.25000
17058.00000    7.83521    47.25390    -999.25000
17058.50000    7.83204    47.25209    -999.25000
17059.00000    7.82888    47.25029    -999.25000
17059.50000    7.82572    47.24848    -999.25000
17060.00000    7.82256    47.24667    -999.25000
17060.50000    7.81940    47.24486    -999.25000
17061.00000    7.81624    47.24305    -999.25000
17061.50000    7.81308    47.24124    -999.25000
17062.00000    7.80992    47.23943    -999.25000
17062.50000    7.80676    47.23762    -999.25000
17063.00000    7.80360    47.23581    -999.25000
17063.50000    7.80044    47.23401    -999.25000
17064.00000    7.79728    47.23220    -999.25000
17064.50000    7.79412    47.23039    -999.25000
17065.00000    7.79096    47.22858    -999.25000
17065.50000    7.78780    47.22677    -999.25000
17066.00000    7.78464    47.22496    -999.25000
17066.50000    7.78148    47.22315    -999.25000
17067.00000    7.77832    47.22134    -999.25000
17067.50000    7.77754    47.21953    -999.25000
17068.00000    7.78446    47.21772    -999.25000
17068.50000    7.79138    -999.25000    -999.25000
17069.00000    7.79831    -999.25000    -999.25000
17069.50000    7.80523    -999.25000    -999.25000
17070.00000    7.81215    -999.25000    -999.25000
17070.50000    7.81907    -999.25000    -999.25000
17071.00000    7.82599    -999.25000    -999.25000
17071.50000    7.83292    -999.25000    -999.25000
17072.00000    7.83984    -999.25000    -999.25000
17072.50000    7.84676    -999.25000    -999.25000
17073.00000    7.85368    -999.25000    -999.25000
17073.50000    7.86060    -999.25000    -999.25000
17074.00000    7.86753    -999.25000    -999.25000
17074.50000    7.87445    -999.25000    -999.25000
17075.00000    7.88137    -999.25000    -999.25000
17075.50000    7.88829    -999.25000    -999.25000
17076.00000    7.88304    -999.25000    -999.25000
17076.50000    7.87298    -999.25000    -999.25000
17077.00000    7.86291    -999.25000    -999.25000
17077.50000    7.85285    -999.25000    -999.25000
17078.00000    7.84279    -999.25000    -999.25000
17078.50000    7.83272    -999.25000    -999.25000
17079.00000    7.82266    -999.25000    -999.25000
17079.50000    7.81259    -999.25000    -999.25000
17080.00000    7.80253    -999.25000    -999.25000
17080.50000    7.80325    -999.25000    -999.25000
17081.00000    7.80810    -999.25000    -999.25000
