~VERSION INFORMATION
VERS. 2.0 : CWLS Log ASCII Standard - version 2.0
WRAP.  NO : One line per depth step
#--------------------------------------------------#
#----------------DRILLING INFO, INC.---------------#
#---------------WWW.DRILLINGINFO.COM---------------#
#------------------COPYRIGHT 2015------------------#
#--------------------------------------------------#
#THIS FILE MAY BE USED ONLY IN ACCORDANCE WITH A CURRENT SUBSCRIPTION AGREEMENT BETWEEN
#THE USER AND DRILLING INFO, INC. NO PART OF THIS FILE MAY BE REPRODUCED, USED, COPIED,
#MODIFIED, PROPAGATED, OR DISTRIBUTED EXCEPT IN ACCORDANCE WITH THE SUBSCRIPTION
#AGREEMENT. UNAUTHORIZED USE OR DISTRIBUTION OF ALL OR ANY PART OF THIS FILE MAY VIOLATE
#COPYRIGHT, TRADEMARK, AND/OR OTHER LAWS AND IS SUBJECT TO CIVIL AS WELL AS CRIMINAL
#SANCTIONS.
#--------------------------------------------------#
#THIS FILE IS PROVIDED "AS-IS" AND ALL WARRANTIES ARE EXPRESSLY DISCLAIMED, WHETHER
#EXPRESS, ORAL, IMPLIED, STATUTORY OR OTHERWISE, INCLUDING ANY IMPLIED WARRANTY OF FITNESS
#FOR A PARTICULAR PURPOSE, MERCHANTABILITY, TITLE OR NON-INFRINGEMENT, AND ANY WARRANTIES
#ARISING BY VIRTUE OF CUSTOM OF TRADE OR COURSE OF DEALING.  FURTHER, DRILLING INFO,
#INC. AND ITS LICENSORS DO NOT REPRESENT OR WARRANT THAT THIS FILE WILL MEET USER'S
#REQUIREMENTS OR ARE SUITABLE FOR USER'S NEEDS OR THAT THE DATA OR RESULTS PROVIDED IN
#CONJUNCTION THEREWITH ARE CORRECT, ACCURATE, TIMELY OR RELIABLE. THESE DISCLAIMERS SHALL
#APPLY REGARDLESS OF ANY FAILURE OF ESSENTIAL PURPOSE OF ANY LIMITED REMEDY.  SOME
#JURISDICTIONS DO NOT ALLOW THE EXCLUSION OF CERTAIN WARRANTIES SO SOME OF THE ABOVE
#EXCLUSIONS MAY NOT APPLY. IN NO EVENT SHALL DRILLING INFO, INC. OR ANY OF ITS AFFILIATES
#BE LIABLE UNDER ANY LEGAL THEORY, WHETHER IN TORT (INCLUDING WITHOUT LIMITATION
#NEGLIGENCE), CONTRACT, STRICT LIABILITY, STATUTORY OR OTHERWISE, FOR ANY SPECIAL,
#INCIDENTAL, CONSEQUENTIAL, EXEMPLARY, PUNITIVE OR INDIRECT DAMAGE OF ANY KIND, INCLUDING
#WITHOUT LIMITATION LOSS OF REVENUE, PROFITS, GOODWILL, USE, AND/OR DATA OR THE COST OF
#PROCUREMENT OF SUBSTITUTE GOODS OR SERVICES, EVEN IF APPRISED OF THE POSSIBILITY OF SUCH
#DAMAGES IN ADVANCE.
#--------------------------------------------------#
~WELL INFORMATION
#MNEMONIC     .UNIT              VALUE :DESCRIPTION
#--------------------------------------------------#
STRT       .FT                4 :START DEPTH
STOP       .FT                10042 :STOP DEPTH
STEP       .FT                   0.500 :STEP
NULL       .                  -999.250 :NULL
API        .                421093139500 :API NUMBER
COMP       .         MOBIL OIL CORPORATION :COMPANY
WELL       .        MADERA-BROMAN  1 :WELL
DATE       .                27-Jun-1979 :LOG DATE
~CURVE INFORMATION
#MNEMONIC     .UNIT      API CODE :CURVE DESCRIPTION
#--------------------------------------------------#
DEPTH       .FT                      :Measured Depth
DT.US/FT        UNKNOWN   :DT
GR.API        UNKNOWN   :GR
CAL.INCH        UNKNOWN   :CAL
~A    DEPTH    DT    GR    CAL
 4     -999.250   45.312   -999.250
 4.5     -999.250   44.476   -999.250
 5     -999.250   43.64   -999.250
 5.5     -999.250   42.804   -999.250
 6     -999.250   42.828   12.146
 6.5     -999.250   44.012   12.146
 7     -999.250   45.196   12.146
 7.5     -999.250   46.38   12.146
 8     -999.250   47.564   12.146
 8.5     -999.250   48.407   12.146
 9     -999.250   49.064   12.146
 9.5     -999.250   49.721   12.146
 10     -999.250   50.378   12.146
 10.5     -999.250   51.097   12.146
 11     -999.250   52.954   12.147
 11.5     -999.250   54.811   12.147
 12     -999.250   56.669   12.147
 12.5     -999.250   58.145   12.147
 13     -999.250   53.475   12.147
 13.5     -999.250   48.805   12.147
 14     -999.250   45.447   12.147
 14.5     -999.250   46.372   12.147
 15     -999.250   47.296   12.147
 15.5     -999.250   48.221   12.147
 16     -999.250   49.145   12.148
 16.5     -999.250   49.72   12.148
 17     -999.250   45.047   12.148
 17.5     -999.250   40.373   12.148
 18     -999.250   37.694   12.148
 18.5     -999.250   41.299   12.148
 19     -999.250   44.904   12.148
 19.5     -999.250   45.334   12.148
 20     -999.250   45.736   12.148
 20.5     -999.250   46.472   12.148
 21     -999.250   47.896   12.149
 21.5     -999.250   49.319   12.149
 22     -999.250   50.743   12.149
 22.5     -999.250   52.167   12.149
 23     -999.250   50.264   12.149
 23.5     -999.250   46.233   12.149
 24     -999.250   45.558   12.149
 24.5     -999.250   45.611   12.149
 25     -999.250   45.663   12.149
 25.5     -999.250   45.809   12.149
 26     -999.250   46.984   12.15
 26.5     -999.250   48.159   12.15
 27     -999.250   49.334   12.15
 27.5     -999.250   50.508   12.15
 28     -999.250   51.683   12.15
 28.5     -999.250   50.573   12.15
 29     -999.250   48.304   12.15
 29.5     -999.250   46.035   12.15
 30     -999.250   43.766   12.15
 30.5     -999.250   41.497   12.15
 31     -999.250   43.382   12.151
 31.5     -999.250   45.519   12.151
 32     -999.250   47.656   12.151
 32.5     -999.250   49.432   12.151
 33     -999.250   50.401   12.151
 33.5     -999.250   51.37   12.151
 34     -999.250   52.339   12.151
 34.5     -999.250   53.308   12.151
 35     -999.250   54.277   12.151
 35.5     -999.250   52.07   12.151
 36     -999.250   49.201   12.152
 36.5     -999.250   46.332   12.152
 37     -999.250   43.462   12.152
 37.5     -999.250   45.859   12.152
 38     -999.250   50.251   12.152
 38.5     -999.250   52.974   12.152
 39     -999.250   53.291   12.152
 39.5     -999.250   51.054   12.152
 40     -999.250   48.817   12.152
 40.5     -999.250   46.173   12.152
 41     -999.250   43.196   12.153
 41.5     -999.250   43.399   12.153
 42     -999.250   46.975   12.153
 42.5     -999.250   50.731   12.153
 43     -999.250   54.658   12.153
 43.5     -999.250   53.798   12.153
 44     -999.250   52.11   12.153
 44.5     -999.250   50.421   12.153
 45     -999.250   48.732   12.153
 45.5     -999.250   47.043   12.153
 46     -999.250   46.608   12.154
 46.5     -999.250   47.183   12.154
 47     -999.250   47.758   12.154
 47.5     -999.250   48.333   12.154
 48     -999.250   48.908   12.154
 48.5     -999.250   49.004   12.154
 49     -999.250   48.791   12.154
 49.5     -999.250   48.535   12.154
 50     -999.250   48.093   12.154
 50.5     -999.250   47.652   12.154
 51     -999.250   47.28   12.155
 51.5     -999.250   48.503   12.155
 52     -999.250   49.727   12.155
 52.5     -999.250   50.95   12.155
 53     -999.250   49.994   12.155
 53.5     -999.250   49.324   12.155
 54     -999.250   49.668   12.155
 54.5     -999.250   50.012   12.155
 55     -999.250   50.357   12.155
 55.5     -999.250   50.701   12.155
 56     -999.250   48.393   12.156
 56.5     -999.250   45.008   12.156
 57     -999.250   46.65   12.156
 57.5     -999.250   48.291   12.156
 58     -999.250   49.259   12.156
 58.5     -999.250   47.631   12.156
 59     -999.250   46.002   12.156
 59.5     -999.250   43.929   12.156
 60     -999.250   41.611   12.156
 60.5     -999.250   43.074   12.156
 61     -999.250   44.537   12.157
 61.5     -999.250   45.956   12.157
 62     -999.250   47.145   12.157
 62.5     -999.250   48.335   12.157
 63     -999.250   49.524   12.157
 63.5     -999.250   50.714   12.157
 64     -999.250   50.527   12.157
 64.5     -999.250   49.758   12.157
 65     -999.250   48.833   12.157
 65.5     -999.250   47.301   12.157
 66     -999.250   45.768   12.158
 66.5     -999.250   44.236   12.158
 67     -999.250   42.946   12.157
 67.5     -999.250   44.288   12.156
 68     -999.250   45.63   12.156
 68.5     -999.250   46.972   12.155
 69     -999.250   48.396   12.154
 69.5     -999.250   49.826   12.153
 70     -999.250   51.256   12.153
 70.5     -999.250   51.306   12.152
 71     -999.250   49.768   12.151
 71.5     -999.250   48.229   12.151
 72     -999.250   48.757   12.15
 72.5     -999.250   49.67   12.149
 73     -999.250   50.582   12.148
 73.5     -999.250   51.494   12.148
 74     -999.250   52.406   12.147
 74.5     -999.250   53.255   12.146
 75     -999.250   50.824   12.145
 75.5     -999.250   48.394   12.145
 76     -999.250   50.509   12.144
 76.5     -999.250   55.018   12.143
 77     -999.250   53.045   12.143
 77.5     -999.250   51.072   12.142
 78     -999.250   51.935   12.141
 78.5     -999.250   53.898   12.14
 79     -999.250   55.861   12.14
 79.5     -999.250   55.167   12.139
 80     -999.250   53.127   12.138
 80.5     -999.250   51.087   12.137
 81     -999.250   49.992   12.137
 81.5     -999.250   49.619   12.136
 82     -999.250   49.245   12.135
 82.5     -999.250   49.949   12.135
 83     -999.250   50.957   12.134
 83.5     -999.250   53.497   12.133
 84     -999.250   56.31   12.132
 84.5     -999.250   59.123   12.132
 85     -999.250   61.956   12.131
 85.5     -999.250   64.32   12.13
 86     -999.250   64.223   12.129
 86.5     -999.250   62.247   12.129
 87     -999.250   58.036   12.128
 87.5     -999.250   53.825   12.127
 88     -999.250   49.614   12.127
 88.5     -999.250   45.403   12.126
 89     -999.250   41.261   12.125
 89.5     -999.250   39.285   12.124
 90     -999.250   43.041   12.124
 90.5     -999.250   45.774   12.123
 91     -999.250   48.508   12.122
 91.5     -999.250   51.73   12.121
 92     -999.250   51.677   12.121
 92.5     -999.250   49.172   12.12
 93     -999.250   46.668   12.119
 93.5     -999.250   44.163   12.119
 94     -999.250   41.658   12.118
 94.5     -999.250   39.826   12.117
 95     -999.250   39.068   12.116
 95.5     -999.250   38.428   12.116
 96     -999.250   37.787   12.115
 96.5     -999.250   37.147   12.114
 97     -999.250   37.014   12.113
 97.5     -999.250   37.02   12.113
 98     -999.250   37.025   12.112
 98.5     -999.250   37.031   12.111
 99     -999.250   37.222   12.111
 99.5     -999.250   37.228   12.11
 100     -999.250   37.03   12.109
 100.5     -999.250   33.533   12.108
 101     -999.250   31.535   12.108
 101.5     -999.250   31.671   12.107
 102     -999.250   31.807   12.106
 102.5     -999.250   31.943   12.106
 103     -999.250   32.078   12.105
 103.5     -999.250   32.496   12.104
 104     -999.250   34.035   12.103
 104.5     -999.250   35.575   12.103
 105     -999.250   37.114   12.102
 105.5     -999.250   38.654   12.101
 106     -999.250   40.193   12.1
 106.5     -999.250   41.732   12.1
 107     -999.250   41.934   12.099
 107.5     -999.250   41.119   12.098
 108     -999.250   42.237   12.097
 108.5     -999.250   45.281   12.097
 109     -999.250   48.324   12.096
 109.5     -999.250   50.11   12.095
 110     -999.250   44.891   12.095
 110.5     -999.250   39.671   12.094
 111     -999.250   34.451   12.093
 111.5     -999.250   31.407   12.092
 112     -999.250   31.782   12.092
 112.5     -999.250   32.157   12.091
 113     -999.250   32.533   12.09
 113.5     -999.250   32.908   12.09
 114     -999.250   33.283   12.089
 114.5     -999.250   33.658   12.088
 115     -999.250   33.459   12.087
