# Exported from Transform Software 5.2.0 on 21-Oct-2019 by user kathryn.gehrke
# DI Transform - A Product of Drillinginfo, Inc. - www.drillinginfo.com
#
~VERSION INFORMATION
 VERS.        2.0 : LAS ASCII STANDARD - VERSION 2.0
 WRAP.         NO : ONE LINE PER DEPTH STEP

~WELL INFORMATION
#MNEM.UNIT       DATA TYPE       INFORMATION
#---------       ---------       -----------
 STRT.ft                  30 : Start Depth
 STOP.ft                9000 : Stop Depth
 STEP.ft                 0.5 : Step Length
 NULL.               -999.25 : Null Value
 COMP.                       : Company
 WELL.  42109330470000_API14 : Well Name
 FLD.                        : Field Name
 LOC.                        : Well Location
 CNTY.                       : County
 STAT.                       : State or Province
 CTRY.                       : Country
 SRVC.                       : Service Company
 DATE.                       : Date
 API.         42109330470000 : Well Identifier

~CURVE INFORMATION
#MNEM.UNIT       API CODE       CURVE DESCRIPTION
#---------       --------       -----------------
 DEPT.ft        : <Measured Depth>
 DT.us/ft       : Sonic
 GR.gAPI        : Gamma Ray

~PARAMETER INFORMATION
#MNEM.UNIT       VALUE       DESCRIPTION
#---------       -----       -----------
 EKB.ft      3201 : Elevation above MSL

~A      DEPT          DT          GR
# ...
      5346.5    330.3905     58.5756
        5347    330.3905     83.2437
      5347.5    330.3905     99.0368
        5348    330.3905     87.3201
      5348.5    330.3905      64.148
        5349    330.3905     47.0727
      5349.5    330.3905     44.6066
        5350    330.3905     47.8109
      5350.5    330.3905     47.8109
        5351    330.3905     52.4144
      5351.5    330.3905     62.0549
        5352    330.3905     64.0389
      5352.5    330.3905     55.9958
        5353    330.3905     48.3563
      5353.5    330.3905     41.6569
        5354    330.3905     39.4859
      5354.5    330.3905     42.9826
        5355    330.3905     45.5283
      5355.5    330.3905     46.7601
        5356    330.3905     47.0228
      5356.5    330.3905     43.7548
        5357    330.3905       36.53
      5357.5    330.3905      32.409
        5358    330.3905     28.2054
      5358.5    330.3905     25.7443
        5359    330.3905     26.6991
      5359.5    330.3905     31.3803
        5360    330.3905     37.5543
      5360.5    330.3905     43.9909
        5361    330.3905     48.9458
      5361.5    330.3905     43.8896
        5362    330.3905     34.6004
      5362.5    330.3905     31.2609
        5363    330.3905     33.3548
      5363.5    330.3905     42.3261
        5364    330.3905     52.0075
      5364.5    330.3905     50.3124
        5365    330.3905     44.4869
      5365.5    330.3905     45.1386
        5366    330.3905     45.2741
      5366.5    330.3905     39.2766
        5367    330.3905     32.5772
      5367.5    330.3905     28.4158
        5368    330.3905     29.5946
      5368.5    330.3905     43.7362
        5369    330.3905     61.0325
      5369.5    330.3905     67.7321
        5370    330.3905     69.7904
      5370.5    330.3905     73.4686
        5371    330.3905     74.1667
      5371.5    330.3905     66.3228
        5372    330.3905      49.377
      5372.5    330.3905     36.1594
        5373    330.3905     31.9599
      5373.5    330.3905     31.0403
        5374    330.3905     27.8401
      5374.5    330.3905     25.1356
        5375    330.3905     32.4157
      5375.5    330.3905      44.715
        5376    330.3905     50.5281
      5376.5    330.2426     50.7414
        5377    330.2154     49.0336
      5377.5    330.2154      50.357
        5378    330.2154     54.2979
      5378.5    330.2154     58.9868
        5379    330.2154     63.4931
      5379.5    330.2154     62.6011
        5380    330.2154     52.4211
      5380.5    330.2154     42.4118
        5381    330.2154     44.0695
      5381.5    330.2154     53.9993
        5382    330.2154      53.389
      5382.5    330.2154     40.4612
        5383    330.2154     32.6508
      5383.5    330.2154     37.1132
        5384    330.2154     48.5415
      5384.5    330.2154      52.652
        5385    330.2154     44.0198
      5385.5    330.2154     37.3772
        5386    330.2154      35.107
      5386.5    330.2154     32.6479
        5387    330.2154     29.5899
      5387.5    330.2154     28.8967
        5388    330.2154     26.5094
      5388.5    330.2154     22.6638
        5389    330.2154     20.5618
      5389.5    330.2154      19.965
        5390    330.2154      19.965
      5390.5    330.2154     22.5218
        5391    330.2154     28.6607
      5391.5    330.2154     30.0168
        5392    330.2154     26.9609
      5392.5    330.2154     26.7266
        5393    330.2154     29.3539
      5393.5    330.2154     29.7186
        5394    330.2154     29.2571
      5394.5    330.2154     32.0156
        5395    330.2154     31.2293
      5395.5    330.2154      24.596
        5396    330.2154     17.9291
      5396.5    330.2154       16.78
        5397    330.2154     20.1969
      5397.5    330.2154     25.4494
        5398    330.2154     27.6825
      5398.5    330.2154     29.8839
        5399    330.2154      35.238
      5399.5    330.2154     40.1612
        5400    330.2154     40.0925
      5400.5    330.2154     37.8594
        5401    330.2154     34.4749
      5401.5    330.2154     31.0288
        5402    330.2154     31.8266
      5402.5    330.2154     40.8299
        5403    330.2154     53.5533
      5403.5    330.2154     65.0596
        5404    330.2154     61.5466
      5404.5    330.2154     49.5044
        5405    330.2154     44.1331
      5405.5    330.2154     50.0305
        5406    330.2154     62.8174
      5406.5    330.2154     71.9219
        5407    330.2154     76.8569
      5407.5    330.2154     86.5494
        5408    330.2154     95.6693
      5408.5    330.2154     96.4375
        5409    330.2154     94.0455
      5409.5    330.2154     93.2574
        5410    330.2154     90.2134
      5410.5    330.2154     80.5735
        5411    330.2154     61.4793
      5411.5    330.2154     41.5082
        5412    330.2154     34.9387
      5412.5    330.2154     37.2769
        5413    330.2154     37.6174
      5413.5    330.2154     35.9895
        5414    330.2154     41.8788
      5414.5    330.2154     50.3621
        5415    330.2154     53.6965
      5415.5    330.2154     54.9037
        5416    330.2154     53.6395
      5416.5    330.2154     50.4623
        5417    330.2154     49.7084
      5417.5    330.2154     59.2495
        5418    330.2154     71.2508
      5418.5    330.0403      70.019
        5419    330.0403     55.5083
      5419.5    330.2154     47.0924
        5420    330.2154     42.0775
      5420.5    330.2154     41.4378
        5421    330.2154     51.7246
      5421.5    330.2154     66.0654
        5422    330.2154     69.9217
      5422.5    330.2154      66.747
        5423    330.2154     65.1489
      5423.5    330.2154     65.9154
        5424    330.2154     67.5131
      5424.5    330.2154     65.9792
        5425    330.2154     62.6742
      5425.5    330.2154     63.2478
        5426    330.2154     71.2196
      5426.5    330.2154     73.0907
        5427    330.2154     63.5419
      5427.5    330.2154      56.257
        5428    330.2154     55.5407
      5428.5    330.2154     57.2484
        5429    330.2154     57.5306
      5429.5    330.2154     57.5306
        5430    330.2154     55.5793
      5430.5    330.2154     56.1985
        5431    330.2154     58.8441
      5431.5    330.2154     54.1887
        5432    330.2154     45.8948
      5432.5    330.2154     41.7688
        5433    330.2154     44.3252
      5433.5    330.2154      54.799
        5434    330.2154     65.2285
      5434.5    330.2154      65.971
        5435    330.2154     57.8607
      5435.5    330.2154     50.7504
        5436    330.2154     46.0048
      5436.5    330.2154      44.905
        5437    330.2154     49.1756
      5437.5    330.2154     58.7651
        5438    330.2154     67.9761
      5438.5    330.2154      71.469
        5439    330.2154     64.3662
      5439.5    330.2154     52.3517
        5440    330.2154     40.5441
      5440.5    330.2154     32.0782
        5441    330.2154     35.6405
      5441.5    330.2154      46.675
        5442    330.2154     52.5115
      5442.5    330.2154     55.1664
        5443    330.2154     51.4522
      5443.5    330.2154     39.9967
        5444    330.2154     37.6576
      5444.5    330.2154     44.8694
        5445    330.2154     47.5736
      5445.5    330.2154     45.1964
        5446    330.0403     45.3029
      5446.5    330.0403     49.6134
        5447    330.0403      59.298
      5447.5    330.0403     70.8696
        5448    330.0403     74.1036
      5448.5    330.0403     61.5955
        5449    330.0403     44.3199
      5449.5    330.0403     38.8792
        5450    330.0403     41.6268
      5450.5    330.0403     43.6077
        5451    330.0403     43.4866
      5451.5    330.0403     42.0315
        5452    330.0403     40.9807
      5452.5    330.0403     37.6043
        5453    330.0403     29.4599
      5453.5    330.0403     25.9978
        5454    330.0403     31.6097
      5454.5    330.0403     47.7313
