#   WellGreen Tech Inc.   Digitizing Services
#   www.wellgreentech.com
#   email: sales@wellgreentech.com
#
~Version Information Block
 VERS.                2.00:     CWLS LOG ASCII STANDARD - VERSION 2.000000
 WRAP.                  NO:     One Line Per Depth Step
#
~Well Information Block
#MNEM.UNIT                     Data                         Information
#----------   ------------------------------------------   ----------------
 STRT.FT                                      400.0000:     START DEPTH
 STOP.FT                                    10100.0000:     STOP DEPTH
 STEP.FT                                        0.5000:     STEP
 NULL.                                       -999.2500:     NULL VALUE
 COMP.                       ENRON OIL AND GAS COMPANY:     COMPANY
 WELL.                                   TXL "1" NO. 1:     WELL
 FLD .                                         WILDCAT:     FIELD
 LOC .                                              63:     LOCATION
 CNTY.                                       CULBERSON:     COUNTY
 STAT.                                           TEXAS:     STATE
 CTRY.                                             USA:     COUNTRY
 SRVC.                                    SCHLUMBERGER:     SERVICE COMPANY
 DATE.                                      06/28/1989:     DATE
 API .               42109320330000:    API NUMBER
 UWI .               42109320330000:    UWI NUMBER
 TVD .                                              NO:     TVD flag
 MATRIX .G/CC                  :    Matrix Density
#
~Curve Information Block
#MNEM.UNIT       API CODE      Curve Description
#----------    -------------   -------------------
 DEPT.FT                   :   Depth in Feet
 GR  .API      35 310 01 01:   Gamma Ray
 CALI.INCHES   70 280 01 01:   Caliper
 DT  .US/FT    60 520 08 01:   Delta T
 SPHI.V/V      61 890 01 01:   Sonic Porosity
#
~Parameter Information Block
#MNEM.UNIT            Value               Description
#----------    --------------------    -------------------
 RUN .                         ONE:    Run Number
 PDAT.                          GL:    Permanent Datum
 EPD .FT                 3890.3000:    Elevation Of Perm. Datum
 LMF .               KELLY BUSHING:    Log Measured From
 EKB .FT                 3905.1000:    Elevation Of Kelly Bushing
 DF .FT                  3904.1000:    Elevation Of Derrick Floor
 GL .FT                  3890.3000:    Elevation Of Ground Level
 TD .FT                  10100.0000:    Total Depth
 BHT .DEGF               193.00 :  Bottom Hole Temperature
 BLI .FT               10100.0000:   Bottom Log Interval
 CSGSIZE.IN              9.6250:   Casing Size
 BITSIZE.IN               8.750 :  BitSize
 CSGD.FT                      405:    Casing Bottom (Driller) 1
 CSGL.FT                      405:    Casing Bottom (Logger) 1
 MUD .                      SW GEL:    Drilling Fluid Type
 MUDV .CP                  34.0000:    Drilling Fluid Viscosity
 MUDD .LB/USG               9.1000:    Drilling Fluid Density
 FL .ML/30MIN               8.0000:    Drilling Fluid Loss
 PH.                       10.0000:    Drilling Fluid Ph
 MUDS .                  CIRC TANK:    Mud Sample Source
 RM .OHMM                   0.1720:    Resistivity Of Mud Sample
 RMT .DEGF                 75.0000:    Mud Sample Temperature
 RMF .OHMM                  0.1720:    Mud Filtrate Resistivity
 RMFT.DEGF                 75.0000:    Mud Filtrate Sample Temperature
 RMB .OHMM                  0.0710:    Mud Resistivity At Bht
 TMAX .DEGF               193.0000:    Bottom Hole Temperature
#
~Other Information Block
<DescLogPlotStart>   NEURALOG PLOT DEFINITION
PLOTDEFVERSION: 3
LASFILE: D:\nds\projects\20MAY19H\las\42109320330000_BEG_RAS_RS0022815370.las
DEPTHSCALE: 240.000000
RESOLUTION: 400
DEPTHLABELFREQ: 100.000000
HEAVYGRIDFREQ: 100.000000
MEDIUMGRIDFREQ: 50.000000
LIGHTGRIDFREQ: 10.000000
#
#   TRACK 1
#
STARTTRACK: 
 LEFTX: 0.500000 inch
 RIGHTX: 3.000000 inch
 SCALETYPE: Linear
 NUMCHARTDIVISIONS: 10
CURVE: GR    0.000000   125.000000 (0,0,255)      Solid             2     Y    
BACKUP: 125.000000 250.000000 (0,0,255)      Solid             2    
ENDTRACK: 
#
#   TRACK 2
#
STARTTRACK: 
 LEFTX: 0.500000 inch
 RIGHTX: 3.000000 inch
 SCALETYPE: Linear
 NUMCHARTDIVISIONS: 10
CURVE: CALI  6.000000   16.000000  (0,131,131)    Solid             2     N    
ENDTRACK: 
#
#   TRACK 3
#
STARTTRACK: 
 LEFTX: 3.500000 inch
 RIGHTX: 8.500000 inch
 SCALETYPE: Linear
 NUMCHARTDIVISIONS: 10
CURVE: DT    100.000000 40.000000  (255,0,255)    Solid             2     Y    
BACKUP: 160.000000 100.000000 (255,0,255)    Solid             2    
CURVE: SPHI  0.300000   -0.100000  (255,0,0)      Dot               2     Y    
BACKUP: 0.700000   0.300000   (255,0,0)      Dot               2    
BACKUP: -0.100000  -0.500000  (255,0,0)      Dot               2    
ENDTRACK: 
<DescLogPlotEnd>
~A DEPTH     GR               CALI             DT               SPHI            
     400.000 25.78            13.12            66.12            0.17            
     400.500 25.72            13.12            65.73            0.17            
     401.000 25.17            13.09            65.58            0.17            
     401.500 24.32            13.07            66.46            0.18            
     402.000 23.47            13.05            67.35            0.19            
     402.500 23.36            13.04            67.94            0.17            
     403.000 23.95            13.04            63.59            0.15            
     403.500 24.54            13.05            60.72            0.14            
     404.000 25.13            13.05            59.91            0.13            
     404.500 25.72            13.05            60.85            0.14            
     405.000 27.35            13.05            63.90            0.16            
     405.500 30.18            13.09            73.84            0.22            
     406.000 37.61            13.14            83.54            0.27            
     406.500 45.08            13.18            87.44            0.28            
     407.000 51.74            13.14            83.43            0.27            
     407.500 57.35            13.09            77.82            0.24            
     408.000 64.31            13.08            72.21            0.20            
     408.500 77.78            13.08            66.60            0.17            
     409.000 90.07            13.09            64.71            0.17            
     409.500 96.45            13.10            66.83            0.18            
     410.000 97.63            13.06            67.34            0.18            
     410.500 74.49            13.01            64.41            0.16            
     411.000 58.53            12.98            61.04            0.13            
     411.500 50.53            12.98            58.27            0.11            
     412.000 49.00            12.97            56.47            0.10            
     412.500 52.24            12.97            59.81            0.13            
     413.000 53.77            12.96            63.02            0.15            
     413.500 52.31            12.96            64.09            0.16            
     414.000 46.23            12.95            62.39            0.14            
     414.500 40.14            12.95            59.27            0.12            
     415.000 37.79            12.94            55.88            0.09            
     415.500 39.85            12.94            55.18            0.09            
     416.000 49.85            12.93            54.98            0.08            
     416.500 71.44            12.93            55.73            0.09            
     417.000 93.09            12.92            57.34            0.10            
     417.500 124.57           12.92            60.31            0.14            
     418.000 132.28           12.91            64.61            0.17            
     418.500 142.31           12.91            68.91            0.21            
     419.000 148.60           12.90            71.64            0.21            
     419.500 146.11           12.91            70.72            0.21            
     420.000 140.51           12.92            69.36            0.20            
     420.500 130.41           12.91            68.18            0.19            
     421.000 121.16           12.91            68.15            0.19            
     421.500 111.82           12.90            68.44            0.19            
     422.000 104.84           12.89            68.61            0.19            
     422.500 114.00           12.89            68.69            0.19            
     423.000 130.17           12.89            69.75            0.20            
     423.500 141.19           12.90            71.80            0.21            
     424.000 142.33           12.91            73.76            0.23            
     424.500 133.92           12.91            74.58            0.23            
     425.000 124.36           12.92            73.79            0.22            
     425.500 118.21           12.93            72.43            0.21            
     426.000 115.21           12.94            71.38            0.21            
     426.500 126.13           12.94            70.96            0.21            
     427.000 125.69           12.95            70.83            0.21            
     427.500 128.44           12.96            71.23            0.21            
     428.000 111.05           12.96            70.63            0.20            
     428.500 98.63            12.96            68.96            0.19            
     429.000 91.90            12.96            67.29            0.18            
     429.500 106.35           12.95            66.12            0.18            
     430.000 129.76           12.91            67.38            0.19            
     430.500 137.19           12.87            70.02            0.20            
     431.000 143.29           12.85            72.33            0.21            
     431.500 133.82           12.87            72.27            0.21            
     432.000 115.27           12.89            70.86            0.20            
     432.500 102.81           12.91            69.26            0.19            
     433.000 94.09            12.94            67.76            0.19            
     433.500 101.57           12.96            69.00            0.20            
     434.000 125.97           12.97            71.26            0.21            
     434.500 134.65           12.95            73.51            0.22            
     435.000 142.11           12.94            75.50            0.23            
     435.500 143.86           12.93            75.57            0.23            
     436.000 136.39           12.91            75.11            0.23            
     436.500 124.91           12.90            74.65            0.23            
     437.000 106.87           12.89            73.89            0.22            
     437.500 93.94            12.90            72.09            0.21            
     438.000 80.92            12.95            69.53            0.19            
     438.500 73.66            12.98            66.96            0.18            
     439.000 71.34            12.95            65.79            0.17            
     439.500 72.23            12.93            66.44            0.18            
     440.000 71.12            12.91            67.19            0.18            
     440.500 67.53            12.89            66.31            0.17            
     441.000 63.95            12.89            64.79            0.17            
     441.500 62.56            12.89            63.96            0.16            
     442.000 63.51            12.89            63.59            0.16            
     442.500 64.28            12.90            63.96            0.16            
     443.000 61.04            12.90            64.07            0.16            
     443.500 54.77            12.91            62.68            0.14            
     444.000 47.07            12.91            60.62            0.12            
     444.500 41.27            12.92            58.01            0.10            
     445.000 39.75            12.92            56.36            0.09            
     445.500 41.56            12.92            56.16            0.10            
     446.000 43.70            12.93            57.23            0.11            
     446.500 43.98            12.93            58.00            0.11            
     447.000 44.71            12.94            58.84            0.12            
     447.500 50.66            12.94            60.11            0.13            
     448.000 58.77            12.94            62.73            0.15            
     448.500 68.95            12.93            65.47            0.17            
     449.000 71.27            12.92            68.21            0.19            
