~Version Information
 VERS.                  2.0:   CWLS log ASCII Standard -VERSION 2.0
 WRAP.                   NO:   One line per depth step
~Well Information Block
#MNEM.UNIT     VALUE/NAME     DESCRIPTION
#---------     -----------    ---------------------------
 STRT.F              8830.0000: START DEPTH
 STOP.F             14230.0000: STOP DEPTH
 STEP.F                 0.5000: STEP DEPTH
 NULL.                 -999.25: NULL VALUE
 LOC .       API  42-109-33374Lat:  LOCATION
 FL1 .       API  42-109-33374Lat:  LOCATIONLINE1
 DMF .                      KB:  DRILL MEAS FROM
 PDAT.                      GL:  PERMANENT DATUM
 CTRY.                     USA:  COUNTRY NAME
 CNTY.               CULBERSON:  COUNTY NAME
 FLD .     FORD, WEST (WOLFCAMP):  FIELD NAME
 WELL.        MOTHER FEE 28 4H:  WELL NAME
 COMP.          CAPITAN ENERGY:  COMPANY
 DATE.             02-May-2019:  DATE
 SVCO.             Halliburton:  SERVICECONAME
 PROV.                   TEXAS:  PROVINCE
 STAT.                   TEXAS:  STATE NAME
 HIDE.                        :  WELLNAMEOPERAT
 BASI.                 PERMIAN:  BASIN
 UWI .            42-109-33374Lat:  UNIQUE WELL IDENTIFIER
 API .            42-109-33374Lat:  API NUMBER
 RANG.                     N/A:  RANGE
 TOWN.                     N/A:  TOWNSHIP
 SECT.                     N/A:  SECTION
 SON .               905631317:  JOB NUMBER
 SRVC.             Halliburton:  SERVICE COMPANY
 LMF .                      KB:  LOG MEASURED FROM
 BAP .ft                0.0000:  GL ELEV ONSHORE
 GVFD.g                 1.0000:  GRAVITY FIELD
~Curve Information Block
#MNEM.UNIT                 API CODE     Curve Description
#---------               -----------    ---------------------------
 DEPT.F                 00 000 000 000:  Depth
 CCL .V                 00 000 000 000:  Casing Collar Locator
 NPHI_OH.pu             00 000 000 000:  NPHI_OH
 NPHI_CHI.pu            00 000 000 000:  NPHI_CHI
 GR_OH.api              00 000 000 000:  GR_OH
 GR_CHI.api             00 000 000 000:  GR_CHI
 RHOB_OH.g/cc           00 000 000 000:  RHOB_OH
 RHOB_CHI.g/cc          00 000 000 000:  RHOB_CHI
 PE_OH.b/e              00 000 000 000:  PE_OH
 PE_CHI.b/e             00 000 000 000:  PE_CHI
 RT10_OH.ohmm           00 000 000 000:  RT10_OH
 RT10_CHI.ohmm          00 000 000 000:  RT10_CHI
 RT30_OH.ohmm           00 000 000 000:  RT30_OH
 RT30_CHI.ohmm          00 000 000 000:  RT30_CHI
 RT90_OH.ohmm           00 000 000 000:  RT90_OH
 RT90_CHI.ohmm          00 000 000 000:  RT90_CHI
 SPHI_CHI.pu            00 000 000 000:  SPHI_CHI
 DTC_CHI.uspf           00 000 000 000:  DTC_CHI
 DTC_OH.uspf            00 000 000 000:  DTC_OH
 SGF .cu                00 000 000 000:  Formation Sigma
 CRNF.NONE              00 000 000 000:  CM GrsCaptRatio
 RIN .NONE              00 000 000 000:  CM GrsInelRatio
#Other Information
#
#WARRANTY: Halliburton will use its best efforts to furnish customers with 
#accurate information and interpretations that are part of, and incident to, the services 
#provided.  However, Halliburton cannot and does not warrant the accuracy 
#or correctness of such information and interpretations.  Under no circumstances should any 
#such information or interpretation be relied upon as the sole basis for any drilling, 
#completion, production, or financial decision or any procedure involving any risk to the 
#safety of any drilling venture, drilling rig or its crew or any other third party.  The 
#Customer has full responsibility for all drilling, completion and production operation.  
#Halliburton makes no representations or warranties, either expressed or 
#implied, including, but not limited to, the implied warranties of merchantability or fitness 
#for a particular purpose, with respect to the services rendered.  In no event will 
#Halliburton be liable for failure to obtain any particular results or for 
#any damages, including, but not limited to, indirect, special or consequential damages, 
#resulting from the use of any information or interpretation provided by Halliburton.
#
~A    DEPT      CCL   NPHI_OH NPHI_CHI  GR_OH    GR_CHI  RHOB_OH RHOB_CHI  PE_OH  PE_CHI RT10_OH RT10_CHI RT30_OH RT30_CHI RT90_OH  RT90_CHI SPHI_CHI DTC_CHI DTC_OH    SGF    CRNF   RIN   
# ...
   14205.0000 17.3923 -999.25   9.7758  -999.25  49.9674 -999.25   2.5763 -999.25 3.9620 -999.25 101.1442 -999.25 103.9077  -999.25 110.5401  15.3500 69.2997 -999.25 18.4178 0.9237 0.9945
   14205.5000 17.4351 -999.25   9.4696  -999.25  49.6493 -999.25   2.5832 -999.25 4.0261 -999.25 101.6339 -999.25 104.4108  -999.25 111.0753  14.9300 68.7091 -999.25 18.4235 0.9244 0.9899
   14206.0000 17.4428 -999.25   9.1567  -999.25  48.4193 -999.25   2.5895 -999.25 4.0722 -999.25 102.1053 -999.25 104.8950  -999.25 111.5904  14.5100 68.1170 -999.25 18.3816 0.9310 0.9873
   14206.5000 17.3902 -999.25   8.9175  -999.25  46.7353 -999.25   2.5934 -999.25 4.0901 -999.25 102.4505 -999.25 105.2497  -999.25 111.9678  14.2000 67.6791 -999.25 18.3219 0.9454 0.9880
   14207.0000 17.4170 -999.25   8.9604  -999.25  45.3226 -999.25   2.5916 -999.25 4.0727 -999.25 102.7600 -999.25 105.5677  -999.25 112.3060  14.2700 67.7825 -999.25 18.2638 0.9512 0.9909
   14207.5000 17.4228 -999.25   9.1318  -999.25  44.9045 -999.25   2.5877 -999.25 4.0441 -999.25 103.0249 -999.25 105.8398  -999.25 112.5956  14.5100 68.1239 -999.25 18.2582 0.9527 0.9962
   14208.0000 17.4426 -999.25   9.6230  -999.25  45.6290 -999.25   2.5790 -999.25 4.0116 -999.25 103.0527 -999.25 105.8684  -999.25 112.6259  15.1700 69.0458 -999.25 18.5031 0.9484 1.0000
   14208.5000 17.4320 -999.25   9.7543  -999.25  47.3352 -999.25   2.5774 -999.25 4.0085 -999.25 102.5569 -999.25 105.3590  -999.25 112.0841  15.3300 69.2711 -999.25 18.6628 0.9437 0.9990
   14209.0000 17.4259 -999.25   9.7349  -999.25  49.0116 -999.25   2.5789 -999.25 4.0185 -999.25 101.5160 -999.25 104.2897  -999.25 110.9465  15.2700 69.1967 -999.25 18.8461 0.9434 0.9959
   14209.5000 17.4694 -999.25   9.6252  -999.25  50.2388 -999.25   2.5816 -999.25 4.0252 -999.25 100.4184 -999.25 103.1621  -999.25 109.7469  15.1100 68.9596 -999.25 18.8248 0.9438 0.9905
   14210.0000 17.4365 -999.25   9.4013  -999.25  50.8198 -999.25   2.5867 -999.25 4.0549 -999.25  99.6376 -999.25 102.3599  -999.25 108.8935  14.7800 68.5039 -999.25 18.7676 0.9417 0.9864
   14210.5000 17.3841 -999.25   9.3500  -999.25  50.8565 -999.25   2.5881 -999.25 4.0629 -999.25  99.3083 -999.25 102.0216  -999.25 108.5337  14.7100 68.3942 -999.25 18.7665 0.9381 0.9858
   14211.0000 17.4423 -999.25   9.4088  -999.25  50.7573 -999.25   2.5866 -999.25 4.0490 -999.25  99.2158 -999.25 101.9266  -999.25 108.4326  14.7900 68.5117 -999.25 18.8291 0.9351 0.9871
   14211.5000 17.4723 -999.25   9.5955  -999.25  50.8067 -999.25   2.5819 -999.25 4.0042 -999.25  99.0084 -999.25 101.7136  -999.25 108.2059  15.0500 68.8847 -999.25 19.0174 0.9325 0.9881
   14212.0000 17.4656 -999.25   9.6084  -999.25  51.4584 -999.25   2.5813 -999.25 3.9880 -999.25  98.5386 -999.25 101.2309  -999.25 107.6924  15.0700 68.9072 -999.25 19.1132 0.9304 0.9875
   14212.5000 17.4385 -999.25   9.5534  -999.25  52.6537 -999.25   2.5828 -999.25 3.9912 -999.25  97.8051 -999.25 100.4774  -999.25 106.8908  14.9800 68.7817 -999.25 19.1631 0.9276 0.9853
   14213.0000 17.4499 -999.25   9.3821  -999.25  53.9253 -999.25   2.5870 -999.25 4.0160 -999.25  97.2415 -999.25  99.8984  -999.25 106.2749  14.7300 68.4299 -999.25 19.0914 0.9251 0.9820
   14213.5000 17.4557 -999.25   9.1788  -999.25  54.9761 -999.25   2.5924 -999.25 4.0601 -999.25  97.0589 -999.25  99.7108  -999.25 106.0753  14.4300 68.0109 -999.25 18.9688 0.9271 0.9780
   14214.0000 17.4033 -999.25   9.0358  -999.25  55.4530 -999.25   2.5958 -999.25 4.0887 -999.25  97.3210 -999.25  99.9801  -999.25 106.3618  14.2400 67.7289 -999.25 18.9088 0.9289 0.9756
   14214.5000 17.3696 -999.25   8.9067  -999.25  55.0946 -999.25   2.5985 -999.25 4.1115 -999.25  97.8211 -999.25 100.4938  -999.25 106.9083  14.0600 67.4873 -999.25 18.8732 0.9300 0.9730
   14215.0000 17.4506 -999.25   8.8580  -999.25  53.8091 -999.25   2.5995 -999.25 4.1264 -999.25  98.2996 -999.25 100.9854  -999.25 107.4312  14.0000 67.4015 -999.25 18.7717 0.9295 0.9715
   14215.5000 17.4556 -999.25   8.8854  -999.25  51.8347 -999.25   2.5979 -999.25 4.1162 -999.25  98.7361 -999.25 101.4338  -999.25 107.9083  14.0600 67.4810 -999.25 18.7221 0.9263 0.9724
   14216.0000 17.4522 -999.25   8.9188  -999.25  50.1108 -999.25   2.5961 -999.25 4.1006 -999.25  99.1696 -999.25 101.8791  -999.25 108.3821  14.1300 67.5748 -999.25 18.7288 0.9239 0.9735
   14216.5000 17.4365 -999.25   8.9622  -999.25  48.8340 -999.25   2.5945 -999.25 4.0875 -999.25  99.4309 -999.25 102.1476  -999.25 108.6677  14.2000 67.6773 -999.25 18.7936 0.9211 0.9731
   14217.0000 17.4106 -999.25   8.7255  -999.25  48.0036 -999.25   2.5998 -999.25 4.1295 -999.25  99.3944 -999.25 102.1101  -999.25 108.6277  13.8700 67.2087 -999.25 18.9486 0.9193 0.9695
   14217.5000 17.4435 -999.25   8.5837  -999.25  47.7260 -999.25   2.6028 -999.25 4.1439 -999.25  99.0578 -999.25 101.7643  -999.25 108.2599  13.6700 66.9284 -999.25 18.9967 0.9173 0.9682
   14218.0000 17.4438 -999.25   8.5784  -999.25  48.5290 -999.25   2.6028 -999.25 4.1359 -999.25  98.6078 -999.25 101.3020  -999.25 107.7681  13.6600 66.9113 -999.25 18.8864 0.9167 0.9690
   14218.5000 17.4495 -999.25   8.7981  -999.25  50.0218 -999.25   2.5974 -999.25 4.0829 -999.25  98.4790 -999.25 101.1696  -999.25 107.6273  13.9700 67.3529 -999.25 18.7797 0.9145 0.9739
   14219.0000 17.3982 -999.25   9.1334  -999.25  51.5760 -999.25   2.5896 -999.25 4.0151 -999.25  98.7070 -999.25 101.4039  -999.25 107.8765  14.4400 68.0222 -999.25 18.7899 0.9169 0.9820
   14219.5000 17.4596 -999.25   9.2351  -999.25  52.7719 -999.25   2.5875 -999.25 4.0011 -999.25  98.9332 -999.25 101.6362  -999.25 108.1237  14.5800 68.2211 -999.25 18.9233 0.9204 0.9867
   14220.0000 17.4369 -999.25   9.3054  -999.25  53.5129 -999.25   2.5860 -999.25 3.9839 -999.25  98.8895 -999.25 101.5914  -999.25 108.0760  14.6800 68.3584 -999.25 19.0137 0.9210 0.9924
   14220.5000 17.4350 -999.25   9.4054  -999.25  53.4927 -999.25   2.5840 -999.25 3.9689 -999.25  98.5812 -999.25 101.2747  -999.25 107.7391  14.8100 68.5440 -999.25 18.9700 0.9220 0.9939
   14221.0000 17.4482 -999.25   9.3865  -999.25  52.4069 -999.25   2.5842 -999.25 3.9686 -999.25  98.2715 -999.25 100.9565  -999.25 107.4005  14.7800 68.5047 -999.25 18.8566 0.9197 0.9958
   14221.5000 17.3501 -999.25   9.5438  -999.25  50.8104 -999.25   2.5806 -999.25 3.9417 -999.25  98.2843 -999.25 100.9697  -999.25 107.4145  15.0000 68.8129 -999.25 18.7794 0.9147 0.9972
   14222.0000 17.3771 -999.25   9.6546  -999.25  49.7076 -999.25   2.5780 -999.25 3.9208 -999.25  98.4983 -999.25 101.1895  -999.25 107.6484  15.1600 69.0329 -999.25 18.8732 0.9160 0.9972
   14222.5000 17.5595 -999.25   9.6551  -999.25  49.6391 -999.25   2.5779 -999.25 3.9182 -999.25  98.4781 -999.25 101.1688  -999.25 107.6264  15.1600 69.0340 -999.25 19.0863 0.9199 0.9982
   14223.0000 17.3928 -999.25   9.5629  -999.25  50.6006 -999.25   2.5799 -999.25 3.9224 -999.25  97.8714 -999.25 100.5455  -999.25 106.9633  15.0300 68.8464 -999.25 19.2729 0.9263 0.9980
   14223.5000 17.4457 -999.25   9.4463  -999.25  52.2593 -999.25   2.5828 -999.25 3.9369 -999.25  96.7919 -999.25  99.4365  -999.25 105.7835  14.8500 68.5964 -999.25 19.4362 0.9358 0.9974
   14224.0000 17.2427 -999.25   9.5334  -999.25  54.2666 -999.25   2.5820 -999.25 3.9297 -999.25  95.5881 -999.25  98.1998  -999.25 104.4679  14.9400 68.7269 -999.25 19.5369 0.9400 0.9980
   14224.5000 17.4350 -999.25   9.6625  -999.25  55.5344 -999.25   2.5804 -999.25 3.9200 -999.25  94.4959 -999.25  97.0778  -999.25 103.2742  15.0900 68.9388 -999.25 19.6178 0.9441 1.0007
   14225.0000 17.4330 -999.25   9.9470  -999.25  56.0834 -999.25   2.5753 -999.25 3.8878 -999.25  93.6478 -999.25  96.2064  -999.25 102.3473  15.4600 69.4572 -999.25 19.6904 0.9498 1.0063
   14225.5000 17.4396 -999.25  10.2110  -999.25  55.7738 -999.25   2.5698 -999.25 3.8429 -999.25  93.0891 -999.25  95.6325  -999.25 101.7367  15.8100 69.9542 -999.25 19.6625 0.9561 1.0107
   14226.0000 17.4348 -999.25  10.3967  -999.25  55.2523 -999.25   2.5659 -999.25 3.8091 -999.25  92.6170 -999.25  95.1476  -999.25 101.2208  16.0500 70.3013 -999.25 19.7019 0.9668 1.0158
