###############################################
##         ENVERUS                           ##
##         ESS - Open Hole                   ##
##         PERMIAN / DELAWARE                ##
##         Nov 02 2023  V4.0                 ##
##         42-109-31391-00-00                ##
###############################################
## Copyright 2017-2023  ENVERUS.  All Rights Reserved. 
## Confidential - Property of ENVERUS, use governed by terms and 
## conditions found within the existing Information Services Subscription Agreement 
## (as may be amended, the “ISSA”) between Customer and ENVERUS. 
## 
~VERSION INFORMATION
# MNEM.UNIT                               DATA : DESCRIPTION OF MNEMONIC
#-----.-----     ----------------------------- : -----------------------------
VERS.                                     2.00 : CWLS LOG ASCII STANDARD - VERSION 2.00
WRAP.                                       NO : MULTIPLE LINES PER DEPTH STEP
VEND.                                  ENVERUS : VENDOR
TYPE.                          ESS - OPEN HOLE : ENVERUS ESSENTIAL CURVES – ACCESSIBLE THROUGH ENVERUS PRISM(TM)
DOC.                                  31999167 : ENVERUS HEADER RAW DOCUMENT ID
#___________________________________________________________________________________________________ 
~WELL INFORMATION 
# BOC9FSWoKCUsCFcWObZ1iTDYvHtSUwfaSl9bEava01AYiR20s/sWwY1hBaxvFz+VJj0aOQNxXrzxY9t5EPBGbg== 
# MNEM.UNIT                                              DATA : DESCRIPTION OF MNEMONIC 
#-----.-----                    ----------------------------- : ----------------------------- 
CNTY.                                               CULBERSON : COUNTY 
STATE.                                                  TEXAS : STATE 
CNTRY.                                                    USA : COUNTRY 
API.                                             42-109-31391 : API (10 Digit) 
API_14.                                    42-109-31391-00-00 : API (14 Digits) 
API_14_std.                                 42-109-31391-0000 : API (14 Digits Standard) 
UWI.                                           42109313910000 : UNIQUE WELL ID 
WELL.                                            TRES ALAS  1 : WELL NAME
STRT.FT                                                     0 : START DEPTH
STOP.FT                                               15494.0 : STOP DEPTH
STEP.FT                                                   0.5 : STEP BETWEEN DEPTHS
NULL.                                                 -999.25 : NULL VALUE
COMP.                           AMERICAN QUASAR PETROLEUM CO. : COMPANY
#___________________________________________________________________________________________________ 
~CURVE INFORMATION 
# MNEM.UNIT           : CURVE DESCRIPTION 
#-----.-----          : ----------------------------- 
 DEPT.FT               : MEASURED DEPTH 
 CALI.IN               : CALIPER (CAL - CAL) 
 GR.API                : GAMMA RAY (GR) 
 DT.US/FT              : SONIC DELTA TRANSIT TIME (DT) 
 #___________________________________________________________________________________________________ 
~A         DEPT           CALI             GR             DT
# ...
         4158.0         13.759         34.188         67.341
         4158.5         13.792         32.877         67.980
         4159.0         13.825         35.368         68.620
         4159.5         13.801         37.901         69.309
         4160.0         13.752         39.220         69.428
         4160.5         13.702         39.710         69.126
         4161.0         13.659         38.984         68.714
         4161.5         13.656         38.259         68.384
         4162.0         13.652         37.859         68.423
         4162.5         13.648         40.862         68.462
         4163.0         13.645         42.809         68.500
         4163.5         13.641         42.890         68.478
         4164.0         13.637         42.396         66.870
         4164.5         13.624         42.669         65.262
         4165.0         13.578         44.035         63.899
         4165.5         13.533         45.402         64.049
         4166.0         13.488         46.000         64.199
         4166.5         13.443         43.916         63.786
         4167.0         13.398         41.831         62.789
         4167.5         13.353         40.055         62.548
         4168.0         13.331         40.493         62.706
         4168.5         13.324         43.792         62.845
         4169.0         13.318         48.030         62.857
         4169.5         13.311         50.871         62.869
         4170.0         13.305         51.399         62.881
         4170.5         13.298         53.983         63.604
         4171.0         13.291         56.086         64.433
         4171.5         13.285         54.205         64.675
         4172.0         13.258         48.714         64.014
         4172.5         13.232         41.869         63.252
         4173.0         13.206         42.021         62.489
         4173.5         13.185         48.049         62.663
         4174.0         13.187         58.676         63.514
         4174.5         13.189         69.304         65.028
         4175.0         13.191         76.499         66.542
         4175.5         13.193         81.752         67.498
         4176.0         13.195         85.650         68.152
         4176.5         13.196         87.954         68.408
         4177.0         13.198         85.225         68.363
         4177.5         13.200         80.747         66.924
         4178.0         13.202         75.110         65.962
         4178.5         13.204         69.113         65.317
         4179.0         13.206         68.467         64.672
         4179.5         13.208         86.174         64.951
         4180.0         13.209         96.706         65.523
         4180.5         13.231        107.239         66.095
         4181.0         13.253        115.463         66.617
         4181.5         13.276        108.670         66.458
         4182.0         13.299         87.208         65.243
         4182.5         13.322         67.206         63.222
         4183.0         13.344         46.461         61.200
         4183.5         13.367         38.814         60.121
         4184.0         13.390         35.174         61.813
         4184.5         13.411         34.994         64.207
         4185.0         13.422         35.560         66.495
         4185.5         13.432         33.378         65.435
         4186.0         13.443         31.668         62.706
         4186.5         13.454         32.374         61.581
         4187.0         13.465         39.938         62.129
         4187.5         13.476         47.503         64.771
         4188.0         13.478         49.876         67.414
         4188.5         13.454         48.075         67.785
         4189.0         13.431         44.420         64.071
         4189.5         13.407         44.096         62.056
         4190.0         13.384         46.098         60.520
         4190.5         13.405         49.707         60.715
         4191.0         13.426         53.315         63.360
         4191.5         13.447         51.689         66.005
         4192.0         13.468         47.860         68.268
         4192.5         13.489         43.011         68.417
         4193.0         13.510         38.981         68.565
         4193.5         13.531         39.285         68.714
         4194.0         13.506         41.865         68.734
         4194.5         13.475         49.098         68.646
         4195.0         13.444         57.386         68.093
         4195.5         13.413         54.482         66.385
         4196.0         13.382         50.724         64.676
         4196.5         13.351         46.966         62.968
         4197.0         13.321         47.416         62.693
         4197.5         13.290         48.540         63.124
         4198.0         13.259         49.664         64.395
         4198.5         13.228         53.808         65.666
         4199.0         13.197         60.831         66.583
         4199.5         13.166         66.822         66.683
         4200.0         13.164         70.495         66.783
         4200.5         13.170         69.871         65.751
         4201.0         13.176         68.396         64.840
         4201.5         13.183         68.677         64.840
         4202.0         13.189         74.274         65.021
         4202.5         13.195         94.527         65.799
         4203.0         13.202        130.688         67.181
         4203.5         13.208        148.281         67.940
         4204.0         13.226        164.928         68.313
         4204.5         13.244        119.047         67.481
         4205.0         13.263        104.509         65.813
         4205.5         13.281         89.971         64.892
         4206.0         13.295         79.572         65.013
         4206.5         13.308         70.288         65.134
         4207.0         13.321         61.005         63.784
         4207.5         13.334         51.722         62.007
         4208.0         13.347         45.710         60.230
         4208.5         13.360         40.416         58.453
         4209.0         13.372         35.123         58.378
         4209.5         13.385         32.483         59.967
         4210.0         13.398         32.694         62.319
         4210.5         13.411         33.675         65.662
         4211.0         13.424         34.656         66.092
         4211.5         13.437         35.637         66.523
         4212.0         13.450         37.171         66.954
         4212.5         13.463         43.442         69.379
         4213.0         13.476         49.712         70.320
         4213.5         13.489         55.983         70.564
         4214.0         13.501         56.002         70.809
         4214.5         13.513         53.647         69.333
         4215.0         13.526         52.348         67.786
         4215.5         13.526         53.305         67.294
         4216.0         13.513         58.363         66.918
         4216.5         13.500         61.244         66.568
         4217.0         13.486         61.357         66.841
         4217.5         13.473         60.183         67.114
         4218.0         13.460         59.070         67.114
         4218.5         13.447         59.288         66.351
         4219.0         13.434         60.168         66.195
         4219.5         13.363         65.053         66.101
         4220.0         13.284         84.668         67.521
         4220.5         13.205        105.827         69.377
         4221.0         13.127        126.764         70.418
         4221.5         13.060        135.243         69.653
         4222.0         13.080        129.707         67.271
         4222.5         13.099        105.792         65.188
         4223.0         13.119        100.018         64.803
         4223.5         13.167         99.080         66.711
