###############################################
##         ENVERUS                           ##
##         ESS - Open Hole                   ##
##         PERMIAN / DELAWARE                ##
##         Nov 02 2023  V4.0                 ##
##         42-109-10071-00-00                ##
###############################################
## Copyright 2017-2023  ENVERUS.  All Rights Reserved. 
## Confidential - Property of ENVERUS, use governed by terms and 
## conditions found within the existing Information Services Subscription Agreement 
## (as may be amended, the “ISSA”) between Customer and ENVERUS. 
## 
~VERSION INFORMATION
# MNEM.UNIT                               DATA : DESCRIPTION OF MNEMONIC
#-----.-----     ----------------------------- : -----------------------------
VERS.                                     2.00 : CWLS LOG ASCII STANDARD - VERSION 2.00
WRAP.                                       NO : MULTIPLE LINES PER DEPTH STEP
VEND.                                  ENVERUS : VENDOR
TYPE.                          ESS - OPEN HOLE : ENVERUS ESSENTIAL CURVES – ACCESSIBLE THROUGH ENVERUS PRISM(TM)
DOC.                                  31950413 : ENVERUS HEADER RAW DOCUMENT ID
#___________________________________________________________________________________________________ 
~WELL INFORMATION 
# OfUh2+mdeFjroaXzMJDg/lRWUsinBwpBr+LWp9Jgnw936lSgPWOOCrYxw0Bz1A8ekYSC2IJg55FhS+cGr4hs3w== 
# MNEM.UNIT                                              DATA : DESCRIPTION OF MNEMONIC 
#-----.-----                    ----------------------------- : ----------------------------- 
CNTY.                                               CULBERSON : COUNTY 
STATE.                                                  TEXAS : STATE 
CNTRY.                                                    USA : COUNTRY 
API.                                             42-109-10071 : API (10 Digit) 
API_14.                                    42-109-10071-00-00 : API (14 Digits) 
API_14_std.                                 42-109-10071-0000 : API (14 Digits Standard) 
UWI.                                           42109100710000 : UNIQUE WELL ID 
WELL.                                                  DRD_55 : WELL NAME
STRT.FT                                                 320.5 : START DEPTH
STOP.FT                                               12359.5 : STOP DEPTH
STEP.FT                                                   0.5 : STEP BETWEEN DEPTHS
NULL.                                                 -999.25 : NULL VALUE
#___________________________________________________________________________________________________ 
~PARAMETER INFORMATION 
# MNEM.UNIT                                              DATA : DESCRIPTION OF MNEMONIC 
#-----.-----                    ----------------------------- : -----------------------------
#___________________________________________________________________________________________________ 
~CURVE INFORMATION 
# MNEM.UNIT           : CURVE DESCRIPTION 
#-----.-----          : ----------------------------- 
 DEPT.FT               : MEASURED DEPTH 
 GR.API                : GAMMA RAY (GAMMA RAY) 
 DT.US/FT              : SONIC DELTA TRANSIT TIME (SONIC) 
 #___________________________________________________________________________________________________ 
~A         DEPT             GR             DT
# ...
        11456.5        116.301         80.159
        11457.0        119.974         82.166
        11457.5        124.180         78.835
        11458.0        125.053         80.474
        11458.5        123.449         81.896
        11459.0        119.312         83.906
        11459.5        119.555         87.586
        11460.0        122.085         86.563
        11460.5        120.844         85.281
        11461.0        112.879         82.453
        11461.5        121.116         85.454
        11462.0        119.805         87.185
        11462.5        115.911         82.358
        11463.0        114.228         79.822
        11463.5        112.173         81.348
        11464.0        112.628         82.292
        11464.5        114.552         80.704
        11465.0        113.745         79.841
        11465.5        109.271         77.578
        11466.0        111.283         80.714
        11466.5        114.279         81.830
        11467.0        112.957         80.228
        11467.5        104.778         74.873
        11468.0         99.204         76.803
        11468.5        103.366         77.673
        11469.0        104.964         76.253
        11469.5        101.813         74.622
        11470.0        103.303         80.566
        11470.5        105.843         84.700
        11471.0        110.947         88.505
        11471.5        112.868         83.918
        11472.0        111.198         82.905
        11472.5        114.966         80.472
        11473.0        120.878         80.905
        11473.5        118.261         80.230
        11474.0        113.360         80.546
        11474.5        107.386         81.469
        11475.0        108.962         78.886
        11475.5        112.466         81.962
        11476.0        116.345         81.097
        11476.5        113.641         80.870
        11477.0        109.933         80.717
        11477.5        108.312         79.859
        11478.0        109.703         76.598
        11478.5        111.090         88.210
        11479.0        107.384         87.383
        11479.5        111.885         81.589
        11480.0        119.574         82.312
        11480.5        116.213         85.914
        11481.0        113.618         88.687
        11481.5        111.351         81.332
        11482.0        109.472         83.424
        11482.5        106.496         84.499
        11483.0        108.128         85.168
        11483.5        110.154         86.306
        11484.0        111.024         83.582
        11484.5        112.591         82.680
        11485.0        115.119         81.077
        11485.5        115.472         81.077
        11486.0        110.241         86.309
        11486.5        105.933         86.132
        11487.0        103.971         84.845
        11487.5        103.754         84.583
        11488.0        104.283         85.273
        11488.5        107.079         84.867
        11489.0        109.358         82.347
        11489.5        113.348         81.535
        11490.0        111.484         80.623
        11490.5        107.247         80.091
        11491.0        109.170         79.457
        11491.5        114.394         80.967
        11492.0        114.819         82.621
        11492.5        113.411         83.141
        11493.0        113.718         83.408
        11493.5        114.576         83.283
        11494.0        111.263         82.662
        11494.5        110.326         83.923
        11495.0        109.156         84.557
        11495.5        107.019         84.895
        11496.0        106.592         82.170
        11496.5        106.732         82.776
        11497.0        110.717         85.226
        11497.5        116.296         82.967
        11498.0        114.057         76.635
        11498.5        112.515         74.562
        11499.0        110.364         78.163
        11499.5        110.121         80.322
        11500.0        113.592         78.559
        11500.5        115.969         81.044
        11501.0        116.583         89.576
        11501.5        111.134         91.683
        11502.0        109.048         89.760
        11502.5        107.732         86.791
        11503.0        107.135         87.442
        11503.5        106.550         89.987
        11504.0        106.105         91.789
        11504.5        108.467         91.381
        11505.0        110.018         91.101
        11505.5        107.638         91.767
        11506.0        114.309         91.847
        11506.5        117.438         87.519
        11507.0        119.441         84.029
        11507.5        119.802         82.123
        11508.0        114.934         83.625
        11508.5        110.094         82.911
        11509.0        105.662         80.939
        11509.5        106.447         83.342
        11510.0        108.566         84.040
        11510.5        109.156         84.107
        11511.0        105.948         83.082
        11511.5        102.923         85.320
        11512.0         97.618         86.026
        11512.5         94.327         82.376
        11513.0         96.383         74.844
        11513.5        102.023         74.119
        11514.0        102.125         77.743
        11514.5        100.697         80.073
        11515.0        104.258         80.852
        11515.5        106.865         83.173
        11516.0        110.072         94.633
        11516.5        110.805         92.398
        11517.0        106.029         87.811
        11517.5        102.447         86.716
        11518.0         98.698         85.952
        11518.5         96.679         84.939
        11519.0         96.164         83.348
        11519.5         95.729         82.209
        11520.0        100.974         81.641
        11520.5        102.780         81.898
        11521.0         99.410         82.941
        11521.5        100.297         85.140
        11522.0        110.202         83.285
        11522.5        114.095         79.302
        11523.0        108.704         76.236
        11523.5        101.262         75.220
        11524.0         97.659         70.664
        11524.5        101.050         75.339
        11525.0        103.248         78.231
        11525.5        106.745         79.650
        11526.0        103.325         75.971
        11526.5         99.775         74.536
        11527.0         96.021         74.465
        11527.5         92.447         67.570
        11528.0         94.820         65.129
        11528.5         98.399         72.876
        11529.0         99.309         80.624
        11529.5         97.887         86.659
        11530.0        108.151         91.409
        11530.5        111.222         93.392
        11531.0        109.194         95.338
        11531.5        108.092         95.317
        11532.0        107.475         87.928
        11532.5        107.445         83.187
        11533.0        107.321         82.175
        11533.5        107.440         78.886
        11534.0        108.830         74.042
        11534.5        111.944         75.469
        11535.0        113.193         78.221
        11535.5        108.891         78.604
        11536.0        108.542         75.763
        11536.5        114.267         77.341
        11537.0        120.481         84.154
        11537.5        115.613         81.310
        11538.0        107.614         83.622
        11538.5        104.459         83.904
        11539.0        101.579         86.774
        11539.5        103.054         90.044
        11540.0        102.977         89.286
        11540.5         94.566         88.606
        11541.0         95.097         85.727
        11541.5         97.410         84.461
        11542.0         99.893         83.300
        11542.5        103.625         82.795
        11543.0        110.231         83.142
