###############################################
##         ENVERUS                           ##
##         ESS - Open Hole                   ##
##         PERMIAN / DELAWARE                ##
##         Nov 02 2023  V4.0                 ##
##         42-109-00406-00-00                ##
###############################################
## Copyright 2017-2023  ENVERUS.  All Rights Reserved. 
## Confidential - Property of ENVERUS, use governed by terms and 
## conditions found within the existing Information Services Subscription Agreement 
## (as may be amended, the “ISSA”) between Customer and ENVERUS. 
## 
~VERSION INFORMATION
# MNEM.UNIT                               DATA : DESCRIPTION OF MNEMONIC
#-----.-----     ----------------------------- : -----------------------------
VERS.                                     2.00 : CWLS LOG ASCII STANDARD - VERSION 2.00
WRAP.                                       NO : MULTIPLE LINES PER DEPTH STEP
VEND.                                  ENVERUS : VENDOR
TYPE.                          ESS - OPEN HOLE : ENVERUS ESSENTIAL CURVES – ACCESSIBLE THROUGH ENVERUS PRISM(TM)
DOC.                                  31976272 : ENVERUS HEADER RAW DOCUMENT ID
#___________________________________________________________________________________________________ 
~WELL INFORMATION 
# f03iSNYnaQ7mQXX2RIaOYtiytuBBABKYYIB1smJtyZkBcGMChrfvYQpeE0DESEj4BN+caz3q2IoGlEPFhwFUwg== 
# MNEM.UNIT                                              DATA : DESCRIPTION OF MNEMONIC 
#-----.-----                    ----------------------------- : ----------------------------- 
CNTY.                                               CULBERSON : COUNTY 
STATE.                                                  TEXAS : STATE 
CNTRY.                                                    USA : COUNTRY 
API.                                             42-109-00406 : API (10 Digit) 
API_14.                                    42-109-00406-00-00 : API (14 Digits) 
API_14_std.                                 42-109-00406-0000 : API (14 Digits Standard) 
UWI.                                           42109004060000 : UNIQUE WELL ID 
WELL.                                                  DRD_55 : WELL NAME
STRT.FT                                                 100.5 : START DEPTH
STOP.FT                                               12629.5 : STOP DEPTH
STEP.FT                                                   0.5 : STEP BETWEEN DEPTHS
NULL.                                                 -999.25 : NULL VALUE
#___________________________________________________________________________________________________ 
~PARAMETER INFORMATION 
# MNEM.UNIT                                              DATA : DESCRIPTION OF MNEMONIC 
#-----.-----                    ----------------------------- : -----------------------------
#___________________________________________________________________________________________________ 
~CURVE INFORMATION 
# MNEM.UNIT           : CURVE DESCRIPTION 
#-----.-----          : ----------------------------- 
 DEPT.FT               : MEASURED DEPTH 
 GR__A.API             : GAMMA RAY (GAMMA RAY) 
 DT__A.US/FT           : SONIC DELTA TRANSIT TIME (SONIC) 
 #___________________________________________________________________________________________________ 
~A         DEPT          GR__A          DT__A
# ...
        12541.5         19.486         47.674
        12542.0         18.716         47.366
        12542.5         17.770         46.716
        12543.0         16.877         45.733
        12543.5         16.292         45.483
        12544.0         16.762         45.400
        12544.5         16.800         45.280
        12545.0         16.200         45.160
        12545.5         16.200         44.920
        12546.0         15.900         44.737
        12546.5         16.513         45.243
        12547.0         17.478         45.400
        12547.5         18.000         45.400
        12548.0         17.700         45.021
        12548.5         17.700         45.515
        12549.0         17.400         45.702
        12549.5         17.700         46.270
        12550.0         17.700         46.798
        12550.5         18.064         47.106
        12551.0         18.533         47.413
        12551.5         19.303         47.737
        12552.0         20.208         47.571
        12552.5         21.142         47.320
        12553.0         21.900         47.320
        12553.5         21.900         47.320
        12554.0         21.900         47.200
        12554.5         21.381         46.845
        12555.0         20.911         46.480
        12555.5         20.442         46.480
        12556.0         20.100         46.480
        12556.5         20.400         46.480
        12557.0         21.166         45.981
        12557.5         21.564         45.506
        12558.0         20.795         45.206
        12558.5         19.538         45.430
        12559.0         18.900         45.618
        12559.5         19.013         45.760
        12560.0         19.783         46.459
        12560.5         20.400         46.661
        12561.0         21.000         46.853
        12561.5         20.809         47.276
        12562.0         20.040         47.656
        12562.5         19.800         48.058
        12563.0         20.199         48.320
        12563.5         20.669         48.507
        12564.0         20.562         48.520
        12564.5         20.100         48.643
        12565.0         20.277         48.880
        12565.5         20.654         48.612
        12566.0         20.184         47.961
        12566.5         19.715         47.098
        12567.0         18.946         46.618
        12567.5         18.776         46.431
        12568.0         18.007         46.005
        12568.5         17.400         45.542
        12569.0         17.400         45.640
        12569.5         17.901         45.760
        12570.0         18.371         45.908
        12570.5         18.840         46.324
        12571.0         19.500         46.600
        12571.5         19.800         46.600
        12572.0         19.352         46.659
        12572.5         18.582         47.031
        12573.0         18.000         47.492
        12573.5         17.700         47.560
        12574.0         17.700         47.440
        12574.5         17.796         47.598
        12575.0         18.000         47.786
        12575.5         17.834         47.539
        12576.0         17.702         46.959
        12576.5         19.096         46.720
        12577.0         20.785         46.720
        12577.5         23.198         46.720
        12578.0         25.281         46.173
        12578.5         25.124         46.700
        12579.0         23.699         46.888
        12579.5         21.186         47.080
        12580.0         19.102         47.080
        12580.5         17.479         47.397
        12581.0         16.002         47.759
        12581.5         14.749         48.140
        12582.0         13.863         48.495
        12582.5         13.800         48.887
        12583.0         13.525         49.480
        12583.5         12.755         49.273
        12584.0         11.979         48.874
        12584.5         10.583         48.493
        12585.0          9.520         47.486
        12585.5          8.477         46.379
        12586.0          8.008         45.393
        12586.5          8.100         45.640
        12587.0          8.700         45.535
        12587.5          9.300         44.740
        12588.0         10.154         44.284
        12588.5         10.800         45.491
        12589.0         11.100         46.472
        12589.5         10.800         46.600
        12590.0         10.500         46.819
        12590.5         10.317         47.493
        12591.0         11.229         49.089
        12591.5         12.683         49.480
        12592.0         14.650         49.350
        12592.5         18.213         49.042
        12593.0         22.860         48.735
        12593.5         27.599         48.040
        12594.0         28.903         46.394
        12594.5         28.528         45.597
        12595.0         24.413         45.400
        12595.5         17.336         45.276
        12596.0         14.550         44.995
        12596.5         13.426         45.300
        12597.0         12.122         45.520
        12597.5         11.312         45.605
        12598.0         10.542         46.053
        12598.5         10.991         46.907
        12599.0         12.592         47.617
        12599.5         15.530         48.106
        12600.0         18.089         48.079
        12600.5         20.210         47.800
        12601.0         22.123         47.680
        12601.5         22.856         47.680
        12602.0         21.880         47.327
        12602.5         20.585         46.727
        12603.0         18.218         46.480
        12603.5         16.800         46.232
        12604.0         16.909         45.924
        12604.5         17.820         46.588
        12605.0         19.094         47.401
        12605.5         18.702         48.579
        12606.0         16.895         49.442
        12606.5         14.068         49.480
        12607.0         13.500         49.483
        12607.5         13.623         49.600
        12608.0         12.485         49.587
        12608.5         10.669         47.842
        12609.0          9.515         47.440
        12609.5          9.254         48.159
        12610.0         10.209         47.511
        12610.5         12.429         47.440
        12611.0         15.512         47.320
        12611.5         20.196         47.067
        12612.0         22.654         46.760
        12612.5         23.400         46.057
        12613.0         20.850         46.600
        12613.5         16.526         46.884
        12614.0         14.603         47.192
        12614.5         13.500         47.859
        12615.0         13.200         48.407
        12615.5         13.387         48.715
        12616.0         13.557         48.617
        12616.5         13.574         48.355
        12617.0         13.200         47.784
        12617.5         13.465         47.002
        12618.0         13.634         46.546
        12618.5         13.800         46.237
        12619.0         14.100         45.691
        12619.5         13.842         45.811
        12620.0         13.588         46.565
        12620.5         13.200         46.965
        12621.0         13.200         47.691
        12621.5         13.500         48.292
        12622.0         14.089         48.600
        12622.5         14.859         48.040
        12623.0         15.628         47.652
        12623.5         16.200         46.922
        12624.0         16.867         46.466
        12624.5         16.745         45.425
        12625.0         15.741         45.238
        12625.5         14.149         45.160
        12626.0         13.355         44.907
        12626.5         12.586         45.171
        12627.0         11.817         45.520
        12627.5         11.700         45.760
        12628.0         12.222         46.387
