###############################################
##         ENVERUS                           ##
##         ESS - Open Hole                   ##
##         PERMIAN / DELAWARE                ##
##         Nov 03 2023  V4.0                 ##
##         42-109-32620-90-00                ##
###############################################
## Copyright 2017-2023  ENVERUS.  All Rights Reserved. 
## Confidential - Property of ENVERUS, use governed by terms and 
## conditions found within the existing Information Services Subscription Agreement 
## (as may be amended, the “ISSA”) between Customer and ENVERUS. 
## 
~VERSION INFORMATION
# MNEM.UNIT                               DATA : DESCRIPTION OF MNEMONIC
#-----.-----     ----------------------------- : -----------------------------
VERS.                                     2.00 : CWLS LOG ASCII STANDARD - VERSION 2.00
WRAP.                                       NO : MULTIPLE LINES PER DEPTH STEP
VEND.                                  ENVERUS : VENDOR
TYPE.                          ESS - OPEN HOLE : ENVERUS ESSENTIAL CURVES – ACCESSIBLE THROUGH ENVERUS PRISM(TM)
DOC.                                  51092896 : ENVERUS HEADER RAW DOCUMENT ID
#___________________________________________________________________________________________________ 
~WELL INFORMATION 
# mS4wxE9S4ErBCd3MEwtzWWb7vaBLyBp2a6hoNdhJ+t1pinRta8/5SsS3wr5CrR4pTncMCKeAGTUU45xlgh6yRQ== 
# MNEM.UNIT                                              DATA : DESCRIPTION OF MNEMONIC 
#-----.-----                    ----------------------------- : ----------------------------- 
CNTY.                                               CULBERSON : COUNTY 
STATE.                                                  TEXAS : STATE 
CNTRY.                                                    USA : COUNTRY 
API.                                             42-109-32620 : API (10 Digit) 
API_14.                                    42-109-32620-90-00 : API (14 Digits) 
API_14_std.                                 42-109-32620-9000 : API (14 Digits Standard) 
UWI.                                           42109326209000 : UNIQUE WELL ID 
WELL.                               42109326200000_PREV_API14 : WELL NAME
STRT.FT                                                2338.5 : START DEPTH
STOP.FT                                               10866.0 : STOP DEPTH
STEP.FT                                                   0.5 : STEP BETWEEN DEPTHS
NULL.                                                 -999.25 : NULL VALUE
PREV_APII.                                     42109326200000 : WELL IDENTIFIER
#___________________________________________________________________________________________________ 
~PARAMETER INFORMATION 
# MNEM.UNIT                                              DATA : DESCRIPTION OF MNEMONIC 
#-----.-----                    ----------------------------- : ----------------------------- 
EKB.FT                                                   3330 : ELEVATION ABOVE MSL
#___________________________________________________________________________________________________ 
~CURVE INFORMATION 
# MNEM.UNIT           : CURVE DESCRIPTION 
#-----.-----          : ----------------------------- 
 DEPT.FT               : MEASURED DEPTH 
 CALI.IN               : CALIPER (CAL - CALIPER) 
 GR.API                : GAMMA RAY (GAMMA RAY) 
 DT.US/FT              : SONIC DELTA TRANSIT TIME (PRESSURE WAVE SONIC) 
 #___________________________________________________________________________________________________ 
~A         DEPT           CALI             GR             DT
# ...
         5176.5          9.673         38.268         62.081
         5177.0          9.693         39.077         63.450
         5177.5          9.729         39.321         64.057
         5178.0          9.773         40.874         64.918
         5178.5          9.791         47.726         66.352
         5179.0          9.812         57.984         66.780
         5179.5          9.832         68.474         66.406
         5180.0          9.832         70.480         65.089
         5180.5          9.812        100.581         64.905
         5181.0          9.792        109.365         64.383
         5181.5          9.792        101.885         63.711
         5182.0          9.792        102.179         63.731
         5182.5          9.792        119.079         63.985
         5183.0          9.821        118.037         64.617
         5183.5          9.832         88.921         63.470
         5184.0          9.872         79.396         63.076
         5184.5          9.872         60.602         63.435
         5185.0          9.892         67.499         64.012
         5185.5          9.912         76.570         65.010
         5186.0          9.932         79.497         65.109
         5186.5          9.949         86.212         65.196
         5187.0          9.972         91.562         65.928
         5187.5         10.012         84.794         66.441
         5188.0         10.012         76.743         67.232
         5188.5         10.012         61.055         66.199
         5189.0         10.032         58.350         65.630
         5189.5         10.032         54.923         65.597
         5190.0         10.036         52.850         66.149
         5190.5         10.097         53.760         67.755
         5191.0         10.132         56.454         68.084
         5191.5         10.140         58.361         68.044
         5192.0         10.152         57.995         67.837
         5192.5         10.172         57.285         67.517
         5193.0         10.152         57.485         64.155
         5193.5         10.132         53.812         61.753
         5194.0         10.072         48.734         61.320
         5194.5         10.092         51.561         64.412
         5195.0         10.152         59.328         67.018
         5195.5         10.188         63.440         67.974
         5196.0         10.232         62.697         68.332
         5196.5         10.272         56.031         68.972
         5197.0         10.291         53.293         69.308
         5197.5         10.311         54.309         69.733
         5198.0         10.331         55.911         69.722
         5198.5         10.351         57.287         69.192
         5199.0         10.371         63.399         68.167
         5199.5         10.411         72.224         67.545
         5200.0         10.438         71.124         68.706
         5200.5         10.471         63.799         69.283
         5201.0         10.511         60.989         70.309
         5201.5         10.531         58.782         71.309
         5202.0         10.551         56.951         71.381
         5202.5         10.563         53.364         71.676
         5203.0         10.591         51.897         72.478
         5203.5         10.591         55.314         72.678
         5204.0         10.611         58.074         72.738
         5204.5         10.631         62.012         71.579
         5205.0         10.631         67.756         70.585
         5205.5         10.572         67.103         69.191
         5206.0         10.511         61.675         69.609
         5206.5         10.512         57.274         70.550
         5207.0         10.571         57.086         70.993
         5207.5         10.591         57.319         71.249
         5208.0         10.591         58.283         70.979
         5208.5         10.591         57.872         70.993
         5209.0         10.591         54.689         70.702
         5209.5         10.591         52.973         69.895
         5210.0         10.591         54.670         68.967
         5210.5         10.591         57.886         67.773
         5211.0         10.591         58.994         68.312
         5211.5         10.611         61.523         69.521
         5212.0         10.611         62.409         70.672
         5212.5         10.651         62.131         71.411
         5213.0         10.691         60.844         71.816
         5213.5         10.691         59.314         72.242
         5214.0         10.708         59.260         73.094
         5214.5         10.711         59.944         74.328
         5215.0         10.751         61.876         74.543
         5215.5         10.751         59.891         74.025
         5216.0         10.711         56.687         72.811
         5216.5         10.671         58.439         72.147
         5217.0         10.671         62.321         72.699
         5217.5         10.691         62.672         73.383
         5218.0         10.691         67.071         72.637
         5218.5         10.651         83.919         70.735
         5219.0         10.582         92.628         68.555
         5219.5         10.481         78.028         68.692
         5220.0         10.462         69.493         68.887
         5220.5         10.491         58.483         69.250
         5221.0         10.524         60.818         70.524
         5221.5         10.571         66.189         72.637
         5222.0         10.626         63.465         74.667
         5222.5         10.667         55.583         77.023
         5223.0         10.711         54.071         75.792
         5223.5         10.711         56.167         74.252
         5224.0         10.711         57.085         73.399
         5224.5         10.711         56.499         73.746
         5225.0         10.753         58.030         75.159
         5225.5         10.771         59.168         75.637
         5226.0         10.771         58.270         75.613
         5226.5         10.790         56.231         74.334
         5227.0         10.760         57.355         72.466
         5227.5         10.603         62.808         70.389
         5228.0         10.502         65.633         67.979
         5228.5         10.381         58.120         67.714
         5229.0         10.351         53.181         67.770
         5229.5         10.351         55.966         67.600
         5230.0         10.351         58.285         67.743
         5230.5         10.391         57.993         66.633
         5231.0         10.391         54.521         65.049
         5231.5         10.411         53.293         64.212
         5232.0         10.449         55.894         64.394
         5232.5         10.530         62.440         69.324
         5233.0         10.571         63.471         73.284
         5233.5         10.611         61.171         74.358
         5234.0         10.611         63.003         73.827
         5234.5         10.567         67.768         70.608
         5235.0         10.467         68.817         67.552
         5235.5         10.366         66.142         64.959
         5236.0         10.351         60.899         64.815
         5236.5         10.371         52.597         66.790
         5237.0         10.411         52.475         70.544
         5237.5         10.431         55.094         73.222
         5238.0         10.431         57.934         73.675
         5238.5         10.451         59.267         73.544
         5239.0         10.451         54.951         72.254
         5239.5         10.431         52.150         71.132
         5240.0         10.416         51.540         69.959
         5240.5         10.371         52.096         69.017
         5241.0         10.351         53.162         69.359
         5241.5         10.351         57.916         69.726
         5242.0         10.391         63.586         69.789
