###############################################
##         ENVERUS                           ##
##         ESS - Open Hole                   ##
##         PERMIAN / DELAWARE                ##
##         Nov 03 2023  V4.0                 ##
##         42-109-33370-00-00                ##
###############################################
## Copyright 2017-2023  ENVERUS.  All Rights Reserved. 
## Confidential - Property of ENVERUS, use governed by terms and 
## conditions found within the existing Information Services Subscription Agreement 
## (as may be amended, the “ISSA”) between Customer and ENVERUS. 
## 
~VERSION INFORMATION
# MNEM.UNIT                               DATA : DESCRIPTION OF MNEMONIC
#-----.-----     ----------------------------- : -----------------------------
VERS.                                     2.00 : CWLS LOG ASCII STANDARD - VERSION 2.00
WRAP.                                       NO : MULTIPLE LINES PER DEPTH STEP
VEND.                                  ENVERUS : VENDOR
TYPE.                          ESS - OPEN HOLE : ENVERUS ESSENTIAL CURVES – ACCESSIBLE THROUGH ENVERUS PRISM(TM)
DOC.                                  52814434 : ENVERUS HEADER RAW DOCUMENT ID
#___________________________________________________________________________________________________ 
~WELL INFORMATION 
# 4wk/Fx8UuugU+iebl2dHJIcndKaYvWbTE+/Vf37HP7rynMiEVi3nAb6NYbehQO/VbM9PVY38flJCaeNisGRn4g== 
# MNEM.UNIT                                              DATA : DESCRIPTION OF MNEMONIC 
#-----.-----                    ----------------------------- : ----------------------------- 
CNTY.                                               CULBERSON : COUNTY 
STATE.                                                  TEXAS : STATE 
CNTRY.                                                    USA : COUNTRY 
API.                                             42-109-33370 : API (10 Digit) 
API_14.                                    42-109-33370-00-00 : API (14 Digits) 
API_14_std.                                 42-109-33370-0000 : API (14 Digits Standard) 
UWI.                                           42109333700000 : UNIQUE WELL ID 
WELL.                                       ROXANNE FEE 46 3H : WELL NAME
STRT.FT                                                8800.0 : START DEPTH
STOP.FT                                               14157.0 : STOP DEPTH
STEP.FT                                                   0.5 : STEP BETWEEN DEPTHS
NULL.                                                 -999.25 : NULL VALUE
LOC.                                        API  42-109-33370 : LOCATION 
FL1.                                        API  42-109-33370 : LOCATIONLINE1 
DMF.                                                       KB : DRILL MEAS FROM 
PDAT.                                                      GL : PERMANENT DATUM 
FLD.                                    FORD, WEST (WOLFCAMP) : FIELD NAME 
COMP.                                          CAPITAN ENERGY : COMPANY 
DATE.                                             29-APR-2019 : DATE 
SVCO.                                             HALLIBURTON : SERVICECONAME 
PROV.                                                   TEXAS : PROVINCE 
BASI.                                                 PERMIAN : BASIN 
RANG.                                                     N/A : RANGE 
TOWN.                                                     N/A : TOWNSHIP 
SECT.                                                     N/A : SECTION 
SON.                                                905631605 : JOB NUMBER 
SRVC.                                             HALLIBURTON : SERVICE COMPANY 
LMF.                                                       KB : LOG MEASURED FROM 
BAP.FT                                                 0.0000 : GL ELEV ONSHORE 
GVFD.G                                                 1.0000 : GRAVITY FIELD
#___________________________________________________________________________________________________ 
~CURVE INFORMATION 
# MNEM.UNIT           : CURVE DESCRIPTION 
#-----.-----          : ----------------------------- 
 DEPT.FT               : MEASURED DEPTH 
 GR.API                : GAMMA RAY (GR_CHI - GR_CHI) 
 GR__01.API            : GAMMA RAY (GR_OH - GR_OH) 
 DT.US/FT              : SONIC DELTA TRANSIT TIME (DTC_CHI - DTC_CHI) 
 DT__01.US/FT          : SONIC DELTA TRANSIT TIME (DTC_OH - DTC_OH) 
 PE.B/E                : PHOTOELECTRIC EFFECT/FACTOR (PE_CHI - PE_CHI) 
 PE__01.B/E            : PHOTOELECTRIC EFFECT/FACTOR (PE_OH - PE_OH) 
 RESS_10.OHMM          : 10 INCH SHALLOW INDUCTION RESISTIVITY (RT10_CHI - RT10_CHI) 
 RESS_10__01.OHMM      : 10 INCH SHALLOW INDUCTION RESISTIVITY (RT10_OH - RT10_OH) 
 RESM_30.OHMM          : 30 INCH MEDIUM INDUCTION RESISTIVITY (RT30_CHI - RT30_CHI) 
 RESM_30__01.OHMM      : 30 INCH MEDIUM INDUCTION RESISTIVITY (RT30_OH - RT30_OH) 
 RESD_90.OHMM          : 90 INCH DEEP INDUCTION RESISTIVITY (RT90_CHI - RT90_CHI) 
 RESD_90__01.OHMM      : 90 INCH DEEP INDUCTION RESISTIVITY (RT90_OH - RT90_OH) 
 NPHI.V/V              : NEUTRON POROSITY (NPHI_CHI - NPHI_CHI) 
 NPHI__01.V/V          : NEUTRON POROSITY (NPHI_OH - NPHI_OH) 
 SPHI.V/V              : SONIC POROSITY (SPHI_CHI - SPHI_CHI) 
 RHOB.G/CC             : BULK DENSITY (RHOB_CHI - RHOB_CHI) 
 RHOB__01.G/CC         : BULK DENSITY (RHOB_OH - RHOB_OH) 
 #___________________________________________________________________________________________________ 
~A         DEPT             GR         GR__01             DT         DT__01             PE         PE__01        RESS_10    RESS_10__01        RESM_30    RESM_30__01        RESD_90    RESD_90__01           NPHI       NPHI__01           SPHI           RHOB       RHOB__01
# ...
        12355.0         97.940       -999.250         73.902       -999.250         3.4943      -999.2500         40.895       -999.250         42.243       -999.250         44.940       -999.250        0.14140     -999.25000        0.18520         2.5773      -999.2500
        12355.5         97.622       -999.250         74.027       -999.250         3.4921      -999.2500         40.132       -999.250         41.455       -999.250         44.101       -999.250        0.14290     -999.25000        0.18590         2.5772      -999.2500
        12356.0         98.292       -999.250         74.003       -999.250         3.4822      -999.2500         39.571       -999.250         40.875       -999.250         43.484       -999.250        0.14290     -999.25000        0.18610         2.5768      -999.2500
        12356.5         99.925       -999.250         73.879       -999.250         3.4642      -999.2500         39.172       -999.250         40.463       -999.250         43.046       -999.250        0.14170     -999.25000        0.18570         2.5759      -999.2500
        12357.0        102.280       -999.250         73.756       -999.250         3.4412      -999.2500         38.857       -999.250         40.138       -999.250         42.700       -999.250        0.14020     -999.25000        0.18520         2.5745      -999.2500
        12357.5        103.882       -999.250         73.719       -999.250         3.4218      -999.2500         38.542       -999.250         39.813       -999.250         42.354       -999.250        0.13910     -999.25000        0.18480         2.5732      -999.2500
        12358.0        104.047       -999.250         73.715       -999.250         3.4121      -999.2500         38.228       -999.250         39.488       -999.250         42.008       -999.250        0.13840     -999.25000        0.18450         2.5727      -999.2500
        12358.5        101.846       -999.250         73.666       -999.250         3.4175      -999.2500         37.952       -999.250         39.203       -999.250         41.706       -999.250        0.13790     -999.25000        0.18390         2.5741      -999.2500
        12359.0         99.208       -999.250         73.578       -999.250         3.4326      -999.2500         37.846       -999.250         39.093       -999.250         41.589       -999.250        0.13800     -999.25000        0.18310         2.5763      -999.2500
        12359.5         96.865       -999.250         73.388       -999.250         3.4556      -999.2500         38.055       -999.250         39.309       -999.250         41.818       -999.250        0.13780     -999.25000        0.18180         2.5789      -999.2500
        12360.0         96.281       -999.250         73.116       -999.250         3.4855      -999.2500         38.668       -999.250         39.943       -999.250         42.492       -999.250        0.13760     -999.25000        0.18010         2.5812      -999.2500
        12360.5         96.396       -999.250         72.794       -999.250         3.5243      -999.2500         39.623       -999.250         40.929       -999.250         43.541       -999.250        0.13700     -999.25000        0.17830         2.5834      -999.2500
        12361.0         96.232       -999.250         72.500       -999.250         3.5689      -999.2500         40.806       -999.250         42.152       -999.250         44.842       -999.250        0.13610     -999.25000        0.17640         2.5857      -999.2500
        12361.5         94.785       -999.250         72.256       -999.250         3.6181      -999.2500         42.068       -999.250         43.455       -999.250         46.228       -999.250        0.13510     -999.25000        0.17470         2.5884      -999.2500
        12362.0         91.838       -999.250         72.071       -999.250         3.6597      -999.2500         43.299       -999.250         44.727       -999.250         47.581       -999.250        0.13380     -999.25000        0.17320         2.5913      -999.2500
        12362.5         87.886       -999.250         71.882       -999.250         3.6898      -999.2500         44.507       -999.250         45.974       -999.250         48.909       -999.250        0.13120     -999.25000        0.17180         2.5942      -999.2500
        12363.0         84.315       -999.250         71.676       -999.250         3.7024      -999.2500         45.632       -999.250         47.136       -999.250         50.145       -999.250        0.12770     -999.25000        0.17070         2.5965      -999.2500
        12363.5         81.849       -999.250         71.492       -999.250         3.6970      -999.2500         46.575       -999.250         48.110       -999.250         51.181       -999.250        0.12380     -999.25000        0.17000         2.5976      -999.2500
        12364.0         81.685       -999.250         71.413       -999.250         3.6846      -999.2500         47.243       -999.250         48.800       -999.250         51.915       -999.250        0.12160     -999.25000        0.17010         2.5973      -999.2500
        12364.5         83.432       -999.250         71.616       -999.250         3.6614      -999.2500         47.518       -999.250         49.085       -999.250         52.218       -999.250        0.12230     -999.25000        0.17140         2.5951      -999.2500
        12365.0         86.613       -999.250         72.105       -999.250         3.6338      -999.2500         47.354       -999.250         48.915       -999.250         52.037       -999.250        0.12590     -999.25000        0.17390         2.5913      -999.2500
        12365.5         90.066       -999.250         72.670       -999.250         3.6016      -999.2500         46.674       -999.250         48.213       -999.250         51.290       -999.250        0.13040     -999.25000        0.17690         2.5871      -999.2500
        12366.0         93.087       -999.250         73.122       -999.250         3.5732      -999.2500         45.508       -999.250         47.008       -999.250         50.009       -999.250        0.13450     -999.25000        0.17960         2.5837      -999.2500
        12366.5         95.521       -999.250         73.416       -999.250         3.5427      -999.2500         43.975       -999.250         45.425       -999.250         48.324       -999.250        0.13750     -999.25000        0.18170         2.5811      -999.2500
        12367.0         97.591       -999.250         73.595       -999.250         3.5144      -999.2500         42.383       -999.250         43.780       -999.250         46.575       -999.250        0.13970     -999.25000        0.18320         2.5791      -999.2500
        12367.5         99.640       -999.250         73.669       -999.250         3.4884      -999.2500         40.983       -999.250         42.334       -999.250         45.036       -999.250        0.14130     -999.25000        0.18410         2.5776      -999.2500
        12368.0        102.615       -999.250         73.741       -999.250         3.4655      -999.2500         40.087       -999.250         41.408       -999.250         44.051       -999.250        0.14310     -999.25000        0.18470         2.5757      -999.2500
        12368.5        105.510       -999.250         73.827       -999.250         3.4548      -999.2500         39.954       -999.250         41.272       -999.250         43.906       -999.250        0.14480     -999.25000        0.18520         2.5741      -999.2500
        12369.0        107.079       -999.250         73.868       -999.250         3.4591      -999.2500         40.689       -999.250         42.030       -999.250         44.713       -999.250        0.14500     -999.25000        0.18530         2.5732      -999.2500
        12369.5        107.331       -999.250         73.833       -999.250         3.4758      -999.2500         42.107       -999.250         43.495       -999.250         46.272       -999.250        0.14360     -999.25000        0.18500         2.5732      -999.2500
