###############################################
##         ENVERUS                           ##
##         ESS - Open Hole                   ##
##         PERMIAN / DELAWARE                ##
##         Nov 02 2023  V4.0                 ##
##         42-109-31375-00-00                ##
###############################################
## Copyright 2017-2023  ENVERUS.  All Rights Reserved. 
## Confidential - Property of ENVERUS, use governed by terms and 
## conditions found within the existing Information Services Subscription Agreement 
## (as may be amended, the “ISSA”) between Customer and ENVERUS. 
## 
~VERSION INFORMATION
# MNEM.UNIT                               DATA : DESCRIPTION OF MNEMONIC
#-----.-----     ----------------------------- : -----------------------------
VERS.                                     2.00 : CWLS LOG ASCII STANDARD - VERSION 2.00
WRAP.                                       NO : MULTIPLE LINES PER DEPTH STEP
VEND.                                  ENVERUS : VENDOR
TYPE.                          ESS - OPEN HOLE : ENVERUS ESSENTIAL CURVES – ACCESSIBLE THROUGH ENVERUS PRISM(TM)
DOC.                                  32006335 : ENVERUS HEADER RAW DOCUMENT ID
#___________________________________________________________________________________________________ 
~WELL INFORMATION 
# Eb7Zbut2Nwqt2ftj1i2q6V2Ye1Joym9Qrd6BFF0aHeZ6Mf1z+VAuEcbs4uVngcAWjTW62nvWGWatc34NWk2mnA== 
# MNEM.UNIT                                              DATA : DESCRIPTION OF MNEMONIC 
#-----.-----                    ----------------------------- : ----------------------------- 
CNTY.                                               CULBERSON : COUNTY 
STATE.                                                  TEXAS : STATE 
CNTRY.                                                    USA : COUNTRY 
API.                                             42-109-31375 : API (10 Digit) 
API_14.                                    42-109-31375-00-00 : API (14 Digits) 
API_14_std.                                 42-109-31375-0000 : API (14 Digits Standard) 
UWI.                                           42109313750000 : UNIQUE WELL ID 
WELL.                                      7806 JV-P DUVAL  1 : WELL NAME
STRT.FT                                                     0 : START DEPTH
STOP.FT                                               15739.0 : STOP DEPTH
STEP.FT                                                   0.5 : STEP BETWEEN DEPTHS
NULL.                                                 -999.25 : NULL VALUE
COMP.                                  BTA OIL PRODUCERS  LLC : COMPANY 
DATE.                                             26-MAY-1978 : LOG DATE
#___________________________________________________________________________________________________ 
~CURVE INFORMATION 
# MNEM.UNIT           : CURVE DESCRIPTION 
#-----.-----          : ----------------------------- 
 DEPT.FT               : MEASURED DEPTH 
 CALI.IN               : CALIPER (CAL - CAL) 
 GR.API                : GAMMA RAY (GR) 
 DT.US/FT              : SONIC DELTA TRANSIT TIME (DT) 
 #___________________________________________________________________________________________________ 
~A         DEPT           CALI             GR             DT
# ...
        13002.0         10.511         59.093         66.975
        13002.5         10.488         60.514         66.643
        13003.0         10.465         61.935         66.311
        13003.5         10.442         65.713         65.980
        13004.0         10.420         70.050         65.648
        13004.5         10.401         74.388         65.317
        13005.0         10.381         70.773         64.985
        13005.5         10.362         64.853         64.653
        13006.0         10.342         61.577         64.351
        13006.5         10.331         66.102         64.632
        13007.0         10.322         70.626         64.913
        13007.5         10.314         71.156         64.912
        13008.0         10.305         67.982         64.429
        13008.5         10.296         64.807         63.947
        13009.0         10.287         61.633         63.465
        13009.5         10.279         63.000         62.983
        13010.0         10.270         65.495         62.500
        13010.5         10.261         67.990         62.018
        13011.0         10.251         70.486         64.933
        13011.5         10.239         68.741         63.932
        13012.0         10.226         66.609         62.931
        13012.5         10.220         64.525         61.931
        13013.0         10.256         63.812         61.686
        13013.5         10.292         63.099         63.375
        13014.0         10.328         62.386         65.064
        13014.5         10.363         61.722         66.753
        13015.0         10.363         61.207         68.265
        13015.5         10.362         60.692         68.603
        13016.0         10.361         60.177         68.940
        13016.5         10.348         59.663         68.467
        13017.0         10.321         59.555         67.910
        13017.5         10.294         60.502         67.353
        13018.0         10.267         61.450         66.796
        13018.5         10.241         61.458         66.227
        13019.0         10.205         59.523         65.654
        13019.5         10.130         57.587         65.081
        13020.0         10.062         57.895         64.507
        13020.5         10.038         70.440         63.934
        13021.0         10.014         80.187         63.360
        13021.5          9.990         89.934         64.091
        13022.0          9.966         99.242         65.633
        13022.5          9.942        107.551         67.175
        13023.0          9.918        115.861         68.716
        13023.5          9.896        124.171         71.186
        13024.0          9.889        131.587         73.817
        13024.5          9.881        138.008         76.448
        13025.0          9.874        146.145         79.080
        13025.5          9.866        147.557         78.989
        13026.0          9.858        146.084         78.524
        13026.5          9.851        144.611         78.060
        13027.0          9.843        145.365         77.596
        13027.5          9.836        146.658         77.827
        13028.0          9.828        147.950         78.363
        13028.5          9.821        149.243         78.899
        13029.0          9.813        140.646         79.434
        13029.5          9.806        131.495         79.637
        13030.0          9.794        121.570         79.006
        13030.5          9.760        107.620         78.376
        13031.0          9.726         70.731         65.146
        13031.5          9.693         68.111         63.020
        13032.0          9.680         65.491         61.474
        13032.5          9.706         63.029         62.050
        13033.0          9.733         61.874         62.631
        13033.5          9.757         63.580         63.476
        13034.0          9.760         65.285         64.321
        13034.5          9.764         73.784         65.166
        13035.0          9.764         82.831         66.010
        13035.5          9.743         86.169         66.380
        13036.0          9.722         80.777         65.322
        13036.5          9.701         75.385         64.263
        13037.0          9.679         69.254         63.204
        13037.5          9.658         62.396         62.146
        13038.0          9.666         59.512         62.586
        13038.5          9.695         59.074         61.963
        13039.0          9.724         58.636         60.550
        13039.5          9.731         58.034         59.137
        13040.0          9.722         56.338         57.724
        13040.5          9.714         54.641         56.311
        13041.0          9.706         56.354         54.898
        13041.5          9.698         68.798         59.685
        13042.0          9.690         86.136         62.121
        13042.5          9.682         91.479         64.556
        13043.0          9.674         87.606         66.992
        13043.5          9.665         83.696         69.427
        13044.0          9.649         74.107         66.412
        13044.5          9.632         64.518         61.274
        13045.0          9.616         65.420         58.170
        13045.5          9.600         68.503         58.922
        13046.0          9.583         71.585         59.675
        13046.5          9.567         74.667         60.427
        13047.0          9.551         72.066         61.180
        13047.5          9.534         68.964         59.971
        13048.0          9.518         65.863         58.387
        13048.5          9.510         62.761         56.803
        13049.0          9.515         66.372         57.805
        13049.5          9.520         70.644         59.185
        13050.0          9.524         78.557         60.566
        13050.5          9.529         87.471         61.946
        13051.0          9.534         84.411         63.326
        13051.5          9.539         79.794         64.706
        13052.0          9.543         75.101         62.836
        13052.5          9.548         69.153         60.828
        13053.0          9.553         67.710         58.820
        13053.5          9.558         68.611         56.811
        13054.0          9.562         69.523         58.586
        13054.5          9.573         70.444         63.021
        13055.0          9.585         71.364         63.081
        13055.5          9.596         72.317         63.140
        13056.0          9.608         74.004         63.200
        13056.5          9.606         75.690         63.260
        13057.0          9.601         77.377         63.177
        13057.5          9.595         79.063         62.920
        13058.0          9.590         77.995         62.663
        13058.5          9.584         76.543         62.406
        13059.0          9.588         76.540         62.148
        13059.5          9.603         80.510         61.891
        13060.0          9.618         84.481         62.368
        13060.5          9.633         88.452         63.655
        13061.0          9.648         92.723         65.479
        13061.5          9.663         97.620         67.456
        13062.0          9.678        101.956         69.433
        13062.5          9.692        103.752         70.587
        13063.0          9.707        105.907         70.902
        13063.5          9.721        111.499         71.216
        13064.0          9.720        116.523         71.531
        13064.5          9.713        116.994         71.845
        13065.0          9.706        111.707         72.159
        13065.5          9.699        105.503         72.076
        13066.0          9.692         89.115         70.392
        13066.5          9.685         71.526         67.682
        13067.0          9.660         77.973         64.722
        13067.5          9.632         85.379         60.440
