###############################################
##         ENVERUS                           ##
##         ESS - Open Hole                   ##
##         PERMIAN / DELAWARE                ##
##         Nov 02 2023  V4.0                 ##
##         42-109-32255-00-00                ##
###############################################
## Copyright 2017-2023  ENVERUS.  All Rights Reserved. 
## Confidential - Property of ENVERUS, use governed by terms and 
## conditions found within the existing Information Services Subscription Agreement 
## (as may be amended, the “ISSA”) between Customer and ENVERUS. 
## 
~VERSION INFORMATION
# MNEM.UNIT                               DATA : DESCRIPTION OF MNEMONIC
#-----.-----     ----------------------------- : -----------------------------
VERS.                                     2.00 : CWLS LOG ASCII STANDARD - VERSION 2.00
WRAP.                                       NO : MULTIPLE LINES PER DEPTH STEP
VEND.                                  ENVERUS : VENDOR
TYPE.                          ESS - OPEN HOLE : ENVERUS ESSENTIAL CURVES – ACCESSIBLE THROUGH ENVERUS PRISM(TM)
DOC.                                  31869427 : ENVERUS HEADER RAW DOCUMENT ID
#___________________________________________________________________________________________________ 
~WELL INFORMATION 
# Kns/CyAZPDgS4fEM5w0azv9tYcXlBSx1nHSqICrpKgQv6F2hlFUFpw+R1SAxYfM92i4ks6BDNpB+WhJDZXFO5Q== 
# MNEM.UNIT                                              DATA : DESCRIPTION OF MNEMONIC 
#-----.-----                    ----------------------------- : ----------------------------- 
CNTY.                                               CULBERSON : COUNTY 
STATE.                                                  TEXAS : STATE 
CNTRY.                                                    USA : COUNTRY 
API.                                             42-109-32255 : API (10 Digit) 
API_14.                                    42-109-32255-00-00 : API (14 Digits) 
API_14_std.                                 42-109-32255-0000 : API (14 Digits Standard) 
UWI.                                           42109322550000 : UNIQUE WELL ID 
WELL.                             MELISSA TAYLOR STATE 27  1H : WELL NAME
STRT.FT                                                  94.0 : START DEPTH
STOP.FT                                               13828.0 : STOP DEPTH
STEP.FT                                                   0.5 : STEP BETWEEN DEPTHS
NULL.                                                 -999.25 : NULL VALUE
COMP.                              CHESAPEAKE OPERATING  INC. : COMPANY 
DATE.                                             29-NOV-2005 : LOG DATE
#___________________________________________________________________________________________________ 
~CURVE INFORMATION 
# MNEM.UNIT           : CURVE DESCRIPTION 
#-----.-----          : ----------------------------- 
 DEPT.FT               : MEASURED DEPTH 
 CALI__B.IN            : CALIPER (CAL - CAL) 
 GR__B.API             : GAMMA RAY (GR) 
 DT__B.US/FT           : SONIC DELTA TRANSIT TIME (DT) 
 DPHI__B.V/V           : DENSITY POROSITY (DPHI) 
 NPHI__B.V/V           : NEUTRON POROSITY (NPHI) 
 RHOB__B.G/CC          : BULK DENSITY (RHOB) 
 #___________________________________________________________________________________________________ 
~A         DEPT        CALI__B          GR__B          DT__B        DPHI__B        NPHI__B        RHOB__B
# ...
         8036.0          9.674         88.462         74.300        0.08054        0.12442         2.5690
         8036.5          9.661         90.520         75.518        0.07456        0.12943         2.5810
         8037.0          9.649         92.578         76.713        0.08916        0.14179         2.5720
         8037.5          9.637         92.344         77.527        0.10449        0.15083         2.5520
         8038.0          9.624         89.590         77.921        0.10813        0.15269         2.5370
         8038.5          9.613         89.792         77.887        0.11134        0.15697         2.5270
         8039.0          9.613         91.063         77.797        0.12111        0.16549         2.5160
         8039.5          9.613         92.334         77.425        0.12600        0.16683         2.5160
         8040.0          9.613         92.458         76.770        0.12360        0.16408         2.5220
         8040.5          9.613         95.427         76.129        0.11656        0.16034         2.5280
         8041.0          9.613        101.863         75.488        0.11467        0.15985         2.5380
         8041.5          9.623        103.802         75.066        0.09844        0.16046         2.5560
         8042.0          9.639        100.024         75.559        0.08544        0.15770         2.5730
         8042.5          9.656         96.242         76.168        0.07889        0.15159         2.5760
         8043.0          9.673         94.926         75.843        0.08865        0.15774         2.5580
         8043.5          9.688         94.389         75.380        0.10462        0.16742         2.5400
         8044.0          9.699         93.440         74.441        0.11436        0.17230         2.5220
         8044.5          9.709         87.508         70.682        0.11886        0.16596         2.5350
         8045.0          9.720         81.576         68.087        0.11280        0.14839         2.5540
         8045.5          9.723         73.232         67.921        0.09803        0.13310         2.5720
         8046.0          9.688         62.754         69.013        0.08426        0.11781         2.5750
         8046.5          9.653         60.511         70.584        0.08340        0.11083         2.5660
         8047.0          9.619         66.529         71.690        0.09544        0.11797         2.5560
         8047.5          9.584         75.738         72.321        0.10752        0.13827         2.5460
         8048.0          9.550         82.343         72.829        0.10876        0.15158         2.5360
         8048.5          9.552         83.196         71.850        0.09604        0.16106         2.5500
         8049.0          9.567         84.014         70.173        0.09509        0.17986         2.5470
         8049.5          9.581         85.122         70.779        0.09534        0.19806         2.5180
         8050.0          9.588         81.273         75.693        0.12195        0.19269         2.4880
         8050.5          9.593         73.085         80.391        0.19257        0.18221         2.2270
         8051.0          9.597         65.248         83.003        0.29085        0.18165         2.1580
         8051.5          9.749         60.192         83.848        0.35260        0.21568         2.2140
         8052.0          9.978         64.801         82.929        0.35602        0.23063         2.2690
         8052.5         10.208         71.104         81.663        0.21566        0.21850         2.4870
         8053.0          9.960         75.706         80.397        0.13307        0.18507         2.5230
         8053.5          9.613         82.187         79.761        0.08891        0.15959         2.5580
         8054.0          9.623         89.806         79.271        0.09863        0.15452         2.5610
         8054.5          9.649         97.977         79.304        0.11421        0.17474         2.5420
         8055.0          9.674        102.334         79.545        0.12190        0.19107         2.5240
         8055.5          9.699        101.715         79.888        0.11495        0.19759         2.5590
         8056.0          9.712         97.947         79.767        0.09089        0.18801         2.5490
         8056.5          9.706         95.098         79.332        0.09734        0.17575         2.5380
         8057.0          9.700         92.249         78.551        0.10909        0.16349         2.5280
         8057.5          9.637         91.290         76.123        0.12304        0.15465         2.5170
         8058.0          9.574         90.531         72.676        0.12610        0.14590         2.5130
         8058.5          9.530         86.163         69.115        0.12234        0.13715         2.5280
         8059.0          9.494         80.226         68.676        0.10445        0.12840         2.5600
         8059.5          9.474         74.290         69.183        0.08784        0.11974         2.5920
         8060.0          9.491         75.750         71.325        0.07255        0.11629         2.5710
         8060.5          9.507         80.159         74.272        0.07444        0.13538         2.5500
         8061.0          9.524         86.759         77.168        0.09010        0.15449         2.5290
         8061.5          9.540         95.701         78.714        0.11082        0.16486         2.5160
         8062.0          9.556        106.932         79.576        0.12121        0.17523         2.5130
         8062.5          9.559        116.395         80.108        0.12268        0.17888         2.5100
         8063.0          9.563        114.127         79.836        0.12168        0.17835         2.5080
         8063.5          9.566        107.172         79.239        0.12546        0.16935         2.5120
         8064.0          9.570         97.338         78.777        0.12326        0.15260         2.5190
         8064.5          9.567         92.670         78.461        0.11878        0.14926         2.5250
         8065.0          9.563         91.032         76.732        0.11313        0.15273         2.5310
         8065.5          9.559         91.878         74.673        0.11386        0.16043         2.5330
         8066.0          9.555         92.724         73.461        0.11257        0.15947         2.5340
         8066.5          9.551         92.064         72.946        0.10567        0.15188         2.5350
         8067.0          9.547         89.665         72.274        0.09569        0.14198         2.5500
         8067.5          9.543         90.009         71.601        0.09773        0.13555         2.5380
         8068.0          9.539         92.449         71.091        0.10630        0.14550         2.5390
         8068.5          9.535         95.099         70.362        0.11112        0.15330         2.5580
         8069.0          9.531         88.735         69.435        0.09019        0.15025         2.5770
         8069.5          9.527         78.314         68.875        0.08069        0.14255         2.5960
         8070.0          9.527         70.542         70.222        0.06425        0.12967         2.6160
         8070.5          9.527         73.979         71.937        0.05676        0.12716         2.5900
         8071.0          9.527         85.833         73.583        0.06678        0.13531         2.5620
         8071.5          9.527         97.480         75.128        0.09512        0.14553         2.5450
         8072.0          9.527        107.800         76.672        0.10632        0.16290         2.5380
         8072.5          9.539        109.553         77.821        0.10547        0.18292         2.5320
         8073.0          9.553        111.307         78.786        0.11159        0.19878         2.5160
         8073.5          9.567        113.060         78.979        0.12502        0.20013         2.5010
