~VERSION INFORMATION
VERS. 2.0 : CWLS Log ASCII Standard - version 2.0
WRAP.  NO : One line per depth step
#--------------------------------------------------#
#----------------DRILLING INFO, INC.---------------#
#---------------WWW.DRILLINGINFO.COM---------------#
#------------------COPYRIGHT 2015------------------#
#--------------------------------------------------#
#THIS FILE MAY BE USED ONLY IN ACCORDANCE WITH A CURRENT SUBSCRIPTION AGREEMENT BETWEEN
#THE USER AND DRILLING INFO, INC. NO PART OF THIS FILE MAY BE REPRODUCED, USED, COPIED,
#MODIFIED, PROPAGATED, OR DISTRIBUTED EXCEPT IN ACCORDANCE WITH THE SUBSCRIPTION
#AGREEMENT. UNAUTHORIZED USE OR DISTRIBUTION OF ALL OR ANY PART OF THIS FILE MAY VIOLATE
#COPYRIGHT, TRADEMARK, AND/OR OTHER LAWS AND IS SUBJECT TO CIVIL AS WELL AS CRIMINAL
#SANCTIONS.
#--------------------------------------------------#
#THIS FILE IS PROVIDED "AS-IS" AND ALL WARRANTIES ARE EXPRESSLY DISCLAIMED, WHETHER
#EXPRESS, ORAL, IMPLIED, STATUTORY OR OTHERWISE, INCLUDING ANY IMPLIED WARRANTY OF FITNESS
#FOR A PARTICULAR PURPOSE, MERCHANTABILITY, TITLE OR NON-INFRINGEMENT, AND ANY WARRANTIES
#ARISING BY VIRTUE OF CUSTOM OF TRADE OR COURSE OF DEALING.  FURTHER, DRILLING INFO,
#INC. AND ITS LICENSORS DO NOT REPRESENT OR WARRANT THAT THIS FILE WILL MEET USER'S
#REQUIREMENTS OR ARE SUITABLE FOR USER'S NEEDS OR THAT THE DATA OR RESULTS PROVIDED IN
#CONJUNCTION THEREWITH ARE CORRECT, ACCURATE, TIMELY OR RELIABLE. THESE DISCLAIMERS SHALL
#APPLY REGARDLESS OF ANY FAILURE OF ESSENTIAL PURPOSE OF ANY LIMITED REMEDY.  SOME
#JURISDICTIONS DO NOT ALLOW THE EXCLUSION OF CERTAIN WARRANTIES SO SOME OF THE ABOVE
#EXCLUSIONS MAY NOT APPLY. IN NO EVENT SHALL DRILLING INFO, INC. OR ANY OF ITS AFFILIATES
#BE LIABLE UNDER ANY LEGAL THEORY, WHETHER IN TORT (INCLUDING WITHOUT LIMITATION
#NEGLIGENCE), CONTRACT, STRICT LIABILITY, STATUTORY OR OTHERWISE, FOR ANY SPECIAL,
#INCIDENTAL, CONSEQUENTIAL, EXEMPLARY, PUNITIVE OR INDIRECT DAMAGE OF ANY KIND, INCLUDING
#WITHOUT LIMITATION LOSS OF REVENUE, PROFITS, GOODWILL, USE, AND/OR DATA OR THE COST OF
#PROCUREMENT OF SUBSTITUTE GOODS OR SERVICES, EVEN IF APPRISED OF THE POSSIBILITY OF SUCH
#DAMAGES IN ADVANCE.
#--------------------------------------------------#
~WELL INFORMATION
#MNEMONIC     .UNIT              VALUE :DESCRIPTION
#--------------------------------------------------#
STRT       .FT                181 :START DEPTH
STOP       .FT                12231 :STOP DEPTH
STEP       .FT                   0.500 :STEP
NULL       .                  -999.250 :NULL
API        .                421093228700 :API NUMBER
COMP       .         CHESAPEAKE OPERATING  INC. :COMPANY
WELL       .        UNIVERSITY LANDS 4627  1 :WELL
DATE       .                06-May-2007 :LOG DATE
~CURVE INFORMATION
#MNEMONIC     .UNIT      API CODE :CURVE DESCRIPTION
#--------------------------------------------------#
DEPTH       .FT                      :Measured Depth
ILS.OHM        UNKNOWN   :ILS
GR.API        UNKNOWN   :GR
ILD.OHM        UNKNOWN   :ILD
CAL.INCH        UNKNOWN   :CAL
DT.US/FT        UNKNOWN   :DT
~A    DEPTH    ILS    GR    ILD    CAL    DT
# ...
 4160.5     -999.250   44.661   190.461   4.16   70.081
 4161     -999.250   44.656   218.106   4.159   75.188
 4161.5     -999.250   44.65   263.063   4.158   75.25
 4162     -999.250   44.645   252.861   4.157   72.279
 4162.5     -999.250   44.639   288.646   4.156   69.307
 4163     -999.250   44.633   578.982   4.156   66.336
 4163.5     -999.250   44.628   785.011   4.155   63.365
 4164     -999.250   44.622   946.283   4.154   60.393
 4164.5     -999.250   44.616   1241.323   4.153   57.422
 4165     -999.250   44.611   1264.816   4.152   56.328
 4165.5     -999.250   44.605   897.969   4.152   58.212
 4166     -999.250   44.599   880.295   4.151   61.23
 4166.5     -999.250   44.594   1118.857   4.15   62.451
 4167     -999.250   44.588   1231.337   4.149   63.671
 4167.5     -999.250   44.582   1019.027   4.148   64.892
 4168     -999.250   44.577   750.416   4.148   72.001
 4168.5     -999.250   44.571   481.806   4.147   86.319
 4169     -999.250   44.566   351.25   4.148   87.514
 4169.5     -999.250   44.56   269.646   4.149   87.601
 4170     -999.250   72.908   210.27   10.985   86.096
 4170.5     -999.250   64.995   193.763   10.987   84.319
 4171     -999.250   61.951   135.752   10.99   83.54
 4171.5     -999.250   58.907   102.919   10.992   83.383
 4172     -999.250   55.357   101.036   10.994   83.225
 4172.5     -999.250   50.705   110.11   10.996   80.879
 4173     -999.250   46.054   126.385   10.998   77.275
 4173.5     -999.250   43.839   142.65   11   73.671
 4174     -999.250   47.516   143.744   11.002   70.067
 4174.5     -999.250   58.618   144.839   11.004   70.364
 4175     -999.250   74.354   145.933   11.006   75.463
 4175.5     -999.250   84.453   -999.99   11.009   82.924
 4176     -999.250   89.738   -999.99   11.011   89.406
 4176.5     -999.250   89.568   -999.99   11.013   91.475
 4177     -999.250   89.398   -999.99   11.015   92.452
 4177.5     -999.250   86.18   -999.99   11.017   91.5
 4178     -999.250   76.374   -999.99   11.019   90.009
 4178.5     -999.250   60.863   -999.99   11.021   84.689
 4179     -999.250   48.353   -999.99   11.023   78.153
 4179.5     -999.250   46.328   -999.99   11.026   73.713
 4180     -999.250   53.016   -999.99   11.028   73.754
 4180.5     -999.250   60.448   -999.99   11.03   84.788
 4181     -999.250   61.579   -999.99   11.032   85.05
 4181.5     -999.250   57.325   -999.99   11.034   83.892
 4182     -999.250   51.976   -999.99   11.036   81.757
 4182.5     -999.250   50.773   -999.99   11.038   79.623
 4183     -999.250   53.71   -999.99   11.04   77.489
 4183.5     -999.250   61.288   -999.99   11.043   75.355
 4184     -999.250   72.897   -999.99   11.045   77.304
 4184.5     -999.250   76.322   -999.99   11.047   82.214
 4185     -999.250   79.283   -999.99   11.049   82.628
 4185.5     -999.250   74.889   -999.99   11.052   82.476
 4186     -999.250   67.117   -999.99   11.055   80.778
 4186.5     -999.250   59.667   -999.99   11.057   79.08
 4187     -999.250   52.854   -999.99   11.06   77.382
 4187.5     -999.250   48.504   -999.99   11.063   75.684
 4188     -999.250   45.091   -999.99   11.066   73.986
 4188.5     -999.250   50.576   -999.99   11.068   75.67
 4189     -999.250   61.597   -999.99   11.071   79.994
 4189.5     -999.250   72.849   -999.99   11.074   84.319
 4190     -999.250   84.193   -999.99   11.077   88.643
 4190.5     -999.250   88.469   -999.99   11.08   89.413
 4191     -999.250   83.002   -999.99   11.082   88.423
 4191.5     -999.250   77.101   -999.99   11.081   87.433
 4192     -999.250   71.199   -999.99   11.08   86.832
 4192.5     -999.250   73.366   -999.99   11.079   88.321
 4193     -999.250   77.932   -999.99   11.078   90.284
 4193.5     -999.250   80.258   -999.99   11.077   89.159
 4194     -999.250   79.4   -999.99   11.076   87.041
 4194.5     -999.250   74.607   -999.99   11.075   84.924
 4195     -999.250   66.015   -999.99   11.074   82.806
 4195.5     -999.250   57.284   -999.99   11.073   80.688
 4196     -999.250   53.902   -999.99   11.072   79.009
 4196.5     -999.250   53.954   -999.99   11.071   78.465
 4197     -999.250   54.785   -999.99   11.069   77.887
 4197.5     -999.250   53.456   -999.99   11.068   75.852
 4198     -999.250   45.967   -999.99   11.067   72.753
 4198.5     -999.250   37.846   -999.99   11.066   69.862
 4199     -999.250   31.666   -999.99   11.064   67.152
 4199.5     -999.250   26.195   -999.99   11.056   64.442
 4200     -999.250   23.002   -999.99   11.048   61.731
 4200.5     -999.250   21.632   -999.99   11.041   -999.250
 4201     -999.250   20.262   -999.99   11.033   -999.250
 4201.5     -999.250   18.892   -999.99   11.026   -999.250
 4202     -999.250   19.387   -999.99   11.018   -999.250
 4202.5     -999.250   24.079   -999.99   11.02   -999.250
 4203     -999.250   28.514   -999.99   11.031   -999.250
 4203.5     -999.250   32.949   -999.99   11.042   -999.250
 4204     -999.250   36.473   -999.99   11.05   -999.250
 4204.5     -999.250   39.825   -999.99   11.054   -999.250
 4205     -999.250   45.867   -999.99   11.059   -999.250
 4205.5     -999.250   62.773   -999.99   11.063   -999.250
 4206     -999.250   92.616   -999.99   11.147   -999.250
 4206.5     -999.250   109.55   -999.99   11.273   -999.250
 4207     82.51   122.383   34.057   11.308   -999.250
 4207.5     86.018   124.757   55.987   11.316   -999.250
 4208     98.825   119.732   69.618   11.324   -999.250
 4208.5     118.776   115.456   78.966   11.332   -999.250
 4209     125.106   111.18   83.488   11.34   -999.250
 4209.5     112.584   109.571   65.819   11.348   -999.250
 4210     103.704   109.864   63.171   11.356   -999.250
 4210.5     127.95   110.832   88.635   11.364   -999.250
 4211     144.473   109.499   99.552   11.372   -999.250
 4211.5     152.983   108.086   107.089   11.38   -999.250
 4212     140.649   110.284   106.677   11.388   -999.250
 4212.5     107.871   112.721   89.336   11.388   -999.250
 4213     107.498   111.619   81.303   11.388   -999.250
 4213.5     121.2   109.432   95.752   11.388   -999.250
 4214     111.019   109.299   95.59   11.388   -999.250
 4214.5     117.484   115.186   99.495   11.389   -999.250
 4215     154.958   122.421   128.754   11.394   -999.250
 4215.5     111.083   129.655   110.366   11.399   -999.250
 4216     75.541   130.935   74.948   11.403   -999.250
 4216.5     83.77   128.88   79.806   11.408   -999.250
 4217     123.409   126.732   134.483   11.413   -999.250
 4217.5     149.51   124.059   155.731   11.418   -999.250
 4218     117.324   120.445   130.611   11.423   -999.250
 4218.5     100.769   111.668   102.785   11.436   -999.250
 4219     117.977   95.51   128.382   11.449   -999.250
 4219.5     124.79   88.574   135.085   11.462   -999.250
 4220     100.56   88.393   118.004   11.475   -999.250
 4220.5     86.048   93.784   89.681   11.488   -999.250
 4221     93.371   99.672   92.453   11.501   -999.250
 4221.5     93.893   103.281   105.888   11.514   -999.250
 4222     79.918   104.803   76.983   11.527   -999.250
 4222.5     75.801   105.807   78.555   11.54   -999.250
 4223     82.23   106.518   87.003   11.542   -999.250
 4223.5     86.54   106.858   90.718   11.542   -999.250
 4224     87.592   106.774   88.132   11.542   -999.250
 4224.5     85.983   106.689   85.546   11.542   -999.250
 4225     83.661   105.454   80.332   11.542   -999.250
 4225.5     78.894   106.215   75.468   11.542   -999.250
 4226     74.548   107.799   72.008   11.524   -999.250
 4226.5     76.744   110.657   75.062   11.506   -999.250
 4227     80.033   113.568   78.117   11.489   -999.250
 4227.5     90.059   117.113   87.695   11.471   -999.250
 4228     98.683   120.635   102.629   11.454   -999.250
 4228.5     108.276   124.158   112.507   11.436   -999.250
 4229     93.671   124.885   100.104   11.418   -999.250
 4229.5     98.241   121.638   100.123   11.401   -999.250
 4230     117.997   118.39   152.194   11.387   -999.250
 4230.5     217.953   118.367   204.496   11.382   -999.250
