###############################################
##         ENVERUS                           ##
##         ESS - Open Hole                   ##
##         PERMIAN / DELAWARE                ##
##         Nov 02 2023  V4.0                 ##
##         42-109-30915-00-00                ##
###############################################
## Copyright 2017-2023  ENVERUS.  All Rights Reserved. 
## Confidential - Property of ENVERUS, use governed by terms and 
## conditions found within the existing Information Services Subscription Agreement 
## (as may be amended, the “ISSA”) between Customer and ENVERUS. 
## 
~VERSION INFORMATION
# MNEM.UNIT                               DATA : DESCRIPTION OF MNEMONIC
#-----.-----     ----------------------------- : -----------------------------
VERS.                                     2.00 : CWLS LOG ASCII STANDARD - VERSION 2.00
WRAP.                                       NO : MULTIPLE LINES PER DEPTH STEP
VEND.                                  ENVERUS : VENDOR
TYPE.                          ESS - OPEN HOLE : ENVERUS ESSENTIAL CURVES – ACCESSIBLE THROUGH ENVERUS PRISM(TM)
DOC.                                  32305988 : ENVERUS HEADER RAW DOCUMENT ID
#___________________________________________________________________________________________________ 
~WELL INFORMATION 
# YiEbrulvYUtXh1D3opxUtnvhUVpPAvxlEBgV2kjbCTHvWrxGcz1+vOa1jEIuqGtoxi0rQ+ZQV9RU/rHAPCAAKQ== 
# MNEM.UNIT                                              DATA : DESCRIPTION OF MNEMONIC 
#-----.-----                    ----------------------------- : ----------------------------- 
CNTY.                                               CULBERSON : COUNTY 
STATE.                                                  TEXAS : STATE 
CNTRY.                                                    USA : COUNTRY 
API.                                             42-109-30915 : API (10 Digit) 
API_14.                                    42-109-30915-00-00 : API (14 Digits) 
API_14_std.                                 42-109-30915-0000 : API (14 Digits Standard) 
UWI.                                           42109309150000 : UNIQUE WELL ID 
WELL.                             VELMA CASEY ROUNSAVILLE A 1 : WELL NAME
STRT.FT                                                  82.0 : START DEPTH
STOP.FT                                               11225.0 : STOP DEPTH
STEP.FT                                                   0.5 : STEP BETWEEN DEPTHS
NULL.                                                 -999.25 : NULL VALUE
#___________________________________________________________________________________________________ 
~CURVE INFORMATION 
# MNEM.UNIT           : CURVE DESCRIPTION 
#-----.-----          : ----------------------------- 
 DEPT.FT               : MEASURED DEPTH 
 CALI.IN               : CALIPER (CAL - CAL) 
 GR.API                : GAMMA RAY (GR) 
 DT.US/FT              : SONIC DELTA TRANSIT TIME (DT) 
 NPHI.V/V              : NEUTRON POROSITY (NPHI) 
 RHOB.G/CC             : BULK DENSITY (RHOB) 
 #___________________________________________________________________________________________________ 
~A         DEPT           CALI             GR             DT           NPHI           RHOB
# ...
         7914.0          7.535         81.486       -999.250        0.14980      -999.2500
         7914.5          7.535         84.112       -999.250        0.15452      -999.2500
         7915.0          7.535         81.446       -999.250        0.15885      -999.2500
         7915.5          7.535         78.780       -999.250        0.14488      -999.2500
         7916.0          7.535         76.113       -999.250        0.13585      -999.2500
         7916.5          7.535         73.447       -999.250        0.13248      -999.2500
         7917.0          7.535         70.781       -999.250        0.12912      -999.2500
         7917.5          7.535         72.338       -999.250        0.12576      -999.2500
         7918.0          7.535         74.816       -999.250        0.12239      -999.2500
         7918.5          7.535         77.293       -999.250        0.11903      -999.2500
         7919.0          7.535         79.771       -999.250        0.12531      -999.2500
         7919.5          7.535         82.248       -999.250        0.15248      -999.2500
         7920.0          7.535         84.726       -999.250        0.15612      -999.2500
         7920.5          7.535         86.338       -999.250        0.15976      -999.2500
         7921.0          7.535         86.629       -999.250        0.16340      -999.2500
         7921.5          7.535         86.921       -999.250        0.16705      -999.2500
         7922.0          7.534         87.212       -999.250        0.17069      -999.2500
         7922.5          7.534         87.504       -999.250        0.17413      -999.2500
         7923.0          7.534         87.796       -999.250        0.17185      -999.2500
         7923.5          7.534         88.087       -999.250        0.16956      -999.2500
         7924.0          7.534         88.379       -999.250        0.16727      -999.2500
         7924.5          7.534         88.670       -999.250        0.16498      -999.2500
         7925.0          7.534         87.913       -999.250        0.16269      -999.2500
         7925.5          7.534         87.063       -999.250        0.16040      -999.2500
         7926.0          7.534         86.213       -999.250        0.17041      -999.2500
         7926.5          7.534         85.363       -999.250        0.16814      -999.2500
         7927.0          7.534         84.513       -999.250        0.16209      -999.2500
         7927.5          7.534         83.663       -999.250        0.15603      -999.2500
         7928.0          7.534         82.812       -999.250        0.15595      -999.2500
         7928.5          7.534         81.962       -999.250        0.15853      -999.2500
         7929.0          7.534         81.112       -999.250        0.16111      -999.2500
         7929.5          7.534         80.262       -999.250        0.16369      -999.2500
         7930.0          7.534         79.412       -999.250        0.16627      -999.2500
         7930.5          7.533         80.385       -999.250        0.16885      -999.2500
         7931.0          7.533         82.230       -999.250        0.17143      -999.2500
         7931.5          7.533         84.075       -999.250        0.17401      -999.2500
         7932.0          7.533         85.920       -999.250        0.17443      -999.2500
         7932.5          7.533         87.766       -999.250        0.17195      -999.2500
         7933.0          7.533         87.983       -999.250        0.16946      -999.2500
         7933.5          7.533         87.480       -999.250        0.16698      -999.2500
         7934.0          7.533         86.977       -999.250        0.16449      -999.2500
         7934.5          7.533         86.474       -999.250        0.16201      -999.2500
         7935.0          7.533         85.971       -999.250        0.15952      -999.2500
         7935.5          7.533         85.467       -999.250        0.15986      -999.2500
         7936.0          7.533         84.964       -999.250        0.16138      -999.2500
         7936.5          7.533         85.987       -999.250        0.16290      -999.2500
         7937.0          7.533         87.809       -999.250        0.16443      -999.2500
         7937.5          7.533         89.631       -999.250        0.16595      -999.2500
         7938.0          7.533         91.453       -999.250        0.16747      -999.2500
         7938.5          7.533         93.275       -999.250        0.16900      -999.2500
         7939.0          7.532         95.097       -999.250        0.17052      -999.2500
         7939.5          7.532         95.631       -999.250        0.17205      -999.2500
         7940.0          7.532         92.320       -999.250        0.16646      -999.2500
         7940.5          7.532         89.009       -999.250        0.16026      -999.2500
         7941.0          7.532         85.698       -999.250        0.15405      -999.2500
         7941.5          7.532         82.659       -999.250        0.14784      -999.2500
         7942.0          7.532         82.603       -999.250        0.14164      -999.2500
         7942.5          7.532         82.547       -999.250        0.13543      -999.2500
         7943.0          7.532         82.491       -999.250        0.13165      -999.2500
         7943.5          7.532         82.435       -999.250        0.13841      -999.2500
         7944.0          7.532         82.378       -999.250        0.14516      -999.2500
         7944.5          7.532         82.322       -999.250        0.15192      -999.2500
         7945.0          7.532         80.057       -999.250        0.15867      -999.2500
         7945.5          7.532         77.003       -999.250        0.15580      -999.2500
         7946.0          7.532         73.950         82.488        0.14492      -999.2500
         7946.5          7.532         70.896         83.814        0.13405      -999.2500
         7947.0          7.532         67.843         85.139        0.12318      -999.2500
         7947.5          7.531         69.575         86.465        0.11230      -999.2500
         7948.0          7.531         72.010         87.790        0.10143      -999.2500
         7948.5          7.531         74.445         89.116        0.09757      -999.2500
         7949.0          7.531         76.879         89.266        0.10856      -999.2500
         7949.5          7.531         79.314         89.314        0.11955      -999.2500
         7950.0          7.531         81.749         87.339        0.13054      -999.2500
         7950.5          7.531         84.183         84.169        0.14153      -999.2500
         7951.0          7.531         86.618         80.999        0.15252      -999.2500
         7951.5          7.531         87.152         77.829        0.16351      -999.2500
         7952.0          7.531         83.319         74.659        0.16154      -999.2500
         7952.5          7.531         79.487         71.489        0.15188      -999.2500
         7953.0          7.531         75.655         71.146        0.14221      -999.2500
         7953.5          7.531         71.823         73.679        0.13255      -999.2500
         7954.0          7.531         67.990         76.213        0.12288      -999.2500
         7954.5          7.531         64.158         78.214        0.10148      -999.2500
         7955.0          7.531         60.326         73.377        0.08511      -999.2500
         7955.5          7.531         56.493         68.541        0.09951      -999.2500
         7956.0          7.530         58.604         63.705        0.11390      -999.2500
         7956.5          7.530         60.729         63.702        0.12830      -999.2500
         7957.0          7.530         62.854         65.398        0.12962      -999.2500
         7957.5          7.530         64.979         59.851        0.12756      -999.2500
