###############################################
##         ENVERUS                           ##
##         ESS - Open Hole                   ##
##         PERMIAN / DELAWARE                ##
##         Nov 02 2023  V4.0                 ##
##         42-109-31550-00-00                ##
###############################################
## Copyright 2017-2023  ENVERUS.  All Rights Reserved. 
## Confidential - Property of ENVERUS, use governed by terms and 
## conditions found within the existing Information Services Subscription Agreement 
## (as may be amended, the “ISSA”) between Customer and ENVERUS. 
## 
~VERSION INFORMATION
# MNEM.UNIT                               DATA : DESCRIPTION OF MNEMONIC
#-----.-----     ----------------------------- : -----------------------------
VERS.                                     2.00 : CWLS LOG ASCII STANDARD - VERSION 2.00
WRAP.                                       NO : MULTIPLE LINES PER DEPTH STEP
VEND.                                  ENVERUS : VENDOR
TYPE.                          ESS - OPEN HOLE : ENVERUS ESSENTIAL CURVES – ACCESSIBLE THROUGH ENVERUS PRISM(TM)
DOC.                                  22584426 : ENVERUS HEADER RAW DOCUMENT ID
#___________________________________________________________________________________________________ 
~WELL INFORMATION 
# ASdzl/zqz3tyMoI2i40d5lqA861uk+/GXWRvioHJ4uiq1sQ7a4yIDDt4z64Puw3+ifUTTkKIB4eyCaXtXAsvCw== 
# MNEM.UNIT                                              DATA : DESCRIPTION OF MNEMONIC 
#-----.-----                    ----------------------------- : ----------------------------- 
CNTY.                                               CULBERSON : COUNTY 
STATE.                                                  TEXAS : STATE 
CNTRY.                                                    USA : COUNTRY 
API.                                             42-109-31550 : API (10 Digit) 
API_14.                                    42-109-31550-00-00 : API (14 Digits) 
API_14_std.                                 42-109-31550-0000 : API (14 Digits Standard) 
UWI.                                           42109315500000 : UNIQUE WELL ID 
WELL.                                       UNIVERSITY_6-46-1 : WELL NAME
STRT.FT                                                 249.5 : START DEPTH
STOP.FT                                               10300.0 : STOP DEPTH
STEP.FT                                                   0.5 : STEP BETWEEN DEPTHS
NULL.                                                 -999.25 : NULL VALUE
COMP.                                    MONSANTO OIL COMPANY : COMPANY 
FLD.                                                  WILDCAT : FIELD 
DATE.                                              10/31/2016 : DATE 
TVD.                                                       NO : TVD FLAG 
WSTA.                                                     LOC : WELL STATUS
#___________________________________________________________________________________________________ 
~PARAMETER INFORMATION 
# MNEM.UNIT                                              DATA : DESCRIPTION OF MNEMONIC 
#-----.-----                    ----------------------------- : ----------------------------- 
RUN.                                                      ONE : RUN NUMBER 
PDAT.                                                      GL : PERMANENT DATUM 
LMF.                                            KELLY BUSHING : LOG MEASURED FROM
#___________________________________________________________________________________________________ 
~CURVE INFORMATION 
# MNEM.UNIT           : CURVE DESCRIPTION 
#-----.-----          : ----------------------------- 
 DEPT.FT               : MEASURED DEPTH 
 DT.US/FT              : SONIC DELTA TRANSIT TIME (DELTA-T) 
 RESS_LL.OHMM          : SHALLOW LATEROLOG (LLS - LATERO-LOG SHALLOW (RESISTIVITY)) 
 RESD_LL.OHMM          : DEEP LATEROLOG (LLD - LATERO-LOG DEEP (RESISTIVITY)) 
 #___________________________________________________________________________________________________ 
~A         DEPT             DT        RESS_LL        RESD_LL
# ...
         1503.5         63.801       376.1853       493.1850
         1504.0         63.862       408.8677       542.6040
         1504.5         64.403       428.2361       580.2681
         1505.0         65.065       461.1520       637.5989
         1505.5         65.817       496.7332       680.2809
         1506.0         66.209       529.9433       767.2724
         1506.5         65.667       561.6638       788.8781
         1507.0         64.403       581.2281       788.8781
         1507.5         62.327       570.5666       763.0985
         1508.0         60.642       524.9591       709.0522
         1508.5         60.251       484.0975       608.2224
         1509.0         60.582       444.3894       546.2806
         1509.5         60.943       412.6700       503.4350
         1510.0         61.424       397.6697       477.8650
         1510.5         62.006       379.4202       456.8841
         1511.0         62.869       372.7192       462.7559
         1511.5         63.970       376.1853       472.1885
         1512.0         65.020       397.6697       517.5288
         1512.5         65.885       446.6231       573.8772
         1513.0         66.571       505.8772       713.7441
         1513.5         66.329       614.4156       866.8412
         1514.0         64.794       694.5712       981.4864
         1514.5         62.297       728.6946      1071.9777
         1515.0         59.679       767.2724      1070.7183
         1515.5         57.031       739.3825      1071.4286
         1516.0         56.008       667.8026       890.8772
         1516.5         56.038       548.2086       767.2724
         1517.0         57.844       454.3398       570.5666
         1517.5         59.890       363.7216       432.2185
         1518.0         61.635       312.6078       401.7220
         1518.5         62.417       292.2494       380.1216
         1519.0         62.869       279.7426       340.1875
         1519.5         63.109       277.1651       336.7690
         1520.0         63.200       277.1651       330.4612
         1520.5         62.778       288.0751       342.9263
         1521.0         62.173       298.4691       355.7637
         1521.5         61.726       304.0462       369.5028
         1522.0         61.641       309.7275       372.8792
         1522.5         61.763       306.7249       383.2146
         1523.0         61.876       306.5634       383.2146
         1523.5         61.695       312.2480       383.2146
         1524.0         61.244       315.3361       394.0056
         1524.5         60.913       330.3656       412.6700
         1525.0         60.732       336.6361       428.2361
         1525.5         60.822       346.1154       452.6931
         1526.0         61.334       365.8824       482.9972
         1526.5         61.815       458.4917       872.3891
         1527.0         62.929       914.8113      1705.6996
         1527.5         63.771      1609.0059      2224.6472
         1528.0         63.801      1954.2483      2627.9855
         1528.5         63.982      2027.9636      3667.3012
         1529.0         64.463      2027.9636      3633.5110
         1529.5         65.065      2046.8228      3075.8466
         1530.0         67.081      1669.6984      2463.1012
         1530.5         72.708      1522.0784      2027.9636
         1531.0         72.227      1185.4802      1990.7648
         1531.5         72.738       985.1272      1253.1842
         1532.0         70.782       793.3874       967.0571
         1532.5         67.834       647.6711       826.2480
         1533.0         65.396       514.2935       643.5284
         1533.5         64.945       456.9030       487.4888
         1534.0         65.186       461.1520       501.2161
         1534.5         65.065       492.0223       524.9591
         1535.0         64.012       575.8727       594.5128
         1535.5         61.996       680.2809       716.1501
         1536.0         60.100       686.6073       818.1467
         1536.5         59.468       602.4262       719.1325
         1537.0         58.716       488.3758       614.4226
         1537.5         59.709       404.1830       524.9591
         1538.0         61.515       416.5076       465.4405
         1538.5         62.372       440.2948       492.0223
         1539.0         62.637       474.1376       605.5098
         1539.5         62.244       575.8727       760.2028
         1540.0         61.829       661.6495       897.4374
         1540.5         62.232       725.8201       958.1467
         1541.0         63.290       643.5284       838.8674
         1541.5         64.364       563.7232       692.9924
         1542.0         64.594       485.3217       611.5854
         1542.5         64.290       415.6574       532.9152
         1543.0         63.869       352.5828       423.8324
         1543.5         63.715       304.0462       349.3342
         1544.0         63.832       255.0102       307.1579
         1544.5         64.042       241.2870       282.3441
         1545.0         64.314       227.8404       265.2425
         1545.5         64.703       220.1511       249.3305
         1546.0         65.153       209.8396       239.7253
         1546.5         65.426       204.1418       236.5946
         1547.0         65.817       204.0630       234.4886
         1547.5         65.938       232.5705       241.2332
         1548.0         65.517       248.1113       290.2947
         1548.5         65.095       257.8195       306.8737
         1549.0         64.614       245.3666       292.9943
         1549.5         64.885       229.7584       269.5741
         1550.0         65.306       215.2878       258.7088
         1550.5         65.389       216.2129       250.3388
         1551.0         65.125       228.2004       279.1230
         1551.5         64.524       262.1911       313.4118
         1552.0         64.524       296.4727       350.0355
         1552.5         65.238       315.5150       382.3288
         1553.0         66.389       352.5828       455.2612
         1553.5         67.533       474.1376       594.0388
         1554.0         69.308       648.8261      1507.8457
         1554.5         70.301       994.2885      1468.7914
         1555.0         70.602      1387.5097      2641.7646
         1555.5         69.549      1508.0541      2631.4657
         1556.0         67.721      1318.6377      2354.5763
         1556.5         65.488      1100.8636      1941.8951
         1557.0         64.460       931.9051      1213.2340
         1557.5         64.979       620.1365       710.6539
         1558.0         66.239       359.1711       397.1792
         1558.5         67.104       309.7275       369.2850
         1559.0         67.292       304.0462       359.1711
         1559.5         65.607       304.0462       349.3342
         1560.0         64.525       297.0909       322.9016
         1560.5         64.337       277.1651       298.4691
         1561.0         64.551       243.4765       267.0903
         1561.5         65.153       236.8083       255.0102
         1562.0         65.306       230.3226       259.7753
         1562.5         65.125       250.3326       277.1651
         1563.0         65.155       279.7426       307.8899
         1563.5         65.840       301.2447       329.2616
         1564.0         66.564       336.6361       369.2850
         1564.5         66.381       390.5279       421.8990
         1565.0         64.873       428.5722       475.3989
         1565.5         63.380       452.9364       515.5150
         1566.0         62.237       452.6661       522.4342
         1566.5         62.086       453.0006       529.7461
         1567.0         62.718       428.2887       491.9932
         1567.5         63.320       424.1401       494.3683
         1568.0         63.862       424.2904       509.6372
         1568.5         65.938       478.5469       614.9916
         1569.0         68.616       544.7608       692.9924
