~Version Information Block
 VERS.                2.00:     CWLS LOG ASCII STANDARD - VERSION 2.000000
 WRAP.                  NO:     One Line Per Depth Step
#
~Well Information Block
#MNEM.UNIT                     Data                         Information
#----------   ------------------------------------------   ----------------
 STRT.F                                        31.0000:     START DEPTH
 STOP.F                                     15936.0000:     STOP DEPTH
 STEP.F                                         0.5000:     STEP
 NULL.                                       -999.2500:     NULL VALUE
 COMP.                             AMERCN QUASAR PETRO:     COMPANY
 WELL.                                    SCOTT UNIT 1:     WELL
 FLD .                                         WILDCAT:     FIELD
 LOC .        Survey  PSL              - Abs  6331     - Blk  45   - Section  19:     LOCATION
 CNTY.                                              TX:     COUNTY
 STAT.                                              TX:     STATE
 CTRY.                        UNITED STATES OF AMERICA:     COUNTRY
 SRVC.                                      GEOGRAPHIX:     SERVICE COMPANY
 DATE.                                                :     DATE
 API .                                  42109313620000:     API NUMBER
 UWI .                                  42109313620000:     UWI NUMBER
 TVD .                                              NO:     TVD flag
 WSTA.                                             LOC:     Well status
#
~Curve Information Block
#MNEM.UNIT       API CODE      Curve Description
#----------    -------------   -------------------
 DEPT.F                    :   Depth in Feet
 LLD .OHMM                 :   LATEROLOG DEEP
 GRS .GAPI                 :   GAMMA RAY FROM SONIC LOG
 CALS.IN                   :   CALIPER FROM SONIC LOG
 MSFL.OHMM                 :   MICRO SPHERICALLY FOCUSED
 LLS .OHMM                 :   LATEROLOG SHALLOW
 DT  .US/F                 :   DELTA TIME
#
~Parameter Information Block
#MNEM.UNIT            Value               Description
#----------    --------------------    -------------------
 RUN .                         ONE:    Run Number
 PDAT.                          GL:    Permanent Datum
 EPD .FT                          :    Elevation Of Perm. Datum
 LMF .               KELLY BUSHING:    Log Measured From
 EKB .FT                          :    Elevation Of Kelly Bushing
 DF .FT                           :    Elevation Of Derrick Floor
 GL .FT                           :    Elevation Of Ground Level
 TD  .FT                          :    Total Depth
 CSGD.FT                          :    Casing Bottom (Driller) 1
 CSGL.FT                          :    Casing Bottom (Logger) 1
 MUD .                            :    Drilling Fluid Type
 MUDV .CP                         :    Drilling Fluid Viscosity
 MUDD .LB/USG                     :    Drilling Fluid Density
 FL .ML/30MIN                     :    Drilling Fluid Loss
 PH.                              :    Drilling Fluid Ph
 MUDS .                           :    Mud Sample Source
 RM .OHMM                         :    Resistivity Of Mud Sample
 RMT .DEGF                        :    Mud Sample Temperature
 RMF .OHMM                        :    Mud Filtrate Resistivity
 RMFT.DEGF                        :    Mud Filtrate Sample Temperature
 RMC .OHMM                        :    Mud Cake Resistivity
 RMCT.DEGF                        :    Mud Cake Sample Temperature
 RMB .OHMM                        :    Mud Resistivity At Bht
 TMAX .DEGF                       :    Bottom Hole Temperature
#
~Other Information Block
<DescLogPlotStart>   NEURALOG PLOT DEFINITION
PLOTDEFVERSION: 3
LASFILE: E:\Nair Innovations\42_TEXAS\109_Culberson\42109313620000_1.las
DEPTHSCALE: 239.999996
RESOLUTION: 200
DEPTHLABELFREQ: 100.000000
HEAVYGRIDFREQ: 50.000000
MEDIUMGRIDFREQ: 50.000000
LIGHTGRIDFREQ: 10.000000
#
#   TRACK 1
#
STARTTRACK: 
 LEFTX: 0.500000 inch
 RIGHTX: 3.000000 inch
 SCALETYPE: Linear
 NUMCHARTDIVISIONS: 10
CURVE: GRS   1.504600   250.000000 (0,0,255)      Solid             2     N    
CURVE: CALS  6.474400   14.873500  (0,131,131)    Solid             2     N    
ENDTRACK: 
#
#   TRACK 2
#
STARTTRACK: 
 LEFTX: 3.500000 inch
 RIGHTX: 6.000000 inch
 SCALETYPE: Log
 NUMCYCLES: 4
 STARTCYCLE: 2
CURVE: LLS   0.200000   2000.000000 (255,0,0)      Solid             4     Y   
BACKUP: 2000.000000 20000000.000000 (255,0,0)      Solid             4    
BACKUP: 0.000020   0.200000   (255,0,0)      Solid             4    
CURVE: MSFL  0.200000   2000.000000 (0,131,131)    Solid             2     N   
ENDTRACK: 
#
#   TRACK 3
#
STARTTRACK: 
 LEFTX: 6.500000 inch
 RIGHTX: 9.000000 inch
 SCALETYPE: Linear
 NUMCHARTDIVISIONS: 10
CURVE: LLD   0.200000   2000.000000 (255,0,255)    Solid             4     N   
CURVE: DT    190.000000 50.000000  (255,0,131)    Solid             2     N    
ENDTRACK: 
<DescLogPlotEnd>
<DepthTrack type='Reference' track='1' Label='0' color='0' hor='0' />
<Reference font='144,0,-900,0,500,0,16777216,Arial' />
~A DEPTH     LLD              GRS              CALS             MSFL             LLS              DT              
# ...
   11406.000 11.10710000      72.86530000      7.20000000       15.18700000      15.80590000      64.60690000     
   11406.500 8.92210000       75.24500000      7.20290000       6.97190000       9.24540000       65.16720000     
   11407.000 8.79890000       75.25060000      7.23460000       6.52370000       8.61870000       65.02970000     
   11407.500 8.67740000       71.70750000      7.25910000       6.12020000       8.16720000       64.98480000     
   11408.000 8.55770000       66.98760000      7.25860000       5.73830000       8.30220000       65.16720000     
   11408.500 8.55650000       66.49720000      7.28840000       5.61200000       8.69270000       66.26140000     
   11409.000 9.95430000       76.76900000      7.30040000       6.41530000       9.29430000       68.35870000     
   11409.500 12.80520000      89.68660000      7.31770000       7.77840000       10.70420000      69.72640000     
   11410.000 16.32660000      96.64460000      7.28700000       9.30230000       14.27810000      70.09120000     
   11410.500 23.48620000      97.82760000      7.25630000       13.12320000      22.17080000      69.27050000     
   11411.000 28.91310000      91.59410000      7.25580000       42.31340000      23.84120000      67.72040000     
   11411.500 29.92590000      82.74400000      7.22520000       44.68070000      23.83750000      66.22620000     
   11412.000 27.44530000      74.45720000      7.22470000       23.83280000      23.18800000      64.74310000     
   11412.500 23.63040000      69.18240000      7.25450000       21.16880000      21.94450000      64.25530000     
   11413.000 19.48890000      66.91970000      7.25410000       19.60840000      17.13190000      64.27590000     
   11413.500 15.44510000      64.65700000      7.25360000       12.94090000      12.47010000      64.43770000     
   11414.000 11.88860000      62.39430000      7.25320000       7.60170000       11.33930000      64.37470000     
   11414.500 12.05180000      59.37860000      7.22250000       7.00520000       13.31820000      61.75120000     
   11415.000 14.81430000      57.49240000      7.22210000       7.05840000       14.98250000      58.91900000     
   11415.500 18.46240000      57.95590000      7.22160000       8.09970000       19.04910000      56.39430000     
   11416.000 25.33670000      63.34120000      7.22110000       11.58500000      33.59520000      56.10220000     
   11416.500 36.06660000      69.53540000      7.22070000       93.90470000      46.31820000      57.05170000     
   11417.000 59.26740000      77.00150000      7.22020000       48.49120000      51.08070000      59.69600000     
   11417.500 94.96580000      86.58260000      7.21980000       100.58310000     46.67440000      62.34040000     
   11418.000 71.07330000      94.72130000      7.21930000       63.41030000      37.97250000      63.52580000     
   11418.500 46.65010000      94.18600000      7.21890000       44.23080000      37.96750000      63.89060000     
   11419.000 40.42890000      91.62270000      7.21830000       42.24320000      40.10830000      63.52580000     
   11419.500 43.54190000      90.21460000      7.21790000       45.65920000      40.10300000      63.34350000     
   11420.000 46.08440000      89.45780000      7.21750000       49.28550000      40.09770000      63.62290000     
   11420.500 44.49830000      88.70030000      7.24730000       60.35480000      38.92390000      63.89060000     
   11421.000 31.97330000      80.41350000      7.24680000       62.86890000      37.05160000      63.89060000     
   11421.500 27.47640000      71.37370000      7.24640000       37.30670000      30.83550000      63.89060000     
   11422.000 18.68480000      67.60500000      7.24590000       17.49480000      12.28710000      63.65230000     
   11422.500 12.32450000      70.61340000      7.24550000       8.78870000       12.52030000      63.21880000     
   11423.000 13.05920000      74.37470000      7.24500000       9.81140000       13.30770000      62.93990000     
   11423.500 14.52600000      75.87710000      7.27480000       11.10490000      16.94560000      62.79640000     
   11424.000 20.03470000      74.36740000      7.27430000       11.92080000      21.28160000      62.79640000     
   11424.500 20.66300000      71.71760000      7.27390000       49.79370000      20.98820000      62.97870000     
   11425.000 18.79880000      70.56460000      7.27340000       20.28160000      19.59150000      63.34350000     
   11425.500 11.32930000      69.73270000      7.28490000       14.18800000      12.27510000      63.70820000     
   11426.000 9.97010000       67.73410000      7.30270000       11.08560000      9.45220000       63.89060000     
   11426.500 9.06300000       64.29380000      7.30230000       6.93380000       9.58180000       63.34350000     
   11427.000 9.86750000       56.25750000      7.33200000       6.76170000       10.73890000      61.51980000     
   11427.500 11.52280000      50.45940000      7.36180000       6.91820000       11.93590000      59.33130000     
   11428.000 11.05510000      50.11090000      7.36130000       10.94610000      11.05070000      58.60180000     
   11428.500 9.90080000       56.11670000      7.36080000       121.77830000     10.14380000      59.77330000     
   11429.000 9.49900000       65.87060000      7.36040000       20.61770000      9.70800000       61.91200000     
   11429.500 9.23980000       76.38550000      7.32970000       6.48590000       10.03570000      63.82070000     
   11430.000 9.62810000       77.61150000      7.29910000       6.38550000       11.38040000      64.85150000     
   11430.500 11.08620000      75.82400000      7.29860000       12.91110000      13.31230000      64.56050000     
   11431.000 13.33330000      72.80830000      7.26800000       13.45160000      13.49440000      63.67880000     
   11431.500 16.77750000      72.05160000      7.26750000       12.25030000      14.06070000      62.99780000     
   11432.000 17.15660000      70.54190000      7.26190000       11.55970000      14.05880000      62.56890000     
   11432.500 16.39840000      72.79730000      7.23640000       27.14070000      14.05700000      62.95130000     
   11433.000 13.93810000      75.80560000      7.23600000       10.60630000      13.30310000      63.52580000     
   11433.500 11.76330000      78.07310000      7.23550000       6.89000000       10.09730000      63.70820000     
   11434.000 10.95520000      78.81040000      7.23500000       13.96790000      9.01380000       63.89060000     
   11434.500 10.44400000      75.60090000      7.23460000       9.27090000       6.49080000       63.52580000     
   11435.000 10.15900000      72.37040000      7.23410000       6.75420000       6.32890000       62.43160000     
   11435.500 10.44120000      70.33510000      7.23360000       6.57040000       6.44460000       61.88450000     
   11436.000 11.33880000      71.61590000      7.23320000       6.75330000       7.60560000       61.88340000     
   11436.500 13.93790000      78.32990000      7.20250000       8.89350000       15.34840000      62.64040000     
   11437.000 18.10260000      82.71230000      7.17190000       17.00940000      18.62290000      63.56410000     
   11437.500 20.20760000      82.95720000      7.17140000       29.69950000      17.49080000      64.13320000     
   11438.000 18.09740000      81.59860000      7.17100000       28.63190000      13.65490000      64.70210000     
   11438.500 12.46370000      81.03540000      7.20080000       12.77660000      11.89960000      65.21940000     
   11439.000 11.44590000      80.27790000      7.20030000       8.35090000       11.73550000      65.53190000     
   11439.500 11.32800000      80.27430000      7.19980000       6.77100000       12.56890000      65.07270000     
   11440.000 13.34990000      79.14110000      7.19940000       9.50130000       16.31820000      63.55520000     
   11440.500 18.81910000      70.10130000      7.22920000       22.86120000      19.88150000      62.47280000     
