###############################################
##         ENVERUS                           ##
##         ESS - Open Hole                   ##
##         PERMIAN / DELAWARE                ##
##         Nov 03 2023  V4.0                 ##
##         42-109-32507-90-00                ##
###############################################
## Copyright 2017-2023  ENVERUS.  All Rights Reserved. 
## Confidential - Property of ENVERUS, use governed by terms and 
## conditions found within the existing Information Services Subscription Agreement 
## (as may be amended, the “ISSA”) between Customer and ENVERUS. 
## 
~VERSION INFORMATION
# MNEM.UNIT                               DATA : DESCRIPTION OF MNEMONIC
#-----.-----     ----------------------------- : -----------------------------
VERS.                                     2.00 : CWLS LOG ASCII STANDARD - VERSION 2.00
WRAP.                                       NO : MULTIPLE LINES PER DEPTH STEP
VEND.                                  ENVERUS : VENDOR
TYPE.                          ESS - OPEN HOLE : ENVERUS ESSENTIAL CURVES – ACCESSIBLE THROUGH ENVERUS PRISM(TM)
DOC.                                  51094130 : ENVERUS HEADER RAW DOCUMENT ID
#___________________________________________________________________________________________________ 
~WELL INFORMATION 
# OeTAuI96vYP/1gAnXdiC+b2e5mg9bdq0rVS4GA6NX+ctg1PKQ5RhcqUsdOd2aOUDNf5EtC5635oDT1THDUi6iw== 
# MNEM.UNIT                                              DATA : DESCRIPTION OF MNEMONIC 
#-----.-----                    ----------------------------- : ----------------------------- 
CNTY.                                               CULBERSON : COUNTY 
STATE.                                                  TEXAS : STATE 
CNTRY.                                                    USA : COUNTRY 
API.                                             42-109-32507 : API (10 Digit) 
API_14.                                    42-109-32507-90-00 : API (14 Digits) 
API_14_std.                                 42-109-32507-9000 : API (14 Digits Standard) 
UWI.                                           42109325079000 : UNIQUE WELL ID 
WELL.                               42109325070000_PREV_API14 : WELL NAME
STRT.FT                                                2104.5 : START DEPTH
STOP.FT                                                9085.0 : STOP DEPTH
STEP.FT                                                   0.5 : STEP BETWEEN DEPTHS
NULL.                                                 -999.25 : NULL VALUE
PREV_APII.                                     42109325070000 : WELL IDENTIFIER
#___________________________________________________________________________________________________ 
~PARAMETER INFORMATION 
# MNEM.UNIT                                              DATA : DESCRIPTION OF MNEMONIC 
#-----.-----                    ----------------------------- : ----------------------------- 
EKB.FT                                                 3578.5 : ELEVATION ABOVE MSL
#___________________________________________________________________________________________________ 
~CURVE INFORMATION 
# MNEM.UNIT           : CURVE DESCRIPTION 
#-----.-----          : ----------------------------- 
 DEPT.FT               : MEASURED DEPTH 
 GR__A.API             : GAMMA RAY (GAMMA RAY) 
 DT__A.US/FT           : SONIC DELTA TRANSIT TIME (SONIC) 
 #___________________________________________________________________________________________________ 
~A         DEPT          GR__A          DT__A
# ...
         7585.5         46.256        160.690
         7586.0         53.151        156.789
         7586.5         64.516        152.683
         7587.0         88.498        139.888
         7587.5        121.292        117.140
         7588.0        159.071        100.191
         7588.5        186.154         95.218
         7589.0        213.221         93.866
         7589.5        217.058         93.301
         7590.0        205.798         96.228
         7590.5        191.798        101.799
         7591.0        174.571        103.213
         7591.5        163.725        103.408
         7592.0        155.898        104.284
         7592.5        150.053        105.691
         7593.0        146.199        104.771
         7593.5        153.361        104.088
         7594.0        169.734        101.778
         7594.5        175.867         99.509
         7595.0        175.021        101.655
         7595.5        168.096        102.666
         7596.0        159.563        104.087
         7596.5        157.895        104.576
         7597.0        161.014        103.691
         7597.5        160.398        102.711
         7598.0        158.047        102.511
         7598.5        155.058        101.850
         7599.0        151.656        101.850
         7599.5        148.442        102.240
         7600.0        140.067        101.903
         7600.5        137.622        100.480
         7601.0        147.417         99.124
         7601.5        156.584         98.734
         7602.0        158.675         99.094
         7602.5        149.691        107.827
         7603.0        136.950        119.925
         7603.5        128.910        123.156
         7604.0        127.863        123.278
         7604.5        132.940        121.617
         7605.0        154.948        100.421
         7605.5        192.064         85.532
         7606.0        219.631         83.350
         7606.5        222.566         83.178
         7607.0        196.553         90.823
         7607.5        164.927         98.308
         7608.0        161.485         92.267
         7608.5        175.718         89.999
         7609.0        196.930         86.351
         7609.5        224.064         74.287
         7610.0        228.664         90.035
         7610.5        206.489        103.805
         7611.0        149.894        105.042
         7611.5        137.005        107.296
         7612.0        149.882        108.756
         7612.5        153.030        105.347
         7613.0        149.318        106.134
         7613.5        149.528        106.224
         7614.0        153.939        104.466
         7614.5        160.466        104.751
         7615.0        157.527        107.890
         7615.5        153.421        111.908
         7616.0        143.662        116.170
         7616.5        121.518        126.551
         7617.0        120.604        111.355
         7617.5        160.802        101.958
         7618.0        184.331        102.008
         7618.5        164.764        107.199
         7619.0        129.578        117.945
         7619.5        125.333        110.182
         7620.0        179.058        100.258
         7620.5        209.333         96.227
         7621.0        205.073         97.259
         7621.5        169.887        104.970
         7622.0        149.299        104.567
         7622.5        156.266        101.533
         7623.0        176.578         95.234
         7623.5        187.021         91.527
         7624.0        181.221         98.378
         7624.5        166.787        103.369
         7625.0        161.493        104.315
         7625.5        170.591         93.899
         7626.0        180.345         85.571
         7626.5        214.594         89.228
         7627.0        205.160         97.096
         7627.5        160.724        104.642
         7628.0        145.650        110.693
         7628.5        155.179        113.255
         7629.0        158.820        111.937
         7629.5        161.988        111.830
         7630.0        162.963        112.756
         7630.5        161.966        113.036
         7631.0        156.496        111.513
         7631.5        158.654        107.271
         7632.0        172.183        103.866
         7632.5        182.066        102.139
         7633.0        165.554        119.032
         7633.5        125.906        137.291
         7634.0         83.029        147.329
         7634.5         68.423        152.423
         7635.0         63.426        154.592
         7635.5         47.557        155.766
         7636.0         39.810        156.378
         7636.5         33.950        155.833
         7637.0         31.989        152.114
         7637.5         32.350        153.452
         7638.0         38.994        150.915
         7638.5         93.941        134.282
         7639.0        155.743        110.942
         7639.5        213.172         73.887
         7640.0        224.297         68.964
         7640.5        229.537         75.243
         7641.0        222.855         80.868
         7641.5        213.737         87.630
         7642.0        206.531         92.161
         7642.5        189.191         94.542
         7643.0        176.425         97.004
         7643.5        162.831         99.293
         7644.0        154.632        105.038
         7644.5        155.749        107.187
         7645.0        164.661        103.867
         7645.5        175.374        102.008
         7646.0        204.850         95.523
         7646.5        217.356         92.040
         7647.0        217.701         97.657
         7647.5        216.990         99.626
         7648.0        222.070         99.200
         7648.5        229.986         93.679
         7649.0        234.048         91.399
         7649.5        236.919         91.081
         7650.0        233.846         92.662
         7650.5        204.599         96.357
         7651.0        170.964         99.829
         7651.5        164.203        102.541
         7652.0        164.912        104.352
         7652.5        159.249        104.211
         7653.0        154.032        103.426
         7653.5        157.481        103.213
         7654.0        159.467        103.402
         7654.5        154.779        104.868
         7655.0        145.007        108.390
         7655.5        142.300        112.297
         7656.0        141.876        114.551
         7656.5        135.191        116.782
         7657.0        131.774        117.653
         7657.5        132.623        118.208
         7658.0        132.472        118.833
         7658.5        129.101        120.221
         7659.0        126.601        121.766
         7659.5        125.420        121.909
         7660.0        124.367        121.034
         7660.5        131.777        118.556
         7661.0        147.171        105.044
         7661.5        165.284         92.995
         7662.0        185.158         87.046
         7662.5        274.082         75.293
         7663.0        284.768         75.715
         7663.5        256.710         86.884
         7664.0        225.009         92.613
         7664.5        207.880         92.970
         7665.0        218.053         91.443
         7665.5        225.233         91.944
         7666.0        212.912        105.684
         7666.5        153.190        119.874
         7667.0        126.911        132.590
         7667.5        100.886        139.338
         7668.0         91.535        137.331
         7668.5         83.362        134.404
         7669.0         80.702        133.619
         7669.5         82.592        134.050
         7670.0         82.289        135.526
         7670.5         76.893        137.090
         7671.0         74.464        134.475
         7671.5         76.860        129.656
         7672.0         86.226        124.626
