###############################################
##         ENVERUS                           ##
##         ESS - Open Hole                   ##
##         PERMIAN / DELAWARE                ##
##         Nov 02 2023  V4.0                 ##
##         42-109-31448-00-00                ##
###############################################
## Copyright 2017-2023  ENVERUS.  All Rights Reserved. 
## Confidential - Property of ENVERUS, use governed by terms and 
## conditions found within the existing Information Services Subscription Agreement 
## (as may be amended, the “ISSA”) between Customer and ENVERUS. 
## 
~VERSION INFORMATION
# MNEM.UNIT                               DATA : DESCRIPTION OF MNEMONIC
#-----.-----     ----------------------------- : -----------------------------
VERS.                                     2.00 : CWLS LOG ASCII STANDARD - VERSION 2.00
WRAP.                                       NO : MULTIPLE LINES PER DEPTH STEP
VEND.                                  ENVERUS : VENDOR
TYPE.                          ESS - OPEN HOLE : ENVERUS ESSENTIAL CURVES – ACCESSIBLE THROUGH ENVERUS PRISM(TM)
DOC.                                  31981796 : ENVERUS HEADER RAW DOCUMENT ID
#___________________________________________________________________________________________________ 
~WELL INFORMATION 
# ZFHslD71edIju97HcKZ52TF5U8X6gSJhIkoGhJkY8ckYnZzQD/y6zifgDis2Hn4asra90GxYkgpqCQaJUi2DCw== 
# MNEM.UNIT                                              DATA : DESCRIPTION OF MNEMONIC 
#-----.-----                    ----------------------------- : ----------------------------- 
CNTY.                                               CULBERSON : COUNTY 
STATE.                                                  TEXAS : STATE 
CNTRY.                                                    USA : COUNTRY 
API.                                             42-109-31448 : API (10 Digit) 
API_14.                                    42-109-31448-00-00 : API (14 Digits) 
API_14_std.                                 42-109-31448-0000 : API (14 Digits Standard) 
UWI.                                           42109314480000 : UNIQUE WELL ID 
WELL.                                               TRIKEN  1 : WELL NAME
STRT.FT                                                   4.0 : START DEPTH
STOP.FT                                               13097.0 : STOP DEPTH
STEP.FT                                                   0.5 : STEP BETWEEN DEPTHS
NULL.                                                 -999.25 : NULL VALUE
COMP.                                             MARALO  LLC : COMPANY 
DATE.                                             04-NOV-1984 : LOG DATE
#___________________________________________________________________________________________________ 
~CURVE INFORMATION 
# MNEM.UNIT           : CURVE DESCRIPTION 
#-----.-----          : ----------------------------- 
 DEPT.FT               : MEASURED DEPTH 
 CALI.IN               : CALIPER (CAL - CAL) 
 GR.API                : GAMMA RAY (GR) 
 DT.US/FT              : SONIC DELTA TRANSIT TIME (DT) 
 #___________________________________________________________________________________________________ 
~A         DEPT           CALI             GR             DT
# ...
         6472.0          9.947        115.939         79.700
         6472.5          9.965        118.328         77.813
         6473.0          9.983        111.445         75.926
         6473.5         10.001         93.587         74.040
         6474.0         10.019         81.223         77.944
         6474.5         10.028         90.974         82.220
         6475.0         10.026        100.724         86.496
         6475.5         10.025        110.474         90.771
         6476.0         10.024        117.933         95.047
         6476.5         10.023        113.503         93.608
         6477.0         10.021        109.073         91.196
         6477.5         10.020        104.643         88.784
         6478.0         10.019        100.213         86.444
         6478.5         10.018         95.783         85.054
         6479.0         10.017        112.726         83.664
         6479.5         10.015        129.382         82.274
         6480.0         10.014        148.388         80.884
         6480.5         10.013        161.695         78.781
         6481.0         10.012        143.713         75.346
         6481.5         10.010        125.732         71.912
         6482.0         10.009         96.059         68.477
         6482.5         10.008         90.209         65.043
         6483.0         10.007         84.295         61.608
         6483.5         10.006         73.352         58.173
         6484.0         10.004         62.409         58.577
         6484.5         10.003         51.465         59.884
         6485.0         10.002         40.522         61.192
         6485.5         10.002         29.578         68.661
         6486.0         10.001         31.427         75.491
         6486.5         10.001         51.679         76.360
         6487.0         10.001         71.930         77.229
         6487.5         10.001        106.721         78.098
         6488.0         10.000        105.639         78.967
         6488.5         10.000         97.132         79.003
         6489.0         10.000         88.625         78.334
         6489.5          9.999         84.680         77.665
         6490.0          9.999         86.772         76.996
         6490.5          9.999         88.864         76.327
         6491.0          9.999         88.828         75.658
         6491.5          9.998         84.779         74.380
         6492.0          9.998         80.730         73.011
         6492.5          9.998         76.680         71.643
         6493.0          9.998         72.631         72.064
         6493.5          9.997         68.582         73.169
         6494.0          9.997         64.533         74.274
         6494.5          9.997         70.494         75.380
         6495.0          9.997         78.789         76.485
         6495.5          9.996         87.084         77.590
         6496.0          9.996         95.380         76.863
         6496.5          9.996         93.612         74.905
         6497.0          9.995         88.066         71.639
         6497.5          9.995         82.519         65.228
         6498.0          9.995         78.220         58.817
         6498.5          9.995         74.136         60.591
         6499.0          9.994         58.851         66.112
         6499.5          9.994         43.566         71.632
         6500.0          9.994         28.281         75.304
         6500.5          9.994         34.221         76.172
         6501.0          9.993         66.065         77.040
         6501.5          9.993         82.173         77.909
         6502.0          9.993         83.471         78.777
         6502.5          9.993         84.768         79.645
         6503.0          9.992         86.066         80.514
         6503.5          9.992         90.500         81.382
         6504.0          9.992         95.778         81.049
         6504.5          9.991        101.056         79.919
         6505.0          9.991         98.270         78.789
         6505.5          9.991         93.375         77.029
         6506.0          9.991         88.480         74.417
         6506.5          9.990         83.585         71.805
         6507.0          9.990         78.690         69.193
         6507.5          9.990         73.795         66.581
         6508.0          9.990         62.064         63.969
         6508.5          9.989         49.214         68.682
         6509.0          9.989         36.365         74.478
         6509.5          9.989         53.497         80.274
         6510.0          9.989         70.723         78.886
         6510.5          9.988         87.948         77.472
         6511.0          9.988        105.174         76.059
         6511.5          9.988        102.457         74.646
         6512.0          9.987         89.933         69.471
         6512.5          9.987         77.409         61.780
         6513.0          9.987         64.885         59.059
         6513.5          9.987         52.361         61.577
         6514.0          9.986         39.837         64.094
         6514.5          9.986         27.313         66.612
         6515.0          9.986         28.986         69.130
         6515.5          9.986         43.045         71.647
         6516.0          9.985         57.103         71.650
         6516.5          9.985         67.518         71.258
         6517.0          9.985         63.949         70.867
         6517.5          9.985         60.380         70.476
         6518.0          9.984         56.811         70.085
         6518.5          9.984         58.800         69.694
         6519.0          9.984         61.071         66.848
         6519.5          9.983         63.342         64.712
         6520.0          9.983         62.927         62.575
         6520.5          9.983         54.822         60.439
         6521.0          9.983         46.717         58.302
         6521.5          9.982         38.611         56.428
         6522.0          9.982         30.506         58.585
         6522.5          9.982         22.401         60.742
         6523.0          9.982         21.031         62.898
         6523.5          9.981         21.287         65.055
         6524.0          9.981         23.268         67.212
         6524.5          9.981         29.360         69.368
         6525.0          9.981         35.452         71.525
         6525.5          9.980         41.545         72.493
         6526.0          9.980         47.637         72.924
         6526.5          9.980         53.729         73.355
         6527.0          9.979         63.849         73.786
         6527.5          9.979         72.622         74.217
         6528.0          9.979         76.202         74.649
         6528.5          9.979         79.783         73.140
         6529.0          9.978         75.310         70.955
         6529.5          9.978         68.802         68.770
         6530.0          9.978         62.276         66.585
         6530.5          9.978         55.749         65.816
         6531.0          9.977         49.223         71.149
         6531.5          9.977         42.696         76.482
         6532.0          9.977         81.723         74.893
         6532.5          9.977         78.612         73.275
         6533.0          9.976         75.501         71.658
         6533.5          9.976         78.980         66.642
         6534.0          9.976         82.835         61.205
         6534.5          9.975         79.906         57.149
         6535.0          9.975         70.710         58.261
         6535.5          9.975         61.514         59.373
         6536.0          9.975         52.319         60.484
         6536.5          9.974         43.123         61.596
         6537.0          9.974         33.927         62.708
         6537.5          9.974         34.162         60.847
