# Exported from Transform Software 5.2.0 on 21-Oct-2019 by user kathryn.gehrke
# DI Transform - A Product of Drillinginfo, Inc. - www.drillinginfo.com
#
~VERSION INFORMATION
 VERS.        2.0 : LAS ASCII STANDARD - VERSION 2.0
 WRAP.         NO : ONE LINE PER DEPTH STEP

~WELL INFORMATION
#MNEM.UNIT       DATA TYPE       INFORMATION
#---------       ---------       -----------
 STRT.ft                  30 : Start Depth
 STOP.ft                9000 : Stop Depth
 STEP.ft                 0.5 : Step Length
 NULL.               -999.25 : Null Value
 COMP.                       : Company
 WELL.  42109330470000_API14 : Well Name
 FLD.                        : Field Name
 LOC.                        : Well Location
 CNTY.                       : County
 STAT.                       : State or Province
 CTRY.                       : Country
 SRVC.                       : Service Company
 DATE.                       : Date
 API.         42109330470000 : Well Identifier

~CURVE INFORMATION
#MNEM.UNIT       API CODE       CURVE DESCRIPTION
#---------       --------       -----------------
 DEPT.ft        : <Measured Depth>
 DT.us/ft       : Sonic
 GR.gAPI        : Gamma Ray

~PARAMETER INFORMATION
#MNEM.UNIT       VALUE       DESCRIPTION
#---------       -----       -----------
 EKB.ft      3201 : Elevation above MSL

~A      DEPT          DT          GR
# ...
      8384.5    323.2102     49.9331
        8385    323.2102     57.0685
      8385.5    323.2102     63.1894
        8386    323.2102     60.9348
      8386.5    323.2102     60.8255
        8387    323.2102     63.3213
      8387.5    323.2102     63.9552
        8388    323.2102     58.5226
      8388.5    323.2102     52.2528
        8389     323.202     56.3024
      8389.5     323.035     66.8936
        8390     323.035     61.6079
      8390.5     323.035     44.5817
        8391     323.035     36.8166
      8391.5     323.035     44.7377
        8392     323.035     52.5662
      8392.5     323.035     49.4775
        8393     323.035     44.1055
      8393.5     323.035       45.62
        8394     323.035     53.9383
      8394.5     323.035     61.6458
        8395     323.035     54.5238
      8395.5     323.035     40.0739
        8396     323.035     31.7863
      8396.5     323.035     37.4801
        8397     323.035     44.7049
      8397.5     323.035     48.1049
        8398     323.035     52.6029
      8398.5     323.035     61.4201
        8399     323.035     71.5187
      8399.5     323.035     74.0806
        8400     323.035     71.6662
      8400.5     323.035     64.6365
        8401     323.035     51.6487
      8401.5     323.035     42.1109
        8402     323.035     38.8792
      8402.5     323.035     38.4674
        8403     323.035     35.1656
      8403.5     323.035      33.512
        8404     323.035     35.7451
      8404.5     323.035      37.303
        8405     323.035     38.1098
      8405.5     323.035     39.8175
        8406     323.035     39.3471
      8406.5     323.035     35.0507
        8407     323.035     36.0286
      8407.5     323.035     38.2026
        8408     323.035     35.6868
      8408.5     323.035     34.5648
        8409     323.035     35.9895
      8409.5     323.035     35.5749
        8410     323.035     34.9387
      8410.5     323.035     36.4045
        8411     323.035      37.303
      8411.5     323.035     36.0994
        8412     323.035     33.8663
      8412.5     323.035     32.7276
        8413     323.035     36.8437
      8413.5     323.035     43.0176
        8414     323.035     49.4768
      8414.5     323.035      54.949
        8415     323.035     56.4799
      8415.5     323.035     59.4156
        8416     323.035       63.31
      8416.5     323.035     58.5955
        8417     323.035     48.7197
      8417.5     323.035     40.2524
        8418     323.035     36.8017
      8418.5     323.035     38.5094
        8419     323.035     41.2924
      8419.5     323.035      47.959
        8420     323.035     56.7675
      8420.5     323.035     52.3328
        8421     323.035     48.6749
      8421.5     323.035     54.3235
        8422     323.035     58.8956
      8422.5     323.035     58.7923
        8423     323.035      55.088
      8423.5     323.035     49.7021
        8424     323.035     44.8681
      8424.5     323.035      45.342
        8425     323.035     46.9958
      8425.5    322.9294     44.7627
        8426    322.8599     45.5013
      8426.5    323.2102     50.4929
        8427    323.2102      53.618
      8427.5     324.207     55.0071
        8428    323.2102     53.2993
      8428.5    323.2102     52.8021
        8429    323.2102     48.9814
      8429.5    323.2102     40.9232
        8430    323.2102     49.1516
      8430.5    323.2102     75.5548
        8431    323.2102    103.5046
      8431.5     323.035    114.0105
        8432     323.035    107.9927
      8432.5     323.035      92.916
        8433     323.035     83.0123
      8433.5     323.035     83.0123
        8434     323.035     79.1507
      8434.5     323.035      70.967
        8435     323.035     68.3012
      8435.5     323.035     66.9252
        8436     323.035     59.5379
      8436.5     323.035     57.0686
        8437     323.035      68.588
      8437.5     323.035     83.1405
        8438    322.8599     84.5562
      8438.5    322.8599     86.0318
        8439    322.8599    100.3817
      8439.5    322.8599    107.0488
        8440    322.8599     92.4342
      8440.5    322.8599     77.9859
        8441    322.8599     70.7942
      8441.5    322.8599     64.2259
        8442    322.8599     56.9035
      8442.5    322.8599     54.9037
        8443    322.8599     56.2858
      8443.5    322.8599     60.9179
        8444    322.8599     68.9656
      8444.5    322.8599     75.7266
        8445    322.8599     79.3696
      8445.5    322.8599     79.1678
        8446    322.8599     79.1429
      8446.5    322.8599     83.7763
        8447    322.8599     89.6876
      8447.5    322.8599     91.4414
        8448    322.8599     82.4949
      8448.5    322.8599     73.3141
        8449    322.8599     69.5411
      8449.5    322.8599     64.5495
        8450    322.8599     67.0598
      8450.5    322.8599     83.3114
        8451    322.8599     91.9816
      8451.5    322.8599     94.8157
        8452    322.8599    102.9046
      8452.5    322.8599    107.1804
        8453    322.8599    107.4431
      8453.5    322.8599    105.6197
        8454    322.8599     96.7022
      8454.5    322.8599     86.1789
        8455    322.8599     82.4084
      8455.5    322.8599      70.271
        8456    322.8599     47.7018
      8456.5    322.8599     27.7779
        8457    322.8599      32.935
      8457.5    322.8599     55.4885
        8458    322.8599     70.4028
      8458.5    322.8599     64.4608
        8459    322.8599     58.2779
      8459.5    322.8599     63.6468
        8460    322.8599     70.3202
      8460.5    322.8599     59.2934
        8461    322.8599     51.8347
      8461.5    322.6848     60.7612
        8462    322.6848     69.4784
      8462.5    322.6848     69.8774
        8463    322.6848     68.1737
      8463.5    322.6848      60.338
        8464    322.6848     49.6548
      8464.5    322.6848     40.2828
        8465    322.6848     34.2833
      8465.5    322.6848     36.9518
        8466    322.6848     52.2326
      8466.5    322.6848     73.2941
        8467    322.6848      86.604
      8467.5    322.6848     89.6667
        8468    322.6848     87.4781
      8468.5    322.8599     89.9319
        8469    322.8599     89.1371
      8469.5    322.8599     77.8403
        8470    322.8599     71.0547
      8470.5    322.8599     65.5831
        8471    322.8599     63.7101
      8471.5    322.8599     68.3932
        8472    322.8599     72.5968
      8472.5    322.8599     76.8004
        8473    322.8599      82.364
      8473.5    322.8599     89.9452
        8474    322.8599     98.5309
      8474.5    322.8599    103.9335
        8475    322.8599     97.2708
      8475.5    322.8599     94.5825
        8476    322.8599    106.0349
      8476.5    322.8599    121.2956
        8477    322.8599    114.9593
      8477.5    322.8599      90.077
        8478    322.8599     80.9594
      8478.5    322.8599     86.8855
        8479    322.8599     89.3834
      8479.5    322.8599     71.3055
        8480    322.8599      54.344
      8480.5    322.8599      49.206
        8481    322.8599     54.1523
      8481.5    322.8599     73.3874
        8482    322.8599     98.4891
      8482.5    322.8599    108.1301
        8483    322.8599    103.8759
      8483.5    322.8599    100.2484
        8484    322.8599     95.4172
      8484.5    322.8599     90.1051
        8485    322.8599     93.2525
      8485.5    322.8599    101.9264
        8486    322.8599     94.7326
      8486.5    322.8599     78.9172
        8487    322.8599     65.9378
      8487.5    322.8599     61.5499
        8488    322.8599     62.3647
      8488.5    322.8599     68.2504
        8489    322.8599      76.079
      8489.5    322.8599     76.6787
        8490    322.8599     64.8273
      8490.5    322.8599     56.2172
        8491    322.8599     59.2688
      8491.5    322.8599     64.0981
        8492    322.8599     58.3094
      8492.5    322.8599     50.0659
