# Exported from Transform Software 5.2.0 on 17-Oct-2019 by user kathryn.gehrke
# DI Transform - A Product of Drillinginfo, Inc. - www.drillinginfo.com
#
~VERSION INFORMATION
 VERS.        2.0 : LAS ASCII STANDARD - VERSION 2.0
 WRAP.         NO : ONE LINE PER DEPTH STEP

~WELL INFORMATION
#MNEM.UNIT       DATA TYPE       INFORMATION
#---------       ---------       -----------
 STRT.ft                 100 : Start Depth
 STOP.ft               10126 : Stop Depth
 STEP.ft                 0.5 : Step Length
 NULL.               -999.25 : Null Value
 COMP.                       : Company
 WELL.  42109329790000_API14 : Well Name
 FLD.                        : Field Name
 LOC.                        : Well Location
 CNTY.                       : County
 STAT.                       : State or Province
 CTRY.                       : Country
 SRVC.                       : Service Company
 DATE.                       : Date
 API.         42109329790000 : Well Identifier

~CURVE INFORMATION
#MNEM.UNIT       API CODE       CURVE DESCRIPTION
#---------       --------       -----------------
 DEPT.ft        : <Measured Depth>
 DT.us/ft       : Sonic
 GR.gAPI        : Gamma Ray

~PARAMETER INFORMATION
#MNEM.UNIT       VALUE       DESCRIPTION
#---------       -----       -----------
 EKB.ft      3282 : Elevation above MSL

~A      DEPT          DT          GR
# ...
      9322.5    263.8655     49.7069
        9323    263.8655      48.024
      9323.5    263.8655     50.1231
        9324    263.8655     54.3007
      9324.5    263.8655     58.9237
        9325    263.8655     61.6365
      9325.5    263.8655     60.6771
        9326    263.8655     56.0834
      9326.5    263.8655      50.636
        9327    263.8655     48.7006
      9327.5    263.8655     48.1899
        9328    263.8655      48.862
      9328.5    263.8655     49.1597
        9329    263.8655     49.3738
      9329.5    263.8655      47.479
        9330    264.0397     48.1887
      9330.5    263.8655     49.8224
        9331    263.8655     53.4539
      9331.5    263.8655     55.5594
        9332    263.8655     57.1063
      9332.5    263.8655     55.1738
        9333    263.8655     52.4308
      9333.5    263.8655      48.488
        9334    263.8655      45.913
      9334.5    263.8655     44.0823
        9335    263.8655     43.2773
      9335.5    263.8655     44.9858
        9336    263.8655     48.0105
      9336.5    263.8655     49.7823
        9337    263.8655     49.5798
      9337.5    263.8655     48.7395
        9338    263.8655     50.1178
      9338.5    263.8655     51.6301
        9339    263.8655     54.3942
      9339.5    263.8655     56.5621
        9340    263.8655     58.2681
      9340.5    263.8655     57.9832
        9341    263.8655     58.8235
      9341.5    264.1324     54.6516
        9342    264.4258     52.2631
      9342.5    264.4258     50.4148
        9343    264.4258     47.4582
      9343.5    264.4258     46.1656
        9344    264.4258     48.7062
      9344.5    264.4258     53.0179
        9345    264.4258     55.6759
      9345.5    264.2734     56.7227
        9346    263.8655     56.3025
      9346.5    263.8655     55.2644
        9347    263.8655     52.6721
      9347.5    263.8655     51.1217
        9348    263.8655     52.9412
      9348.5    263.8655     51.7359
        9349    263.8655     53.5445
      9349.5    263.8655     56.5834
        9350    263.8655     59.9441
      9350.5    263.8655     61.5124
        9351    263.8655     64.9568
      9351.5    263.8655     67.8425
        9352    263.8655     68.0401
      9352.5    263.8655      67.368
        9353    263.8655     65.3248
      9353.5    263.8655     61.1547
        9354    263.8655     54.2649
      9354.5    263.8655     49.3178
        9355    264.7962      45.944
      9355.5    266.8127      45.652
        9356    267.8591     49.2229
      9356.5    267.7871     54.0372
        9357    267.7871     56.7475
      9357.5    267.7871     58.6083
        9358    269.1539     60.1924
      9358.5    266.1863     63.2956
        9359    264.1699     66.1583
      9359.5    263.8655     67.6707
        9360    263.8655     71.7626
      9360.5    263.8655      73.002
        9361    263.8655     70.5004
      9361.5    263.8655     67.8765
        9362    263.8655     66.3416
      9362.5    263.8655     60.6847
        9363    263.8655     53.0433
      9363.5    264.3427      45.425
        9364    264.4258     39.7469
      9364.5    264.4258     38.6768
        9365    264.0616     41.2291
      9365.5    263.8655     45.5875
        9366    263.8655      51.637
      9366.5    263.8655     58.5051
        9367    263.8655     65.0065
      9367.5    263.8655     72.2323
        9368    264.0038     74.2661
      9368.5    264.4258     72.1558
        9369    264.4258     69.5835
      9369.5    264.4258     64.2005
        9370    264.4258     57.7403
      9370.5    264.4258     55.8824
        9371    264.4258     57.2542
      9371.5    264.4258     60.6422
        9372    264.4258     65.8363
      9372.5    264.4258     74.3664
        9373    263.8655     84.6923
      9373.5    263.8655     94.5897
        9374    263.8655     96.8739
      9374.5    263.8655      92.354
        9375    263.8655     83.4733
      9375.5    263.8655     73.7786
        9376    263.8655     65.0466
      9376.5    263.8655      62.605
        9377    263.8655     63.4454
      9377.5    263.8655     65.8515
        9378    263.8655     69.0065
      9378.5    263.8655     70.1681
        9379    263.8655     69.9855
      9379.5    263.8655     72.1087
        9380    263.8655     76.2395
      9380.5    263.8655      76.744
        9381    263.8655     73.1459
      9381.5    263.8655     65.2076
        9382    264.4258     56.2175
      9382.5    264.4258     44.5191
        9383    264.4258     36.6849
      9383.5    264.4258     34.4538
        9384    264.1855     37.9057
      9384.5    263.8655     43.7391
        9385    263.8655     50.1902
      9385.5    263.8655     59.9597
        9386    263.8655     69.6946
      9386.5    263.8655     77.2178
        9387    263.8655     81.7441
      9387.5    263.8655     83.3509
        9388    263.8655     77.9842
      9388.5    263.8655     74.0236
        9389    263.8655     72.0911
      9389.5    263.8655     75.9024
        9390    263.8655     81.6947
      9390.5    263.8655     88.4908
        9391    263.8655     88.0407
      9391.5    263.8655     82.0998
        9392    263.8655     70.3069
      9392.5    263.8655     61.0937
        9393    264.4258     54.7662
      9393.5    264.4258      51.757
        9394    264.4258     53.0821
      9394.5    264.4258      58.012
        9395    264.4258     61.6036
      9395.5    265.6672      63.116
        9396    267.2269     65.9826
      9396.5    268.8177     65.7049
        9397    267.7871      60.477
      9397.5    267.7871     56.0446
        9398    267.9066     55.3726
      9398.5     267.868     51.1945
        9399    264.4258     46.8857
      9399.5    264.4258     47.9137
        9400    264.4258     50.4202
      9400.5    264.4258     51.3489
        9401    264.4258     52.6113
      9401.5    264.4258     55.6821
        9402    264.4258     60.0933
      9402.5    264.4258     61.9293
        9403    264.4258     60.1632
      9403.5    264.4258     58.4844
        9404    264.4258     56.5911
      9404.5    264.4258      50.824
        9405    264.4258     45.1238
      9405.5    264.4258     45.4642
        9406    264.4258       44.62
      9406.5    264.4258     44.7923
        9407    264.4258     47.2709
      9407.5    264.4258     47.9395
        9408    264.4258     46.6387
      9408.5    264.4258     47.9841
        9409    264.4258          50
      9409.5    264.4258     50.6308
        9410    264.4258     54.8318
      9410.5    264.4258     56.8064
        9411    264.4258     56.3871
      9411.5    264.4258     56.1333
        9412    264.4258     56.9343
      9412.5    264.4258     55.4622
        9413    264.4258     54.5393
      9413.5    264.4258     53.7815
        9414    264.7275     53.5323
      9414.5    264.4258     51.6829
        9415    264.4258     50.5906
      9415.5    264.4258     49.1597
        9416    264.4258     48.6526
      9416.5    264.4258       50.54
        9417    264.4258     53.5647
      9417.5    264.4258     56.6279
        9418    264.4258     60.5844
      9418.5    264.4258     62.8931
        9419    264.4258     63.6199
      9419.5    264.4258     62.1849
        9420    264.4258     63.6182
      9420.5    264.4258     65.7313
        9421    264.4258       71.04
      9421.5    264.4258     77.3851
        9422    264.4258     84.4452
      9422.5    264.4258     84.6278
        9423    264.4258     82.4073
      9423.5    264.4258     78.7975
        9424    264.4258     73.4653
      9424.5    264.4258     71.4217
        9425    264.4258      76.225
      9425.5    264.4258     84.1503
        9426    264.4258      91.742
      9426.5    264.4258     97.9598
        9427    264.4258    101.4545
      9427.5    264.4258     104.845
        9428    264.4258    106.6472
      9428.5    264.4258    103.5933
        9429    264.4258     98.1317
      9429.5    264.4258     94.9718
        9430    264.4258     89.8745
      9430.5    264.4258     85.7013
