~Version Information
 VERS.                  2.0:   CWLS log ASCII Standard -VERSION 2.0
 WRAP.                   NO:   One line per depth step
~Well Information Block
#MNEM.UNIT     VALUE/NAME     DESCRIPTION
#---------     -----------    ---------------------------
 STRT.F              8650.0000: START DEPTH
 STOP.F             14150.0000: STOP DEPTH
 STEP.F                 0.5000: STEP DEPTH
 NULL.                 -999.25: NULL VALUE
 LOC .     A1759-SEC34-BLK58-T2-:  LOCATION
 FL4 .        API 42-109-33169:  LOCATIONLINE4
 FL2 .     T&P RR CO-337FSL-25:  LOCATIONLINE2
 FL1 .     A1759-SEC34-BLK58-T2-:  LOCATIONLINE1
 DMF .                      KB:  DRILL MEAS FROM
 PDAT.                      GL:  PERMANENT DATUM
 CNTY.               CULBERSON:  COUNTY NAME
 FLD .     FORD, WEST (WOLFCAMP):  FIELD NAME
 WELL.         ALICE FEE 34 2H:  WELL NAME
 COMP.     CAPITAN ENERGY INC.:  COMPANY
 DATE.             27-Mar-2018:  DATE
 SVCO.             Halliburton:  SERVICECONAME
 PROV.                   TEXAS:  PROVINCE
 STAT.                   TEXAS:  STATE NAME
 CTRY.                     USA:  COUNTRY NAME
 HIDE.                        :  WELLNAMEOPERAT
 BASI.                 PERMIAN:  BASIN
 UWI .            42-109-33169LAT:  UNIQUE WELL IDENTIFIER
 API .            42-109-33169LAT:  API NUMBER
 RANG.                     N/A:  RANGE
 TOWN.                     N/A:  TOWNSHIP
 SECT.                     N/A:  SECTION
 SRVC.             Halliburton:  SERVICE COMPANY
 LMF .                      KB:  LOG MEASURED FROM
 TVDS.ft             3088.0000:  TVDSS CORRECTN
 EGL .ft             3063.0000:  GROUND ELEVATION
 APD .ft               25.0000:  DEPTH ABOVE PD
 EPD .ft             3063.0000:  ELEVATION
 BAP .ft                0.0000:  GL ELEV ONSHORE
 GVFD.g                 1.0000:  GRAVITY FIELD
 EKB .ft             3088.0000:  KB ELEVATION
 EDF .ft             3087.0000:  DF ELEVATION
~Curve Information Block
#MNEM.UNIT                 API CODE     Curve Description
#---------               -----------    ---------------------------
 DEPT.F                 00 000 000 000:  Depth
 CCL .mV                00 000 000 000:  Casing Collar Locator
 NPHI_OH.pu             00 000 000 000:  NPHI_OH
 NPHI_CHI.pu            00 000 000 000:  NPHI_CHI
 GR_OH.api              00 000 000 000:  GR_OH
 GR_CHI.api             00 000 000 000:  GR_CHI
 RHOB_OH.g/cc           00 000 000 000:  RHOB_OH
 RHOB_CHI.g/cc          00 000 000 000:  RHOB_CHI
 PE_OH.b/e              00 000 000 000:  PE_OH
 PE_CHI.b/e             00 000 000 000:  PE_CHI
 MSFL_OH.ohmm           00 000 000 000:  MSFL_OH
 MSFL_CHI.ohmm          00 000 000 000:  MSFL_CHI
 LLS_OH.ohmm            00 000 000 000:  LLS_OH
 LLS_CHI.ohmm           00 000 000 000:  LLS_CHI
 LLD_OH.ohmm            00 000 000 000:  LLD_OH
 LLD_CHI.ohmm           00 000 000 000:  LLD_CHI
 DTC_OH.uspf            00 000 000 000:  DTC_OH
 DTC_CHI.uspf           00 000 000 000:  DTC_CHI
 SPHI_CHI.pu            00 000 000 000:  SPHI_CHI
 SGF .cu                00 000 000 000:  Formation Sigma
 CRNF.NONE              00 000 000 000:  CM GrsCaptRatio
 RIN .NONE              00 000 000 000:  CM GrsInelRatio
#Other Information
#
#WARRANTY: Halliburton will use its best efforts to furnish customers with 
#accurate information and interpretations that are part of, and incident to, the services 
#provided.  However, Halliburton cannot and does not warrant the accuracy 
#or correctness of such information and interpretations.  Under no circumstances should any 
#such information or interpretation be relied upon as the sole basis for any drilling, 
#completion, production, or financial decision or any procedure involving any risk to the 
#safety of any drilling venture, drilling rig or its crew or any other third party.  The 
#Customer has full responsibility for all drilling, completion and production operation.  
#Halliburton makes no representations or warranties, either expressed or 
#implied, including, but not limited to, the implied warranties of merchantability or fitness 
#for a particular purpose, with respect to the services rendered.  In no event will 
#Halliburton be liable for failure to obtain any particular results or for 
#any damages, including, but not limited to, indirect, special or consequential damages, 
#resulting from the use of any information or interpretation provided by Halliburton.
#
~A    DEPT       CCL    NPHI_OH NPHI_CHI  GR_OH    GR_CHI  RHOB_OH RHOB_CHI  PE_OH  PE_CHI  MSFL_OH   MSFL_CHI  LLS_OH   LLS_CHI   LLD_OH   LLD_CHI  DTC_OH  DTC_CHI SPHI_CHI   SGF    CRNF   RIN   
# ...
    9019.0000    0.0000 12.7000  12.2218  84.0969  86.6120  2.5834   2.5904  3.4969 2.7808     5.2672   5.9637    6.5525   8.6337    7.8388  10.6258 69.4895 70.1996  15.9800 25.8521 0.9061 1.2332
    9019.5000    0.0000 12.9600  11.5295  84.5127  67.1115  2.6074   2.5970  3.6661 2.8204     4.2520   6.3221    6.5638   8.5746    7.8335  10.7117 68.7825 69.7108  15.6400 26.1011 0.9022 1.2284
    9020.0000    0.0000 12.0500  12.4688  91.6304  90.7888  2.6060   2.5854  3.3690 2.8077     3.6112   6.0885    5.8284   8.9763    7.0517  11.1374 68.8654 70.6244  16.2800 26.8140 0.8991 1.2298
    9020.5000    0.0000 12.8700  12.5801  90.0857  95.8211  2.5880   2.5845  2.9198 2.7973     3.6527   5.9886    5.1247   9.0294    6.1197  11.1257 69.9834 70.4571  16.1600 27.3295 0.9086 1.2366
    9021.0000    0.0000 13.1800  12.6313  86.4496  97.8385  2.5770   2.5846  2.6165 2.7755     3.4168   5.7288    4.9600   8.8837    5.9970  10.8427 70.1124 70.2460  16.0200 28.0803 0.9129 1.2443
    9021.5000    0.0000 13.0300  12.7455  85.2613  99.8747  2.5791   2.5827  2.5364 2.7632     3.2357   5.5112    4.9402   8.8872    5.9868  10.7712 69.8915 70.1445  15.9400 28.5440 0.9081 1.2519
    9022.0000    0.0000 13.1800  13.0411  88.1607 105.9005  2.5873   2.5792  2.5577 2.7411     3.2787   5.4054    4.8507   8.9829    5.8467  10.7936 69.1440 70.2372  16.0100 28.6891 0.8875 1.2544
    9022.5000    0.0000 13.5500  12.5747  90.7273  88.8924  2.5875   2.5844  2.5492 2.7250     3.3992   4.8741    4.5868   8.4016    5.7790  10.0273 67.0705 69.8967  15.7700 28.1375 0.8647 1.2537
    9023.0000    0.0000 13.9800  12.3085  88.3785  81.8113  2.6023   2.5879  2.6594 2.7188     5.0703   4.7660    6.5640   8.2642    8.8294   9.8139 63.9201 69.5320  15.5100 27.4063 0.8668 1.2506
    9023.5000    0.0000 11.9100  11.7854  83.9978  73.2871  2.6655   2.5949  3.1806 2.7347    11.0030   4.9922   16.5824   8.2831   19.4716   9.8472 60.7567 68.8286  15.0100 26.8160 0.8835 1.2463
    9024.0000   31.0273 10.3200  11.7187  70.7131  77.9066  2.7357   2.5954  3.7755 2.7632    27.8310   5.2317   23.6021   8.5062   23.4553  10.1722 59.9361 68.6275  14.8700 26.6516 0.9029 1.2438
    9024.5000    0.0000  9.8100  11.5168  52.8180  73.9402  2.7504   2.5971  3.8053 2.7830    27.6657   5.2670   24.1532   8.5195   23.7564  10.2237 60.5314 68.3625  14.6800 26.9677 0.9114 1.2443
    9025.0000    0.0000  9.4500  11.8509  54.0498  75.7020  2.7249   2.5914  3.5523 2.7776    16.3652   4.9328   19.5569   8.3629   19.4542  10.0617 62.0972 68.9010  15.0600 27.2927 0.8979 1.2485
    9025.5000  -60.5327  9.2300  11.9749  71.2676  73.1283  2.6759   2.5895  3.4670 2.7672     7.7659   4.7722    7.5154   8.1745    8.9462   9.8583 65.7543 69.2719  15.3300 27.6203 0.8930 1.2522
    9026.0000    0.0000 11.5100  12.2882  82.3184  79.9296  2.6174   2.5861  3.2985 2.7538     4.1169   4.8115    4.9428   8.2481    6.2333   9.9472 68.8103 69.7428  15.6600 27.5729 0.8896 1.2508
    9026.5000    0.0000 14.7600  12.4070  85.1623  88.5152  2.5933   2.5860  3.0027 2.7488     4.2508   5.0429    5.4224   8.5125    6.3651  10.2208 70.2611 69.6494  15.5900 27.5186 0.9048 1.2527
    9027.0000    0.0000 14.3900  12.0090  87.1150  80.4639  2.5901   2.5915  2.8458 2.7515     5.5635   5.0765    5.4573   8.4024    6.3675  10.0666 70.4372 69.1558  15.2400 27.6547 0.9193 1.2579
    9027.5000    0.0000 14.7400  12.1801  85.0910  83.6767  2.5884   2.5887  2.8864 2.7478     5.9290   4.9402    5.4520   8.4340    6.3789  10.0780 70.1946 69.2403  15.3000 27.4798 0.9194 1.2663
    9028.0000    0.0000 14.1300  12.5151  84.1523  88.9264  2.5932   2.5835  3.0080 2.7359     4.3818   4.7792    5.5485   8.5109    6.4134  10.1270 69.9808 69.4877  15.4800 27.3558 0.9145 1.2725
    9028.5000    0.0000 13.2300  12.9574  86.6080  96.1911  2.5914   2.5777  2.9964 2.7362     3.3157   4.9218    4.9556   8.6526    5.6013  10.3857 69.9901 70.2852  16.0400 26.9751 0.9010 1.2717
    9029.0000    0.0000 13.0900  12.4166  87.8201  80.5167  2.5801   2.5841  2.8368 2.7490     2.9514   4.7067    4.8741   8.2071    5.5817   9.8965 69.8520 69.9360  15.8000 26.7802 0.8849 1.2664
    9029.5000    0.0000 12.7400  12.2039  90.6085  76.5083  2.5696   2.5866  2.6763 2.7646     2.8949   4.8101    4.9663   8.1897    5.6329   9.9258 69.6651 69.7687  15.6800 26.5278 0.8672 1.2589
    9030.0000    0.0000 13.5200  12.1831  92.9771  80.5316  2.5644   2.5874  2.5509 2.7704     3.1523   4.9827    4.9668   8.3707    5.6175  10.1336 69.6897 69.5967  15.5600 26.4210 0.8555 1.2510
    9030.5000    0.0000 13.7700  12.0986  89.1271  81.4558  2.5756   2.5881  2.5374 2.7749     3.7649   4.9397    4.9669   8.4714    5.6871  10.1993 69.9120 69.1879  15.2700 26.1283 0.8291 1.2442
    9031.0000    0.0000 12.9800  12.1779  86.3506  87.8250  2.5966   2.5873  2.6277 2.7726     3.9986   5.0276    5.2567   8.7356    6.1767  10.4474 70.5557 68.9091  15.0700 25.2139 0.7830 1.2358
    9031.5000    0.0000 12.9200  12.4599  90.6164  95.8170  2.5931   2.5828  2.6711 2.7692     3.6294   5.1071    5.0749   9.1142    6.2214  10.8465 70.8037 68.8461  15.0300 23.1936 0.7052 1.2265
    9032.0000    0.0000 14.6400  12.2529  95.7220  93.1219  2.5793   2.5840  2.6431 2.7747     4.0582   4.9697    5.4793   9.2940    6.9402  10.9262 69.6238 67.9899  14.4200 20.3875 0.6322 1.2142
    9032.5000  -30.6955 14.2100  12.1722  98.4866  93.5290  2.5724   2.5832  2.5870 2.8122     4.3943   5.1582    5.6005   9.7255    7.1363  11.4805 67.2745 67.6751  14.2000 18.3655 0.5937 1.1996
    9033.0000    0.0000 12.8800  11.0391  94.3198  80.9630  2.5668   2.5964  2.5360 2.9391     4.7165   5.4893    6.1670  10.6107    8.0255  12.5059 64.7876 65.8614  12.9100 17.0996 0.5972 1.1871
    9033.5000    0.0000 12.4100   8.8911  75.0384  53.0434  2.5890   2.6242  2.6028 3.1613     6.4389   6.6869    8.5725  12.6578   11.0018  14.7898 63.5529 62.9003  10.8200 16.8866 0.6363 1.1807
    9034.0000    0.0000  9.5400   7.4657  54.5766  40.4841  2.6168   2.6427  2.7641 3.3638     6.5520  10.2905   10.9687  17.9280   13.5625  20.8814 63.3046 61.1598   9.5900 17.3369 0.7038 1.1855
    9034.5000    0.0000  6.7600   6.8600  46.4410  34.3512  2.5999   2.6537  2.7322 3.4204     4.8619  13.4742    7.9624  20.4622   10.3195  24.0279 64.4508 60.7656   9.3100 18.8725 0.7861 1.1970
    9035.0000    0.0000  7.3500   7.5864  45.3716  43.3231  2.5704   2.6416  2.4799 3.3014     3.9021  12.4710    7.5220  17.7479    9.7850  21.3333 65.6252 62.3301  10.4200 21.0426 0.8651 1.2124
    9035.5000    0.0000  7.5400   9.3125  49.0710  65.3197  2.5642   2.6131  2.3004 3.0202     3.8742   9.6613    7.5167  14.2677    9.7516  17.3677 67.6599 64.9506  12.2700 23.8019 0.9214 1.2286
    9036.0000    0.0000  7.6200  10.5218  62.9895  71.7033  2.5690   2.5936  2.3087 2.8104     3.8761   7.6067    6.5145  11.2952    8.3054  13.9428 68.7275 67.1679  13.8400 26.2953 0.9445 1.2436
    9036.5000    0.0000  9.5100  11.6091  81.3243  75.9446  2.5680   2.5766  2.3915 2.6144     3.8634   5.8990    5.1577   9.2341    6.8524  11.4182 69.6707 69.0550  15.1700 27.6734 0.9296 1.2575
    9037.0000    0.0000 11.7400  13.1201  89.7371  97.3826  2.5644   2.5506  2.4323 2.5068     3.7921   5.4738    5.1145   9.3339    6.7818  11.5015 69.9486 71.0621  16.5900 27.3555 0.8759 1.2647
    9037.5000    0.0000 11.9200  13.2871  92.2641  96.8215  2.5672   2.5494  2.4801 2.4139     3.8119   4.8506    5.2133   8.6597    6.9078  10.4839 70.0328 71.0001  16.5500 25.3164 0.8002 1.2604
    9038.0000    0.0000 12.4800  13.3961  93.5831  97.7004  2.5671   2.5478  2.5586 2.3883     3.6089   4.7611    5.2046   8.6273    6.9132  10.3827 70.1836 71.0441  16.5800 22.9401 0.7250 1.2420
    9038.5000    0.0000 12.5100  12.7831  94.9021  90.8307  2.5624   2.5574  2.5770 2.4434     3.5131   4.8199    5.2098   8.6282    7.0049  10.4106 68.8317 70.0876  15.9000 21.0197 0.6837 1.2213
    9039.0000    0.0000 11.7200  11.4055  85.8357  72.5620  2.5454   2.5787  2.5229 2.5912     3.1756   5.0332    5.4128   8.8378    7.2116  10.6772 67.9422 67.9095  14.3600 19.8071 0.6802 1.2035
