~Version Information Block
 VERS.                2.00:     CWLS LOG ASCII STANDARD - VERSION 2.000000
 WRAP.                  NO:     One Line Per Depth Step
#
~Well Information Block
#MNEM.UNIT                     Data                         Information
#----------   ------------------------------------------   ----------------
 STRT.F                                        31.0000:     START DEPTH
 STOP.F                                     15936.0000:     STOP DEPTH
 STEP.F                                         0.5000:     STEP
 NULL.                                       -999.2500:     NULL VALUE
 COMP.                             AMERCN QUASAR PETRO:     COMPANY
 WELL.                                    SCOTT UNIT 1:     WELL
 FLD .                                         WILDCAT:     FIELD
 LOC .        Survey  PSL              - Abs  6331     - Blk  45   - Section  19:     LOCATION
 CNTY.                                              TX:     COUNTY
 STAT.                                              TX:     STATE
 CTRY.                        UNITED STATES OF AMERICA:     COUNTRY
 SRVC.                                      GEOGRAPHIX:     SERVICE COMPANY
 DATE.                                                :     DATE
 API .                                  42109313620000:     API NUMBER
 UWI .                                  42109313620000:     UWI NUMBER
 TVD .                                              NO:     TVD flag
 WSTA.                                             LOC:     Well status
#
~Curve Information Block
#MNEM.UNIT       API CODE      Curve Description
#----------    -------------   -------------------
 DEPT.F                    :   Depth in Feet
 LLD .OHMM                 :   LATEROLOG DEEP
 GRS .GAPI                 :   GAMMA RAY FROM SONIC LOG
 CALS.IN                   :   CALIPER FROM SONIC LOG
 MSFL.OHMM                 :   MICRO SPHERICALLY FOCUSED
 LLS .OHMM                 :   LATEROLOG SHALLOW
 DT  .US/F                 :   DELTA TIME
#
~Parameter Information Block
#MNEM.UNIT            Value               Description
#----------    --------------------    -------------------
 RUN .                         ONE:    Run Number
 PDAT.                          GL:    Permanent Datum
 EPD .FT                          :    Elevation Of Perm. Datum
 LMF .               KELLY BUSHING:    Log Measured From
 EKB .FT                          :    Elevation Of Kelly Bushing
 DF .FT                           :    Elevation Of Derrick Floor
 GL .FT                           :    Elevation Of Ground Level
 TD  .FT                          :    Total Depth
 CSGD.FT                          :    Casing Bottom (Driller) 1
 CSGL.FT                          :    Casing Bottom (Logger) 1
 MUD .                            :    Drilling Fluid Type
 MUDV .CP                         :    Drilling Fluid Viscosity
 MUDD .LB/USG                     :    Drilling Fluid Density
 FL .ML/30MIN                     :    Drilling Fluid Loss
 PH.                              :    Drilling Fluid Ph
 MUDS .                           :    Mud Sample Source
 RM .OHMM                         :    Resistivity Of Mud Sample
 RMT .DEGF                        :    Mud Sample Temperature
 RMF .OHMM                        :    Mud Filtrate Resistivity
 RMFT.DEGF                        :    Mud Filtrate Sample Temperature
 RMC .OHMM                        :    Mud Cake Resistivity
 RMCT.DEGF                        :    Mud Cake Sample Temperature
 RMB .OHMM                        :    Mud Resistivity At Bht
 TMAX .DEGF                       :    Bottom Hole Temperature
#
~Other Information Block
<DescLogPlotStart>   NEURALOG PLOT DEFINITION
PLOTDEFVERSION: 3
LASFILE: E:\Nair Innovations\42_TEXAS\109_Culberson\42109313620000_1.las
DEPTHSCALE: 239.999996
RESOLUTION: 200
DEPTHLABELFREQ: 100.000000
HEAVYGRIDFREQ: 50.000000
MEDIUMGRIDFREQ: 50.000000
LIGHTGRIDFREQ: 10.000000
#
#   TRACK 1
#
STARTTRACK: 
 LEFTX: 0.500000 inch
 RIGHTX: 3.000000 inch
 SCALETYPE: Linear
 NUMCHARTDIVISIONS: 10
CURVE: GRS   1.504600   250.000000 (0,0,255)      Solid             2     N    
CURVE: CALS  6.474400   14.873500  (0,131,131)    Solid             2     N    
ENDTRACK: 
#
#   TRACK 2
#
STARTTRACK: 
 LEFTX: 3.500000 inch
 RIGHTX: 6.000000 inch
 SCALETYPE: Log
 NUMCYCLES: 4
 STARTCYCLE: 2
CURVE: LLS   0.200000   2000.000000 (255,0,0)      Solid             4     Y   
BACKUP: 2000.000000 20000000.000000 (255,0,0)      Solid             4    
BACKUP: 0.000020   0.200000   (255,0,0)      Solid             4    
CURVE: MSFL  0.200000   2000.000000 (0,131,131)    Solid             2     N   
ENDTRACK: 
#
#   TRACK 3
#
STARTTRACK: 
 LEFTX: 6.500000 inch
 RIGHTX: 9.000000 inch
 SCALETYPE: Linear
 NUMCHARTDIVISIONS: 10
CURVE: LLD   0.200000   2000.000000 (255,0,255)    Solid             4     N   
CURVE: DT    190.000000 50.000000  (255,0,131)    Solid             2     N    
ENDTRACK: 
<DescLogPlotEnd>
<DepthTrack type='Reference' track='1' Label='0' color='0' hor='0' />
<Reference font='144,0,-900,0,500,0,16777216,Arial' />
~A DEPTH     LLD              GRS              CALS             MSFL             LLS              DT              
# ...
   12316.000 57.52970000      95.03120000      6.97950000       56.38390000      54.82540000      62.20590000     
   12316.500 54.77920000      101.66090000     7.00920000       208.24040000     50.47140000      65.34010000     
   12317.000 50.98480000      98.32130000      7.00880000       161.64410000     46.46320000      65.74530000     
   12317.500 49.32960000      87.97540000      7.01490000       37.06400000      45.75630000      65.30170000     
   12318.000 53.52100000      85.97810000      7.03810000       47.29640000      49.06370000      63.81350000     
   12318.500 56.52500000      84.91990000      7.04800000       68.77360000      50.41790000      62.24380000     
   12319.000 55.70270000      83.60150000      7.06750000       60.12090000      49.63560000      61.31270000     
   12319.500 54.15040000      82.03700000      7.08100000       52.37920000      48.10360000      61.00840000     
   12320.000 57.96690000      76.95300000      7.09670000       47.54180000      46.21850000      60.73570000     
   12320.500 62.91280000      74.45940000      7.09610000       44.35570000      43.69170000      60.00710000     
   12321.000 61.15960000      74.07190000      7.08580000       41.38310000      40.73500000      58.64020000     
   12321.500 56.91060000      73.68450000      7.06500000       37.04760000      41.23100000      57.91160000     
   12322.000 52.48600000      73.29700000      7.06460000       32.71280000      42.08570000      57.82130000     
   12322.500 52.58510000      73.28610000      7.06420000       38.00700000      40.93110000      58.82520000     
   12323.000 52.21440000      72.52210000      7.06370000       89.27500000      39.81060000      59.55860000     
   12323.500 45.42670000      72.51120000      7.06330000       48.03520000      36.64900000      60.13010000     
   12324.000 37.68490000      76.38650000      7.06280000       30.01730000      33.73850000      61.18560000     
   12324.500 35.56140000      85.82130000      7.06240000       19.59820000      31.92500000      63.96970000     
   12325.000 34.56470000      92.05660000      7.06190000       22.00620000      31.48070000      64.11840000     
   12325.500 34.06720000      90.85870000      7.06840000       25.26080000      31.90800000      63.64190000     
   12326.000 34.04240000      82.71650000      7.09130000       34.83070000      33.37700000      62.20950000     
   12326.500 34.48920000      72.38910000      7.09080000       22.75480000      35.70550000      61.30810000     
   12327.000 36.92000000      71.55780000      7.09030000       19.01580000      36.87800000      61.02190000     
   12327.500 39.52220000      77.59490000      7.08990000       23.36520000      38.30220000      61.22050000     
   12328.000 42.08890000      94.83220000      7.08940000       45.84730000      38.62610000      63.39470000     
   12328.500 49.95900000      104.02270000     7.05870000       44.57850000      38.34550000      63.85150000     
   12329.000 51.22640000      106.27260000     7.05820000       30.71570000      36.53740000      64.67310000     
   12329.500 50.08830000      104.75380000     7.05780000       32.06980000      35.53710000      65.26160000     
   12330.000 45.52950000      100.97780000     7.05740000       49.09840000      34.09230000      64.85720000     
   12330.500 40.50650000      98.70780000      7.02670000       60.22020000      33.61790000      65.13170000     
   12331.000 43.53840000      97.19090000      7.02630000       29.47890000      35.50880000      65.22370000     
   12331.500 51.02150000      95.67390000      7.02580000       39.73150000      40.17470000      63.94000000     
   12332.000 48.92150000      90.90780000      7.02540000       73.24760000      41.85510000      62.28270000     
   12332.500 43.18880000      80.99190000      7.02490000       68.33680000      39.39020000      61.46550000     
   12333.000 39.19230000      73.48690000      7.02450000       41.40370000      37.47630000      58.97750000     
   12333.500 40.25710000      65.50830000      6.99380000       34.12730000      43.45680000      57.52470000     
   12334.000 48.77910000      67.43420000      6.99340000       45.54410000      51.83490000      57.85130000     
   12334.500 56.41310000      74.68040000      6.99290000       65.11150000      55.02690000      59.26020000     
   12335.000 63.39920000      82.92070000      6.97930000       93.08570000      54.31440000      60.71790000     
   12335.500 64.98980000      88.42090000      6.96180000       73.62210000      45.58000000      62.11400000     
   12336.000 43.94030000      91.89830000      6.99150000       44.41570000      33.51560000      62.07760000     
   12336.500 37.85610000      95.55890000      6.99100000       28.62380000      30.85390000      61.76870000     
   12337.000 35.64200000      97.80700000      6.99060000       24.96600000      30.00920000      61.86090000     
   12337.500 35.39480000      98.54910000      6.99010000       29.96400000      30.41660000      62.95610000     
   12338.000 39.43280000      99.29110000      6.98970000       77.58390000      38.41380000      64.14230000     
   12338.500 34.81210000      100.07940000     6.98920000       53.78180000      36.85210000      64.14320000     
   12339.000 32.92280000      97.01020000      6.98880000       31.65110000      33.46230000      63.59700000     
   12339.500 39.89220000      86.44190000      6.98840000       38.37360000      35.65940000      60.68000000     
   12340.000 52.49920000      74.15470000      6.99000000       57.17350000      45.70260000      57.94530000     
   12340.500 65.44480000      67.60920000      7.01770000       73.21290000      60.24090000      57.95170000     
   12341.000 89.13350000      68.49660000      7.01720000       87.51550000      70.34540000      58.15070000     
   12341.500 97.55210000      70.42180000      7.01680000       191.71740000     93.77720000      58.70910000     
   12342.000 94.49020000      79.71570000      7.02590000       112.00760000     105.33190000     59.32550000     
   12342.500 59.86200000      97.96540000      7.04620000       49.00860000      70.19760000      62.20150000     
   12343.000 56.77130000      108.39450000     7.05910000       129.69740000     59.71020000      65.45660000     
   12343.500 56.84490000      106.63760000     7.07540000       114.05030000     55.50820000      67.94910000     
   12344.000 35.02330000      89.74550000      7.07490000       41.95510000      39.89860000      66.93580000     
   12344.500 29.64860000      72.78790000      7.07440000       21.81410000      29.47810000      63.26200000     
   12345.000 34.47130000      64.49380000      7.07400000       19.31990000      32.89620000      57.18790000     
   12345.500 46.63160000      66.74190000      7.04330000       37.81200000      39.91960000      56.79590000     
   12346.000 72.39260000      88.56830000      7.04290000       193.66400000     69.07220000      59.05060000     
   12346.500 72.33990000      93.82850000      7.04240000       640.32390000     68.23030000      63.61070000     
   12347.000 62.86950000      95.70010000      7.04200000       221.70750000     51.90140000      64.34110000     
   12347.500 47.05520000      94.55960000      7.07180000       63.30740000      37.45370000      64.36540000     
   12348.000 35.58410000      96.80770000      7.07130000       30.08530000      35.66770000      64.16050000     
   12348.500 36.14120000      96.36630000      7.07080000       28.82930000      39.65540000      64.07020000     
   12349.000 38.81140000      96.78580000      7.07040000       31.34920000      41.14930000      63.88400000     
   12349.500 38.31430000      97.52780000      7.06990000       33.53470000      35.63460000      64.53570000     
   12350.000 36.90710000      95.75900000      7.06950000       29.88480000      36.11830000      65.80540000     
   12350.500 36.12450000      95.24470000      7.06900000       29.59530000      37.11520000      65.14760000     
