###############################################
##         ENVERUS                           ##
##         ESS - Open Hole                   ##
##         PERMIAN / DELAWARE                ##
##         Nov 03 2023  V4.0                 ##
##         42-109-32572-90-00                ##
###############################################
## Copyright 2017-2023  ENVERUS.  All Rights Reserved. 
## Confidential - Property of ENVERUS, use governed by terms and 
## conditions found within the existing Information Services Subscription Agreement 
## (as may be amended, the “ISSA”) between Customer and ENVERUS. 
## 
~VERSION INFORMATION
# MNEM.UNIT                               DATA : DESCRIPTION OF MNEMONIC
#-----.-----     ----------------------------- : -----------------------------
VERS.                                     2.00 : CWLS LOG ASCII STANDARD - VERSION 2.00
WRAP.                                       NO : MULTIPLE LINES PER DEPTH STEP
VEND.                                  ENVERUS : VENDOR
TYPE.                          ESS - OPEN HOLE : ENVERUS ESSENTIAL CURVES – ACCESSIBLE THROUGH ENVERUS PRISM(TM)
DOC.                                  51093105 : ENVERUS HEADER RAW DOCUMENT ID
#___________________________________________________________________________________________________ 
~WELL INFORMATION 
# JLMmoJa/ja/TVcwAQvDk33OYEn4U2aLD16xKSNtVAxpK3Y/5Eg5lhKgsZNDQ5ZP0fRHfEZLFMAnipg5oeA7W3g== 
# MNEM.UNIT                                              DATA : DESCRIPTION OF MNEMONIC 
#-----.-----                    ----------------------------- : ----------------------------- 
CNTY.                                               CULBERSON : COUNTY 
STATE.                                                  TEXAS : STATE 
CNTRY.                                                    USA : COUNTRY 
API.                                             42-109-32572 : API (10 Digit) 
API_14.                                    42-109-32572-90-00 : API (14 Digits) 
API_14_std.                                 42-109-32572-9000 : API (14 Digits Standard) 
UWI.                                           42109325729000 : UNIQUE WELL ID 
WELL.                               42109325720000_PREV_API14 : WELL NAME
STRT.FT                                                2248.5 : START DEPTH
STOP.FT                                               10721.5 : STOP DEPTH
STEP.FT                                                   0.5 : STEP BETWEEN DEPTHS
NULL.                                                 -999.25 : NULL VALUE
PREV_APII.                                     42109325720000 : WELL IDENTIFIER
#___________________________________________________________________________________________________ 
~PARAMETER INFORMATION 
# MNEM.UNIT                                              DATA : DESCRIPTION OF MNEMONIC 
#-----.-----                    ----------------------------- : ----------------------------- 
EKB.FT                                                   3340 : ELEVATION ABOVE MSL
#___________________________________________________________________________________________________ 
~CURVE INFORMATION 
# MNEM.UNIT           : CURVE DESCRIPTION 
#-----.-----          : ----------------------------- 
 DEPT.FT               : MEASURED DEPTH 
 GR__A.API             : GAMMA RAY (GAMMA RAY) 
 DT__A.US/FT           : SONIC DELTA TRANSIT TIME (SONIC) 
 #___________________________________________________________________________________________________ 
~A         DEPT          GR__A          DT__A
# ...
         4510.5        177.626         88.242
         4511.0        177.366         88.145
         4511.5        179.534         88.064
         4512.0        177.743         87.576
         4512.5        162.891         87.089
         4513.0        152.326         86.757
         4513.5        172.602         86.407
         4514.0        196.744         87.148
         4514.5        250.607         89.198
         4515.0        289.665         90.318
         4515.5        310.931         90.684
         4516.0        304.589         89.561
         4516.5        280.333         88.460
         4517.0        254.549         87.875
         4517.5        211.084         85.748
         4518.0        200.916         84.555
         4518.5        208.165         84.909
         4519.0        235.999         87.631
         4519.5        264.577         87.975
         4520.0        276.373         87.585
         4520.5        305.569         83.608
         4521.0        304.962         82.402
         4521.5        302.433         81.335
         4522.0        303.919         81.866
         4522.5        262.753         86.122
         4523.0        233.776         84.604
         4523.5        243.307         83.780
         4524.0        261.603         87.438
         4524.5        318.729         89.286
         4525.0        326.422         90.275
         4525.5        246.686         83.197
         4526.0        217.594         79.729
         4526.5        149.800         71.415
         4527.0        125.316         69.136
         4527.5        125.103         71.364
         4528.0        135.010         72.923
         4528.5        146.142         78.142
         4529.0        159.086         79.320
         4529.5        216.986         82.800
         4530.0        230.852         87.790
         4530.5        271.342         87.205
         4531.0        259.519         85.838
         4531.5        218.760         84.019
         4532.0        202.926         82.508
         4532.5        150.569         79.453
         4533.0        144.391         82.128
         4533.5        154.371         82.578
         4534.0        158.460         83.099
         4534.5        147.916         82.409
         4535.0        136.595         81.225
         4535.5        148.469         80.570
         4536.0        159.711         80.723
         4536.5        176.953         81.070
         4537.0        177.299         80.918
         4537.5        190.094         81.362
         4538.0        201.957         81.353
         4538.5        197.051         83.028
         4539.0        198.426         83.555
         4539.5        209.599         84.083
         4540.0        209.973         85.617
         4540.5        214.599         87.754
         4541.0        217.939         87.559
         4541.5        197.637         85.504
         4542.0        188.267         83.263
         4542.5        177.109         80.748
         4543.0        168.317         79.406
         4543.5        164.572         78.625
         4544.0        166.136         78.914
         4544.5        164.982         80.527
         4545.0        166.419         81.159
         4545.5        170.043         81.797
         4546.0        168.813         82.037
         4546.5        166.341         83.860
         4547.0        164.557         84.336
         4547.5        158.592         82.440
         4548.0        159.234         81.468
         4548.5        166.306         80.583
         4549.0        156.390         80.253
         4549.5        160.392         81.697
         4550.0        164.235         82.969
         4550.5        163.050         81.884
         4551.0        152.993         81.367
         4551.5        150.530         80.918
         4552.0        151.621         81.249
         4552.5        157.098         81.992
         4553.0        157.040         82.285
         4553.5        150.607         81.858
         4554.0        153.540         81.797
         4554.5        176.268         82.223
         4555.0        178.333         82.383
         4555.5        173.338         82.285
         4556.0        175.616         82.285
         4556.5        178.944         82.349
         4557.0        181.213         81.895
         4557.5        175.735         82.025
         4558.0        171.695         82.481
         4558.5        173.051         82.676
         4559.0        176.517         82.722
         4559.5        170.563         83.750
         4560.0        165.198         83.750
         4560.5        153.072         84.136
         4561.0        155.889         86.683
         4561.5        160.122         86.823
         4562.0        154.660         84.664
         4562.5        131.861         81.770
         4563.0        125.867         81.682
         4563.5        146.529         84.353
         4564.0        152.983         85.786
         4564.5        160.861         87.277
         4565.0        163.655         86.777
         4565.5        170.204         86.106
         4566.0        171.429         85.777
         4566.5        174.055         84.215
         4567.0        177.781         83.363
         4567.5        183.682         83.031
         4568.0        194.207         84.043
         4568.5        223.504         84.259
         4569.0        227.523         85.780
         4569.5        197.127         85.408
         4570.0        167.958         84.258
         4570.5        164.851         85.626
         4571.0        176.040         87.321
         4571.5        178.529         89.252
         4572.0        160.211         85.656
         4572.5        125.555         79.020
         4573.0        116.358         78.591
         4573.5        138.524         80.650
         4574.0        166.788         83.792
         4574.5        163.150         83.661
         4575.0        145.311         80.987
         4575.5        140.567         75.904
         4576.0        141.985         75.686
         4576.5        151.559         79.173
         4577.0        176.565         81.186
         4577.5        205.144         84.555
         4578.0        203.597         85.519
         4578.5        189.913         85.595
         4579.0        186.404         84.629
         4579.5        198.296         85.420
         4580.0        214.622         85.908
         4580.5        239.625         87.102
         4581.0        241.478         89.031
         4581.5        200.723         85.876
         4582.0        175.699         83.981
         4582.5        157.346         81.217
         4583.0        197.009         84.102
         4583.5        239.246         88.171
         4584.0        226.258         88.843
         4584.5        166.802         81.194
         4585.0        197.004         82.673
         4585.5        288.467         89.188
         4586.0        317.997         91.501
         4586.5        282.636         97.711
         4587.0        224.630         90.759
         4587.5        181.595         86.188
         4588.0        170.982         85.014
         4588.5        156.948         83.750
         4589.0        166.529         84.336
         4589.5        173.306         84.676
         4590.0        171.241         85.262
         4590.5        176.666         87.166
         4591.0        199.883         86.497
         4591.5        199.306         84.336
         4592.0        195.925         84.238
         4592.5        211.042         85.490
         4593.0        212.593         88.053
         4593.5        176.213         87.724
         4594.0        163.041         86.575
         4594.5        169.362         84.336
         4595.0        180.010         84.336
         4595.5        193.399         84.126
         4596.0        196.808         84.336
         4596.5        202.967         83.665
         4597.0        226.931         84.230
