~Version Information
 VERS.                  2.0:   CWLS log ASCII Standard -VERSION 2.0
 WRAP.                   NO:   One line per depth step
~Well Information Block
#MNEM.UNIT     VALUE/NAME     DESCRIPTION
#---------     -----------    ---------------------------
 STRT.F              8580.0000: START DEPTH
 STOP.F             14491.0000: STOP DEPTH
 STEP.F                 0.5000: STEP DEPTH
 NULL.               -999.2500: NULL VALUE
 LOC .     1072' FWL & 424' FNL:  LOCATION
 FL2 .     A2085 SEC 12 BLK 113:  LOCATIONLINE2
 FL1 .     1072' FWL & 424' FNL:  LOCATIONLINE1
 CNTY.               CULBERSON:  COUNTY NAME
 FLD .              WOLFCAMP B:  FIELD NAME
 WELL.           DALE STATE 2H:  WELL NAME
 COMP.     CAPITAN ENERGY INC.:  COMPANY
 DMF .                      KB:  DRILL MEAS FROM
 PDAT.                      GL:  PERMANENT DATUM
 DATE.             11-Feb-2020:  DATE
 SVCO.             Halliburton:  SERVICECONAME
 PROV.                      TX:  PROVINCE
 STAT.                      TX:  STATE NAME
 CTRY.                     USA:  COUNTRY NAME
 HIDE.                        :  WELLNAMEOPERAT
 UWI .            42-109-33544:  UNIQUE WELL IDENTIFIER
 API .            42-109-33544:  API NUMBER
 RANG.                     N/A:  RANGE
 TOWN.                     N/A:  TOWNSHIP
 SECT.                     N/A:  SECTION
 SON .               906290231:  JOB NUMBER
 SRVC.             Halliburton:  SERVICE COMPANY
 LMF .                      KB:  LOG MEASURED FROM
 TVDS.ft           3291.000000:  TVDSS CORRECTN
 EGL .ft           3266.000000:  GROUND ELEVATION
 APD .ft             25.000000:  DEPTH ABOVE PD
 EPD .ft           3266.000000:  ELEVATION
 BAP .ft              0.000000:  GL ELEV ONSHORE
 GVFD.g               1.000000:  GRAVITY FIELD
 EKB .ft           3291.000000:  KB ELEVATION
 EDF .ft           3291.000000:  DF ELEVATION
~Parameter Information Block
#MNEM.UNIT       Value        Description
#---------     -----------    ---------------------------
 BARI.                     OFF:  BARITE CORR 
 BRMP.                      No:  BromidePresent 
 CSF5.        Conductor Casing:  Casing Func5 
 CSF6.        Conductor Casing:  Casing Func6 
 DATE.               07-Feb-20:  Run Date 
 DCS .               07-Feb-20:  DateCircEndT 
 DLAB.               07-Feb-20:  LogStartDateT 
 ENGI.                John Doe:  Engineer Name 
 LSRV.             OH WIRELINE:  NameOfService 
 LSTM.ucts  09.26.51 07-Feb-20:  Log Start Time 
 LTYP.                     RAW:  LogDataType 
 LUL .                  ODESSA:  LoggingUnitLoc 
 LUN .                12100315:  LoggingUnitNum 
 SCT1.               07-Feb-20:  StartDateRun1 
 TCS .                   09 26:  Time Ciculation Ended 
 TDCE.ucts  09.26.51 07-Feb-20:  Time Circ End 
 TLAB.                   09 26:  LogStartTimeT 
~Curve Information Block
#MNEM.UNIT                 API CODE     Curve Description
#---------               -----------    ---------------------------
 DEPT.F                 00 000 000 000:  Depth
 CCL .V                 00 000 000 000:  Casing Collar Locator
 NPHI_OH.pu             00 000 000 000:  NPHI_OH
 NPHI_CHI.decp          00 000 000 000:  NPHI_CHI
 GR  .api               00 000 000 000:  Gamma API
 GR_CHI.api             00 000 000 000:  GR_CHI
 RHOB_OH.g/cc           00 000 000 000:  RHOB_OH
 RHOB_CHI.g/cc          00 000 000 000:  RHOB_CHI
 PE_OH.b/e              00 000 000 000:  PE_OH
 PE_CHI.b/e             00 000 000 000:  PE_CHI
 LLS_CHI.ohmm           00 000 000 000:  LLS_CHI
 LLS_OH.ohmm            00 000 000 000:  LLS_OH
 LLD_OH.ohmm            00 000 000 000:  LLD_OH
 LLD_CHI.ohmm           00 000 000 000:  LLD_CHI
 DTC_OH.uspf            00 000 000 000:  DTC_OH
 DTC_CHI.uspf           00 000 000 000:  DTC_CHI
 SPHW_CHI.decp          00 000 000 000:  SPHW_CHI
#Other Information
#
#WARRANTY: Halliburton will use its best efforts to furnish customers with 
#accurate information and interpretations that are part of, and incident to, the services 
#provided.  However, Halliburton cannot and does not warrant the accuracy 
#or correctness of such information and interpretations.  Under no circumstances should any 
#such information or interpretation be relied upon as the sole basis for any drilling, 
#completion, production, or financial decision or any procedure involving any risk to the 
#safety of any drilling venture, drilling rig or its crew or any other third party.  The 
#Customer has full responsibility for all drilling, completion and production operation.  
#Halliburton makes no representations or warranties, either expressed or 
#implied, including, but not limited to, the implied warranties of merchantability or fitness 
#for a particular purpose, with respect to the services rendered.  In no event will 
#Halliburton be liable for failure to obtain any particular results or for 
#any damages, including, but not limited to, indirect, special or consequential damages, 
#resulting from the use of any information or interpretation provided by Halliburton.
#
~A    DEPT       CCL     NPHI_OH  NPHI_CHI    GR      GR_CHI   RHOB_OH  RHOB_CHI   PE_OH   PE_CHI LLS_CHI   LLS_OH     LLD_OH   LLD_CHI   DTC_OH   DTC_CHI SPHW_CHI 
# ...
    9755.0000  -14.7700   17.7000   0.0763   89.0380  90.4307    2.6188   2.6098    3.3525 3.0799  24.0711   19.1977    21.3082  27.4537   75.9223 70.0605 0.1588
    9755.5000    0.0000   16.0800   0.0766   84.6820  98.8892    2.6302   2.6072    3.4912 3.1356  30.6570   14.5717    16.3613  34.9242   75.1166 70.6887 0.1633
    9756.0000   68.0313   14.7200   0.0690   79.5302  81.7585    2.6435   2.6191    3.4591 3.1550  26.3819   19.3587    22.8008  30.4995   74.1078 69.1378 0.1523
    9756.5000   36.4835   15.0000   0.0703   76.5219  84.8099    2.6418   2.6169    3.4001 3.1874  29.9208   19.6951    23.0721  34.7241   73.5008 69.3365 0.1537
    9757.0000   26.3460   14.1500   0.0703   76.5668  84.9776    2.6253   2.6166    3.2681 3.2182  32.6909   21.8481    25.6416  38.1389   73.2999 69.2698 0.1533
    9757.5000  -10.9274   14.7700   0.0686   77.2904  83.8975    2.6013   2.6184    3.0610 3.2449  33.6539   43.4497    42.8680  39.3129   73.3083 69.1539 0.1524
    9758.0000    0.0000   14.4800   0.0630   77.5203  79.2601    2.5722   2.6255    2.9071 3.2901  33.4124   36.6262    40.3537  39.0953   74.0171 68.7544 0.1496
    9758.5000   23.9689   14.4400   0.0564   78.9577  75.5150    2.5559   2.6331    2.8103 3.3519  34.5117   31.1715    36.9310  40.3765   74.9551 68.4051 0.1471
    9759.0000    0.0000   14.9000   0.0544   82.0558  76.0074    2.5407   2.6349    2.7859 3.3742  35.5116   31.9104    39.3289  41.4197   75.9312 68.4331 0.1473
    9759.5000    0.0000   14.2000   0.0563   85.3936  81.4293    2.5261   2.6317    2.9043 3.3671  37.2662   33.1229    39.8119  43.2244   77.5843 68.8934 0.1506
    9760.0000    0.0000   13.9000   0.0564   89.4124  72.4568    2.5349   2.6331    3.0327 3.3256  31.4791   34.7126    41.9583  36.6035   77.6827 68.1201 0.1451
    9760.5000  -49.8297   14.2700   0.0671   91.4946  92.1714    2.5432   2.6170    3.0531 3.2723  36.8339   70.1109    78.0669  42.0685   77.7992 69.7626 0.1567
    9761.0000    0.0000   16.6300   0.0720   95.7914 104.1615    2.5503   2.6084    3.0318 3.2728  44.2348   37.8465    42.8263  49.9930   77.8531 70.6803 0.1632
    9761.5000   48.4810   17.6800   0.0623  101.7413  81.3634    2.5734   2.6233    3.0474 3.2707  33.3060   30.6189    34.5177  38.1259   77.9567 68.5555 0.1482
    9762.0000  -45.7488   16.9200   0.0632  101.7621  82.2867    2.5838   2.6212    3.0897 3.2653  33.9775   17.8308    23.6720  38.7472   77.2126 68.4996 0.1478
    9762.5000    0.0000   15.1600   0.0646   99.6372  79.8791    2.5706   2.6193    3.0659 3.2502  32.5255   17.0740    23.4157  36.9471   76.1641 68.1929 0.1456
    9763.0000   33.4061   11.9900   0.0656   99.0220  72.0029    2.5545   2.6183    2.9738 3.2386  29.6589   17.8372    24.5164  33.5804   75.0784 67.3841 0.1399
    9763.5000   39.6349   12.4800   0.0696   97.6700  82.0078    2.5507   2.6112    2.9294 3.2355  32.7791   43.7018    52.2072  36.6050   74.4629 68.1115 0.1451
    9764.0000    0.0000   13.0800   0.0639   93.3414  67.2153    2.5542   2.6191    2.9439 3.2591  29.8707   54.8998    63.9235  33.5691   74.4228 66.7486 0.1354
    9764.5000    0.0000   13.4800   0.0673   89.2821  81.8389    2.5590   2.6127    2.9406 3.2405  33.4690   71.1029    68.5500  37.0896   74.2117 67.9047 0.1436
    9765.0000   13.9336   14.4400   0.0680   87.1572  83.3755    2.5611   2.6120    2.9322 3.2083  32.1340   35.4854    39.6453  35.5198   74.3275 68.0814 0.1448
    9765.5000    0.0000   13.9200   0.0695   86.2333  83.4729    2.5607   2.6107    2.9147 3.1725  30.0644   35.0257    38.9731  33.1967   75.6646 68.1692 0.1455
    9766.0000    0.0000   15.1400   0.0649   87.1036  66.2022    2.5689   2.6189    2.9221 3.1654  25.4303   21.1652    22.4225  28.4490   76.4215 66.8058 0.1358
    9766.5000   16.8237   18.2700   0.0627   90.9056  67.6768    2.5840   2.6214    2.9884 3.2009  27.0154   14.3594    16.7097  30.3116   77.1156 66.9562 0.1369
    9767.0000    0.0000   18.9400   0.0615   96.3180  76.7453    2.5982   2.6220    3.0159 3.2393  30.7727   14.2559    16.9210  34.5498   77.8841 67.7754 0.1427
    9767.5000    0.0000   19.1800   0.0609   99.8080  86.8827    2.5979   2.6216    3.0466 3.2970  37.0848   16.3241    20.4749  41.7017   78.1488 68.7220 0.1494
    9768.0000    0.0000   19.0000   0.0602   99.4215  88.6074    2.5694   2.6230    3.1406 3.3157  38.3031   22.7198    26.8450  43.2847   78.2065 69.0395 0.1516
    9768.5000  -12.2021   17.9900   0.0571   97.8944  77.8353    2.5411   2.6293    3.2386 3.2990  32.2775   30.1154    35.8828  36.7762   77.9527 68.2871 0.1463
    9769.0000    0.0000   14.5200   0.0579   92.4426  71.4457    2.5376   2.6296    3.2769 3.2679  28.3126  123.0973   160.4537  32.2961   77.4120 67.8343 0.1431
    9769.5000  -17.7005   13.8800   0.0629   84.2770  77.4379    2.5316   2.6228    3.1653 3.2281  27.9883  133.6825   194.5995  31.6449   76.5890 68.3278 0.1466
    9770.0000    0.0000   14.0400   0.0635   81.2544  72.6736    2.5167   2.6221    2.9505 3.2275  26.9450  133.2717   196.5986  30.4505   75.3324 67.8284 0.1431
    9770.5000   22.2224   13.3000   0.0640   78.8526  70.8450    2.5216   2.6214    2.8158 3.2312  26.8745   96.9890   176.1706  30.3792   74.5627 67.6126 0.1415
    9771.0000    0.0000   11.8600   0.0671   74.4857  79.7663    2.5521   2.6166    2.9065 3.2166  28.7642   80.7978   150.1657  32.3328   73.9034 68.3689 0.1469
    9771.5000  -12.9837   11.5400   0.0623   72.8534  67.4336    2.5746   2.6246    3.0920 3.2293  26.1106   80.6023   149.7091  29.7618   73.3260 67.3990 0.1400
    9772.0000   23.5323   11.9400   0.0629   75.0582  75.6835    2.5661   2.6238    3.0592 3.2285  27.9058   68.0665   122.5599  31.8354   73.4407 68.2342 0.1459
    9772.5000  -19.6667   14.2300   0.0614   82.0098  79.2629    2.5471   2.6258    2.9166 3.2522  29.9091   26.9645    38.5957  34.2512   74.7464 68.6407 0.1488
    9773.0000  -10.3606   16.4100   0.0571   86.7117  73.2819    2.5372   2.6320    2.9254 3.2850  29.5550   24.1696    35.7060  34.1345   76.6352 68.1825 0.1456
    9773.5000   27.0709   16.0600   0.0530   87.1660  63.6975    2.5427   2.6380    3.0221 3.3137  28.3224   20.8748    29.3034  32.9495   78.3225 67.3535 0.1397
    9774.0000  -72.4738   17.5700   0.0575   91.6073  79.8985    2.5526   2.6298    3.0878 3.3178  33.5226   10.7611    15.5772  38.5050   80.2265 68.6670 0.1490
    9774.5000    0.0000   22.6800   0.0597   95.0503  83.5028    2.5626   2.6263    3.1171 3.3136  34.6850   10.4944    14.5850  39.6649   80.3861 68.9463 0.1510
    9775.0000   24.2550   23.8500   0.0575   85.4396  76.8628    2.5883   2.6302    3.2375 3.3204  32.3801   10.8130    14.6877  37.2258   78.4552 68.4110 0.1472
    9775.5000   50.4887   23.4700   0.0584   74.1978  79.7842    2.6220   2.6289    3.5547 3.3080  32.3882   13.1622    17.1708  37.1232   75.5766 68.7151 0.1493
    9776.0000    0.0000   18.2100   0.0590   69.9305  83.3584    2.6492   2.6277    3.9079 3.3009  33.0791   14.6318    18.9521  37.7929   72.9220 69.0496 0.1517
    9776.5000   10.1931   15.2900   0.0549   59.1627  72.1675    2.6775   2.6336    4.0556 3.3087  29.8374   14.7986    19.2753  34.1805   70.4476 68.0093 0.1443
    9777.0000    0.0000   15.7100   0.0570   49.7874  71.8531    2.6994   2.6301    3.9966 3.2788  28.5995   16.1021    20.1994  32.4594   69.7590 67.8428 0.1432
    9777.5000    0.0000   16.7800   0.0632   48.6051  84.3394    2.7012   2.6199    3.8233 3.2510  31.1570   14.4817    18.9753  34.7623   70.4762 68.7512 0.1496
    9778.0000   32.7154   17.7800   0.0644   58.3263  76.5993    2.6761   2.6190    3.6140 3.2174  27.7968   14.0263    18.6025  30.9502   71.4087 67.9620 0.1440
    9778.5000  -20.5305   18.2100   0.0670   77.4853  77.8572    2.6408   2.6152    3.4650 3.1970  27.6486   13.9620    18.4407  30.6500   72.7726 67.9696 0.1441
    9779.0000   13.0645   18.3900   0.0661   88.4578  74.0201    2.6243   2.6166    3.3620 3.1987  27.2866   12.0390    14.9261  30.3467   74.7329 67.5770 0.1413
    9779.5000    0.0000   20.6700   0.0653   92.0080  73.2282    2.6133   2.6173    3.2867 3.1999  27.5360   11.3403    13.9542  30.6198   76.2524 67.4465 0.1404
