###############################################
##         ENVERUS                           ##
##         ESS - Open Hole                   ##
##         PERMIAN / DELAWARE                ##
##         Nov 02 2023  V4.0                 ##
##         42-109-31550-00-00                ##
###############################################
## Copyright 2017-2023  ENVERUS.  All Rights Reserved. 
## Confidential - Property of ENVERUS, use governed by terms and 
## conditions found within the existing Information Services Subscription Agreement 
## (as may be amended, the “ISSA”) between Customer and ENVERUS. 
## 
~VERSION INFORMATION
# MNEM.UNIT                               DATA : DESCRIPTION OF MNEMONIC
#-----.-----     ----------------------------- : -----------------------------
VERS.                                     2.00 : CWLS LOG ASCII STANDARD - VERSION 2.00
WRAP.                                       NO : MULTIPLE LINES PER DEPTH STEP
VEND.                                  ENVERUS : VENDOR
TYPE.                          ESS - OPEN HOLE : ENVERUS ESSENTIAL CURVES – ACCESSIBLE THROUGH ENVERUS PRISM(TM)
DOC.                                  22584426 : ENVERUS HEADER RAW DOCUMENT ID
#___________________________________________________________________________________________________ 
~WELL INFORMATION 
# ASdzl/zqz3tyMoI2i40d5lqA861uk+/GXWRvioHJ4uiq1sQ7a4yIDDt4z64Puw3+ifUTTkKIB4eyCaXtXAsvCw== 
# MNEM.UNIT                                              DATA : DESCRIPTION OF MNEMONIC 
#-----.-----                    ----------------------------- : ----------------------------- 
CNTY.                                               CULBERSON : COUNTY 
STATE.                                                  TEXAS : STATE 
CNTRY.                                                    USA : COUNTRY 
API.                                             42-109-31550 : API (10 Digit) 
API_14.                                    42-109-31550-00-00 : API (14 Digits) 
API_14_std.                                 42-109-31550-0000 : API (14 Digits Standard) 
UWI.                                           42109315500000 : UNIQUE WELL ID 
WELL.                                       UNIVERSITY_6-46-1 : WELL NAME
STRT.FT                                                 249.5 : START DEPTH
STOP.FT                                               10300.0 : STOP DEPTH
STEP.FT                                                   0.5 : STEP BETWEEN DEPTHS
NULL.                                                 -999.25 : NULL VALUE
COMP.                                    MONSANTO OIL COMPANY : COMPANY 
FLD.                                                  WILDCAT : FIELD 
DATE.                                              10/31/2016 : DATE 
TVD.                                                       NO : TVD FLAG 
WSTA.                                                     LOC : WELL STATUS
#___________________________________________________________________________________________________ 
~PARAMETER INFORMATION 
# MNEM.UNIT                                              DATA : DESCRIPTION OF MNEMONIC 
#-----.-----                    ----------------------------- : ----------------------------- 
RUN.                                                      ONE : RUN NUMBER 
PDAT.                                                      GL : PERMANENT DATUM 
LMF.                                            KELLY BUSHING : LOG MEASURED FROM
#___________________________________________________________________________________________________ 
~CURVE INFORMATION 
# MNEM.UNIT           : CURVE DESCRIPTION 
#-----.-----          : ----------------------------- 
 DEPT.FT               : MEASURED DEPTH 
 DT.US/FT              : SONIC DELTA TRANSIT TIME (DELTA-T) 
 RESS_LL.OHMM          : SHALLOW LATEROLOG (LLS - LATERO-LOG SHALLOW (RESISTIVITY)) 
 RESD_LL.OHMM          : DEEP LATEROLOG (LLD - LATERO-LOG DEEP (RESISTIVITY)) 
 #___________________________________________________________________________________________________ 
~A         DEPT             DT        RESS_LL        RESD_LL
# ...
          975.5         71.565        73.7673       107.5481
          976.0         67.788        92.1184       157.5841
          976.5         64.945       128.9845       191.3967
          977.0         63.982       165.0490       306.4345
          977.5         64.042       198.6163       302.5150
          978.0         64.355       211.9120       321.2296
          978.5         65.005       218.8860       321.7275
          979.0         66.329       226.0978       336.3869
          979.5         68.495       248.0261       368.3018
          980.0         73.190       287.6199       428.2361
          980.5         73.250       336.6465       486.1988
          981.0         73.310       401.3678       550.5399
          981.5         71.685       461.1520       596.9315
          982.0         69.732       492.0223       620.1365
          982.5         68.074       487.4888       565.3095
          983.0         67.051       492.0223       597.5942
          983.5         65.787       570.5666      2090.7255
          984.0         64.463       833.9317      2092.7302
          984.5         63.975      1510.4850      7562.9815
          985.0         63.981      1936.2420     10831.7428
          985.5         63.924      2027.9636     12795.5850
          986.0         63.986      2027.9636     10535.0848
          986.5         64.524      2026.4330      9515.1783
          987.0         64.704      2023.4633      8594.0094
          987.5         65.005      2020.4978      7549.4344
          988.0         65.125      2017.4928      6523.2639
          988.5         64.584      2015.1553      5365.2988
          989.0         64.524      2015.9332      2301.3230
          989.5         64.764      2003.4782      1794.9331
          990.0         64.865      1125.5391       985.2862
          990.5         65.196       695.3090       547.5134
          991.0         65.090       429.5316       402.8349
          991.5         62.927       324.3996       286.4188
          992.0         62.316       324.3996       294.7187
          992.5         61.591       327.4163       315.5150
          993.0         61.668       327.4163       327.4163
          993.5         62.582       287.6199       250.3326
          994.0         63.982       247.7478       228.2004
          994.5         64.463       229.0797       208.0249
          995.0         64.584       219.8667       202.3276
          995.5         64.885       211.9120       202.3276
          996.0         65.005       217.8793       208.0249
          996.5         64.945       241.2332       252.6606
          997.0         64.644       279.0038       312.6078
          997.5         63.561       307.3475       330.4612
          998.0         62.658       328.1613       336.6361
          998.5         62.538       301.6589       315.5150
          999.0         63.681       267.8122       250.3326
          999.5         65.065       240.9451       236.8083
         1000.0         65.456       232.2660       227.9164
         1000.5         65.496       250.6559       227.9806
         1001.0         65.380       289.1547       274.4424
         1001.5         66.464       335.4961       319.2492
         1002.0         67.182       444.3894       510.5816
         1002.5         67.599       586.6333       565.3095
         1003.0         67.836       549.8269       539.7415
         1003.5         68.129       452.6931       491.4081
         1004.0         67.874       386.7784       421.3774
         1004.5         66.173       399.0562       385.4740
         1005.0         63.577       448.0495       476.4670
         1005.5         61.093       571.4095       633.7667
         1006.0         59.699       626.6228       660.1126
         1006.5         60.311       551.1772       505.7028
         1007.0         62.718       472.5706       506.0934
         1007.5         64.479       420.9968       407.9626
         1008.0         65.297       412.6700       408.0777
         1008.5         64.798       445.5839       440.2948
         1009.0         62.392       474.1376       461.1520
         1009.5         60.732       483.6284       483.3916
         1010.0         60.311       466.9978       483.1308
         1010.5         60.070       450.9601       448.1827
         1011.0         60.552       428.2361       448.7424
         1011.5         60.732       448.5220       448.1721
         1012.0         60.491       461.1520       510.7326
         1012.5         60.191       487.7580       510.6671
         1013.0         60.371       487.9812       524.9591
         1013.5         60.732       451.9400       510.5816
         1014.0         62.116       375.8827       438.9654
         1014.5         64.463       324.3996       330.4612
         1015.0         66.028       277.1651       298.4691
         1015.5         66.991       248.0261       278.0427
         1016.0         66.991       224.2709       256.7740
         1016.5         66.148       209.2714       237.1322
         1017.0         65.547       189.9584       219.0458
         1017.5         65.547       176.1134       202.3670
         1018.0         65.787       163.6447       186.9582
         1018.5         66.426       151.5640       172.7227
         1019.0         66.871       147.6970       168.4197
         1019.5         66.804       147.6970       165.0490
         1020.0         66.747       146.7431       161.1784
         1020.5         66.802       139.7176       157.1481
         1021.0         67.253       130.9515       145.2719
         1021.5         68.403       123.8767       139.8002
         1022.0         69.242       121.6045       137.1548
         1022.5         69.733       123.8767       141.3889
         1023.0         69.880       127.3650       146.3361
         1023.5         69.940       127.3650       143.6021
         1024.0         70.000       123.8767       139.7176
         1024.5         70.317       117.8151       137.4004
         1025.0         70.662       115.0347       134.6341
         1025.5         70.963       117.1842       138.5720
         1026.0         71.023       125.0288       144.6806
         1026.5         70.634       133.1226       152.5005
         1027.0         70.120       131.2239       159.0113
         1027.5         69.458       138.3162       164.3325
         1028.0         68.435       139.8988       166.6198
         1028.5         67.934       141.1399       166.6080
         1029.0         67.653       140.9510       166.5816
         1029.5         67.773       139.7689       166.5625
         1030.0         68.375       139.7176       166.5839
         1030.5         68.528       144.8805       170.7840
         1031.0         68.430       147.6970       174.8470
         1031.5         68.249       151.8560       181.8423
         1032.0         68.131       157.5841       191.2022
         1032.5         67.684       168.4134       203.8235
         1033.0         67.038       181.0564       221.0484
         1033.5         66.630       198.6163       242.8463
         1034.0         65.607       217.8793       270.4489
         1034.5         64.589       235.5664       295.4220
         1035.0         63.570       250.3326       312.1452
         1035.5         62.472       257.3817       318.0720
         1036.0         62.210       257.3817       321.4106
         1036.5         63.685       248.6329       319.5959
         1037.0         66.329       248.0261       318.4491
         1037.5         69.278       250.0897       313.6223
         1038.0         70.301       250.6096       307.8853
         1038.5         69.649       242.6819       292.2118
         1039.0         67.954       236.8083       282.3441
         1039.5         65.366       236.8083       292.9943
         1040.0         64.022       224.0145       217.8793
         1040.5         64.443       194.4924       182.7402
         1041.0         65.667       160.5287       160.5287
