#   WellGreen Tech Inc.   Digitizing Services
#   www.wellgreentech.com
#   email: sales@wellgreentech.com
#
~Version Information Block
 VERS.                2.00:     CWLS LOG ASCII STANDARD - VERSION 2.000000
 WRAP.                  NO:     One Line Per Depth Step
#
~Well Information Block
#MNEM.UNIT                     Data                         Information
#----------   ------------------------------------------   ----------------
 STRT.FT                                      400.0000:     START DEPTH
 STOP.FT                                    10100.0000:     STOP DEPTH
 STEP.FT                                        0.5000:     STEP
 NULL.                                       -999.2500:     NULL VALUE
 COMP.                       ENRON OIL AND GAS COMPANY:     COMPANY
 WELL.                                   TXL "1" NO. 1:     WELL
 FLD .                                         WILDCAT:     FIELD
 LOC .                                              63:     LOCATION
 CNTY.                                       CULBERSON:     COUNTY
 STAT.                                           TEXAS:     STATE
 CTRY.                                             USA:     COUNTRY
 SRVC.                                    SCHLUMBERGER:     SERVICE COMPANY
 DATE.                                      06/28/1989:     DATE
 API .               42109320330000:    API NUMBER
 UWI .               42109320330000:    UWI NUMBER
 TVD .                                              NO:     TVD flag
 MATRIX .G/CC                  :    Matrix Density
#
~Curve Information Block
#MNEM.UNIT       API CODE      Curve Description
#----------    -------------   -------------------
 DEPT.FT                   :   Depth in Feet
 GR  .API      35 310 01 01:   Gamma Ray
 CALI.INCHES   70 280 01 01:   Caliper
 DT  .US/FT    60 520 08 01:   Delta T
 SPHI.V/V      61 890 01 01:   Sonic Porosity
#
~Parameter Information Block
#MNEM.UNIT            Value               Description
#----------    --------------------    -------------------
 RUN .                         ONE:    Run Number
 PDAT.                          GL:    Permanent Datum
 EPD .FT                 3890.3000:    Elevation Of Perm. Datum
 LMF .               KELLY BUSHING:    Log Measured From
 EKB .FT                 3905.1000:    Elevation Of Kelly Bushing
 DF .FT                  3904.1000:    Elevation Of Derrick Floor
 GL .FT                  3890.3000:    Elevation Of Ground Level
 TD .FT                  10100.0000:    Total Depth
 BHT .DEGF               193.00 :  Bottom Hole Temperature
 BLI .FT               10100.0000:   Bottom Log Interval
 CSGSIZE.IN              9.6250:   Casing Size
 BITSIZE.IN               8.750 :  BitSize
 CSGD.FT                      405:    Casing Bottom (Driller) 1
 CSGL.FT                      405:    Casing Bottom (Logger) 1
 MUD .                      SW GEL:    Drilling Fluid Type
 MUDV .CP                  34.0000:    Drilling Fluid Viscosity
 MUDD .LB/USG               9.1000:    Drilling Fluid Density
 FL .ML/30MIN               8.0000:    Drilling Fluid Loss
 PH.                       10.0000:    Drilling Fluid Ph
 MUDS .                  CIRC TANK:    Mud Sample Source
 RM .OHMM                   0.1720:    Resistivity Of Mud Sample
 RMT .DEGF                 75.0000:    Mud Sample Temperature
 RMF .OHMM                  0.1720:    Mud Filtrate Resistivity
 RMFT.DEGF                 75.0000:    Mud Filtrate Sample Temperature
 RMB .OHMM                  0.0710:    Mud Resistivity At Bht
 TMAX .DEGF               193.0000:    Bottom Hole Temperature
#
~Other Information Block
<DescLogPlotStart>   NEURALOG PLOT DEFINITION
PLOTDEFVERSION: 3
LASFILE: D:\nds\projects\20MAY19H\las\42109320330000_BEG_RAS_RS0022815370.las
DEPTHSCALE: 240.000000
RESOLUTION: 400
DEPTHLABELFREQ: 100.000000
HEAVYGRIDFREQ: 100.000000
MEDIUMGRIDFREQ: 50.000000
LIGHTGRIDFREQ: 10.000000
#
#   TRACK 1
#
STARTTRACK: 
 LEFTX: 0.500000 inch
 RIGHTX: 3.000000 inch
 SCALETYPE: Linear
 NUMCHARTDIVISIONS: 10
CURVE: GR    0.000000   125.000000 (0,0,255)      Solid             2     Y    
BACKUP: 125.000000 250.000000 (0,0,255)      Solid             2    
ENDTRACK: 
#
#   TRACK 2
#
STARTTRACK: 
 LEFTX: 0.500000 inch
 RIGHTX: 3.000000 inch
 SCALETYPE: Linear
 NUMCHARTDIVISIONS: 10
CURVE: CALI  6.000000   16.000000  (0,131,131)    Solid             2     N    
ENDTRACK: 
#
#   TRACK 3
#
STARTTRACK: 
 LEFTX: 3.500000 inch
 RIGHTX: 8.500000 inch
 SCALETYPE: Linear
 NUMCHARTDIVISIONS: 10
CURVE: DT    100.000000 40.000000  (255,0,255)    Solid             2     Y    
BACKUP: 160.000000 100.000000 (255,0,255)    Solid             2    
CURVE: SPHI  0.300000   -0.100000  (255,0,0)      Dot               2     Y    
BACKUP: 0.700000   0.300000   (255,0,0)      Dot               2    
BACKUP: -0.100000  -0.500000  (255,0,0)      Dot               2    
ENDTRACK: 
<DescLogPlotEnd>
~A DEPTH     GR               CALI             DT               SPHI            
# ...
    4261.000 85.74            9.75             71.80            0.21            
    4261.500 92.81            9.77             74.21            0.22            
    4262.000 96.46            9.79             76.62            0.23            
    4262.500 96.89            9.81             78.99            0.25            
    4263.000 84.09            9.78             79.97            0.25            
    4263.500 68.54            9.73             78.13            0.24            
    4264.000 52.98            9.69             73.59            0.23            
    4264.500 41.13            9.64             68.26            0.18            
    4265.000 35.10            9.62             62.92            0.14            
    4265.500 37.72            9.61             58.45            0.11            
    4266.000 48.41            9.61             56.96            0.10            
    4266.500 64.93            9.62             59.84            0.12            
    4267.000 80.70            9.64             63.99            0.16            
    4267.500 82.52            9.66             68.15            0.19            
    4268.000 71.72            9.65             69.96            0.20            
    4268.500 57.41            9.65             67.73            0.18            
    4269.000 48.72            9.64             63.60            0.15            
    4269.500 48.59            9.64             61.23            0.14            
    4270.000 54.99            9.63             60.92            0.15            
    4270.500 59.08            9.63             64.30            0.17            
    4271.000 59.10            9.62             66.94            0.18            
    4271.500 59.38            9.62             68.59            0.19            
    4272.000 61.43            9.61             69.27            0.20            
    4272.500 67.77            9.61             69.95            0.20            
    4273.000 78.11            9.63             71.37            0.21            
    4273.500 88.57            9.64             73.30            0.22            
    4274.000 94.84            9.66             75.34            0.23            
    4274.500 100.91           9.67             77.40            0.24            
    4275.000 105.35           9.68             78.41            0.24            
    4275.500 108.01           9.68             78.68            0.25            
    4276.000 103.25           9.68             78.83            0.25            
    4276.500 96.52            9.68             78.21            0.24            
    4277.000 90.23            9.69             77.24            0.24            
    4277.500 87.73            9.69             76.06            0.23            
    4278.000 87.12            9.69             74.88            0.23            
    4278.500 86.51            9.69             73.66            0.22            
    4279.000 84.83            9.69             73.40            0.22            
    4279.500 83.48            9.69             73.63            0.22            
    4280.000 82.96            9.70             73.73            0.22            
    4280.500 83.55            9.70             73.81            0.22            
    4281.000 86.64            9.66             74.21            0.22            
    4281.500 90.04            9.63             74.56            0.23            
    4282.000 92.47            9.59             74.28            0.22            
    4282.500 93.92            9.56             73.72            0.22            
    4283.000 93.78            9.55             73.65            0.22            
    4283.500 90.88            9.57             72.51            0.21            
    4284.000 87.99            9.59             71.03            0.20            
    4284.500 87.25            9.60             70.44            0.20            
    4285.000 94.71            9.60             70.76            0.21            
    4285.500 96.68            9.61             72.20            0.21            
    4286.000 90.35            9.61             73.48            0.22            
    4286.500 87.19            9.62             72.59            0.22            
    4287.000 92.74            9.62             71.27            0.21            
    4287.500 99.97            9.63             71.12            0.21            
    4288.000 104.66           9.63             72.21            0.22            
    4288.500 105.77           9.64             74.11            0.22            
    4289.000 103.32           9.64             75.36            0.23            
    4289.500 95.62            9.65             74.73            0.23            
    4290.000 82.29            9.65             73.38            0.22            
    4290.500 69.00            9.66             69.06            0.19            
    4291.000 57.81            9.67             63.43            0.14            
    4291.500 49.81            9.68             57.80            0.09            
    4292.000 43.34            9.69             52.38            0.05            
    4292.500 34.57            9.71             49.62            0.02            
    4293.000 25.82            9.72             48.95            0.01            
    4293.500 20.15            9.73             49.73            0.03            
    4294.000 18.32            9.74             50.43            0.04            
    4294.500 18.34            9.76             51.24            0.05            
    4295.000 19.74            9.75             52.33            0.06            
    4295.500 24.73            9.70             53.42            0.07            
    4296.000 39.24            9.67             54.99            0.08            
    4296.500 58.93            9.66             57.50            0.11            
    4297.000 75.52            9.66             60.89            0.14            
    4297.500 79.90            9.65             64.28            0.16            
    4298.000 72.88            9.65             66.73            0.18            
    4298.500 64.60            9.65             65.90            0.17            
    4299.000 56.35            9.64             64.24            0.16            
    4299.500 53.73            9.64             62.57            0.15            
    4300.000 55.11            9.63             61.98            0.14            
    4300.500 56.76            9.63             62.93            0.15            
    4301.000 58.41            9.63             64.61            0.16            
    4301.500 60.06            9.63             66.30            0.18            
    4302.000 61.73            9.63             67.95            0.19            
    4302.500 62.38            9.63             69.23            0.20            
    4303.000 62.56            9.63             70.52            0.20            
    4303.500 59.35            9.64             71.09            0.21            
    4304.000 56.13            9.64             69.90            0.20            
    4304.500 55.75            9.64             68.43            0.19            
    4305.000 59.71            9.64             67.22            0.18            
    4305.500 67.07            9.64             66.79            0.18            
    4306.000 74.25            9.64             67.94            0.19            
    4306.500 81.40            9.64             69.74            0.20            
    4307.000 86.86            9.65             71.55            0.21            
    4307.500 88.43            9.65             73.36            0.22            
    4308.000 86.61            9.65             73.72            0.22            
    4308.500 84.30            9.65             72.93            0.22            
    4309.000 84.99            9.65             72.32            0.21            
    4309.500 93.26            9.65             72.02            0.21            
    4310.000 99.20            9.65             74.15            0.23            
