###############################################
##         ENVERUS                           ##
##         ESS - Open Hole                   ##
##         PERMIAN / DELAWARE                ##
##         Nov 02 2023  V4.0                 ##
##         42-109-31550-00-00                ##
###############################################
## Copyright 2017-2023  ENVERUS.  All Rights Reserved. 
## Confidential - Property of ENVERUS, use governed by terms and 
## conditions found within the existing Information Services Subscription Agreement 
## (as may be amended, the “ISSA”) between Customer and ENVERUS. 
## 
~VERSION INFORMATION
# MNEM.UNIT                               DATA : DESCRIPTION OF MNEMONIC
#-----.-----     ----------------------------- : -----------------------------
VERS.                                     2.00 : CWLS LOG ASCII STANDARD - VERSION 2.00
WRAP.                                       NO : MULTIPLE LINES PER DEPTH STEP
VEND.                                  ENVERUS : VENDOR
TYPE.                          ESS - OPEN HOLE : ENVERUS ESSENTIAL CURVES – ACCESSIBLE THROUGH ENVERUS PRISM(TM)
DOC.                                  22584426 : ENVERUS HEADER RAW DOCUMENT ID
#___________________________________________________________________________________________________ 
~WELL INFORMATION 
# ASdzl/zqz3tyMoI2i40d5lqA861uk+/GXWRvioHJ4uiq1sQ7a4yIDDt4z64Puw3+ifUTTkKIB4eyCaXtXAsvCw== 
# MNEM.UNIT                                              DATA : DESCRIPTION OF MNEMONIC 
#-----.-----                    ----------------------------- : ----------------------------- 
CNTY.                                               CULBERSON : COUNTY 
STATE.                                                  TEXAS : STATE 
CNTRY.                                                    USA : COUNTRY 
API.                                             42-109-31550 : API (10 Digit) 
API_14.                                    42-109-31550-00-00 : API (14 Digits) 
API_14_std.                                 42-109-31550-0000 : API (14 Digits Standard) 
UWI.                                           42109315500000 : UNIQUE WELL ID 
WELL.                                       UNIVERSITY_6-46-1 : WELL NAME
STRT.FT                                                 249.5 : START DEPTH
STOP.FT                                               10300.0 : STOP DEPTH
STEP.FT                                                   0.5 : STEP BETWEEN DEPTHS
NULL.                                                 -999.25 : NULL VALUE
COMP.                                    MONSANTO OIL COMPANY : COMPANY 
FLD.                                                  WILDCAT : FIELD 
DATE.                                              10/31/2016 : DATE 
TVD.                                                       NO : TVD FLAG 
WSTA.                                                     LOC : WELL STATUS
#___________________________________________________________________________________________________ 
~PARAMETER INFORMATION 
# MNEM.UNIT                                              DATA : DESCRIPTION OF MNEMONIC 
#-----.-----                    ----------------------------- : ----------------------------- 
RUN.                                                      ONE : RUN NUMBER 
PDAT.                                                      GL : PERMANENT DATUM 
LMF.                                            KELLY BUSHING : LOG MEASURED FROM
#___________________________________________________________________________________________________ 
~CURVE INFORMATION 
# MNEM.UNIT           : CURVE DESCRIPTION 
#-----.-----          : ----------------------------- 
 DEPT.FT               : MEASURED DEPTH 
 DT.US/FT              : SONIC DELTA TRANSIT TIME (DELTA-T) 
 RESS_LL.OHMM          : SHALLOW LATEROLOG (LLS - LATERO-LOG SHALLOW (RESISTIVITY)) 
 RESD_LL.OHMM          : DEEP LATEROLOG (LLD - LATERO-LOG DEEP (RESISTIVITY)) 
 #___________________________________________________________________________________________________ 
~A         DEPT             DT        RESS_LL        RESD_LL
# ...
          777.5         80.262        54.8192        74.4534
          778.0         81.541        55.9071        76.0798
          778.5         81.853        59.0720        77.2618
          779.0         82.217        60.7354        83.2004
          779.5         81.615        62.4457        82.9856
          780.0         81.374        61.8703        82.6866
          780.5         81.690        61.8703        82.4338
          781.0         81.845        62.4457        82.8399
          781.5         81.956        62.4457        83.2004
          782.0         82.545        61.1265        79.0462
          782.5         83.599        57.4542        72.7165
          783.0         85.346        48.1881        59.2911
          783.5         87.573        38.9473        48.2952
          784.0         89.498        29.5829        40.0292
          784.5         89.799        27.9096        33.5858
          785.0         87.633        28.9624        34.8066
          785.5         86.790        33.5858        39.7860
          786.0         87.031        41.1716        47.3673
          786.5         90.401        45.5847        55.5935
          787.0         91.003        48.6362        63.7741
          787.5         91.906        51.8920        65.7449
          788.0         91.785        51.8771        68.4165
          788.5         90.677        54.2960        70.8675
          789.0         87.693        56.4836        74.0081
          789.5         84.263        61.8703        80.6096
          790.0         81.097        68.6290        90.7978
          790.5         78.666        75.3826       101.6230
          791.0         78.786        80.1761       106.1285
          791.5         78.546        80.9217       106.5823
          792.0         78.847        80.1761       106.8238
          792.5         78.841        79.4080       105.2635
          793.0         78.724        80.1348       103.8873
          793.5         78.245        79.4001       103.9054
          794.0         78.007        79.4374       103.9071
          794.5         77.643        79.4374       103.9133
          795.0         77.523        78.7055       101.4917
          795.5         77.703        77.9803        98.3639
          796.0         78.546        75.1457        95.7152
          796.5         79.602        72.4142        93.7394
          797.0         80.351        70.4310        91.2697
          797.5         80.110        69.1272        86.2399
          798.0         79.749        68.5141        83.1230
          798.5         80.231        63.0655        80.1685
          799.0         82.698        58.5277        76.5499
          799.5         86.249        50.9401        75.8446
          800.0         91.785        42.3310        58.2990
          800.5         91.906        37.8806        51.7514
          801.0         90.281        35.1768        47.2292
          801.5         86.610        36.5037        45.5847
          802.0         82.337        39.6750        49.0096
          802.5         82.518        42.4841        60.3411
          803.0         84.383        45.5847        61.4364
          803.5         87.272        46.0086        61.2667
          804.0         89.258        41.9409        54.3963
          804.5         89.017        38.6757        49.0149
          805.0         88.596        37.8309        51.7728
          805.5         88.536        41.2340        55.3085
          806.0         88.917        44.6865        68.0253
          806.5         89.739        48.6136        67.9806
          807.0         90.160        50.0332        67.8708
          807.5         90.522        47.7118        63.9653
          808.0         90.822        45.6161        62.3354
          808.5         90.822        44.3104        60.7469
          809.0         90.822        44.3114        58.5277
          809.5         90.582        44.7353        60.0812
          810.0         90.642        46.8683        62.9681
          810.5         90.642        49.3139        64.1996
          811.0         90.221        50.0058        64.9573
          811.5         88.536        50.4708        65.9740
          812.0         86.625        51.4139        67.3646
          812.5         84.142        54.1493        71.1565
          813.0         81.194        58.1376        77.6965
          813.5         79.870        62.9606        85.5062
          814.0         79.930        64.2402        84.4448
          814.5         81.856        56.4003        80.1316
          815.0         83.721        51.8920        72.3071
          815.5         85.466        47.3042        64.1993
          816.0         87.145        45.5847        59.6214
          816.5         88.102        46.4365        59.6214
          817.0         89.428        50.0058        63.6125
          817.5         90.342        49.5043        61.9964
          818.0         90.221        49.5955        61.3002
          818.5         87.633        47.6803        63.0264
          819.0         85.045        50.5167        68.5981
          819.5         83.480        52.4488        72.1745
          820.0         83.300        50.5278        74.8371
          820.5         84.564        44.1373        56.0010
          821.0         85.948        39.3095        49.8732
          821.5         87.113        36.8431        46.4365
          822.0         88.024        41.9409        48.1881
          822.5         89.547        41.1716        51.8783
          823.0         90.833        41.1716        54.2577
          823.5         90.963        41.1716        55.0270
          824.0         89.750        41.1716        57.7358
          824.5         87.402        46.2979        62.1895
          825.0         84.352        51.8920        67.8519
          825.5         82.277        58.5277        77.9501
          826.0         81.494        63.6125        86.8317
          826.5         81.661        66.6474        87.9892
          827.0         81.976        63.6136        83.2066
          827.5         82.031        60.8045        81.6743
          828.0         81.788        59.5655        80.9217
          828.5         81.650        60.0615        80.9217
          829.0         81.790        61.8929        80.9217
          829.5         81.555        61.8688        80.9217
          830.0         81.856        63.0661        80.9229
          830.5         83.240        62.0623        80.9203
          831.0         84.564        59.5987        80.9340
          831.5         84.624        59.6214        80.9217
          832.0         83.420        59.6214        78.7055
          832.5         82.241        60.7354        77.2618
          833.0         81.439        60.7354        75.1457
          833.5         81.844        57.4542        72.4679
          834.0         83.314        51.4139        66.7432
          834.5         85.066        46.8683        61.2407
          835.0         86.610        45.1647        57.7798
          835.5         87.332        45.1647        56.2310
          836.0         87.573        42.9785        54.7237
          836.5         87.978        41.5545        52.8616
          837.0         88.607        40.7923        53.4653
          837.5         89.026        42.3310        54.3502
          838.0         89.621        45.5847        59.2943
          838.5         89.794        49.5450        64.2618
          839.0         89.017        52.8616        70.7651
          839.5         87.272        56.4003        76.3539
          840.0         84.865        60.5732        93.1215
          840.5         83.299        65.1607        92.8846
          841.0         81.916        67.8708        92.1184
          841.5         81.735        67.8708        92.1184
          842.0         81.976        64.8012        90.4287
          842.5         81.976        62.4457        90.4287
          843.0         81.675        66.0120        98.2850
