~VERSION INFORMATION
 VERS.                2.0:   CWLS LOG ASCII STANDARD - VERSION 2.0
 WRAP.                 NO:   ONE LINE PER DEPTH STEP
~WELL INFORMATION
#MNEM.UNIT      DATA TYPE    INFORMATION
#----------   ------------   ------------------------------
 STRT.FT          68.0000:   START DEPTH
 STOP.FT        1517.0000:   STOP DEPTH
 STEP.FT           0.5000:   STEP LENGTH
 NULL.          -999.2500:   NULL VALUE
 COMP. LINCOLN ROCK CORPORATION:   COMPANY
 WELL.        HOLLER #602:   WELL
 FLD .            UNNAMED:   FIELD
 LOC .                   :   LOCATION
 CNTY.          CULBERSON:   COUNTY
 STAT.              TEXAS:   STATE
 CTRY. UNITED STATES OF AMERICA:   COUNTRY
 SRVC.           Gearhart:   SERVICE COMPANY
 DATE.        24-Jun-1984:   LOGDATE
 API .     42109317410000:   API NUMBER
~CURVE INFORMATION
#MNEM.UNIT       API CODE    CURVE DESCRIPTION
#----------   ------------   ------------------------------
 DEPT.F                  :   
 CALXS.IN    60 280 13 00:   CALIPER FROM X AXIS OF X-Y CALIPER(S) FROM SONIC LOG
 GRD .GAPI   45 310 01 00:   GAMMA RAY FROM DENSITY LOG
 GRS .GAPI   60 310 01 00:   GAMMA RAY FROM SONIC LOG
 TEND.LB     45 635 00 00:   TENSION FROM DENSITY LOG
 TENR.LB     11 635 00 00:   TENSION FROM RESISTIVITY LOG
 TENS.LB     60 635 00 00:   TENSION FROM SONIC LOG
 CALYD.IN    45 280 24 00:   CALIPER FROM X AXIS OF X-Y CALIPER(S) FROM DENSITY LOG
 CNS_LS.DEC  42 890 01 00:   COMPENSATED NEUTRON POROSITY
 CDL_LS.DEC  45 890 10 00:   COMPENSATED DENSITY POROSITY LIMESTONE
 RHOB.G/C3   45 350 01 00:   BULK DENSITY
 DRHO.G/C3   45 356 01 00:   BULK DENSITY CORRECTION
 GRR .GAPI   11 310 01 00:   GAMMA RAY FROM RESISTIVITY LOG
 RLLD.OHMM   11 220 10 00:   RAW LATEROLOG DEEP RESISTIVITY
 RLLS.OHMM   11 220 09 00:   RAW LATEROLOG SHALLOW RESISTIVITY
 DT  .US/F   60 500 00 00:   DELTA-T (INTERVAL TRANSIT TIME)
 SPHI.DEC    60 890 00 00:   SONIC POROSITY
~PARAMETER INFORMATION
#MNEM.UNIT          VALUE    DESCRIPTION
#----------   ------------   ------------------------------
 PD  .                 GL:   PERMANENT DATUM
 EPD .FT             3532:   ELEVATION PERMANENT DATUM
 LMF .                 GL:   LOG MEASURED FROM
 DMF .                RKB:   DRILLING MEASURED FROM
 EKB .FT             3544:   KELLY BUSHING
 EDF .FT             3543:   DRILLING FLOOR
 EGL .FT             3532:   GROUND LEVEL
 DATE.           06/24/84:   RUN DATE
 RUN .                  1:   RUN NUMBER
 DD  .FT             1502:   DEPTH DRILLER
 DL  .FT             1506:   DEPTH LOGGER
 BLI .FT             1505:   BOTTOM LOG INTERVAL
 TLI .FT               90:   TOP LOG INTERVAL
 CS  .IN              4.5:   CASING SIZE
 CBD .FT              101:   CASING BOTTOM DRILLER
 CBL .FT             1502:   CASING BOTTOM LOGGER
 BS  .IN            7.875:   BIT SIZE
 BSD .FT             1502:   BIT SIZE AT DEPTH
 DFT .          FRESH H2O:   DRILLING FLUID TYPE
 DFD .                8.4:   DRILLING FLUID DENSITY
 DFV .                 27:   DRILLING FLUID VISCOSITY
 DFPH.                 12:   DRILLING FLUID PH
 MSS .                PIT:   MUD SAMPLE SOURCE
 RMS .OHMM           2.32:   RESISTIVITY MUD SAMPLE
 MST .DEGF             77:   MUD SAMPLE TEMPERATURE
 RMF .OHMM           2.32:   RESISTIVITY MUD FILTRATE SAMPLE
 MFST.DEGF             77:   MUD FILTRATE SAMPLE TEMPERATURE
 MFSS.               MEAS:   MUD FILTRATE SAMPLE SOURCE
 TCS .HRS            0940:   TIME CIRCULATED STOPPED
 TLAB.HRS            1319:   TIME LOGGER AT BOTTOM
 MRT .DEGF            770:   MAXIMUM RECORDED TEMPERATURE
 LUN .               7583:   LOGGING UNIT NUMBER
 LUL .              HOBBS:   LOGGING UNIT LOCATION
 ENGI.             BRYANT:   RECORDING ENGINEER
 WITN.             BURROW:   WITNESSED BY
 CLNT.            :   CLIENT CODE
 ORIG.      1" 2.5" PRINT:   ORIGIN OF DATA
 UWI .     42109317410000:   UNIQUE WELL ID
 
~OTHER INFORMATION
~A   DEPT    CALXS        GRD        GRS       TEND       TENR       TENS      CALYD      CNS_LS     CDL_LS      RHOB       DRHO          GRR     RLLD       RLLS         DT       SPHI   
# ...
  476.5000     8.6857     5.9236     5.1246   959.3537   634.4891   777.6805     7.9902    -0.0077     0.2562     2.9498    -0.0232     5.5098 39855.8242 22183.6758    49.1176    -0.0209
  477.0000     8.6735     6.3926     5.0456   959.6145   631.2117   775.7875     7.9899    -0.0077     0.2585     2.9438    -0.0245     5.5824 34173.0703 18527.8242    49.1046    -0.0217
  477.5000     8.6450     6.7704     4.9647   958.0344   634.1864   777.6334     7.9900    -0.0077     0.2605     2.9403    -0.0314     5.6550 29817.7949 16040.4424    49.0321    -0.0222
  478.0000     8.6869     6.5870     4.9577   956.4532   637.1607   779.4819     7.9901    -0.0077     0.2627     2.9436    -0.0339     5.7276 21508.4746 13553.0615    49.1492    -0.0209
  478.5000     8.6657     6.1778     4.9709   956.7150   633.8812   777.5887     7.9898    -0.0077     0.2646     2.9520    -0.0364     5.8002 13476.9492 11065.6816    49.3328    -0.0186
  479.0000     8.6444     6.0406     4.9842   956.9745   636.8556   775.6943     7.9895    -0.0074     0.2582     2.9604    -0.0388     5.8704  5445.4243  8578.3008    49.6540    -0.0161
  479.5000     8.6566     6.3775     5.0030   955.3919   633.5786   777.5428     7.9896    -0.0062     0.2522     2.9688    -0.0341     5.5349  3875.2227  6090.9199    49.8939    -0.0151
  480.0000     8.6504     6.6534     4.7500   935.4139   610.8224   814.5891     7.9893    -0.0049     0.2426     2.9715    -0.0241     5.2097  7202.2524  5095.9673    49.8440    -0.0146
  480.5000     8.6397     6.2989     4.2414   934.6627   601.1452   815.7467     7.9954    -0.0037     0.2445     2.9611    -0.0140     4.8845 11223.0898 24366.2559    49.8871    -0.0144
  481.0000     8.6085     5.9445     3.8915   933.9103   591.4667   816.9028     7.9954    -0.0040     0.2511     2.9507    -0.0068     4.5594 26746.6660 46347.0977    49.9620    -0.0142
  481.5000     8.6182     5.8736     3.7096   933.1593   583.7089   817.2564     7.9954    -0.0043     0.2588     2.9403    -0.0041     4.2342 37173.0898 68327.9453    49.9290    -0.0144
  482.0000     8.6121     6.1564     3.8614   932.4082   577.6765   827.0011     7.9954    -0.0045     0.2665     2.9320    -0.0061     3.9090 42473.6836 68327.9453    49.8690    -0.0152
  482.5000     8.6160     6.1535     4.0949   933.0172   588.1234   833.4560     7.9954    -0.0048     0.2711     2.9310    -0.0252     3.5838 47774.2734 54289.2109    49.5631    -0.0173
  483.0000     8.6079     6.1506     4.3986   939.0694   598.5694   825.4096     7.9954    -0.0051     0.2693     2.9302    -0.0303     3.2586 51797.9922 41996.8008    49.5047    -0.0177
  483.5000     8.6065     6.3500     4.7678   945.1203   607.0967   819.8517     7.9954    -0.0054     0.2656     2.9372    -0.0293     2.9334 54707.5547 42879.6406    49.4464    -0.0185
  484.0000     8.6178     6.8531     4.8860   951.1725   606.5200   825.8946     7.9954    -0.0057     0.2619     2.9432    -0.0286     2.6316 58293.6641 47293.8203    49.3203    -0.0186
  484.5000     8.6358     6.5171     4.9012   957.2246   597.8392   831.6124     7.9954    -0.0061     0.2605     2.9484    -0.0286     3.0672 61879.7734 48781.6953    49.4324    -0.0186
  485.0000     8.6364     6.1187     4.7636   963.2756   594.4302   837.6641     7.9954    -0.0065     0.2609     2.9467    -0.0327     3.4737 70538.6406 48781.6953    49.4198    -0.0185
  485.5000     8.6362     5.7047     4.2086   969.3278   584.2100   841.8323     7.9954    -0.0069     0.2621     2.9452    -0.0347     3.8802 77465.7422 48781.6953    49.4072    -0.0179
  486.0000     8.6319     5.8786     3.7743   975.3800   592.3698   839.8064     7.9954    -0.0073     0.2632     2.9437    -0.0334     4.2866 77465.7422 48781.6953    49.3355    -0.0180
  486.5000     8.6184     6.0285     4.3360   972.4681   598.6678   838.1119     7.9954    -0.0077     0.2643     2.9423    -0.0321     4.6931 67609.2734 48176.6563    49.2552    -0.0190
  487.0000     8.6079     5.9966     4.9350   969.5563   587.9465   836.0847     7.9954    -0.0069     0.2628     2.9464    -0.0306     5.0607 52384.6680 48281.8789    49.3414    -0.0194
  487.5000     8.6116     5.7525     4.9372   966.6445   580.3647   834.3876     7.9954    -0.0046     0.2604     2.9453    -0.0265     4.6896 46294.8242 48413.4102    49.3588    -0.0193
  488.0000     8.6267     5.3613     4.9393   963.7326   577.6665   832.6893     7.9954    -0.0029     0.2597     2.9443    -0.0215     4.3509 52473.1797 48544.9414    49.4657    -0.0188
  488.5000     8.6156     5.3417     4.9801   960.8222   588.3713   836.2348     7.9954    -0.0032     0.2650     2.9119    -0.0192     4.4302 60196.1250 48676.4688    49.5648    -0.0176
  489.0000     8.6113     5.3223     4.6574   957.9103   589.9597   843.8346     7.9954    -0.0034     0.2763     2.9075    -0.0271     4.6842 67919.0703 48176.6563    49.7723    -0.0160
  489.5000     8.6410     5.3028     4.2922   954.9985   578.8971   851.1020     7.9954    -0.0037     0.2874     2.9029    -0.0349     4.9383 75677.4922 48176.6563    49.7731    -0.0156
  490.0000     8.6756     5.2834     3.9249   952.0867   611.7527   808.0089     7.9954    -0.0061     0.2923     2.8978    -0.0427     4.9730 83489.1406 48781.6953    49.4104    -0.0174
  490.5000     8.6786     5.2640     3.5273   949.1749   624.9763   804.6459     7.9954    -0.0061     0.2802     2.9218    -0.0409     4.8036 85926.5313 50052.1367    49.1167    -0.0195
  491.0000     8.6718     5.2444     3.4799   946.2643   627.1149   799.4480     7.9954    -0.0061     0.2650     2.9524    -0.0352     4.6559 74503.8516 50694.4805    49.1687    -0.0200
  491.5000     8.6790     5.2985     3.8474   943.3524   611.7664   793.0665     7.9954    -0.0061     0.2619     2.9524    -0.0296     3.7393 61221.0742 49089.8594    49.3179    -0.0196
  492.0000     8.6540     5.6033     4.3668   940.4406   608.0610   788.8821     7.9954    -0.0061     0.2626     2.9524    -0.0261     3.0364 47938.2891 46409.7930    49.1949    -0.0198
  492.5000     8.6616     5.3442     4.7970   940.5604   625.3674   782.4995     7.9954    -0.0042     0.2634     2.9383    -0.0253     3.2672 45050.1094 45343.9961    49.0066    -0.0211
  493.0000     8.6700     4.9598     4.7164   940.6815   651.2586   778.3101     7.9954    -0.0025     0.2603     2.9383    -0.0245     3.4413 57152.5703 46502.4414    49.0467    -0.0216
  493.5000     8.6697     4.5910     4.1788   940.8013   625.4583   771.9275     7.9954    -0.0013     0.2533     2.9644    -0.0201     4.4096 68100.2422 47095.8828    49.1620    -0.0205
  494.0000     8.6658     5.0353     3.6014   940.9212   622.6546   767.7357     7.9954    -0.0017     0.2458     2.9682    -0.0158     5.2564 53406.0508 45037.3047    49.5782    -0.0178
  494.5000     8.6655     5.3926     3.3521   941.0422   643.5148   763.9867     7.9954    -0.0021     0.2500     2.9613    -0.0122     5.1377 52429.2266 41595.6289    49.7115    -0.0161
  495.0000     8.6593     5.2872     3.4050   941.1621   621.8073   764.1877     7.9954    -0.0025     0.2544     2.9540    -0.0196     4.7021 61000.5664 41091.4961    49.7949    -0.0155
  495.5000     8.6770     4.8926     3.5355   941.2832   626.5818   762.1979     7.9954    -0.0028     0.2595     2.9467    -0.0259     4.2666 66896.1016 42138.3398    49.8035    -0.0161
  496.0000     8.6961     4.3244     3.8510   941.4031   629.1255   762.3976     7.9954    -0.0011     0.2646     2.9394    -0.0327     3.8311 66915.5859 41627.6797    49.8121    -0.0168
  496.5000     8.6922     4.6754     4.2627   941.5229   636.1419   760.4065     7.9959     0.0004     0.2697     2.9322    -0.0340     3.3956 63873.4688 38660.3359    49.8207    -0.0162
  497.0000     8.6807     5.4787     4.6346   941.6440   643.7278   760.6063     7.9966     0.0020     0.2752     2.9249    -0.0327     3.0364 60970.0000 37693.3984    49.8293    -0.0157
  497.5000     8.6676     6.2820     5.1470   941.7638   627.3540   758.6151     7.9973    -0.0004     0.2776     2.9257    -0.0286     3.0364 62723.2148 37704.0859    49.8380    -0.0154
