# Exported from Transform Software 5.2.0 on 30-Oct-2019 by user kathryn.gehrke
# DI Transform - A Product of Drillinginfo, Inc. - www.drillinginfo.com
#
~VERSION INFORMATION
 VERS.        2.0 : LAS ASCII STANDARD - VERSION 2.0
 WRAP.         NO : ONE LINE PER DEPTH STEP

~WELL INFORMATION
#MNEM.UNIT       DATA TYPE       INFORMATION
#---------       ---------       -----------
 STRT.ft                  40 : Start Depth
 STOP.ft                9358 : Stop Depth
 STEP.ft                 0.5 : Step Length
 NULL.               -999.25 : Null Value
 COMP.                       : Company
 WELL.  42109330610000_API14 : Well Name
 FLD.                        : Field Name
 LOC.                        : Well Location
 CNTY.                       : County
 STAT.                       : State or Province
 CTRY.                       : Country
 SRVC.                       : Service Company
 DATE.                       : Date
 API.         42109330610000 : Well Identifier

~CURVE INFORMATION
#MNEM.UNIT       API CODE       CURVE DESCRIPTION
#---------       --------       -----------------
 DEPT.ft        : <Measured Depth>
 DT.us/ft       : Sonic
 GR.gAPI        : Gamma Ray

~PARAMETER INFORMATION
#MNEM.UNIT       VALUE       DESCRIPTION
#---------       -----       -----------
 EKB.ft      3200.5 : Elevation above MSL

~A      DEPT          DT          GR
# ...
        4380    233.8677     42.8056
      4380.5    233.8677     40.7373
        4381    235.1003     34.5809
      4381.5    236.7034     29.1782
        4382    237.0741     24.2725
      4382.5    237.8758     24.4168
        4383    242.3445     27.6713
      4383.5    255.4153       28.97
        4384    271.4771     27.4148
      4384.5    277.1543     26.6934
        4385    266.7998      27.543
      4385.5    250.1816     29.7073
        4386    238.2172     33.5709
      4386.5    236.2725     34.8697
        4387    237.5046     31.9523
      4387.5    245.7949     30.5411
        4388     261.485     32.4807
      4388.5    276.8125     34.5169
        4389    282.7655     34.3888
      4389.5    278.9138     34.3888
        4390    266.8018     37.1621
      4390.5    249.7826     38.7331
        4391    238.2473     40.1603
      4391.5    239.1343     41.8593
        4392    241.1405     42.9336
      4392.5    254.2393     40.1293
        4393    270.2712     35.5602
      4393.5     279.989     32.9459
        4394    281.9639     33.9078
      4394.5    281.9639      37.162
        4395    282.7655     38.6049
      4395.5    280.7326     37.7401
        4396    272.2294     34.8697
      4396.5    256.9991     37.9294
        4397    244.0163     42.4525
      4397.5    240.2806     42.1662
        4398    240.2806     37.2441
      4398.5    242.3132     35.8469
        4399    251.7748     38.6048
      4399.5    267.8068     42.8208
        4400    281.4055     43.2866
      4400.5    284.7411     39.0555
        4401    278.6723     34.8697
      4401.5    264.3731      36.215
        4402    250.4585     40.5586
      4402.5    252.1466     45.1277
        4403    267.2754     51.7783
      4403.5    280.8461     58.1136
        4404    285.1703     59.7521
      4404.5    283.9398     57.3323
        4405    278.1142      55.085
      4405.5    272.7175     55.0553
        4406    274.3767      52.891
      4406.5    280.4166     51.0948
        4407    284.7974     51.6053
      4407.5    282.3369     55.8211
        4408    277.5273     58.4369
      4408.5    273.5193     54.0347
        4409    271.5431     41.9126
      4409.5    274.3764     33.8785
        4410    273.5195      31.871
      4410.5    267.6665      32.833
        4411     251.607     32.9459
      4411.5    247.1217     32.9459
        4412    259.8978     34.0353
      4412.5    275.4192     33.4269
        4413    279.5591      31.503
      4413.5    275.9246      31.022
        4414    275.9792     33.4413
      4414.5    276.3527     35.3507
        4415    276.3527     33.0589
      4415.5    277.1543     28.8434
        4416    280.7886     28.7589
      4416.5    284.3687     30.6685
        4417    284.3687     30.5411
      4417.5    284.3687     29.6923
        4418     283.941     29.4518
      4418.5    283.5671     29.3387
        4419    283.5671     31.5313
      4419.5    284.3687     33.3137
        4420    284.3687     36.1994
      4420.5    283.5671     39.8207
        4421    283.5671     41.6032
      4421.5    284.3687     39.7926
        4422    284.3687     37.8687
      4422.5    284.3687      34.488
        4423    284.3687     32.2244
      4423.5    283.5671     32.4789
        4424    282.7655     33.9217
      4424.5    282.7655     35.1241
        4425    283.5671     35.8317
      4425.5    282.7655     33.1725
        4426    282.7655      29.933
      4426.5    281.9639     30.0739
        4427    281.9639     30.8949
      4427.5    281.9639     30.7816
        4428    281.9639      31.022
      4428.5    281.9639     29.1979
        4429    281.9639     27.8958
      4429.5    281.9639      30.836
        4430    281.9639     35.9723
      4430.5    281.9639     37.2745
        4431    282.7655     36.2991
      4431.5    282.7655     33.2999
        4432    282.7655     32.2244
      4432.5    282.7655     32.9459
        4433    282.7655     32.2244
      4433.5    282.7655     30.6546
        4434    282.7655     29.3387
      4434.5    281.9639     29.5925
        4435    281.9639     32.3647
      4435.5    282.7655     34.3888
        4436    282.7655     33.7809
      4436.5    282.7655     31.3761
        4437    281.5378     28.8577
      4437.5    277.5299      29.706
        4438    271.0919     34.0478
      4438.5    261.8484     35.5912
        4439    249.8245     32.2113
      4439.5     241.032     30.0601
        4440    239.1032     30.3006
      4440.5    239.9047     30.1738
        4441    244.9521      28.731
      4441.5    256.9761     28.0225
        4442     271.004     30.4403
      4442.5    279.1831     35.5033
        4443    282.7655     40.2999
      4443.5    282.7655     42.6918
        4444    282.7655     43.0461
      4444.5    282.7655     42.5651
        4445    282.3401     40.1475
      4445.5    279.1338     36.0594
        4446    270.2672     33.5407
      4446.5    255.8629     33.4269
        4447    242.4239     33.7812
      4447.5     236.649     32.2118
        4448    236.6977     30.5411
      4448.5    242.9465     31.5156
        4449    252.4016      34.047
      4449.5    264.7779     36.1987
        4450    269.5632     36.6796
      4450.5    271.1664     37.6415
        4451    273.9479     41.3877
      4451.5    277.5791     44.7295
        4452    281.5871     44.3501
      4452.5    281.5392     40.6413
        4453    281.1623     41.3875
      4453.5    281.1623      47.754
        4454    281.1623     48.9317
      4454.5    278.1207      45.565
        4455    267.4402     45.0963
      4455.5    251.8328     45.9319
        4456    241.0349      44.489
      4456.5    237.8758     47.7538
        4457    237.8758       50.02
      4457.5    237.4985     44.5788
        4458    243.1331     36.5167
      4458.5    257.3966     32.3265
        4459     273.193     29.0861
      4459.5    274.3254     29.7175
        4460    270.3174     33.5892
      4460.5    272.7687     38.8797
        4461    276.9887     42.7034
      4461.5    281.9639     44.8557
        4462    281.9639     44.7295
      4462.5    281.9639     44.9699
        4463    282.7655     43.9961
      4463.5    282.7655     41.1104
        4464    281.5402     38.1103
      4464.5    273.0547     35.0866
        4465    257.1889     31.6056
      4465.5    240.2349     30.7933
        4466    238.2993     32.8315
      4466.5    242.3073     33.5412
        4467    241.4603     33.4269
      4467.5    237.4523     34.2744
        4468    234.2911     35.9577
      4468.5    235.8943     37.7671
        4469    237.0741     43.6647
      4469.5    236.2725     49.9171
        4470    235.4709     52.1844
      4470.5    235.4709     51.7034
        4471    235.4709     51.9324
      4471.5    235.0478      45.783
        4472    234.2908     35.3164
      4472.5    237.4972     28.0103
        4473    243.9321      25.491
      4473.5    255.1545     26.8193
        4474    269.2045     27.1743
      4474.5     278.991     27.6553
        4475    282.7655     29.7163
      4475.5    282.7655     33.3122
        4476    280.7396      33.301
      4476.5    272.4904     31.9952
        4477    255.8464     36.5754
      4477.5    239.2241     44.3966
        4478    231.0404     47.3747
      4478.5     232.687     44.8331
        4479    237.4966      39.783
      4479.5    241.0822      38.007
        4480     238.255      41.751
      4480.5    235.0486     43.7566
        4481    234.6693     41.1113
      4481.5    237.4964     41.1441
        4482     239.479     45.8171
      4482.5    240.2806     48.8176
        4483     239.479     45.7953
      4483.5     239.479     37.7122
        4484     239.479     31.4922
      4484.5    238.2554     31.9947
        4485     235.049     35.6019
      4485.5    233.0661     37.0341
        4486     233.488     37.6406
      4486.5    235.8927     41.2692
        4487    240.9341      41.948
      4487.5    253.3589     38.1003
        4488    267.5977     35.2252
