###############################################
##         ENVERUS                           ##
##         ESS - Open Hole                   ##
##         PERMIAN / DELAWARE                ##
##         Nov 02 2023  V4.0                 ##
##         42-109-31383-00-00                ##
###############################################
## Copyright 2017-2023  ENVERUS.  All Rights Reserved. 
## Confidential - Property of ENVERUS, use governed by terms and 
## conditions found within the existing Information Services Subscription Agreement 
## (as may be amended, the “ISSA”) between Customer and ENVERUS. 
## 
~VERSION INFORMATION
# MNEM.UNIT                               DATA : DESCRIPTION OF MNEMONIC
#-----.-----     ----------------------------- : -----------------------------
VERS.                                     2.00 : CWLS LOG ASCII STANDARD - VERSION 2.00
WRAP.                                       NO : MULTIPLE LINES PER DEPTH STEP
VEND.                                  ENVERUS : VENDOR
TYPE.                          ESS - OPEN HOLE : ENVERUS ESSENTIAL CURVES – ACCESSIBLE THROUGH ENVERUS PRISM(TM)
DOC.                                  31887493 : ENVERUS HEADER RAW DOCUMENT ID
#___________________________________________________________________________________________________ 
~WELL INFORMATION 
# e8MMFGpko9nixUfuEkfb9P8cKS4olzuguLrtdgPIjARTX3oRymgI2EYtnk6GmA/F0PbYW2Z7xnLx5OgyGayifw== 
# MNEM.UNIT                                              DATA : DESCRIPTION OF MNEMONIC 
#-----.-----                    ----------------------------- : ----------------------------- 
CNTY.                                               CULBERSON : COUNTY 
STATE.                                                  TEXAS : STATE 
CNTRY.                                                    USA : COUNTRY 
API.                                             42-109-31383 : API (10 Digit) 
API_14.                                    42-109-31383-00-00 : API (14 Digits) 
API_14_std.                                 42-109-31383-0000 : API (14 Digits Standard) 
UWI.                                           42109313830000 : UNIQUE WELL ID 
WELL.                                          KIRK  T. A.  1 : WELL NAME
STRT.FT                                                  43.0 : START DEPTH
STOP.FT                                               16492.0 : STOP DEPTH
STEP.FT                                                   0.5 : STEP BETWEEN DEPTHS
NULL.                                                 -999.25 : NULL VALUE
COMP.                                             EXXON CORP. : COMPANY 
DATE.                                             05-AUG-1981 : LOG DATE
#___________________________________________________________________________________________________ 
~CURVE INFORMATION 
# MNEM.UNIT           : CURVE DESCRIPTION 
#-----.-----          : ----------------------------- 
 DEPT.FT               : MEASURED DEPTH 
 CALI.IN               : CALIPER (CAL - CAL) 
 GR.API                : GAMMA RAY (GR) 
 SP.MV                 : SPONTANEOUS POTENTIAL (SP) 
 DT.US/FT              : SONIC DELTA TRANSIT TIME (DT) 
 RESS.OHMM             : SHALLOW INDUCTION RESISTIVITY (ILS - ILS) 
 RESD.OHMM             : DEEP INDUCTION RESISTIVITY (ILD - ILD) 
 NPHI.V/V              : NEUTRON POROSITY (NPHI) 
 #___________________________________________________________________________________________________ 
~A         DEPT           CALI             GR             SP             DT           RESS           RESD           NPHI
# ...
         4364.5         13.372         57.276       -999.250         63.463         33.952         35.788     -999.25000
         4365.0         13.365         56.675       -999.250         64.113         35.122         36.385     -999.25000
         4365.5         13.357         56.074       -999.250         64.764         36.291         36.983     -999.25000
         4366.0         13.350         57.378       -999.250         65.414         35.602         37.581     -999.25000
         4366.5         13.343         58.432       -999.250         65.556         32.869         38.178     -999.25000
         4367.0         13.337         54.302       -999.250         65.407         30.135         38.776     -999.25000
         4367.5         13.335         52.203       -999.250         65.259         30.235         39.373     -999.25000
         4368.0         13.332         56.905       -999.250         65.110         30.393         39.954     -999.25000
         4368.5         13.329         61.607       -999.250         64.961         30.551         40.530     -999.25000
         4369.0         13.326         64.042       -999.250         64.813         30.709         41.107     -999.25000
         4369.5         13.323         65.215       -999.250         64.381         32.443         41.684     -999.25000
         4370.0         13.321         65.905       -999.250         63.498         36.587         42.261     -999.25000
         4370.5         13.318         62.908       -999.250         62.614         40.731         42.838     -999.25000
         4371.0         13.315         59.911       -999.250         62.774         44.875         43.414     -999.25000
         4371.5         13.312         57.331       -999.250         63.137         46.310         43.991     -999.25000
         4372.0         13.309         63.615       -999.250         63.499         46.202         44.568     -999.25000
         4372.5         13.307         67.542       -999.250         63.861         46.095         45.145     -999.25000
         4373.0         13.304         70.625       -999.250         64.224         46.660         47.279     -999.25000
         4373.5         13.301         68.504       -999.250         64.204         48.760         50.248     -999.25000
         4374.0         13.298         65.211       -999.250         63.872         50.860         53.218     -999.25000
         4374.5         13.295         61.919       -999.250         63.539         52.960         56.187     -999.25000
         4375.0         13.293         58.626       -999.250         64.179         52.921         59.157     -999.25000
         4375.5         13.290         60.156       -999.250         64.859         52.812         62.126     -999.25000
         4376.0         13.289         66.073       -999.250         64.426         52.703         65.096     -999.25000
         4376.5         13.294         71.991       -999.250         63.752         53.727         67.855     -999.25000
         4377.0         13.299         77.908       -999.250         63.077         58.793         70.162     -999.25000
         4377.5         13.304         83.825       -999.250         62.402         63.860         72.470     -999.25000
         4378.0         13.309         89.742       -999.250         61.947         68.927         74.777     -999.25000
         4378.5         13.314         95.659       -999.250         62.321         73.993         77.084     -999.25000
         4379.0         13.318        101.576       -999.250         62.696         78.415         79.391     -999.25000
         4379.5         13.323        107.493       -999.250         63.466         80.432         81.698     -999.25000
         4380.0         13.328        113.410       -999.250         64.542         82.450         84.005     -999.25000
         4380.5         13.333        109.520       -999.250         65.618         84.467         86.312     -999.25000
         4381.0         13.338        102.187       -999.250         66.694         86.908         88.619     -999.25000
         4381.5         13.343         94.853       -999.250         67.770         98.742         91.034     -999.25000
         4382.0         13.348         88.434       -999.250         68.500        110.576         94.143     -999.25000
         4382.5         13.353         87.074       -999.250         67.340        122.410         97.251     -999.25000
         4383.0         13.358         85.714       -999.250         66.180        134.244        100.360     -999.25000
         4383.5         13.363         84.354       -999.250         65.019        140.732        103.803     -999.25000
         4384.0         13.368         82.994       -999.250         64.832        140.738        112.404     -999.25000
         4384.5         13.368         73.146       -999.250         65.248        131.948        121.004     -999.25000
         4385.0         13.369         82.039       -999.250         65.664        120.747        129.604     -999.25000
         4385.5         13.369         87.919       -999.250         65.285        109.545        138.204     -999.25000
         4386.0         13.369         99.520       -999.250         63.883         98.812        135.854     -999.25000
         4386.5         13.369        115.343       -999.250         62.482         99.220        133.341     -999.25000
         4387.0         13.369        136.682       -999.250         63.366         99.628        130.829     -999.25000
         4387.5         13.369        162.665       -999.250         64.411        100.036        128.316     -999.25000
         4388.0         13.369        162.929       -999.250         65.456        100.444        125.803     -999.25000
         4388.5         13.369        163.192       -999.250         66.501        100.852        123.290     -999.25000
         4389.0         13.369        163.456       -999.250         67.546        102.409        120.777     -999.25000
         4389.5         13.370        163.171       -999.250         68.591        108.392        118.265     -999.25000
         4390.0         13.370        161.199       -999.250         66.881        114.376        114.157     -999.25000
         4390.5         13.370        159.227       -999.250         65.130        120.359        107.999     -999.25000
         4391.0         13.370        157.255       -999.250         63.379        125.672        101.841     -999.25000
         4391.5         13.370        155.283       -999.250         61.628        113.056         95.683     -999.25000
         4392.0         13.370        156.725       -999.250         60.210        100.441         89.525     -999.25000
         4392.5         13.370        158.499       -999.250         59.094         87.825         77.308     -999.25000
         4393.0         13.370        160.273       -999.250         57.978         75.210         64.867     -999.25000
         4393.5         13.370        162.047       -999.250         56.861         62.594         55.920     -999.25000
         4394.0         13.371        163.821       -999.250         56.710         56.780         50.118     -999.25000
         4394.5         13.371        165.594       -999.250         57.555         75.901         44.317     -999.25000
         4395.0         13.371        167.368       -999.250         58.399         95.021         38.515     -999.25000
         4395.5         13.371        170.395       -999.250         59.244        103.657         32.713     -999.25000
         4396.0         13.371        176.327       -999.250         61.102         86.255         30.356     -999.25000
         4396.5         13.371        182.258       -999.250         67.412         68.852         29.844     -999.25000
         4397.0         13.371        185.865       -999.250         67.852         51.449         29.332     -999.25000
         4397.5         13.371        188.446       -999.250         67.451         34.047         28.820     -999.25000
