###############################################
##         ENVERUS                           ##
##         ESS - Open Hole                   ##
##         PERMIAN / DELAWARE                ##
##         Nov 02 2023  V4.0                 ##
##         42-109-32255-00-00                ##
###############################################
## Copyright 2017-2023  ENVERUS.  All Rights Reserved. 
## Confidential - Property of ENVERUS, use governed by terms and 
## conditions found within the existing Information Services Subscription Agreement 
## (as may be amended, the “ISSA”) between Customer and ENVERUS. 
## 
~VERSION INFORMATION
# MNEM.UNIT                               DATA : DESCRIPTION OF MNEMONIC
#-----.-----     ----------------------------- : -----------------------------
VERS.                                     2.00 : CWLS LOG ASCII STANDARD - VERSION 2.00
WRAP.                                       NO : MULTIPLE LINES PER DEPTH STEP
VEND.                                  ENVERUS : VENDOR
TYPE.                          ESS - OPEN HOLE : ENVERUS ESSENTIAL CURVES – ACCESSIBLE THROUGH ENVERUS PRISM(TM)
DOC.                                  31869427 : ENVERUS HEADER RAW DOCUMENT ID
#___________________________________________________________________________________________________ 
~WELL INFORMATION 
# Kns/CyAZPDgS4fEM5w0azv9tYcXlBSx1nHSqICrpKgQv6F2hlFUFpw+R1SAxYfM92i4ks6BDNpB+WhJDZXFO5Q== 
# MNEM.UNIT                                              DATA : DESCRIPTION OF MNEMONIC 
#-----.-----                    ----------------------------- : ----------------------------- 
CNTY.                                               CULBERSON : COUNTY 
STATE.                                                  TEXAS : STATE 
CNTRY.                                                    USA : COUNTRY 
API.                                             42-109-32255 : API (10 Digit) 
API_14.                                    42-109-32255-00-00 : API (14 Digits) 
API_14_std.                                 42-109-32255-0000 : API (14 Digits Standard) 
UWI.                                           42109322550000 : UNIQUE WELL ID 
WELL.                             MELISSA TAYLOR STATE 27  1H : WELL NAME
STRT.FT                                                  94.0 : START DEPTH
STOP.FT                                               13828.0 : STOP DEPTH
STEP.FT                                                   0.5 : STEP BETWEEN DEPTHS
NULL.                                                 -999.25 : NULL VALUE
COMP.                              CHESAPEAKE OPERATING  INC. : COMPANY 
DATE.                                             29-NOV-2005 : LOG DATE
#___________________________________________________________________________________________________ 
~CURVE INFORMATION 
# MNEM.UNIT           : CURVE DESCRIPTION 
#-----.-----          : ----------------------------- 
 DEPT.FT               : MEASURED DEPTH 
 CALI__B.IN            : CALIPER (CAL - CAL) 
 GR__B.API             : GAMMA RAY (GR) 
 DT__B.US/FT           : SONIC DELTA TRANSIT TIME (DT) 
 DPHI__B.V/V           : DENSITY POROSITY (DPHI) 
 NPHI__B.V/V           : NEUTRON POROSITY (NPHI) 
 RHOB__B.G/CC          : BULK DENSITY (RHOB) 
 #___________________________________________________________________________________________________ 
~A         DEPT        CALI__B          GR__B          DT__B        DPHI__B        NPHI__B        RHOB__B
# ...
        12140.0          8.665         90.222         75.888        0.08798        0.16924         2.5740
        12140.5          8.671         94.864         77.463        0.09213        0.17400         2.5670
        12141.0          8.678         99.433         77.945        0.09588        0.17453         2.5590
        12141.5          8.785        103.658         78.428        0.09892        0.17153         2.5520
        12142.0          9.000        107.884         78.910        0.09954        0.16809         2.5590
        12142.5          9.046        111.892         79.393        0.09090        0.17812         2.5670
        12143.0          9.091        115.861         79.876        0.08606        0.19524         2.5670
        12143.5          9.136        118.065         80.125        0.09309        0.20965         2.5560
        12144.0          9.201        116.838         80.053        0.10452        0.21115         2.5450
        12144.5          9.267        112.014         79.207        0.10709        0.20599         2.5450
        12145.0          9.394        106.709         77.842        0.09457        0.19977         2.5620
        12145.5          9.565        101.390         76.477        0.08243        0.19407         2.5790
        12146.0          9.251         98.416         75.114        0.06857        0.18980         2.5960
        12146.5          8.738         99.142         73.776        0.05259        0.18554         2.6130
        12147.0          8.749        100.123         72.710        0.04875        0.18082         2.6260
        12147.5          8.760        100.305         71.925        0.04494        0.17611         2.6320
        12148.0          8.769         98.190         71.141        0.04390        0.17140         2.6370
        12148.5          8.769         96.076         71.113        0.05072        0.16669         2.6320
        12149.0          8.769         94.056         71.833        0.05757        0.16610         2.6250
        12149.5          8.776         93.109         72.830        0.06298        0.16974         2.6180
        12150.0          8.803         92.161         73.827        0.06703        0.17953         2.6110
        12150.5          8.830         92.532         74.742        0.06651        0.19249         2.6040
        12151.0          8.856         93.977         75.128        0.06921        0.20167         2.5990
        12151.5          8.853         95.422         74.775        0.06880        0.19665         2.6030
        12152.0          8.849         92.873         73.620        0.06354        0.18509         2.6070
        12152.5          8.845         88.844         71.668        0.05756        0.17374         2.6110
        12153.0          8.841         85.305         71.194        0.06331        0.17052         2.6140
        12153.5          8.834         84.166         71.694        0.07008        0.16729         2.6030
        12154.0          8.825         84.357         72.450        0.07028        0.16382         2.6010
        12154.5          8.816         88.118         73.206        0.06444        0.16758         2.6060
        12155.0          8.807         91.880         73.785        0.06529        0.17252         2.6010
        12155.5          8.798         96.502         73.905        0.07319        0.17513         2.5910
        12156.0          8.789         96.312         73.889        0.07742        0.17533         2.5820
        12156.5          8.780         96.122         73.900        0.08081        0.17456         2.5790
        12157.0          8.771         99.037         73.916        0.08232        0.17356         2.5810
        12157.5          8.767        101.942         73.933        0.08031        0.16777         2.5830
        12158.0          8.765        100.911         73.949        0.07963        0.15940         2.5850
        12158.5          8.762         98.819         73.970        0.07445        0.15131         2.5880
        12159.0          8.760         96.726         74.706        0.06616        0.15407         2.6080
        12159.5          8.757         94.634         75.957        0.05907        0.15954         2.6130
        12160.0          8.755         93.459         77.208        0.05944        0.16382         2.6080
        12160.5          8.752         94.022         77.885        0.06679        0.16345         2.6030
        12161.0          8.750         99.408         77.706        0.07174        0.16468         2.5970
        12161.5          8.748        107.954         76.743        0.07877        0.16717         2.5920
        12162.0          8.745        113.726         75.638        0.08033        0.16953         2.5870
        12162.5          8.743        111.267         74.523        0.08164        0.16375         2.5820
        12163.0          8.740        107.369         73.728        0.08215        0.15615         2.5810
        12163.5          8.738        101.760         73.826        0.07657        0.14854         2.5850
        12164.0          8.735         96.447         74.689        0.07544        0.15614         2.5890
        12164.5          8.733         98.040         76.296        0.07780        0.16375         2.5820
        12165.0          8.730        101.588         78.513        0.08503        0.17122         2.5740
        12165.5          8.728        105.593         80.730        0.08914        0.17814         2.5660
        12166.0          8.726        111.481         82.947        0.08874        0.18730         2.5670
        12166.5          8.723        117.635         84.152        0.08504        0.19736         2.5680
        12167.0          8.721        123.789         84.219        0.08515        0.21169         2.5690
        12167.5          8.718        127.088         84.029        0.08553        0.21981         2.5640
        12168.0          8.719        128.731         83.740        0.09701        0.22357         2.5580
        12168.5          8.732        129.483         83.675        0.09847        0.22529         2.5520
        12169.0          8.744        126.039         83.978        0.10115        0.22529         2.5460
        12169.5          8.757        123.598         84.188        0.10236        0.22728         2.5510
        12170.0          8.769        124.107         84.171        0.10691        0.22832         2.5580
        12170.5          8.782        124.617         84.404        0.10100        0.22318         2.5640
        12171.0          8.794        125.210         85.180        0.09225        0.21372         2.5710
        12171.5          8.807        127.440         86.094        0.08252        0.20427         2.5710
        12172.0          8.819        133.117         87.636        0.08155        0.20824         2.5550
        12172.5          8.832        141.761         90.017        0.09869        0.21701         2.5380
        12173.0          8.844        152.041         92.085        0.11761        0.21921         2.5210
        12173.5          8.857        161.014         92.999        0.13689        0.21871         2.5050
        12174.0          8.869        169.152         93.554        0.14240        0.22121         2.4880
        12174.5          8.959        176.800         93.839        0.13713        0.23362         2.4910
        12175.0          9.091        177.481         94.123        0.12315        0.25456         2.5030
        12175.5          9.178        177.080         94.591        0.11879        0.25804         2.5140
        12176.0          9.135        176.321         95.137        0.12167        0.25510         2.5210
        12176.5          9.097        171.058         95.648        0.14074        0.25054         2.5060
        12177.0          9.075        165.021         95.687        0.14226        0.25178         2.4900
        12177.5          9.053        158.984         95.289        0.12983        0.26233         2.4910
