###############################################
##         ENVERUS                           ##
##         ESS - Open Hole                   ##
##         PERMIAN / DELAWARE                ##
##         Nov 02 2023  V4.0                 ##
##         42-109-31391-00-00                ##
###############################################
## Copyright 2017-2023  ENVERUS.  All Rights Reserved. 
## Confidential - Property of ENVERUS, use governed by terms and 
## conditions found within the existing Information Services Subscription Agreement 
## (as may be amended, the “ISSA”) between Customer and ENVERUS. 
## 
~VERSION INFORMATION
# MNEM.UNIT                               DATA : DESCRIPTION OF MNEMONIC
#-----.-----     ----------------------------- : -----------------------------
VERS.                                     2.00 : CWLS LOG ASCII STANDARD - VERSION 2.00
WRAP.                                       NO : MULTIPLE LINES PER DEPTH STEP
VEND.                                  ENVERUS : VENDOR
TYPE.                          ESS - OPEN HOLE : ENVERUS ESSENTIAL CURVES – ACCESSIBLE THROUGH ENVERUS PRISM(TM)
DOC.                                  31999167 : ENVERUS HEADER RAW DOCUMENT ID
#___________________________________________________________________________________________________ 
~WELL INFORMATION 
# BOC9FSWoKCUsCFcWObZ1iTDYvHtSUwfaSl9bEava01AYiR20s/sWwY1hBaxvFz+VJj0aOQNxXrzxY9t5EPBGbg== 
# MNEM.UNIT                                              DATA : DESCRIPTION OF MNEMONIC 
#-----.-----                    ----------------------------- : ----------------------------- 
CNTY.                                               CULBERSON : COUNTY 
STATE.                                                  TEXAS : STATE 
CNTRY.                                                    USA : COUNTRY 
API.                                             42-109-31391 : API (10 Digit) 
API_14.                                    42-109-31391-00-00 : API (14 Digits) 
API_14_std.                                 42-109-31391-0000 : API (14 Digits Standard) 
UWI.                                           42109313910000 : UNIQUE WELL ID 
WELL.                                            TRES ALAS  1 : WELL NAME
STRT.FT                                                     0 : START DEPTH
STOP.FT                                               15494.0 : STOP DEPTH
STEP.FT                                                   0.5 : STEP BETWEEN DEPTHS
NULL.                                                 -999.25 : NULL VALUE
COMP.                           AMERICAN QUASAR PETROLEUM CO. : COMPANY
#___________________________________________________________________________________________________ 
~CURVE INFORMATION 
# MNEM.UNIT           : CURVE DESCRIPTION 
#-----.-----          : ----------------------------- 
 DEPT.FT               : MEASURED DEPTH 
 CALI.IN               : CALIPER (CAL - CAL) 
 GR.API                : GAMMA RAY (GR) 
 DT.US/FT              : SONIC DELTA TRANSIT TIME (DT) 
 #___________________________________________________________________________________________________ 
~A         DEPT           CALI             GR             DT
# ...
         5016.0         13.032         50.388         64.095
         5016.5         13.034         43.990         62.944
         5017.0         13.037         39.436         61.793
         5017.5         13.040         37.274         61.210
         5018.0         13.042         44.931         62.511
         5018.5         13.045         57.367         64.301
         5019.0         13.047         79.128         66.091
         5019.5         13.050         95.767         66.954
         5020.0         13.052        108.547         65.736
         5020.5         13.055        105.089         64.242
         5021.0         13.057         89.381         62.748
         5021.5         13.060         75.442         61.877
         5022.0         13.068         70.680         62.398
         5022.5         13.086         65.987         62.694
         5023.0         13.104         61.863         61.823
         5023.5         13.121         57.740         60.952
         5024.0         13.139         49.030         60.081
         5024.5         13.157         40.113         59.357
         5025.0         13.175         37.124         59.252
         5025.5         13.192         36.322         59.686
         5026.0         13.210         41.012         61.300
         5026.5         13.228         46.723         62.915
         5027.0         13.245         52.434         63.723
         5027.5         13.263         56.379         64.041
         5028.0         13.278         58.626         64.359
         5028.5         13.254         57.574         64.676
         5029.0         13.229         55.445         64.614
         5029.5         13.204         53.315         64.400
         5030.0         13.179         51.186         64.186
         5030.5         13.154         50.901         63.972
         5031.0         13.130         51.100         63.630
         5031.5         13.139         53.021         63.264
         5032.0         13.152         57.619         62.898
         5032.5         13.166         62.390         62.749
         5033.0         13.179         67.758         62.862
         5033.5         13.193         77.569         64.190
         5034.0         13.206         88.680         65.455
         5034.5         13.220         91.048         65.310
         5035.0         13.244         82.332         64.819
         5035.5         13.272         70.349         63.840
         5036.0         13.300         56.342         62.992
         5036.5         13.328         53.074         64.020
         5037.0         13.356         50.830         64.157
         5037.5         13.383         45.980         64.294
         5038.0         13.411         39.809         64.976
         5038.5         13.439         41.387         66.146
         5039.0         13.467         42.965         67.221
         5039.5         13.495         44.544         67.505
         5040.0         13.523         46.122         67.789
         5040.5         13.550         49.230         68.073
         5041.0         13.578         53.487         68.090
         5041.5         13.606         57.003         67.912
         5042.0         13.634         54.847         67.735
         5042.5         13.662         50.428         67.558
         5043.0         13.691         46.010         67.344
         5043.5         13.719         41.591         67.103
         5044.0         13.748         43.267         66.862
         5044.5         13.776         45.309         66.959
         5045.0         13.805         47.284         67.075
         5045.5         13.833         47.778         67.192
         5046.0         13.834         42.351         67.308
         5046.5         13.834         35.829         66.257
         5047.0         13.833         30.488         63.634
         5047.5         13.833         27.686         61.010
         5048.0         13.832         26.191         60.691
         5048.5         13.832         26.641         62.612
         5049.0         13.849         29.015         64.808
         5049.5         13.866         31.390         67.004
         5050.0         13.883         31.782         69.200
         5050.5         13.900         31.775         70.117
         5051.0         13.905         33.877         70.217
         5051.5         13.907         36.856         70.317
         5052.0         13.908         43.870         70.417
         5052.5         13.910         45.915         69.950
         5053.0         13.912         41.319         69.519
         5053.5         13.913         35.453         69.626
         5054.0         13.915         31.058         69.734
         5054.5         13.916         31.541         69.841
         5055.0         13.918         37.536         69.948
         5055.5         13.919         43.530         70.056
         5056.0         13.921         49.525         69.883
         5056.5         13.919         54.621         69.648
         5057.0         13.894         56.839         69.414
         5057.5         13.869         59.057         69.179
         5058.0         13.844         61.276         68.488
         5058.5         13.819         63.494         67.769
         5059.0         13.794         65.713         67.050
         5059.5         13.769         67.329         65.275
         5060.0         13.744         62.659         63.453
         5060.5         13.750         53.063         61.632
         5061.0         13.757         46.261         60.714
         5061.5         13.764         44.100         60.775
         5062.0         13.770         48.164         61.825
         5062.5         13.777         52.279         62.875
         5063.0         13.783         52.858         64.012
         5063.5         13.790         52.929         65.205
         5064.0         13.797         45.209         65.902
         5064.5         13.803         45.456         65.920
         5065.0         13.810         48.172         65.699
         5065.5         13.790         51.083         65.523
         5066.0         13.750         53.207         66.132
         5066.5         13.710         51.851         66.564
         5067.0         13.670         46.273         66.551
         5067.5         13.630         40.696         66.537
         5068.0         13.590         38.253         65.416
         5068.5         13.572         38.288         64.259
         5069.0         13.558         39.139         63.868
         5069.5         13.543         39.949         62.100
         5070.0         13.529         38.614         59.987
         5070.5         13.515         35.671         58.399
         5071.0         13.500         32.729         58.488
         5071.5         13.486         30.439         60.619
         5072.0         13.471         28.732         63.096
         5072.5         13.457         29.416         64.113
         5073.0         13.443         31.814         64.349
         5073.5         13.428         34.211         64.585
         5074.0         13.414         40.424         64.829
         5074.5         13.399         46.807         65.075
         5075.0         13.385         51.131         65.322
         5075.5         13.370         53.825         65.569
         5076.0         13.356         56.922         65.816
         5076.5         13.342         60.653         65.376
         5077.0         13.327         63.259         64.668
         5077.5         13.325         61.811         63.960
         5078.0         13.324         60.362         63.252
         5078.5         13.323         60.872         62.544
         5079.0         13.323         61.815         62.182
         5079.5         13.322         60.177         62.163
         5080.0         13.322         57.733         62.144
         5080.5         13.321         55.288         62.126
         5081.0         13.321         52.844         61.718
         5081.5         13.320         51.191         61.062
