###############################################
##         ENVERUS                           ##
##         ESS - Open Hole                   ##
##         PERMIAN / DELAWARE                ##
##         Nov 03 2023  V4.0                 ##
##         42-109-32978-00-00                ##
###############################################
## Copyright 2017-2023  ENVERUS.  All Rights Reserved. 
## Confidential - Property of ENVERUS, use governed by terms and 
## conditions found within the existing Information Services Subscription Agreement 
## (as may be amended, the “ISSA”) between Customer and ENVERUS. 
## 
~VERSION INFORMATION
# MNEM.UNIT                               DATA : DESCRIPTION OF MNEMONIC
#-----.-----     ----------------------------- : -----------------------------
VERS.                                     2.00 : CWLS LOG ASCII STANDARD - VERSION 2.00
WRAP.                                       NO : MULTIPLE LINES PER DEPTH STEP
VEND.                                  ENVERUS : VENDOR
TYPE.                          ESS - OPEN HOLE : ENVERUS ESSENTIAL CURVES – ACCESSIBLE THROUGH ENVERUS PRISM(TM)
DOC.                                  43644371 : ENVERUS HEADER RAW DOCUMENT ID
#___________________________________________________________________________________________________ 
~WELL INFORMATION 
# sF+t5dzO8TjfhJXm5BhYJSGKqyGjnVcKAr1GJS+XHP+EILfiOmlFF7qBSMjafOrEHsreRpz+nmfYFwcq0MlVOA== 
# MNEM.UNIT                                              DATA : DESCRIPTION OF MNEMONIC 
#-----.-----                    ----------------------------- : ----------------------------- 
CNTY.                                               CULBERSON : COUNTY 
STATE.                                                  TEXAS : STATE 
CNTRY.                                                    USA : COUNTRY 
API.                                             42-109-32978 : API (10 Digit) 
API_14.                                    42-109-32978-00-00 : API (14 Digits) 
API_14_std.                                 42-109-32978-0000 : API (14 Digits Standard) 
UWI.                                           42109329780000 : UNIQUE WELL ID 
WELL.                                    42109329780000_API14 : WELL NAME
STRT.FT                                                 179.0 : START DEPTH
STOP.FT                                                9893.5 : STOP DEPTH
STEP.FT                                                   0.5 : STEP BETWEEN DEPTHS
NULL.                                                 -999.25 : NULL VALUE
#___________________________________________________________________________________________________ 
~PARAMETER INFORMATION 
# MNEM.UNIT                                              DATA : DESCRIPTION OF MNEMONIC 
#-----.-----                    ----------------------------- : ----------------------------- 
EKB.FT                                                   3282 : ELEVATION ABOVE MSL
#___________________________________________________________________________________________________ 
~CURVE INFORMATION 
# MNEM.UNIT           : CURVE DESCRIPTION 
#-----.-----          : ----------------------------- 
 DEPT.FT               : MEASURED DEPTH 
 GR.API                : GAMMA RAY (GAMMA RAY) 
 DT.US/FT              : SONIC DELTA TRANSIT TIME (SONIC) 
 #___________________________________________________________________________________________________ 
~A         DEPT             GR             DT
# ...
         4703.0         46.729        279.109
         4703.5         47.816        279.109
         4704.0         45.254        279.109
         4704.5         37.048        279.109
         4705.0         28.023        279.109
         4705.5         22.981        279.109
         4706.0         25.503        279.109
         4706.5         33.372        279.109
         4707.0         45.683        279.109
         4707.5         52.328        279.109
         4708.0         50.266        279.109
         4708.5         40.615        279.109
         4709.0         31.062        279.109
         4709.5         26.892        279.109
         4710.0         25.805        279.109
         4710.5         24.719        279.109
         4711.0         24.234        279.109
         4711.5         25.312        279.109
         4712.0         28.797        279.109
         4712.5         31.755        279.109
         4713.0         31.337        279.109
         4713.5         30.317        279.109
         4714.0         30.518        279.109
         4714.5         32.023        279.109
         4715.0         33.008        279.109
         4715.5         33.844        279.109
         4716.0         38.150        279.109
         4716.5         51.163        279.109
         4717.0         65.727        279.109
         4717.5         71.715        279.109
         4718.0         64.877        279.109
         4718.5         53.722        279.109
         4719.0         46.745        279.109
         4719.5         43.604        279.109
         4720.0         40.385        279.109
         4720.5         35.472        279.109
         4721.0         33.242        279.109
         4721.5         33.896        279.109
         4722.0         36.083        279.109
         4722.5         34.319        280.425
         4723.0         32.657        282.566
         4723.5         32.775        281.337
         4724.0         36.413        280.780
         4724.5         40.723        280.557
         4725.0         41.682        282.097
         4725.5         39.440        283.406
         4726.0         34.961        280.533
         4726.5         32.191        278.528
         4727.0         32.322        277.994
         4727.5         31.337        277.994
         4728.0         30.006        277.994
         4728.5         27.577        277.994
         4729.0         27.577        277.994
         4729.5         29.159        277.994
         4730.0         32.116        277.994
         4730.5         34.164        277.994
         4731.0         35.330        277.994
         4731.5         33.172        277.994
         4732.0         30.650        277.994
         4732.5         29.095        277.994
         4733.0         27.577        277.994
         4733.5         28.412        277.997
         4734.0         29.503        277.994
         4734.5         32.442        277.994
         4735.0         33.426        277.994
         4735.5         32.479        277.994
         4736.0         29.202        277.994
         4736.5         27.159        277.994
         4737.0         29.699        277.994
         4737.5         38.005        277.994
         4738.0         48.418        277.994
         4738.5         54.040        277.994
         4739.0         55.543        277.994
         4739.5         52.121        277.994
         4740.0         46.438        277.994
         4740.5         41.736        277.994
         4741.0         41.319        277.994
         4741.5         45.382        277.994
         4742.0         47.632        277.994
         4742.5         45.184        277.994
         4743.0         39.887        277.994
         4743.5         37.791        277.994
         4744.0         41.233        277.994
         4744.5         46.353        277.994
         4745.0         50.136        277.994
         4745.5         52.968        277.994
         4746.0         55.806        277.994
         4746.5         58.885        277.994
         4747.0         56.075        277.994
         4747.5         51.401        277.994
         4748.0         43.084        277.994
         4748.5         36.369        277.994
         4749.0         29.836        277.994
         4749.5         26.962        277.994
         4750.0         25.905        277.994
         4750.5         25.905        277.994
         4751.0         24.789        277.994
         4751.5         23.398        277.994
         4752.0         24.087        277.994
         4752.5         27.258        277.994
         4753.0         33.058        277.994
         4753.5         34.910        277.994
         4754.0         34.242        277.994
         4754.5         32.602        277.994
         4755.0         31.859        277.994
         4755.5         34.312        277.994
         4756.0         39.074        277.994
         4756.5         46.291        277.994
         4757.0         53.939        277.994
         4757.5         57.764        277.994
         4758.0         57.724        277.994
         4758.5         55.989        277.994
         4759.0         59.255        277.994
         4759.5         68.072        277.994
         4760.0         72.617        277.994
         4760.5         67.377        277.522
         4761.0         62.026        279.052
         4761.5         63.770        281.867
         4762.0         65.745        280.780
         4762.5         62.101        280.780
         4763.0         53.797        280.780
         4763.5         48.395        280.780
         4764.0         46.776        280.752
         4764.5         45.815        278.747
         4765.0         47.319        278.552
         4765.5         50.129        278.552
         4766.0         56.208        278.552
         4766.5         61.254        278.552
         4767.0         63.364        278.552
         4767.5         64.345        278.552
         4768.0         68.890        278.552
         4768.5         78.301        278.552
         4769.0         80.358        278.552
         4769.5         74.559        278.552
         4770.0         64.581        278.552
         4770.5         63.928        278.552
         4771.0         67.459        278.552
         4771.5         65.723        278.552
         4772.0         61.838        278.552
         4772.5         61.420        278.552
         4773.0         60.879        278.552
         4773.5         63.510        278.552
         4774.0         63.070        278.552
         4774.5         62.674        278.552
         4775.0         62.674        278.552
         4775.5         61.722        278.552
         4776.0         60.167        278.552
         4776.5         60.145        278.552
         4777.0         58.641        278.552
         4777.5         58.822        278.552
         4778.0         62.938        278.552
         4778.5         67.494        278.552
         4779.0         69.261        278.552
         4779.5         61.184        278.552
         4780.0         47.622        278.552
         4780.5         33.648        278.552
         4781.0         26.686        278.552
         4781.5         25.741        278.552
         4782.0         29.512        278.552
         4782.5         34.738        278.552
         4783.0         40.585        278.552
         4783.5         43.036        278.497
         4784.0         41.298        278.495
         4784.5         36.304        278.569
         4785.0         32.902        278.643
         4785.5         33.365        278.717
         4786.0         36.521        278.791
         4786.5         39.518        278.864
         4787.0         41.220        278.938
         4787.5         42.201        279.012
         4788.0         41.783        279.086
         4788.5         40.264        279.160
         4789.0         36.294        279.234
         4789.5         31.987        279.308
