###############################################
##         ENVERUS                           ##
##         ESS - Open Hole                   ##
##         PERMIAN / DELAWARE                ##
##         Nov 03 2023  V4.0                 ##
##         42-109-33144-00-00                ##
###############################################
## Copyright 2017-2023  ENVERUS.  All Rights Reserved. 
## Confidential - Property of ENVERUS, use governed by terms and 
## conditions found within the existing Information Services Subscription Agreement 
## (as may be amended, the “ISSA”) between Customer and ENVERUS. 
## 
~VERSION INFORMATION
# MNEM.UNIT                               DATA : DESCRIPTION OF MNEMONIC
#-----.-----     ----------------------------- : -----------------------------
VERS.                                     2.00 : CWLS LOG ASCII STANDARD - VERSION 2.00
WRAP.                                       NO : MULTIPLE LINES PER DEPTH STEP
VEND.                                  ENVERUS : VENDOR
TYPE.                          ESS - OPEN HOLE : ENVERUS ESSENTIAL CURVES – ACCESSIBLE THROUGH ENVERUS PRISM(TM)
DOC.                                  44408038 : ENVERUS HEADER RAW DOCUMENT ID
#___________________________________________________________________________________________________ 
~WELL INFORMATION 
# jhvnPe+1QU9E4rmF00QVhgJB4IQXrbTj+4JQBaOQ+xeerJB1ro+a2ny8/YeKPBUHGPa8yPZn1kHe7+9ZkyRs1A== 
# MNEM.UNIT                                              DATA : DESCRIPTION OF MNEMONIC 
#-----.-----                    ----------------------------- : ----------------------------- 
CNTY.                                               CULBERSON : COUNTY 
STATE.                                                  TEXAS : STATE 
CNTRY.                                                    USA : COUNTRY 
API.                                             42-109-33144 : API (10 Digit) 
API_14.                                    42-109-33144-00-00 : API (14 Digits) 
API_14_std.                                 42-109-33144-0000 : API (14 Digits Standard) 
UWI.                                           42109331440000 : UNIQUE WELL ID 
WELL.                                        PAT FEE 4 NO. 3H : WELL NAME
STRT.FT                                                8880.0 : START DEPTH
STOP.FT                                               14320.0 : STOP DEPTH
STEP.FT                                                   0.5 : STEP BETWEEN DEPTHS
NULL.                                                 -999.25 : NULL VALUE
LOC.                                     API  42-109-33144LAT : LOCATION 
FL1.                                     API  42-109-33144LAT : LOCATIONLINE1 
DMF.                                                       KB : DRILL MEAS FROM 
PDAT.                                                      GL : PERMANENT DATUM 
FLD.                                    FORD, WEST (WOLFCAMP) : FIELD NAME 
COMP.                            CAPITAN ENERGY, INCORPORATED : COMPANY 
DATE.                                             21-SEP-2017 : DATE 
SVCO.                                             HALLIBURTON : SERVICECONAME 
PROV.                                                   TEXAS : PROVINCE 
BASI.                                                 PERMIAN : BASIN 
RANG.                                                     N/A : RANGE 
TOWN.                                                     N/A : TOWNSHIP 
SECT.                                                     N/A : SECTION 
SON.                                                      N/A : JOB NUMBER 
SRVC.                                             HALLIBURTON : SERVICE COMPANY 
LMF.                                                       KB : LOG MEASURED FROM 
EGL.FT                                              3093.0000 : GROUND ELEVATION 
BAP.FT                                                 0.0000 : GL ELEV ONSHORE 
GVFD.G                                                 1.0000 : GRAVITY FIELD 
EKB.FT                                              3114.0000 : KB ELEVATION 
EDF.FT                                              3113.0000 : DF ELEVATION
#___________________________________________________________________________________________________ 
~CURVE INFORMATION 
# MNEM.UNIT           : CURVE DESCRIPTION 
#-----.-----          : ----------------------------- 
 DEPT.FT               : MEASURED DEPTH 
 GR.API                : GAMMA RAY (GR_CHI - GR_CHI) 
 GR__01.API            : GAMMA RAY (GR_OH - GR_OH) 
 DT.US/FT              : SONIC DELTA TRANSIT TIME (DTC_CHI - DTC_CHI) 
 DT__01.US/FT          : SONIC DELTA TRANSIT TIME (DTC_OH - DTC_OH) 
 PE.B/E                : PHOTOELECTRIC EFFECT/FACTOR (PE_CHI - PE_CHI) 
 PE__01.B/E            : PHOTOELECTRIC EFFECT/FACTOR (PE_OH - PE_OH) 
 RESS_LL.OHMM          : SHALLOW LATEROLOG (LLS_CHI - LLS_CHI) 
 RESS_LL__01.OHMM      : SHALLOW LATEROLOG (LLS_OH - LLS_OH) 
 RESD_LL.OHMM          : DEEP LATEROLOG (LLD_CHI - LLD_CHI) 
 RESD_LL__01.OHMM      : DEEP LATEROLOG (LLD_OH - LLD_OH) 
 NPHI.V/V              : NEUTRON POROSITY (NPHI_CHI - NPHI_CHI) 
 NPHI__01.V/V          : NEUTRON POROSITY (NPHI_OH - NPHI_OH) 
 SPHI.V/V              : SONIC POROSITY (SPHI_CHI - SPHI_CHI) 
 RHOB.G/CC             : BULK DENSITY (RHOB_CHI - RHOB_CHI) 
 RHOB__01.G/CC         : BULK DENSITY (RHOB_OH - RHOB_OH) 
 #___________________________________________________________________________________________________ 
~A         DEPT             GR         GR__01             DT         DT__01             PE         PE__01        RESS_LL    RESS_LL__01        RESD_LL    RESD_LL__01           NPHI       NPHI__01           SPHI           RHOB       RHOB__01
         8880.0         74.126         85.495         70.672         70.397         3.3213         3.2584        51.1225        86.1246        58.3360        95.8987        0.12977        0.13600        0.16320         2.5567         2.5601
         8880.5         70.035         87.244         70.515         71.503         3.2712         3.1572        47.1731        94.6646        53.8562       102.8052        0.13087        0.13590        0.16210         2.5574         2.5560
         8881.0         86.110         82.837         72.008         71.739         3.2210         3.1114        48.1703        88.7004        55.5125        95.4957        0.13808        0.13300        0.17260         2.5473         2.5621
         8881.5         83.577         78.693         72.341         72.516         3.1868         3.1704        46.2140        81.5163        53.4147        90.7221        0.14124        0.13350        0.17500         2.5459         2.5739
         8882.0         87.360         86.280         73.213         73.045         3.1617         3.0580        46.2265        86.4428        53.8105        99.5030        0.14550        0.13200        0.18110         2.5417         2.5760
         8882.5         93.024         95.822         74.013         72.186         3.1869         2.7765        52.4016        80.4967        61.0376        97.2913        0.14818        0.14460        0.18680         2.5386         2.5588
         8883.0         99.610         95.703         73.560         69.832         3.2948         2.6789        65.8272        87.8400        75.6120       110.9843        0.14470        0.16110        0.18360         2.5410         2.5386
         8883.5         75.207         86.606         69.794         66.614         3.5102         2.8686        84.6187       130.0236        92.9557       165.6329        0.12450        0.15240        0.15700         2.5672         2.5587
         8884.0         42.734         68.389         65.079         63.491         3.7002         3.2547       109.0557       184.8944       113.3429       257.5281        0.09644        0.13120        0.12360         2.6027         2.6140
         8884.5         31.000         45.451         62.475         60.689         3.8579         3.7117       125.9610       505.2204       127.2049       533.6475        0.08038        0.09020        0.10520         2.6186         2.6640
         8885.0         22.440         30.963         61.774         58.936         3.1957         4.1228        38.6393       547.6551        41.1270       538.9623        0.08146        0.05950        0.10020         2.6168         2.6914
         8885.5         35.019         31.453         63.012         58.975         3.2724         4.4189        39.5518       264.2657        42.7240       295.7574        0.08695        0.05770        0.10900         2.6058         2.6878
         8886.0         57.619         44.726         65.393         60.199         3.2901         4.2371        39.1534       161.3143        43.3330       198.9683        0.09964        0.07140        0.12580         2.5858         2.6507
         8886.5         74.164         65.158         66.907         61.156         3.2434         3.5541        36.7330       140.6013        41.3727       184.3739        0.10799        0.09050        0.13650         2.5724         2.5987
         8887.0         54.139         72.561         65.080         61.935         3.1994         3.2092        31.7278       167.7623        35.4908       205.1881        0.09957        0.09760        0.12360         2.5854         2.5759
         8887.5         36.083         59.388         63.221         62.521         3.2269         3.6606        32.4606       220.9727        35.6835       212.5669        0.08870        0.08010        0.11050         2.6003         2.6070
         8888.0         33.130         48.746         62.499         63.776         3.2579         4.1758        34.5398       175.9908        37.5804       169.8994        0.08349        0.06690        0.10540         2.6063         2.6380
         8888.5         45.964         59.269         63.260         65.706         3.1884         3.9822        36.5752       126.8503        39.6118       135.0460        0.08781        0.07540        0.11070         2.6028         2.6178
         8889.0         61.071         79.741         64.786         67.037         3.1706         3.4511        37.5770        94.7981        41.0771       102.9019        0.09604        0.10530        0.12150         2.5920         2.5659
         8889.5         61.838         85.291         64.692         67.980         3.0134         3.1464        35.7583        79.7643        38.5458        89.0089        0.09615        0.13620        0.12090         2.5980         2.5180
         8890.0         47.790         77.307         63.350         67.952         2.9860         2.9793        35.5232        99.4262        37.7552       105.2039        0.09040        0.13650        0.11140         2.6083         2.5062
         8890.5         30.644         68.812         61.395         65.982         3.0157         2.9814        37.6381       127.1473        39.3253       135.9581        0.08088        0.13270        0.09760         2.6204         2.5297
         8891.0         30.205         58.990         60.791         62.952         3.1533         3.3955        40.1007       173.3009        42.0085       183.0759        0.07448        0.11080        0.09330         2.6221         2.5646
         8891.5         27.414         48.029         59.921         60.419         3.0703         4.1628        40.0791       262.8726        41.3717       274.9540        0.07161        0.08150        0.08710         2.6270         2.6111
         8892.0         32.838         42.570         60.765         58.555         3.1406         4.9767        40.4661       356.1598        42.2974       305.3275        0.07432        0.05820        0.09310         2.6219         2.6529
         8892.5         52.646         46.276         62.841         58.693         3.0514         5.3780        39.6491       192.2315        41.8796       175.9598        0.08570        0.05750        0.10780         2.6094         2.6664
         8893.0         64.673         60.771         65.223         60.973         2.9923         5.0393        36.0697       112.3245        38.8665       116.2490        0.09908        0.06890        0.12460         2.5963         2.6499
         8893.5         67.769         81.060         67.490         64.096         2.9726         4.1459        28.8930        85.0511        32.2992        88.6051        0.11630        0.08930        0.14070         2.5771         2.6088
         8894.0         64.611         95.747         69.108         66.351         2.9761         3.3152        24.5820        72.6735        28.3440        77.9305        0.13003        0.12330        0.15210         2.5631         2.5692
         8894.5         68.451        100.189         69.653         66.401         2.9604         2.9539        24.4585        79.2418        28.1252        84.4495        0.13294        0.14860        0.15600         2.5611         2.5535
         8895.0         54.904         94.213         68.287         65.659         2.9878         3.0279        25.8296       113.4151        29.3998       116.3204        0.12612        0.12700        0.14630         2.5706         2.5672
         8895.5         32.221         75.625         65.991         65.331         3.0455         3.5408        27.7246       144.3804        31.0619       132.0640        0.11339        0.10380        0.13010         2.5865         2.6061
         8896.0         40.023         61.022         66.129         64.776         3.1087         4.0905        31.8721       130.9987        35.5691       118.6577        0.11162        0.08370        0.13100         2.5850         2.6346
         8896.5         59.530         71.091         67.131         64.719         3.0944         3.9036        34.9948       106.2627        38.9587       106.0529        0.11461        0.08800        0.13810         2.5785         2.6216
