~VERSION INFORMATION
VERS. 2.0 : CWLS Log ASCII Standard - version 2.0
WRAP.  NO : One line per depth step
#--------------------------------------------------#
#----------------DRILLING INFO, INC.---------------#
#---------------WWW.DRILLINGINFO.COM---------------#
#------------------COPYRIGHT 2015------------------#
#--------------------------------------------------#
#THIS FILE MAY BE USED ONLY IN ACCORDANCE WITH A CURRENT SUBSCRIPTION AGREEMENT BETWEEN
#THE USER AND DRILLING INFO, INC. NO PART OF THIS FILE MAY BE REPRODUCED, USED, COPIED,
#MODIFIED, PROPAGATED, OR DISTRIBUTED EXCEPT IN ACCORDANCE WITH THE SUBSCRIPTION
#AGREEMENT. UNAUTHORIZED USE OR DISTRIBUTION OF ALL OR ANY PART OF THIS FILE MAY VIOLATE
#COPYRIGHT, TRADEMARK, AND/OR OTHER LAWS AND IS SUBJECT TO CIVIL AS WELL AS CRIMINAL
#SANCTIONS.
#--------------------------------------------------#
#THIS FILE IS PROVIDED "AS-IS" AND ALL WARRANTIES ARE EXPRESSLY DISCLAIMED, WHETHER
#EXPRESS, ORAL, IMPLIED, STATUTORY OR OTHERWISE, INCLUDING ANY IMPLIED WARRANTY OF FITNESS
#FOR A PARTICULAR PURPOSE, MERCHANTABILITY, TITLE OR NON-INFRINGEMENT, AND ANY WARRANTIES
#ARISING BY VIRTUE OF CUSTOM OF TRADE OR COURSE OF DEALING.  FURTHER, DRILLING INFO,
#INC. AND ITS LICENSORS DO NOT REPRESENT OR WARRANT THAT THIS FILE WILL MEET USER'S
#REQUIREMENTS OR ARE SUITABLE FOR USER'S NEEDS OR THAT THE DATA OR RESULTS PROVIDED IN
#CONJUNCTION THEREWITH ARE CORRECT, ACCURATE, TIMELY OR RELIABLE. THESE DISCLAIMERS SHALL
#APPLY REGARDLESS OF ANY FAILURE OF ESSENTIAL PURPOSE OF ANY LIMITED REMEDY.  SOME
#JURISDICTIONS DO NOT ALLOW THE EXCLUSION OF CERTAIN WARRANTIES SO SOME OF THE ABOVE
#EXCLUSIONS MAY NOT APPLY. IN NO EVENT SHALL DRILLING INFO, INC. OR ANY OF ITS AFFILIATES
#BE LIABLE UNDER ANY LEGAL THEORY, WHETHER IN TORT (INCLUDING WITHOUT LIMITATION
#NEGLIGENCE), CONTRACT, STRICT LIABILITY, STATUTORY OR OTHERWISE, FOR ANY SPECIAL,
#INCIDENTAL, CONSEQUENTIAL, EXEMPLARY, PUNITIVE OR INDIRECT DAMAGE OF ANY KIND, INCLUDING
#WITHOUT LIMITATION LOSS OF REVENUE, PROFITS, GOODWILL, USE, AND/OR DATA OR THE COST OF
#PROCUREMENT OF SUBSTITUTE GOODS OR SERVICES, EVEN IF APPRISED OF THE POSSIBILITY OF SUCH
#DAMAGES IN ADVANCE.
#--------------------------------------------------#
~WELL INFORMATION
#MNEMONIC     .UNIT              VALUE :DESCRIPTION
#--------------------------------------------------#
STRT       .FT                35 :START DEPTH
STOP       .FT                15948 :STOP DEPTH
STEP       .FT                   0.500 :STEP
NULL       .                  -999.250 :NULL
API        .                421093136200 :API NUMBER
COMP       .         ARRINGTON DAVID H. OIL & GAS INC :COMPANY
WELL       .        SCOTT UNIT  1 :WELL
DATE       .                17-Jun-1991 :LOG DATE
~CURVE INFORMATION
#MNEMONIC     .UNIT      API CODE :CURVE DESCRIPTION
#--------------------------------------------------#
DEPTH       .FT                      :Measured Depth
CAL.INCH        UNKNOWN   :CAL
DT.US/FT        UNKNOWN   :DT
GR.API        UNKNOWN   :GR
~A    DEPTH    CAL    DT    GR
# ...
 7469.5     10.234   67.531   66.497
 7470     10.219   68.292   70.606
 7470.5     10.252   68.618   75.649
 7471     10.289   66.975   75.67
 7471.5     10.327   64.76   62.244
 7472     10.364   60.061   45.744
 7472.5     10.398   57.817   30.695
 7473     10.33   58.874   25.174
 7473.5     10.274   64.771   30.051
 7474     10.245   67.161   37.973
 7474.5     10.286   66.295   47.522
 7475     10.378   65.429   56.814
 7475.5     10.449   66.176   53.984
 7476     10.446   68.008   53.785
 7476.5     10.443   69.525   62.268
 7477     10.44   69.729   69.98
 7477.5     10.437   69.933   73.963
 7478     10.434   70.137   73.139
 7478.5     10.43   73.039   72.381
 7479     10.415   72.848   74.64
 7479.5     10.4   72.343   74.721
 7480     10.385   71.62   73.145
 7480.5     10.37   70.897   67.66
 7481     10.366   70.174   59.192
 7481.5     10.371   68.528   55.39
 7482     10.376   66.698   54.222
 7482.5     10.381   65.959   55.591
 7483     10.387   68.087   59.669
 7483.5     10.392   70.214   67.251
 7484     10.38   72.341   73.437
 7484.5     10.344   74.239   76.041
 7485     10.309   70.883   72.565
 7485.5     10.277   65.314   63.636
 7486     10.271   60.173   47.368
 7486.5     10.265   62.725   38.6
 7487     10.267   65.278   40.74
 7487.5     10.317   67.889   51.343
 7488     10.366   70.505   67.565
 7488.5     10.416   72.557   73.31
 7489     10.466   72.871   71.849
 7489.5     10.516   71.907   66.758
 7490     10.484   70.303   61.666
 7490.5     10.43   68.7   56.698
 7491     10.377   67.096   51.856
 7491.5     10.323   65.493   48.429
 7492     10.27   66.664   47.877
 7492.5     10.264   69.809   58.367
 7493     10.314   72.95   73.569
 7493.5     10.365   76.09   80.636
 7494     10.398   76.857   86.239
 7494.5     10.345   75.971   88.128
 7495     10.292   75.085   87.4
 7495.5     10.28   74.853   87.389
 7496     10.291   75.528   87.966
 7496.5     10.302   76.127   89.19
 7497     10.313   75.439   90.066
 7497.5     10.324   74.751   88.98
 7498     10.335   71.194   85.33
 7498.5     10.331   69.082   70.206
 7499     10.325   68.271   61.673
 7499.5     10.366   67.971   58.004
 7500     10.4   68.646   56.671
 7500.5     10.342   69.32   55.338
 7501     10.323   69.995   58.489
 7501.5     10.382   70.67   61.599
 7502     10.441   70.254   63.655
 7502.5     10.458   69.168   60.566
 7503     10.435   70.249   61.374
 7503.5     10.412   71.583   69.786
 7504     10.389   72.917   76.761
 7504.5     10.353   73.207   82.532
 7505     10.219   71.193   76.596
 7505.5     10.252   69.179   74.614
 7506     10.286   67.907   74.305
 7506.5     10.32   70.034   76.617
 7507     10.354   73.013   91.796
 7507.5     10.355   75.992   98.447
 7508     10.335   75.021   99.233
 7508.5     10.315   73.311   93.956
 7509     10.295   71.6   83.142
 7509.5     10.294   68.642   75.956
 7510     10.322   66.351   69.226
 7510.5     10.351   65.485   62.949
 7511     10.38   64.619   58.992
 7511.5     10.363   64.5   57.066
 7512     10.341   64.66   53.946
 7512.5     10.32   66.476   53.384
 7513     10.317   66.168   56.047
 7513.5     10.319   64.927   59.53
 7514     10.321   63.138   56.658
 7514.5     10.323   61.251   50.808
 7515     10.326   59.172   36.501
 7515.5     10.328   57.092   31.226
 7516     10.335   55.013   26.716
 7516.5     10.361   53.53   21.816
 7517     10.388   53.046   18.37
 7517.5     10.414   53.764   15.448
 7518     10.391   55.176   21.896
 7518.5     10.295   62.628   33.336
 7519     10.2   65.612   44.124
 7519.5     10.138   67.425   48.423
 7520     10.121   69.237   52.452
 7520.5     10.104   69.604   55.812
 7521     10.088   68.764   59.171
 7521.5     10.099   69.505   60.674
 7522     10.166   70.005   61.154
 7522.5     10.232   69.96   66.428
 7523     10.225   70.345   72.032
 7523.5     10.203   71.939   93.253
 7524     10.181   73.533   102.506
 7524.5     10.159   75.358   108.232
 7525     10.137   77.823   105.181
 7525.5     10.123   76.553   94.478
 7526     10.117   73.648   79.473
 7526.5     10.112   70.051   71.334
 7527     10.106   66.266   64.365
 7527.5     10.101   65.873   59.383
 7528     10.096   66.057   55.396
 7528.5     10.09   71.671   58.042
 7529     10.085   74.626   65.556
 7529.5     10.08   76.661   73.579
 7530     10.074   73.562   75.48
 7530.5     10.069   70.463   72.402
 7531     10.063   68.747   65.339
 7531.5     10.058   68.477   60.195
 7532     10.054   69.307   60.276
 7532.5     10.053   70.138   62.209
 7533     10.051   74.357   64.216
 7533.5     10.05   73.446   64.926
 7534     10.048   72.535   62.88
 7534.5     10.046   72.168   60.786
 7535     10.045   72.009   60.284
 7535.5     10.043   72.594   69.337
 7536     10.042   73.197   72.587
 7536.5     10.04   73.592   72.41
 7537     10.039   66.94   58.529
 7537.5     10.037   64.223   49.207
 7538     10.036   61.512   40.928
 7538.5     10.038   60.244   35.746
 7539     10.04   58.975   33.906
 7539.5     10.043   57.707   31.959
 7540     10.045   56.439   30.159
 7540.5     10.048   55.998   29.208
 7541     10.05   60.433   33.702
 7541.5     10.052   64.501   44.832
 7542     10.055   69.246   59.583
 7542.5     10.057   72.56   72.597
 7543     10.06   73.301   81.255
 7543.5     10.062   70.933   78.707
 7544     10.065   69.624   71.975
 7544.5     10.068   67.605   65.243
 7545     10.073   65.131   57.133
 7545.5     10.078   64.193   49.384
 7546     10.083   64.437   44.821
 7546.5     10.088   65.041   42.711
 7547     10.093   65.645   47.583
 7547.5     10.098   66.347   58.069
 7548     10.103   67.139   65.113
 7548.5     10.108   68.173   65.734
 7549     10.113   70.539   67.098
 7549.5     10.118   71.739   70.286
 7550     10.123   70.598   75.304
 7550.5     10.128   67.392   74.284
 7551     10.129   62.869   64.402
 7551.5     10.127   62.665   49.945
 7552     10.125   62.573   48.078
 7552.5     10.123   64.043   52.135
 7553     10.121   68.862   61.966
 7553.5     10.119   70.839   68.446
 7554     10.118   71.967   72.336
 7554.5     10.116   73.095   75.877
 7555     10.114   74.026   79.596
 7555.5     10.112   74.155   83.727
 7556     10.112   71.075   81.893
 7556.5     10.114   66.058   73.905
 7557     10.115   59.712   59.842
 7557.5     10.117   56.334   44.068
 7558     10.119   55.85   36.618
 7558.5     10.121   58.197   27.276
 7559     10.122   61.406   30.962
 7559.5     10.124   64.615   44.331
 7560     10.126   67.343   60.411
 7560.5     10.13   68.518   64.617
 7561     10.133   66.126   60.332
 7561.5     10.137   65.84   51.419
 7562     10.14   65.555   54.664
 7562.5     10.144   64.655   60.082
 7563     10.148   62.963   62.745
 7563.5     10.151   63.599   54.672
 7564     10.155   64.234   53.255
 7564.5     10.158   66.396   51.623
 7565     10.162   69.058   56.366
 7565.5     10.166   69.13   55.721
 7566     10.169   69.201   56.459
 7566.5     10.173   70.071   59.21
 7567     10.177   71.809   67.463
 7567.5     10.18   72.575   76.712
 7568     10.184   71.723   78.174
 7568.5     10.187   70.688   70.614
 7569     10.191   67.134   61.296
 7569.5     10.195   67.851   54.82
 7570     10.198   68.743   58.873
 7570.5     10.202   69.634   66.879
 7571     10.205   66.965   66.582
 7571.5     10.209   65.117   54.416
 7572     10.212   64.795   50.114
 7572.5     10.215   64.79   48.694
 7573     10.218   64.837   47.772
 7573.5     10.222   63.431   44.325
 7574     10.225   61.689   39.51
 7574.5     10.228   61.825   36.787
 7575     10.231   65.162   39.447
 7575.5     10.235   68.499   56.245
 7576     10.238   71.836   68.938
 7576.5     10.241   71.167   74.779
 7577     10.244   67.592   71.018
 7577.5     10.247   66.616   63.516
 7578     10.251   67.398   59.825
 7578.5     10.254   70.407   62.901
 7579     10.257   72.018   74.388
 7579.5     10.26   70.246   74.317
 7580     10.264   68.327   68.661
 7580.5     10.267   61.232   58.86
 7581     10.27   59.868   41.547
 7581.5     10.273   61.225   32.201
