~VERSION INFORMATION
 VERS.                2.0:   CWLS LOG ASCII STANDARD - VERSION 2.0
 WRAP.                 NO:   ONE LINE PER DEPTH STEP
~WELL INFORMATION
#MNEM.UNIT      DATA TYPE    INFORMATION
#----------   ------------   ------------------------------
 STRT.FT          68.0000:   START DEPTH
 STOP.FT        1517.0000:   STOP DEPTH
 STEP.FT           0.5000:   STEP LENGTH
 NULL.          -999.2500:   NULL VALUE
 COMP. LINCOLN ROCK CORPORATION:   COMPANY
 WELL.        HOLLER #602:   WELL
 FLD .            UNNAMED:   FIELD
 LOC .                   :   LOCATION
 CNTY.          CULBERSON:   COUNTY
 STAT.              TEXAS:   STATE
 CTRY. UNITED STATES OF AMERICA:   COUNTRY
 SRVC.           Gearhart:   SERVICE COMPANY
 DATE.        24-Jun-1984:   LOGDATE
 API .     42109317410000:   API NUMBER
~CURVE INFORMATION
#MNEM.UNIT       API CODE    CURVE DESCRIPTION
#----------   ------------   ------------------------------
 DEPT.F                  :   
 CALXS.IN    60 280 13 00:   CALIPER FROM X AXIS OF X-Y CALIPER(S) FROM SONIC LOG
 GRD .GAPI   45 310 01 00:   GAMMA RAY FROM DENSITY LOG
 GRS .GAPI   60 310 01 00:   GAMMA RAY FROM SONIC LOG
 TEND.LB     45 635 00 00:   TENSION FROM DENSITY LOG
 TENR.LB     11 635 00 00:   TENSION FROM RESISTIVITY LOG
 TENS.LB     60 635 00 00:   TENSION FROM SONIC LOG
 CALYD.IN    45 280 24 00:   CALIPER FROM X AXIS OF X-Y CALIPER(S) FROM DENSITY LOG
 CNS_LS.DEC  42 890 01 00:   COMPENSATED NEUTRON POROSITY
 CDL_LS.DEC  45 890 10 00:   COMPENSATED DENSITY POROSITY LIMESTONE
 RHOB.G/C3   45 350 01 00:   BULK DENSITY
 DRHO.G/C3   45 356 01 00:   BULK DENSITY CORRECTION
 GRR .GAPI   11 310 01 00:   GAMMA RAY FROM RESISTIVITY LOG
 RLLD.OHMM   11 220 10 00:   RAW LATEROLOG DEEP RESISTIVITY
 RLLS.OHMM   11 220 09 00:   RAW LATEROLOG SHALLOW RESISTIVITY
 DT  .US/F   60 500 00 00:   DELTA-T (INTERVAL TRANSIT TIME)
 SPHI.DEC    60 890 00 00:   SONIC POROSITY
~PARAMETER INFORMATION
#MNEM.UNIT          VALUE    DESCRIPTION
#----------   ------------   ------------------------------
 PD  .                 GL:   PERMANENT DATUM
 EPD .FT             3532:   ELEVATION PERMANENT DATUM
 LMF .                 GL:   LOG MEASURED FROM
 DMF .                RKB:   DRILLING MEASURED FROM
 EKB .FT             3544:   KELLY BUSHING
 EDF .FT             3543:   DRILLING FLOOR
 EGL .FT             3532:   GROUND LEVEL
 DATE.           06/24/84:   RUN DATE
 RUN .                  1:   RUN NUMBER
 DD  .FT             1502:   DEPTH DRILLER
 DL  .FT             1506:   DEPTH LOGGER
 BLI .FT             1505:   BOTTOM LOG INTERVAL
 TLI .FT               90:   TOP LOG INTERVAL
 CS  .IN              4.5:   CASING SIZE
 CBD .FT              101:   CASING BOTTOM DRILLER
 CBL .FT             1502:   CASING BOTTOM LOGGER
 BS  .IN            7.875:   BIT SIZE
 BSD .FT             1502:   BIT SIZE AT DEPTH
 DFT .          FRESH H2O:   DRILLING FLUID TYPE
 DFD .                8.4:   DRILLING FLUID DENSITY
 DFV .                 27:   DRILLING FLUID VISCOSITY
 DFPH.                 12:   DRILLING FLUID PH
 MSS .                PIT:   MUD SAMPLE SOURCE
 RMS .OHMM           2.32:   RESISTIVITY MUD SAMPLE
 MST .DEGF             77:   MUD SAMPLE TEMPERATURE
 RMF .OHMM           2.32:   RESISTIVITY MUD FILTRATE SAMPLE
 MFST.DEGF             77:   MUD FILTRATE SAMPLE TEMPERATURE
 MFSS.               MEAS:   MUD FILTRATE SAMPLE SOURCE
 TCS .HRS            0940:   TIME CIRCULATED STOPPED
 TLAB.HRS            1319:   TIME LOGGER AT BOTTOM
 MRT .DEGF            770:   MAXIMUM RECORDED TEMPERATURE
 LUN .               7583:   LOGGING UNIT NUMBER
 LUL .              HOBBS:   LOGGING UNIT LOCATION
 ENGI.             BRYANT:   RECORDING ENGINEER
 WITN.             BURROW:   WITNESSED BY
 CLNT.            :   CLIENT CODE
 ORIG.      1" 2.5" PRINT:   ORIGIN OF DATA
 UWI .     42109317410000:   UNIQUE WELL ID
 
~OTHER INFORMATION
~A   DEPT    CALXS        GRD        GRS       TEND       TENR       TENS      CALYD      CNS_LS     CDL_LS      RHOB       DRHO          GRR     RLLD       RLLS         DT       SPHI   
# ...
  197.0000     8.9763     2.8786     1.6895   839.4114   509.3657   711.5703     8.2314    -0.0022     0.2686     2.9384    -0.0214     1.8219 30609.6836 65855.1641    51.1370    -0.0058
  197.5000     8.9778     2.4308     1.6013   841.4622   505.7697   713.4670     8.2208    -0.0028     0.2659     2.9435    -0.0208     1.8219 39027.6797 77120.8906    50.8282    -0.0072
  198.0000     9.0058     2.3583     1.6705   836.1178   508.9248   715.3651     8.2054    -0.0019     0.2626     2.9487    -0.0202     1.8219 44396.8164 73703.2344    50.3599    -0.0077
  198.5000     9.0063     2.7574     1.6955   836.4353   508.4179   717.2619     8.2027    -0.0011     0.2593     2.9538    -0.0196     1.8219 46173.3164 61943.1445    50.8624    -0.0077
  199.0000     8.9915     3.1933     1.6542   831.0872   507.9097   719.1600     8.2047    -0.0006     0.2587     2.9539    -0.0190     1.8219 47066.9297 55025.8789    50.9091    -0.0077
  199.5000     8.9915     3.4521     1.9042   831.4047   515.5652   721.0569     8.2026    -0.0017     0.2598     2.9484    -0.0184     1.8219 47524.9492 55427.8164    50.9042    -0.0078
  200.0000     8.9935     3.1444     1.9472   831.7222   519.2368   720.7886     8.2072    -0.0028     0.2609     2.9429    -0.0238     1.8730 48956.5703 59939.0703    50.8993    -0.0078
  200.5000     8.9925     2.6793     2.1133   805.3371   522.8118   723.7041     8.2097    -0.0039     0.2620     2.9375    -0.0293     2.1279 48981.0273 79374.0391    50.8944    -0.0078
  201.0000     8.9936     2.7230     2.1325   801.7173   526.3854   724.5861     8.2111    -0.0050     0.2629     2.9320    -0.0347     2.3828 49001.0039 86314.9375    50.8684    -0.0080
  201.5000     8.9915     2.8615     1.9840   800.7142   529.9603   699.0871     8.2021    -0.0061     0.2705     2.9265    -0.0402     2.6316 49030.3711 82003.2969    50.8453    -0.0077
  202.0000     8.9895     2.9832     1.8356   797.9937   531.0589   716.5919     8.1946    -0.0049     0.2760     2.9210    -0.0449     2.6316 48059.5508 73913.6250    50.9599    -0.0076
  202.5000     8.9915     3.1395     1.7279   795.1943   528.4432   707.2540     8.1899    -0.0036     0.2745     2.9229    -0.0393     2.6316 45595.2695 68356.5078    50.8726    -0.0078
  203.0000     8.9936     3.1207     1.6201   792.4752   525.8274   697.9161     8.2015    -0.0024     0.2719     2.9338    -0.0221     2.2459 43130.9922 71017.2813    50.9537    -0.0074
  203.5000     8.9915     2.9263     1.5323   789.6782   516.8278   703.4713     8.2002    -0.0004     0.2587     2.9446    -0.0049     1.8749 42655.5742 70605.0156    51.1373    -0.0059
  204.0000     8.9895     2.7241     1.5351   756.1639   537.8325   710.9471     8.1920    -0.0004     0.2483     2.9554     0.0036     1.5039 44396.5000 69758.9766    51.3610    -0.0045
  204.5000     8.9915     2.5240     1.5787   789.1717   537.7815   706.4127     8.1942    -0.0013     0.2455     2.9662     0.0026     1.1329 46137.4258 71499.9453    51.4497    -0.0036
  205.0000     8.9935     2.7409     2.2646   790.2872   537.7304   701.8785     8.2055    -0.0020     0.2444     2.9719    -0.0010     1.0121 46504.5273 74218.2500    51.3354    -0.0046
  205.5000     8.9915     2.7709     3.6694   791.4820   537.6781   705.3794     8.2041    -0.0020     0.2448     2.9699    -0.0079     1.4170 46527.9531 76557.8281    51.1232    -0.0058
  206.0000     8.9935     2.8356     4.6984   792.5962   537.6270   720.7018     8.2050    -0.0013     0.2478     2.9646    -0.0149     1.9717 46551.5469 69811.3516    50.9916    -0.0071
  206.5000     8.9915     2.9055     4.4435   793.7897   537.5747   714.2583     8.2032     0.0003     0.2538     2.9542    -0.0204     2.4818 45706.2461 64063.2461    50.8874    -0.0069
  207.0000     8.9896     3.1703     3.2909   794.9015   537.5236   707.8159     8.2040     0.0019     0.2599     2.9438    -0.0224     2.6316 42718.7695 58315.1484    50.9706    -0.0061
  207.5000     8.9916     3.5629     2.4381   796.0938   537.4726   697.3082     8.1883     0.0035     0.2659     2.9334    -0.0241     2.6316 39732.1641 65490.6914    51.1059    -0.0046
  208.0000     8.9936     3.7297     2.3543   797.2056   537.4203   686.7991     8.1942     0.0041     0.2719     2.9229    -0.0228     2.6316 39380.4375 75694.0391    51.2411    -0.0038
  208.5000     8.9915     3.8620     2.3111   798.3966   537.3692   680.3569     8.1985     0.0033     0.2776     2.9160    -0.0206     2.6316 39400.8086 75120.4453    51.3764    -0.0024
  209.0000     8.9893     4.0287     1.9972   799.5059   537.3181   673.9145     8.1962     0.0018     0.2739     2.9196    -0.0184     2.6316 40852.7773 69831.2500    51.5116    -0.0030
  209.5000     8.9912     4.1610     2.0489   800.6969   537.2658   663.4056     8.2004    -0.0004     0.2643     2.9306    -0.0162     2.6316 41732.5039 69651.9453    51.3967    -0.0040
  210.0000     8.9897     3.7468     2.2790   796.2222   537.2148   676.2217     8.1970    -0.0009     0.2548     2.9428    -0.0140     2.6316 41591.0469 74159.8438    51.2102    -0.0054
  210.5000     8.9917     3.2532     2.2825   837.6003   538.1181   683.6334     8.1719    -0.0001     0.2466     2.9578    -0.0118     2.6316 38466.5469 75865.5938    51.1664    -0.0058
  211.0000     8.9908     2.9429     2.2477   837.0629   538.9701   688.0138     8.1647     0.0028     0.2513     2.9672    -0.0108     2.2065 34762.4688 74846.1641    51.2788    -0.0048
  211.5000     8.9903     2.6576     2.2228   841.2918   537.8964   681.6337     8.1627     0.0035     0.2553     2.9620    -0.0131     1.8421 32263.6328 71865.8984    51.4302    -0.0040
  212.0000     8.9920     2.4060     2.3916   839.8574   536.8252   673.2239     8.1659     0.0037     0.2580     2.9569    -0.0154     1.4777 29861.3730 64877.0195    51.6162    -0.0033
  212.5000     8.9901     2.1178     2.4726   844.0877   537.6759   675.4011     8.1649     0.0021     0.2574     2.9517    -0.0177     1.1134 27459.1133 60567.2773    51.5356    -0.0030
  213.0000     8.9882     1.9601     2.4929   842.6521   538.5279   696.7312     8.1681     0.0005     0.2600     2.9466    -0.0201     0.7490 25056.8535 63729.3203    51.4551    -0.0032
  213.5000     8.9899     2.4152     2.5533   846.8834   537.4555   711.3312     8.1671    -0.0004     0.2641     2.9414    -0.0224     1.0749 22654.5938 66032.3750    51.3554    -0.0046
  214.0000     8.9914     2.8823     2.6907   845.4477   536.3831   707.7237     8.1703     0.0009     0.2703     2.9362    -0.0285     1.8219 21697.4102 76974.5781    51.0373    -0.0065
  214.5000     8.9896     2.9199     2.6207   849.6793   537.2338   706.2946     8.1693     0.0011     0.2684     2.9328    -0.0247     1.7566 25327.4277 84044.6484    50.9632    -0.0071
  215.0000     8.9912     3.4579     2.4026   848.2449   538.0845   702.6895     8.1724    -0.0004     0.2644     2.9354    -0.0210     1.6928 29608.3223 80618.4531    50.8891    -0.0069
  215.5000     8.9893     3.6876     1.9939   852.4762   537.0121   701.2604     8.1715    -0.0004     0.2605     2.9381    -0.0211     1.6290 30753.2422 63164.2031    50.8028    -0.0073
  216.0000     8.9874     4.1445     1.5578   851.0430   537.8640   699.8313     8.1746    -0.0004     0.2646     2.9403    -0.0299     1.5653 30188.5801 55983.5508    50.6674    -0.0078
  216.5000     8.9889     4.2287     1.4464   855.2746   536.7928   696.2288     8.1737    -0.0004     0.2699     2.9241    -0.0338     1.5015 29914.3359 54720.9609    50.7109    -0.0084
  217.0000     8.9920     4.2658     1.9996   853.8451   535.7191   704.2675     8.1767    -0.0001     0.2752     2.9233    -0.0331     1.4378 31964.7559 60227.7305    50.5313    -0.0098
  217.5000     8.9889     4.2660     2.2688   858.0752   536.5711   682.6199     8.1758     0.0003     0.2748     2.9226    -0.0296     1.5891 34370.5703 66393.5000    50.2079    -0.0120
  218.0000     8.9871     4.4070     2.4772   856.6460   537.4219   667.3946     8.1789     0.0008     0.2744     2.9221    -0.0260     1.8219 37125.5547 69391.5781    50.0685    -0.0142
