~VERSION INFORMATION
VERS. 2.0 : CWLS Log ASCII Standard - Version 2.0
WRAP. NO : One line per depth step
#--------------------------------------------------#
#----------------DRILLING INFO, INC.---------------#
#---------------WWW.DRILLINGINFO.COM---------------#
#------------------COPYRIGHT 2015------------------#
#--------------------------------------------------#
#THIS FILE MAY BE USED ONLY IN ACCORDANCE WITH A CURRENT SUBSCRIPTION AGREEMENT BETWEEN
#THE USER AND DRILLING INFO, INC. NO PART OF THIS FILE MAY BE REPRODUCED, USED, COPIED,
#MODIFIED, PROPAGATED, OR DISTRIBUTED EXCEPT IN ACCORDANCE WITH THE SUBSCRIPTION
#AGREEMENT. UNAUTHORIZED USE OR DISTRIBUTION OF ALL OR ANY PART OF THIS FILE MAY VIOLATE
#COPYRIGHT, TRADEMARK, AND/OR OTHER LAWS AND IS SUBJECT TO CIVIL AS WELL AS CRIMINAL
#SANCTIONS.
#--------------------------------------------------#
#THIS FILE IS PROVIDED "AS-IS" AND ALL WARRANTIES ARE EXPRESSLY DISCLAIMED, WHETHER
#EXPRESS, ORAL, IMPLIED, STATUTORY OR OTHERWISE, INCLUDING ANY IMPLIED WARRANTY OF FITNESS
#FOR A PARTICULAR PURPOSE, MERCHANTABILITY, TITLE OR NON-INFRINGEMENT, AND ANY WARRANTIES
#ARISING BY VIRTUE OF CUSTOM OF TRADE OR COURSE OF DEALING.  FURTHER, DRILLING INFO,
#INC. AND ITS LICENSORS DO NOT REPRESENT OR WARRANT THAT THIS FILE WILL MEET USER'S
#REQUIREMENTS OR ARE SUITABLE FOR USER'S NEEDS OR THAT THE DATA OR RESULTS PROVIDED IN
#CONJUNCTION THEREWITH ARE CORRECT, ACCURATE, TIMELY OR RELIABLE. THESE DISCLAIMERS SHALL
#APPLY REGARDLESS OF ANY FAILURE OF ESSENTIAL PURPOSE OF ANY LIMITED REMEDY.  SOME
#JURISDICTIONS DO NOT ALLOW THE EXCLUSION OF CERTAIN WARRANTIES SO SOME OF THE ABOVE
#EXCLUSIONS MAY NOT APPLY. IN NO EVENT SHALL DRILLING INFO, INC. OR ANY OF ITS AFFILIATES
#BE LIABLE UNDER ANY LEGAL THEORY, WHETHER IN TORT (INCLUDING WITHOUT LIMITATION
#NEGLIGENCE), CONTRACT, STRICT LIABILITY, STATUTORY OR OTHERWISE, FOR ANY SPECIAL,
#INCIDENTAL, CONSEQUENTIAL, EXEMPLARY, PUNITIVE OR INDIRECT DAMAGE OF ANY KIND, INCLUDING
#WITHOUT LIMITATION LOSS OF REVENUE, PROFITS, GOODWILL, USE, AND/OR DATA OR THE COST OF
#PROCUREMENT OF SUBSTITUTE GOODS OR SERVICES, EVEN IF APPRISED OF THE POSSIBILITY OF SUCH
#DAMAGES IN ADVANCE.
#--------------------------------------------------#
~WELL INFORMATION
#MNEMONIC     .UNIT              VALUE :DESCRIPTION
#--------------------------------------------------#
STRT       .ft                25.00000 :START DEPTH
STOP       .ft                17086.00000 :STOP DEPTH
STEP       .ft                0.50000 :STEP
NULL       .                -999.25000 :NULL VALUE
COMP       .                 :COMPANY
WELL       .                 :WELL
FLD       .                 :FIELD
LOC       .                 :LOCATION
CNTY       .                 :COUNTY
STAT       .                 :STATE
CTRY       .                 :COUNTRY
SRVC       .                 :SERVICE COMPANY
DATE       .                 :DATE
API       .                42109309270000 :API NUMBER
~CURVE INFORMATION
#MNEMONIC     .UNIT      API CODE :CURVE DESCRIPTION
#--------------------------------------------------#
DEPTH       .ft                      :Measured Depth
CAL       .in        UNKNOWN   :CAL
DT       .us/ft        UNKNOWN   :DT
GR       .gAPI        UNKNOWN   :GR
~A    DEPTH    CAL    DT    GR
# ...
4699.00000    14.99015    62.62678    60.07822
4699.50000    14.98940    62.82409    56.25363
4700.00000    14.98866    62.37231    54.47156
4700.50000    14.98791    61.66298    52.68950
4701.00000    14.98717    60.95364    56.32300
4701.50000    14.98642    61.00048    61.78209
4702.00000    14.98714    62.50560    65.94921
4702.50000    14.98785    63.70814    70.11633
4703.00000    14.98857    64.89387    74.28345
4703.50000    14.98929    66.07959    78.45056
4704.00000    14.99001    67.26532    73.05006
4704.50000    14.99073    68.45105    66.69655
4705.00000    14.99145    68.53648    45.45502
4705.50000    14.99216    68.32796    43.32105
4706.00000    14.99288    68.11943    41.18709
4706.50000    14.99360    70.73747    40.75376
4707.00000    14.99432    70.36354    41.92742
4707.50000    14.99504    69.98962    43.10109
4708.00000    14.99575    70.00092    45.11899
4708.50000    14.99647    70.25410    47.29029
4709.00000    14.99719    70.50728    49.46159
4709.50000    14.99791    70.48948    51.63289
4710.00000    14.99863    69.80622    54.03860
4710.50000    14.99934    69.12296    57.71677
4711.00000    15.00006    68.43971    61.39495
4711.50000    15.00078    67.75645    65.07312
4712.00000    15.00150    67.07319    63.27824
4712.50000    15.00222    66.38993    60.91231
4713.00000    15.00294    66.05454    58.54638
4713.50000    15.00365    66.00855    59.50857
4714.00000    15.00437    65.96255    61.58818
4714.50000    15.00509    65.91656    64.33005
4715.00000    15.00581    66.31096    80.37411
4715.50000    15.00653    66.86495    83.98034
4716.00000    15.00724    67.41895    87.58657
4716.50000    15.00796    67.97295    89.51268
4717.00000    15.00868    68.52696    89.03310
4717.50000    15.00940    69.08096    88.55352
4718.00000    15.01012    69.45950    87.71327
4718.50000    15.01083    68.62525    84.03358
4719.00000    15.01155    67.79101    80.35389
4719.50000    15.01227    66.95677    79.09398
4720.00000    15.01299    66.12252    81.61137
4720.50000    15.01371    65.28828    84.12876
4721.00000    15.01442    66.21617    86.64615
4721.50000    15.01514    70.95377    89.16355
4722.00000    15.01586    75.69138    82.95670
4722.50000    15.01658    74.19584    71.91402
4723.00000    15.01730    69.83941    73.86117
4723.50000    15.01802    65.48298    84.48901
4724.00000    15.01873    64.45284    100.27637
4724.50000    15.01945    65.85024    119.67858
4725.00000    15.02017    67.24765    128.15543
4725.50000    15.02089    68.64505    123.57618
4726.00000    15.02161    70.04246    119.68415
4726.50000    15.02232    70.58602    115.79212
4727.00000    15.02304    70.17731    112.39082
4727.50000    15.02376    69.76861    115.23155
4728.00000    15.02448    69.51546    118.33879
4728.50000    15.02520    70.54345    124.85555
4729.00000    15.02591    71.57145    131.37231
4729.50000    15.02663    72.59944    137.88907
4730.00000    15.02735    73.62744    136.85709
4730.50000    15.02807    71.36387    128.94125
4731.00000    15.02879    68.76653    122.35775
4731.50000    15.02951    67.52172    117.67436
4732.00000    15.03022    68.35301    115.09824
4732.50000    15.03094    68.79041    112.52211
4733.00000    15.03166    68.86123    120.29677
4733.50000    15.03238    68.93204    126.98945
4734.00000    15.03310    69.00285    133.68212
4734.50000    15.03381    69.22285    140.37480
4735.00000    15.03453    69.91784    135.96265
4735.50000    15.03525    70.61283    129.66057
4736.00000    15.03597    71.30781    124.63255
4736.50000    15.03669    71.98760    120.41179
4737.00000    15.03740    70.78703    116.19102
4737.50000    15.03812    69.58646    119.37764
4738.00000    15.03884    68.38589    127.74633
4738.50000    15.03956    67.18532    136.11503
4739.00000    15.04028    66.26277    144.48373
4739.50000    15.04100    67.35649    139.37680
4740.00000    15.04171    67.79871    131.24200
4740.50000    15.04243    66.35974    120.64456
4741.00000    15.04315    64.92076    105.58575
4741.50000    15.04387    63.48179    90.52693
4742.00000    15.04516    62.04281    75.46811
4742.50000    15.04663    60.60384    102.88248
4743.00000    15.04809    60.43035    117.69731
4743.50000    15.04955    62.60413    132.51214
4744.00000    15.05102    64.77791    130.85877
4744.50000    15.05248    66.95169    112.73775
4745.00000    15.05395    66.56362    91.44694
4745.50000    15.05541    65.13523    70.15613
4746.00000    15.05688    63.70685    51.90267
4746.50000    15.05834    62.27847    45.61009
4747.00000    15.05981    61.33559    39.31750
4747.50000    15.06127    60.53605    40.16846
4748.00000    15.06274    59.73651    41.34630
4748.50000    15.06420    58.93698    42.52413
4749.00000    15.06567    58.13744    45.07864
4749.50000    15.06713    59.24711    56.09222
4750.00000    15.06860    60.69668    67.10580
4750.50000    15.07006    62.14798    77.17705
4751.00000    15.07152    63.59928    72.32596
4751.50000    15.07299    65.05059    67.74464
4752.00000    15.07446    66.50189    66.41244
4752.50000    15.07592    66.31412    65.08025
4753.00000    15.07738    64.15339    60.08592
4753.50000    15.07885    61.99266    52.26523
4754.00000    15.08031    59.83193    44.44455
4754.50000    15.08178    60.57368    38.03433
4755.00000    15.08324    61.51761    39.55718
4755.50000    15.08471    62.46154    41.08003
4756.00000    15.08617    63.40547    42.60288
4756.50000    15.08764    64.34940    44.12573
4757.00000    15.08910    65.29333    45.64858
4757.50000    15.09057    66.23726    53.80148
4758.00000    15.09203    67.18119    73.29904
4758.50000    15.09350    67.43857    70.79508
4759.00000    15.09496    67.13387    65.85407
4759.50000    15.09643    66.82917    60.91306
4760.00000    15.09789    66.52447    58.74699
4760.50000    15.09935    66.21976    58.40912
4761.00000    15.10082    65.97013    58.07124
4761.50000    15.10228    65.87693    65.13228
4762.00000    15.10375    65.78373    75.98506
4762.50000    15.10521    65.69052    86.83783
4763.00000    15.10668    66.08694    97.69061
4763.50000    15.10814    67.10318    108.54339
4764.00000    15.10961    68.11943    119.39616
4764.50000    15.11107    69.13568    123.19906
4765.00000    15.11254    67.67609    118.24766
4765.50000    15.11400    66.46036    83.99846
4766.00000    15.11547    67.03904    82.90996
4766.50000    15.11693    66.74944    81.82145
4767.00000    15.11840    66.45983    80.73295
4767.50000    15.11986    66.38200    79.50291
4768.00000    15.12133    66.33272    79.12969
4768.50000    15.12279    66.28345    78.75647
4769.00000    15.12425    66.23417    68.78347
4769.50000    15.12572    66.07924    61.65441
4770.00000    15.12718    65.07634    54.52535
4770.50000    15.12865    64.07344    47.39629
4771.00000    15.13011    63.07054    40.26723
4771.50000    15.13158    62.06764    37.15586
4772.00000    15.13304    61.06474    35.41524
4772.50000    15.13451    60.06184    35.50115
4773.00000    15.13356    59.88097    40.82066
4773.50000    15.12912    60.00799    46.14017
4774.00000    15.12468    60.13502    51.45968
4774.50000    15.12025    61.96448    56.77918
4775.00000    15.11581    63.96049    62.09869
4775.50000    15.11137    65.18502    67.41820
4776.00000    15.10693    66.40956    76.80548
4776.50000    15.10249    67.63409    87.14644
4777.00000    15.09805    68.85863    97.48741
4777.50000    15.09361    69.85370    107.82837
4778.00000    15.08917    70.59599    116.36300
4778.50000    15.08473    71.33828    117.78775
4779.00000    15.08029    72.08057    119.21249
4779.50000    15.07586    72.56829    120.63724
4780.00000    15.07142    72.38164    122.06198
4780.50000    15.06698    72.19499    122.07922
4781.00000    15.06254    72.00834    122.02229
4781.50000    15.05810    71.82169    121.96536
4782.00000    15.05366    70.82702    118.36922
4782.50000    15.04922    68.97883    103.32658
4783.00000    15.04478    67.13063    82.97061
4783.50000    15.05252    65.28244    62.26980
