###############################################
##         ENVERUS                           ##
##         ESS - Open Hole                   ##
##         PERMIAN / DELAWARE                ##
##         Nov 02 2023  V4.0                 ##
##         42-109-32297-90-00                ##
###############################################
## Copyright 2017-2023  ENVERUS.  All Rights Reserved. 
## Confidential - Property of ENVERUS, use governed by terms and 
## conditions found within the existing Information Services Subscription Agreement 
## (as may be amended, the “ISSA”) between Customer and ENVERUS. 
## 
~VERSION INFORMATION
# MNEM.UNIT                               DATA : DESCRIPTION OF MNEMONIC
#-----.-----     ----------------------------- : -----------------------------
VERS.                                     2.00 : CWLS LOG ASCII STANDARD - VERSION 2.00
WRAP.                                       NO : MULTIPLE LINES PER DEPTH STEP
VEND.                                  ENVERUS : VENDOR
TYPE.                          ESS - OPEN HOLE : ENVERUS ESSENTIAL CURVES – ACCESSIBLE THROUGH ENVERUS PRISM(TM)
DOC.                                  52921007 : ENVERUS HEADER RAW DOCUMENT ID
#___________________________________________________________________________________________________ 
~WELL INFORMATION 
# EM3SY5Bwx6x9YoJmjxbMXtwK21/gMzSEmeWIZ71LA4UD3Y8PQw/mHJ0IHc4n7dRi3zAL189RIdETacnakexX1Q== 
# MNEM.UNIT                                              DATA : DESCRIPTION OF MNEMONIC 
#-----.-----                    ----------------------------- : ----------------------------- 
CNTY.                                               CULBERSON : COUNTY 
STATE.                                                  TEXAS : STATE 
CNTRY.                                                    USA : COUNTRY 
API.                                             42-109-32297 : API (10 Digit) 
API_14.                                    42-109-32297-90-00 : API (14 Digits) 
API_14_std.                                 42-109-32297-9000 : API (14 Digits Standard) 
UWI.                                           42109322979000 : UNIQUE WELL ID 
WELL.                          MELISSA TAYLOR STATE 105-3  1H : WELL NAME
STRT.FT                                                 200.0 : START DEPTH
STOP.FT                                               10260.0 : STOP DEPTH
STEP.FT                                                   0.5 : STEP BETWEEN DEPTHS
NULL.                                                 -999.25 : NULL VALUE
PREV_API.                                        421093229700 : API NUMBER 
COMP.                              CHESAPEAKE OPERATING  INC. : COMPANY 
DATE.                                             17-JUN-2008 : LOG DATE
#___________________________________________________________________________________________________ 
~CURVE INFORMATION 
# MNEM.UNIT           : CURVE DESCRIPTION 
#-----.-----          : ----------------------------- 
 DEPT.FT               : MEASURED DEPTH 
 CALI.IN               : CALIPER (CAL - CAL) 
 GR.API                : GAMMA RAY (GR) 
 DT.US/FT              : SONIC DELTA TRANSIT TIME (DT) 
 RESS.OHMM             : SHALLOW INDUCTION RESISTIVITY (ILS - ILS) 
 RESD.OHMM             : DEEP INDUCTION RESISTIVITY (ILD - ILD) 
 DPHI.V/V              : DENSITY POROSITY (DPHI) 
 NPHI.V/V              : NEUTRON POROSITY (NPHI) 
 RHOB.G/CC             : BULK DENSITY (RHOB) 
 #___________________________________________________________________________________________________ 
~A         DEPT           CALI             GR             DT           RESS           RESD           DPHI           NPHI           RHOB
# ...
         6631.0         12.526         97.119         58.651        300.505        423.421        0.02320        0.06906         2.6600
         6631.5         12.550        101.731         60.944        143.971        134.709        0.02626        0.07421         2.6560
         6632.0         12.574        106.342         63.237        126.992        131.732        0.02847        0.11460         2.6590
         6632.5         12.598        111.623         65.228        139.737        139.292        0.02984        0.14246         2.6620
         6633.0         12.622        114.046         65.861        136.679        141.264        0.03086        0.15229         2.6640
         6633.5         12.646        114.046         65.710        133.295        135.331        0.02616        0.16212         2.6620
         6634.0         12.658        113.233         66.200        130.946        129.398        0.02572        0.17196         2.6560
         6634.5         12.621        110.709         66.251        131.664        143.495        0.02979        0.17226         2.6500
         6635.0         12.583        105.663         65.399        164.273        168.493        0.03486        0.16856         2.6500
         6635.5         12.546         97.693         63.275        209.083        216.027        0.03709        0.14855         2.6550
         6636.0         12.508         88.534         61.151        239.078        338.876        0.03137        0.12760         2.6600
         6636.5         12.471         84.208         59.028        269.073        461.726        0.02509        0.10665         2.6590
         6637.0         12.406         80.017         56.904        323.514        597.242        0.02628        0.08570         2.6520
         6637.5         12.324         77.047         55.259        396.463        750.367        0.02953        0.07629         2.6450
         6638.0         12.242         74.078         54.983        438.349        870.744        0.03974        0.07282         2.5890
         6638.5         12.160         71.738         55.551        435.198        964.704        0.07062        0.06935         2.5640
         6639.0         12.106         70.756         56.118        432.047       1039.763        0.09952        0.07544         2.5400
         6639.5         12.059         69.166         56.201        428.896       1096.840        0.10564        0.08324         2.5160
         6640.0         12.029         67.602         56.145        485.238       1153.918        0.09960        0.08984         2.5050
         6640.5         12.013         67.365         56.089        532.921       1107.345        0.09500        0.08895         2.4950
         6641.0         11.976         69.473         56.219        478.328        912.883        0.12659        0.08806         2.4850
         6641.5         11.927         71.581         57.202        399.602        667.937        0.13895        0.08717         2.4750
         6642.0         11.877         73.689         58.162        197.449        457.180        0.13817        0.08694         2.4810
         6642.5         11.763         75.797         58.809        159.642        297.414        0.12670        0.09118         2.4970
         6643.0         11.701         77.905         58.774        147.148        248.241        0.11119        0.09542         2.5110
         6643.5         11.680         76.507         58.011        150.656        228.667        0.10616        0.09709         2.5130
         6644.0         11.781         74.455         57.649        155.471        236.605        0.09465        0.08934         2.5760
         6644.5         11.954         73.706         57.719        222.084        263.028        0.06718        0.08158         2.6060
         6645.0         12.126         74.613         57.846        256.871        338.744        0.04667        0.07679         2.6370
         6645.5         12.298         78.065         57.973        256.879        346.447        0.03311        0.07721         2.6460
         6646.0         12.435         80.769         58.175        292.580        364.275        0.03294        0.07763         2.6370
         6646.5         12.473         81.610         59.431        296.133        401.433        0.04262        0.08031         2.6120
         6647.0         12.468         82.452         60.687        279.051        358.235        0.06476        0.09018         2.5870
         6647.5         12.442         83.223         61.943        228.942        263.058        0.07126        0.10006         2.5830
         6648.0         12.511         80.498         62.961        175.360        177.384        0.07360        0.10823         2.5870
         6648.5         12.589         77.772         62.601        121.778        148.587        0.07174        0.10993         2.5950
         6649.0         12.557         76.397         61.884        254.381        524.696        0.06420        0.10722         2.6160
         6649.5         12.524         79.284         61.644        365.905        439.530        0.04435        0.09976         2.6360
         6650.0         12.491         82.172         61.786        251.140        312.328        0.02878        0.09758         2.6560
         6650.5         12.469         83.556         61.712        416.864        311.926        0.02701        0.10547         2.6550
         6651.0         12.448         81.219         60.036        878.539        760.763        0.03438        0.10431         2.6500
         6651.5         12.430         74.949         56.686       1207.688       1601.218        0.03764        0.09487         2.6490
         6652.0         12.414         62.838         53.073       1179.349       1810.345        0.03335        0.08110         2.6560
         6652.5         12.397         50.151         51.062       1151.010       1775.412        0.02851        0.06693         2.6620
         6653.0         12.402         48.222         50.131       1122.671       1609.036        0.02435        0.05264         2.6730
         6653.5         12.410         48.730         50.398        927.512       1335.670        0.01653        0.04858         2.6890
         6654.0         12.418         54.833         51.464        680.858        904.838        0.00855        0.05173         2.7050
         6654.5         12.426         61.372         53.117        571.319        680.562        0.00124        0.05488         2.6860
         6655.0         12.434         73.076         55.485        519.579        493.055        0.01049        0.05804         2.6660
         6655.5         12.442         87.725         57.938        289.864        305.549        0.01992        0.07869         2.6460
         6656.0         12.450         98.373         60.392        196.707        183.181        0.03304        0.09982         2.6310
         6656.5         12.439         97.317         61.523        147.416        197.716        0.04469        0.11215         2.6410
         6657.0         12.408         94.736         60.657        282.948        332.976        0.03949        0.10960         2.6520
         6657.5         12.378         91.580         58.152        456.432        479.378        0.03020        0.09028         2.6620
         6658.0         12.347         88.453         56.512        531.853        647.688        0.02329        0.07042         2.6600
         6658.5         12.317         85.565         56.121        480.224        629.034        0.02935        0.06555         2.6530
         6659.0         12.290         82.677         56.186        456.759        590.465        0.03561        0.06591         2.6450
         6659.5         12.291         80.542         56.145        499.409        651.288        0.03896        0.06627         2.6420
         6660.0         12.292         79.957         56.040        527.179        722.126        0.03967        0.06663         2.6470
