###############################################
##         ENVERUS                           ##
##         ESS - Open Hole                   ##
##         PERMIAN / DELAWARE                ##
##         Nov 02 2023  V4.0                 ##
##         42-109-31550-00-00                ##
###############################################
## Copyright 2017-2023  ENVERUS.  All Rights Reserved. 
## Confidential - Property of ENVERUS, use governed by terms and 
## conditions found within the existing Information Services Subscription Agreement 
## (as may be amended, the “ISSA”) between Customer and ENVERUS. 
## 
~VERSION INFORMATION
# MNEM.UNIT                               DATA : DESCRIPTION OF MNEMONIC
#-----.-----     ----------------------------- : -----------------------------
VERS.                                     2.00 : CWLS LOG ASCII STANDARD - VERSION 2.00
WRAP.                                       NO : MULTIPLE LINES PER DEPTH STEP
VEND.                                  ENVERUS : VENDOR
TYPE.                          ESS - OPEN HOLE : ENVERUS ESSENTIAL CURVES – ACCESSIBLE THROUGH ENVERUS PRISM(TM)
DOC.                                  22584426 : ENVERUS HEADER RAW DOCUMENT ID
#___________________________________________________________________________________________________ 
~WELL INFORMATION 
# ASdzl/zqz3tyMoI2i40d5lqA861uk+/GXWRvioHJ4uiq1sQ7a4yIDDt4z64Puw3+ifUTTkKIB4eyCaXtXAsvCw== 
# MNEM.UNIT                                              DATA : DESCRIPTION OF MNEMONIC 
#-----.-----                    ----------------------------- : ----------------------------- 
CNTY.                                               CULBERSON : COUNTY 
STATE.                                                  TEXAS : STATE 
CNTRY.                                                    USA : COUNTRY 
API.                                             42-109-31550 : API (10 Digit) 
API_14.                                    42-109-31550-00-00 : API (14 Digits) 
API_14_std.                                 42-109-31550-0000 : API (14 Digits Standard) 
UWI.                                           42109315500000 : UNIQUE WELL ID 
WELL.                                       UNIVERSITY_6-46-1 : WELL NAME
STRT.FT                                                 249.5 : START DEPTH
STOP.FT                                               10300.0 : STOP DEPTH
STEP.FT                                                   0.5 : STEP BETWEEN DEPTHS
NULL.                                                 -999.25 : NULL VALUE
COMP.                                    MONSANTO OIL COMPANY : COMPANY 
FLD.                                                  WILDCAT : FIELD 
DATE.                                              10/31/2016 : DATE 
TVD.                                                       NO : TVD FLAG 
WSTA.                                                     LOC : WELL STATUS
#___________________________________________________________________________________________________ 
~PARAMETER INFORMATION 
# MNEM.UNIT                                              DATA : DESCRIPTION OF MNEMONIC 
#-----.-----                    ----------------------------- : ----------------------------- 
RUN.                                                      ONE : RUN NUMBER 
PDAT.                                                      GL : PERMANENT DATUM 
LMF.                                            KELLY BUSHING : LOG MEASURED FROM
#___________________________________________________________________________________________________ 
~CURVE INFORMATION 
# MNEM.UNIT           : CURVE DESCRIPTION 
#-----.-----          : ----------------------------- 
 DEPT.FT               : MEASURED DEPTH 
 DT.US/FT              : SONIC DELTA TRANSIT TIME (DELTA-T) 
 RESS_LL.OHMM          : SHALLOW LATEROLOG (LLS - LATERO-LOG SHALLOW (RESISTIVITY)) 
 RESD_LL.OHMM          : DEEP LATEROLOG (LLD - LATERO-LOG DEEP (RESISTIVITY)) 
 #___________________________________________________________________________________________________ 
~A         DEPT             DT        RESS_LL        RESD_LL
# ...
         2031.5         70.792        88.7700       103.7175
         2032.0         71.997        83.2004        93.9904
         2032.5         73.370        80.1761        91.2697
         2033.0         73.310        80.1761        91.2697
         2033.5         73.551        80.9217        91.2697
         2034.0         73.490        83.9741        93.7872
         2034.5         72.768        88.7700       101.9835
         2035.0         71.986        92.9751       107.7443
         2035.5         71.565        97.3794       113.9748
         2036.0         71.143        99.1399       119.3739
         2036.5         70.349       103.8209       120.4840
         2037.0         69.819       109.9611       126.1915
         2037.5         69.338       115.5684       132.1110
         2038.0         68.556       121.6045       142.3398
         2038.5         67.156       129.7449       144.9283
         2039.0         65.895       135.8910       152.2652
         2039.5         65.119       137.1548       142.6563
         2040.0         65.406       121.6045       129.6801
         2040.5         66.516       110.9111       123.8767
         2041.0         67.900       118.2285       122.7354
         2041.5         68.720       130.6896       130.9515
         2042.0         68.232       149.7020       174.4751
         2042.5         66.630       169.6966       189.6332
         2043.0         65.607       186.1548       202.3276
         2043.5         65.306       200.4634       215.8718
         2044.0         65.246       219.9055       245.7408
         2044.5         64.824       250.3326       259.7753
         2045.0         64.223       260.0611       260.1435
         2045.5         64.102       259.9182       245.6239
         2046.0         64.584       215.0107       213.7751
         2046.5         65.306       181.4809       186.1548
         2047.0         65.306       160.3337       174.4751
         2047.5         64.885       160.5970       168.1331
         2048.0         64.644       165.0490       168.1331
         2048.5         65.005       171.2747       174.6778
         2049.0         65.547       179.3882       191.4242
         2049.5         65.968       184.4205       191.3171
         2050.0         64.704       196.8991       204.2092
         2050.5         63.862       212.5333       217.8793
         2051.0         63.079       205.3938       226.0978
         2051.5         64.102       158.7430       138.4658
         2052.0         67.894       112.0332        80.6192
         2052.5         68.134        76.6895        80.9995
         2053.0         68.796        73.0877        81.6743
         2053.5         68.736        92.1184        95.5932
         2054.0         67.894       133.3984       148.9263
         2054.5         67.412       204.0461       230.8174
         2055.0         66.931       292.4916       357.7383
         2055.5         66.389       437.9431       554.4499
         2056.0         65.636       549.8269       687.7024
         2056.5         64.723       565.3095       677.9957
         2057.0         64.401       436.2380       525.9543
         2057.5         64.759       334.2494       369.8740
         2058.0         65.122       279.2514       257.4809
         2058.5         64.885       230.8659       205.6902
         2059.0         64.703       198.6163       218.9928
         2059.5         64.699       187.8860       179.7686
         2060.0         64.870       184.4396       180.8667
         2060.5         65.113       181.0564       182.7402
         2061.0         65.537       181.0564       186.1548
         2061.5         65.847       182.7402       191.3967
         2062.0         65.437       186.1548       196.7863
         2062.5         64.361       196.7863       196.7863
         2063.0         63.819       182.7402       179.3882
         2063.5         63.801       168.1331       166.5839
         2064.0         64.343       149.0705       137.7400
         2064.5         66.088       132.1693       128.5494
         2065.0         67.051       122.7354       121.6045
         2065.5         67.472       123.8767       117.1842
         2066.0         67.593       118.2740       112.9247
         2066.5         67.653       110.8533       112.9247
         2067.0         67.834       106.8238       112.9247
         2067.5         68.255       104.8644       112.9247
         2068.0         68.495       103.8982       112.8528
         2068.5         68.796       102.9409       113.0474
         2069.0         69.097       102.9409       110.7340
         2069.5         69.338       102.9126       110.9473
         2070.0         69.295       105.9302       110.8533
         2070.5         69.097       107.0015       119.3739
         2071.0         68.736       104.0935       118.2740
         2071.5         68.315       109.8319       118.2740
         2072.0         68.195       109.8319       115.0347
         2072.5         68.375       104.8644       111.8842
         2073.0         68.796       102.9409       108.7241
         2073.5         69.097       101.0526       108.8852
         2074.0         69.157       101.0526       108.7693
         2074.5         69.037       107.8173       109.7944
         2075.0         68.605       105.8396       119.2513
         2075.5         67.758       116.1045       131.0166
         2076.0         67.024       119.6660       130.9515
         2076.5         66.561       121.6045       135.8910
         2077.0         66.510       119.3739       127.3650
         2077.5         67.051       117.1842       127.3650
         2078.0         67.545       116.1045       128.5494
         2078.5         68.014       125.0288       137.1548
         2079.0         68.139       137.0189       143.8464
         2079.5         68.077       134.6837       151.6093
         2080.0         67.724       144.6475       154.9456
         2080.5         67.532       140.4104       149.0705
         2081.0         67.472       134.6389       144.9878
         2081.5         67.352       137.1548       143.6519
         2082.0         66.786       149.8314       164.6030
         2082.5         65.667       166.5839       180.0853
         2083.0         64.205       187.8860       197.1188
         2083.5         63.794       187.8860       186.0727
         2084.0         64.405       165.6122       163.5283
         2084.5         65.560       147.6970       144.9878
         2085.0         67.172       134.6389       135.8910
         2085.5         68.014       129.7449       133.3984
         2086.0         67.705       142.0282       165.0490
         2086.5         67.111       157.5841       160.5287
         2087.0         66.570       168.1331       179.3882
         2087.5         66.269       172.8675       184.4396
         2088.0         66.244       168.3355       174.4751
         2088.5         66.329       157.5841       163.5283
         2089.0         66.690       146.3361       149.0705
         2089.5         66.931       133.3984       135.8910
         2090.0         67.237       120.4654       126.1915
         2090.5         67.533       106.8238       108.8199
         2091.0         67.713        99.1990       107.8173
         2091.5         67.653       100.1215       106.8238
         2092.0         67.902       100.1215       106.8238
         2092.5         68.375       100.1215       106.8238
         2093.0         69.157        99.1990       106.8238
         2093.5         70.000        96.4822       105.8396
         2094.0         69.788        95.5932       102.9409
         2094.5         69.338        92.9751       100.1078
         2095.0         69.699        87.9798        99.2170
         2095.5         70.662        83.1577        93.7194
         2096.0         72.076        83.2189        93.9280
         2096.5         72.588        85.5433        93.8397
         2097.0         72.889        87.9521       101.0526
