~Version Information Block
 VERS.                2.00:     CWLS LOG ASCII STANDARD - VERSION 2.000000
 WRAP.                  NO:     One Line Per Depth Step
#
~Well Information Block
#MNEM.UNIT                     Data                         Information
#----------   ------------------------------------------   ----------------
 STRT.FT                                     4210.0000:     START DEPTH
 STOP.FT                                    10370.0000:     STOP DEPTH
 STEP.FT                                        0.5000:     STEP
 NULL.                                       -999.2500:     NULL VALUE
 COMP.                       CHESAPEAKE OPERATING INC.:     COMPANY
 WELL.                         UNIVERSITY_LANDS_4627-1:     WELL
 FLD .                                         WILDCAT:     FIELD
 LOC .   1200' FNL & 1995' FEL|Section: 27, Block: 46, Abstract: 2860|University Lands Survey:     LOCATION
 SEC .                                              27:     SECTION
 CNTY.                                       CULBERSON:     COUNTY
 STAT.                                           TEXAS:     STATE
 CTRY.                                             USA:     COUNTRY
 SRVC.                                    SCHLUMBERGER:     SERVICE COMPANY
 DATE.                                      11/15/2016:     DATE
 API .                                  42109322870000:     API NUMBER
 UWI .                                  42109322870000:     UWI NUMBER
 TVD .                                              NO:     TVD flag
 WSTA.                                             LOC:     Well status
#
~Curve Information Block
#MNEM.UNIT       API CODE      Curve Description
#----------    -------------   -------------------
 DEPT.FT                   :   Depth in Feet
 RM_HRLT.OHMM                 :   HRLTB Mud Resistivity
 RXOZ.OHMM                 :   Stan Res MicroCFL Resistivity
 RLA5.OHMM                 :   HRLTB Resistivity 5
 RLA4.OHMM                 :   HRLTB Resistivity 4
 RLA3.OHMM                 :   HRLTB Resistivity 3
 DTCO.US/F                 :   Delta-T Compressional
 DTSM.US/F                 :   Delta-T Shear Measurement
 SPHI.V/V                  :   Sonic Porosity [47.6]
 HSGR.GAPI                 :   HNGS Spectroscopy Gamma Ray
 HCGR.GAPI                 :   HNGS Computed Gamma Ray
 HCAL.IN                   :   HILT Caliper
 DPHI.V/V                  :   Density Porosity
 PEFZ.                     :   Std. Res. Formation PE
 HDRA.G/C3                 :   Density Correction
 RHOB.G/C3                 :   Std. Res. Formation Density
 APLC.V/V                  :   APS Near/Array Corrected Limestone Porosity
 PXND.V/V                  :   Crossplot Porosity For Neutron-Density
#
~Parameter Information Block
#MNEM.UNIT            Value               Description
#----------    --------------------    -------------------
 DATE.                 07-Jun-2007:    Date As Month-Day-Year
 RUN .                         ONE:    Run Number
 PDAT.                         UNK:    Permanent Datum
 EPD .FT                -9999.5000:    Elevation Of Perm. Datum
 LMF .                          KB:    Log Measured From
 FAPD.FT                   40.0000:    Feet Above Perm. Datum
 EKB .FT                 4323.0000:    Elevation Of Kelly Bushing
 TD  .FT                10370.0000:    Total Depth
 DFT .                   Fresh Mud:    Drilling Fluid Type
 DFD .LB/G                  8.6000:    Drilling Fluid Density
 RMS .OHMM                  0.4210:    Resistivity Of Mud Sample
 MST .DEGF                 97.0000:    Mud Sample Temperature
 RMF .OHMM                  0.4210:    Mud Filtrate Resistivity
 MFST.DEGF                 97.0000:    Mud Filtrate Sample Temperature
 MFSS.                        CALC:    Mud Filtrate Sample Source
 MCSS.                        CALC:    Mud Cake Sample Source
 RMB .OHMM                  0.2280:    Mud Resistivity At Bht
 BHT .DEGF                185.0000:    Bottom Hole Temperature
 MRT .DEGF                185.0000:    Maximum Recorded Temperature
 WSTA.                         LOC:    
 LATB.FT                    0.0000:    
 LONB.FT                    0.0000:    
#
~Other Information Block
<DescLogPlotStart>   NEURALOG PLOT DEFINITION
PLOTDEFVERSION: 3
LASFILE: E:\nds\projects\Texas Standard Oil LLC\pdf\42109322870000 D\42-109-322
DEPTHSCALE: 240.000000
RESOLUTION: 196
DEPTHLABELFREQ: 100.000000
HEAVYGRIDFREQ: 100.000000
MEDIUMGRIDFREQ: 50.000000
LIGHTGRIDFREQ: 10.000000
#
#   TRACK 1
#
STARTTRACK: 
 LEFTX: 0.500000 inch
 RIGHTX: 3.000000 inch
 SCALETYPE: Linear
 NUMCHARTDIVISIONS: 10
CURVE: RXOZ  0.200000   2000.000000 (0,0,255)      Solid             2     Y   
BACKUP: 2000.000000 20000000.000000 (0,0,255)      Solid             2    
CURVE: RLA5  0.200000   2000.000000 (0,131,131)    Dot               2     Y   
BACKUP: 2000.000000 20000000.000000 (0,131,131)    Dot               2    
CURVE: RLA4  0.200000   2000.000000 (255,0,255)    Short_Dash        2     Y   
BACKUP: 2000.000000 20000000.000000 (255,0,255)    Short_Dash        2    
CURVE: RLA3  0.200000   2000.000000 (255,0,0)      Medium_Dash       2     Y   
BACKUP: 2000.000000 20000000.000000 (255,0,0)      Medium_Dash       2    
CURVE: DTCO  240.000000 40.000000  (0,0,255)      Solid             2     N    
CURVE: DTSM  240.000000 40.000000  (0,131,131)    Dot               2     Y    
BACKUP: 440.000000 240.000000 (0,131,131)    Dot               2    
CURVE: SPHI  0.300000   -0.100000  (255,0,255)    Short_Dash        2     Y    
BACKUP: 0.700000   0.300000   (255,0,255)    Short_Dash        2    
CURVE: HSGR  0.000000   150.000000 (0,0,255)      Solid             2     Y    
BACKUP: 150.000000 300.000000 (0,0,255)      Solid             2    
CURVE: HCGR  0.000000   150.000000 (0,131,131)    Dot               2     N    
CURVE: HCAL  6.000000   16.000000  (255,0,255)    Short_Dash        2     Y    
BACKUP: -4.000000  6.000000   (255,0,255)    Short_Dash        2    
BACKUP: 16.000000  26.000000  (255,0,255)    Short_Dash        2    
ENDTRACK: 
#
#   TRACK 2
#
STARTTRACK: 
 LEFTX: 3.500000 inch
 RIGHTX: 8.500000 inch
 SCALETYPE: Linear
 NUMCHARTDIVISIONS: 10
CURVE: RM_HRLT 0.020000   200.000000 (255,131,0)    Solid             2     N  
CURVE: DPHI  0.300000   -0.100000  (255,0,0)      Solid             2     Y    
BACKUP: 0.700000   0.300000   (255,0,0)      Solid             2    
BACKUP: -0.100000  -0.500000  (255,0,0)      Solid             2    
CURVE: APLC  0.300000   -0.100000  (255,131,0)    Dot               2     Y    
BACKUP: 0.700000   0.300000   (255,131,0)    Dot               2    
BACKUP: 1.100000   0.700000   (255,131,0)    Dot               2    
CURVE: PXND  0.300000   -0.100000  (255,255,0)    Short_Dash        2     Y    
BACKUP: 0.700000   0.300000   (255,255,0)    Short_Dash        2    
ENDTRACK: 
#
#   TRACK 3
#
STARTTRACK: 
 LEFTX: 0.500000 inch
 RIGHTX: 5.500000 inch
 SCALETYPE: Linear
 NUMCHARTDIVISIONS: 10
ENDTRACK: 
#
#   TRACK 4
#
STARTTRACK: 
 LEFTX: 3.500000 inch
 RIGHTX: 6.000000 inch
 SCALETYPE: Linear
 NUMCHARTDIVISIONS: 10
CURVE: PEFZ  0.000000   10.000000  (0,0,255)      Solid             2     N    
ENDTRACK: 
#
#   TRACK 5
#
STARTTRACK: 
 LEFTX: 3.500000 inch
 RIGHTX: 4.750000 inch
 SCALETYPE: Linear
 NUMCHARTDIVISIONS: 10
CURVE: HDRA  -0.050000  0.200000   (0,131,131)    Solid             2     N    
ENDTRACK: 
#
#   TRACK 6
#
STARTTRACK: 
 LEFTX: 3.500000 inch
 RIGHTX: 8.500000 inch
 SCALETYPE: Linear
 NUMCHARTDIVISIONS: 10
CURVE: RHOB  2.000000   3.000000   (255,0,255)    Solid             2     Y    
BACKUP: 1.000000   2.000000   (255,0,255)    Solid             2    
ENDTRACK: 
<DescLogPlotEnd>
~A DEPTH     RM_HRLT             RXOZ             RLA5             RLA4             RLA3             DTCO             DTSM             SPHI             HSGR             HCGR             HCAL             DPHI             PEFZ             HDRA             RHOB             APLC             PXND            
# ...
    8300.500 1.01615257       137.85538240     228.46331784     228.46331784     241.16975701     55.60353288      96.56862745      0.06314785       59.08090312      47.08199212      11.54447955      0.06356513       3.16022427       0.00150203       2.61601670       0.04294118       0.04911591      
    8301.000 1.01724043       107.08468197     203.18236877     208.75611326     222.36339511     56.58488714      96.02614379      0.07134529       58.63668937      46.48504002      11.63129448      0.06630754       3.11644947       -0.00417489      2.60163218       0.04450980       0.05147348      
    8301.500 1.01824155       102.36198818     197.75744209     203.18236877     214.48275797     57.17369971      95.80570410      0.07135380       58.59375553      46.44888283      11.74099703      0.06356513       3.07682600       -0.00167507      2.60388024       0.04607843       0.05422397      
    8302.000 1.01993549       96.09805961      192.47735981     192.47735981     203.18236877     56.97742885      95.89304813      0.07137543       59.10707880      45.69759647      11.83815913      0.05768854       3.03706933       0.00185630       2.60793542       0.04647059       0.05461690      
    8302.500 1.00947248       78.09206032      182.33636247     182.33636247     197.75744209     56.58488714      95.98039216      0.06744762       60.37899233      45.57985281      11.92866794      0.06720862       3.00278418       0.01510963       2.60034320       0.04450980       0.05540275      
    8303.000 1.00972925       62.88997410      168.11781507     165.11186451     183.98864214     55.40726202      94.76470588      0.06165802       61.52632524      45.04085720      11.99348049      0.07453477       3.18609176       0.06234369       2.59538268       0.04137255       0.05579568      
    8303.500 1.00984779       38.63884350      179.07618394     177.46801978     180.69892081     53.83709519      93.43137255      0.05017120       61.20937312      43.83721493      12.07799852      0.05876670       3.40452397       0.13258714       2.60416558       0.03862745       0.04833006      
    8304.000 1.01057722       34.05461157      194.22153429     194.38195245     210.64780112     52.65947007      92.51225490      0.03566979       59.06255358      41.89460150      12.02899551      0.03876121       3.65009614       0.12437939       2.62894623       0.03627451       0.04165029      
    8304.500 0.99199922       45.45097646      212.55663091     212.43113110     232.62261578     51.87438665      91.86274510      0.03537314       56.01844594      38.49831646      12.12905540      0.03379040       3.69178092       0.13081285       2.65000667       0.03666667       0.03654224      
    8305.000 0.99199922       74.98546800      235.79170700     235.27501004     260.38953822     51.97252208      92.05882353      0.03616831       53.69299303      37.11451467      12.16415278      0.04005877       3.66056038       0.05349873       2.66414468       0.03509804       0.03261297      
    8305.500 0.98306460       127.10545155     252.29665024     251.82583758     276.11421238     52.46319921      92.64705882      0.03910721       52.92410651      36.40389508      12.19792210      0.04123408       3.60096327       0.00614845       2.66996733       0.03039216       0.02907662      
    8306.000 0.96015509       165.11186451     254.58288992     254.58288992     273.63461420     53.62741489      94.24313725      0.05569185       53.65471983      37.47777584      12.13528301      0.02216128       3.52461595       -0.00036579      2.65735173       0.03196078       0.03418468      
    8306.500 0.98306460       165.11186451     239.00397176     239.00397176     268.74202075     55.57543855      95.97254902      0.06310108       55.93160856      40.90627442      12.11336193      0.00452824       3.44877235       0.00249264       2.71421901       0.03627451       0.04086444      
    8307.000 0.99881798       132.96973904     208.75611326     208.75611326     230.53358672     57.52722646      97.25490196      0.07801766       59.23283126      43.30371561      12.12950378      -0.00107738      3.33605302       0.00261718       2.71236264       0.04215686       0.04597250      
    8307.500 1.01011281       104.22554339     183.98864214     166.60806074     199.54946315     58.51815721      97.94117647      0.08155054       61.78676678      46.20439977      12.11308634      0.01936197       3.23274036       0.00127271       2.68028989       0.05470588       0.05068762      
    8308.000 1.01011281       87.80865833      155.00802671     155.00802671     174.29488734     58.54759568      99.41736695      0.08115800       63.67748771      48.42495356      12.17768686      0.04341811       3.14711124       -0.00295930      2.61744253       0.05705882       0.05815324      
    8308.500 1.01011281       91.85990247      142.92053662     142.92053662     153.61600268     57.95878312      101.27450980     0.07691855       65.34341311      51.21435174      12.19301771      0.06783216       3.12176936       -0.00514050      2.60830668       0.06137255       0.06051081      
    8309.000 1.01011281       96.09805961      137.85538240     137.85538240     149.51448758     57.56624141      102.55392157     0.07591102       67.56448905      54.27130184      12.24333635      0.06836814       3.09612953       -0.00415302      2.59952186       0.06725490       0.06326130      
    8309.500 1.01011281       99.62894454      130.59223692     130.59223692     146.84116497     58.15505397      103.27450980     0.08076546       70.59424010      57.93098810      12.28784719      0.05265259       3.10843351       -0.00155340      2.61922912       0.07117647       0.06915521      
    8310.000 1.01011281       108.05505256     159.26024181     159.26024181     178.27028848     58.94013739      104.21568627     0.08724239       73.10945116      61.74431327      12.31510422      0.04361395       3.18786484       -0.00026795      2.63426139       0.07039216       0.07151277      
    8310.500 1.01011281       99.62894454      155.00802671     155.00802671     174.29488734     59.52894995      104.21568627     0.08861629       74.78111931      63.07417453      12.33595676      0.04322229       3.24927722       0.00071129       2.63078734       0.06686275       0.06797642      
    8311.000 1.01011281       94.37982400      128.25724460     128.25724460     142.92053662     59.92149166      103.03921569     0.08979392       74.92828994      63.32495600      12.36566035      0.05732991       3.23752718       0.00069216       2.62441141       0.06647059       0.06679764      
    8311.500 1.01011281       78.09206032      108.05505256     108.05505256     120.40868447     59.52894995      100.49019608     0.08823945       74.55698170      63.13832210      12.39379691      0.06241818       3.18599994       0.00095818       2.61187303       0.07078431       0.06836935      
    8312.000 1.01011281       70.71505381      108.05505256     108.05505256     115.09836991     58.74386654      98.19281046      0.08244848       71.97236750      61.27712952      12.41049180      0.06727130       3.16057268       0.00156404       2.60375000       0.06882353       0.06679764      
    8312.500 1.01011604       73.97764719      114.06474797     114.06474797     122.60078953     57.17369971      97.15686275      0.07355250       69.27844797      58.96464521      12.44591473      0.06787463       3.13801258       0.00215877       2.59206665       0.05941176       0.06522593      
    8313.000 1.01012936       89.40726232      130.59223692     130.59223692     141.63706230     56.38861629      97.22745098      0.06624141       66.80762030      56.54166011      12.46692604      0.06904995       3.17038151       0.00276188       2.59643279       0.05549020       0.06247544      
    8313.500 1.01011281       116.14135824     155.00802671     155.00802671     165.11186451     57.17369971      97.70588235      0.07435797       65.77338223      55.24280525      12.46619383      0.06787463       3.18066672       0.00345726       2.60005860       0.06098039       0.06483301      
