###############################################
##         ENVERUS                           ##
##         ESS - Open Hole                   ##
##         PERMIAN / DELAWARE                ##
##         Nov 02 2023  V4.0                 ##
##         42-109-32255-00-00                ##
###############################################
## Copyright 2017-2023  ENVERUS.  All Rights Reserved. 
## Confidential - Property of ENVERUS, use governed by terms and 
## conditions found within the existing Information Services Subscription Agreement 
## (as may be amended, the “ISSA”) between Customer and ENVERUS. 
## 
~VERSION INFORMATION
# MNEM.UNIT                               DATA : DESCRIPTION OF MNEMONIC
#-----.-----     ----------------------------- : -----------------------------
VERS.                                     2.00 : CWLS LOG ASCII STANDARD - VERSION 2.00
WRAP.                                       NO : MULTIPLE LINES PER DEPTH STEP
VEND.                                  ENVERUS : VENDOR
TYPE.                          ESS - OPEN HOLE : ENVERUS ESSENTIAL CURVES – ACCESSIBLE THROUGH ENVERUS PRISM(TM)
DOC.                                  22531479 : ENVERUS HEADER RAW DOCUMENT ID
#___________________________________________________________________________________________________ 
~WELL INFORMATION 
# hWe/832LbRsDOXT7erJRLf+k/AYA64twV/RtTeeHm/CkPExvlrAQ0qJE/El28xU0WYmlktkqeCNHArF5iUyCGg== 
# MNEM.UNIT                                              DATA : DESCRIPTION OF MNEMONIC 
#-----.-----                    ----------------------------- : ----------------------------- 
CNTY.                                               CULBERSON : COUNTY 
STATE.                                                  TEXAS : STATE 
CNTRY.                                                    USA : COUNTRY 
API.                                             42-109-32255 : API (10 Digit) 
API_14.                                    42-109-32255-00-00 : API (14 Digits) 
API_14_std.                                 42-109-32255-0000 : API (14 Digits Standard) 
UWI.                                           42109322550000 : UNIQUE WELL ID 
WELL.                               MELISSA TAYLOR STATE 27-1 : WELL NAME
STRT.FT                                                7612.0 : START DEPTH
STOP.FT                                               13645.5 : STOP DEPTH
STEP.FT                                                   0.5 : STEP BETWEEN DEPTHS
NULL.                                                 -999.25 : NULL VALUE
COMP.                                         PETRO-HUNT,LLC. : COMPANY 
FLD.                                                  WILDCAT : FIELD 
SRVC.                                            SCHLUMBERGER : SERVICE COMPANY 
DATE.                                              04/06/2006 : DATE 
TVD.                                                       NO : TVD FLAG
#___________________________________________________________________________________________________ 
~PARAMETER INFORMATION 
# MNEM.UNIT                                              DATA : DESCRIPTION OF MNEMONIC 
#-----.-----                    ----------------------------- : ----------------------------- 
RUN.                                                      ONE : RUN NUMBER 
PDAT.                                                      GL : PERMANENT DATUM 
EPD.FT                                               000.0000 : ELEVATION OF PERM. DATUM 
LMF.                                            KELLY BUSHING : LOG MEASURED FROM 
EKB.FT                                                 3796.6 : ELEVATION OF KELLY BUSHING 
DF.FT                                                  3773.0 : ELEVATION OF DERRICK FLOOR 
GL.FT                                                  3795.6 : ELEVATION OF GROUND LEVEL 
TD.FT                                              13716.0000 : TOTAL DEPTH 
BHT.DEGF                                               224.00 : BOTTOM HOLE TEMPERATURE 
BLI.FT                                             13716.0000 : BOTTOM LOG INTERVAL 
CSGSIZE.IN                                             9.6250 : CASING SIZE 
BITSIZE.IN                                              8.750 : BITSIZE 
CSGD.FT                                               12804.0 : CASING BOTTOM (DRILLER) 1 
CSGL.FT                                               12802.0 : CASING BOTTOM (LOGGER) 1 
MUD.                                                    BRINE : DRILLING FLUID TYPE 
MUDV.CP                                                  45.0 : DRILLING FLUID VISCOSITY 
MUDD.LB/USG                                               9.5 : DRILLING FLUID DENSITY 
PH.                                                      10.0 : DRILLING FLUID PH 
FL.ML/30MIN                                               5.0 : DRILLING FLUID LOSS 
MUDS.                                               CIRC TANK : MUD SAMPLE SOURCE 
RM.OHMM                                                 0.064 : RESISTIVITY OF MUD SAMPLE 
RMT.DEGF                                                66.00 : MUD SAMPLE TEMPERATURE 
RMF.OHMM                                                0.048 : MUD FILTRATE RESISTIVITY 
RMFT.DEGF                                               66.00 : MUD FILTRATE SAMPLE TEMPERATURE 
RMC.OHMM                                                0.095 : MUD CAKE RESISTIVITY 
RMCT.DEGF                                               66.00 : MUD CAKE SAMPLE TEMPERATURE 
RMB.OHMM                                                0.015 : MUD RESISTIVITY AT BHT 
TMAX.DEGF                                              224.00 : BOTTOM HOLE TEMPERATURE
#___________________________________________________________________________________________________ 
~CURVE INFORMATION 
# MNEM.UNIT           : CURVE DESCRIPTION 
#-----.-----          : ----------------------------- 
 DEPT.FT               : MEASURED DEPTH 
 DT__A.US/FT           : SONIC DELTA TRANSIT TIME (DELTA T COMP) 
 SPHI__A.V/V           : SONIC POROSITY (SONIC POROSITY) 
 #___________________________________________________________________________________________________ 
~A         DEPT          DT__A        SPHI__A
# ...
         8047.0         71.717        0.17300
         8047.5         72.169        0.17800
         8048.0         72.349        0.17800
         8048.5         70.984        0.16700
         8049.0         70.301        0.16000
         8049.5         72.590        0.18000
         8050.0         77.553        0.21700
         8050.5         81.207        0.24300
         8051.0         83.869        0.25300
         8051.5         83.499        0.25700
         8052.0         82.438        0.24800
         8052.5         81.375        0.24000
         8053.0         80.315        0.23100
         8053.5         79.573        0.22600
         8054.0         79.086        0.22300
         8054.5         79.504        0.22500
         8055.0         79.813        0.22700
         8055.5         79.937        0.22800
         8056.0         79.498        0.22500
         8056.5         78.477        0.22100
         8057.0         76.030        0.20700
         8057.5         73.586        0.18000
         8058.0         71.141        0.15600
         8058.5         68.546        0.14700
         8059.0         68.547        0.15000
         8059.5         71.296        0.16900
         8060.0         73.665        0.18500
         8060.5         76.034        0.20000
         8061.0         78.407        0.21600
         8061.5         79.477        0.22300
         8062.0         80.060        0.22700
         8062.5         79.907        0.22900
         8063.0         79.523        0.22700
         8063.5         79.139        0.22400
         8064.0         78.755        0.22100
         8064.5         77.564        0.21300
         8065.0         75.904        0.20100
         8065.5         74.243        0.18900
         8066.0         73.084        0.18000
         8066.5         72.831        0.17700
         8067.0         72.001        0.17300
         8067.5         71.274        0.16700
         8068.0         70.548        0.16100
         8068.5         69.821        0.15500
         8069.0         68.992        0.15000
         8069.5         68.873        0.14900
         8070.0         70.553        0.15800
         8070.5         72.195        0.17100
         8071.0         73.838        0.18300
         8071.5         75.482        0.19500
         8072.0         76.924        0.20700
         8072.5         78.366        0.21900
         8073.0         78.737        0.22000
         8073.5         78.953        0.22000
         8074.0         78.762        0.22000
         8074.5         78.451        0.21900
         8075.0         75.914        0.20500
         8075.5         74.002        0.19100
         8076.0         72.415        0.17700
         8076.5         71.026        0.16500
         8077.0         70.181        0.15900
         8077.5         69.392        0.15300
         8078.0         68.735        0.14900
         8078.5         68.078        0.14400
         8079.0         67.289        0.14100
         8079.5         66.199        0.12800
         8080.0         64.036        0.11600
         8080.5         64.447        0.12100
         8081.0         65.602        0.12800
         8081.5         66.325        0.13500
         8082.0         66.325        0.13200
         8082.5         65.693        0.12300
         8083.0         63.771        0.11400
         8083.5         61.347        0.10500
         8084.0         58.924        0.06800
         8084.5         56.928        0.06400
         8085.0         56.627        0.06300
         8085.5         57.169        0.06700
         8086.0         58.383        0.08100
         8086.5         59.858        0.09400
         8087.0         61.333        0.10400
         8087.5         62.952        0.10900
         8088.0         63.575        0.11300
         8088.5         64.648        0.13300
         8089.0         66.483        0.15000
         8089.5         68.318        0.15900
         8090.0         70.153        0.16500
         8090.5         71.988        0.17200
         8091.0         71.988        0.17100
         8091.5         70.556        0.16900
         8092.0         68.916        0.15100
         8092.5         67.276        0.13300
         8093.0         65.964        0.12200
         8093.5         64.639        0.11500
         8094.0         63.313        0.10700
         8094.5         62.590        0.10000
         8095.0         61.867        0.08700
         8095.5         58.072        0.06900
         8096.0         54.277        0.05200
         8096.5         53.434        0.04200
         8097.0         54.488        0.04900
         8097.5         55.542        0.05400
         8098.0         56.217        0.05800
         8098.5         56.639        0.06300
         8099.0         56.265        0.06300
         8099.5         55.000        0.05800
         8100.0         55.783        0.05500
         8100.5         57.088        0.07600
         8101.0         58.133        0.07400
         8101.5         56.867        0.06900
         8102.0         55.813        0.06000
         8102.5         54.759        0.05000
         8103.0         53.916        0.04700
         8103.5         53.916        0.04500
         8104.0         55.663        0.05800
         8104.5         57.410        0.08100
         8105.0         63.479        0.10300
         8105.5         65.361        0.13000
         8106.0         65.723        0.12900
         8106.5         64.518        0.12700
         8107.0         63.012        0.10900
         8107.5         61.036        0.09100
         8108.0         58.355        0.07400
         8108.5         55.675        0.05600
         8109.0         52.994        0.03500
         8109.5         51.386        0.02900
         8110.0         52.483        0.02800
         8110.5         54.277        0.04600
         8111.0         59.994        0.07000
         8111.5         65.601        0.13800
         8112.0         71.867        0.16700
         8112.5         74.036        0.18700
         8113.0         72.343        0.18500
         8113.5         68.480        0.15800
         8114.0         64.618        0.12900
         8114.5         61.602        0.10000
         8115.0         59.228        0.07600
         8115.5         56.854        0.06200
         8116.0         54.480        0.04800
         8116.5         52.831        0.03600
         8117.0         53.193        0.03700
         8117.5         55.788        0.06500
         8118.0         58.195        0.09100
         8118.5         60.601        0.10500
         8119.0         63.008        0.11500
         8119.5         64.814        0.12400
         8120.0         66.084        0.12900
         8120.5         65.723        0.12600
         8121.0         65.482        0.12400
         8121.5         67.731        0.14700
         8122.0         70.090        0.16900
         8122.5         71.506        0.16900
         8123.0         70.892        0.16500
         8123.5         69.867        0.15700
         8124.0         68.929        0.15000
         8124.5         68.046        0.14200
         8125.0         67.164        0.13400
         8125.5         66.282        0.12700
         8126.0         65.400        0.12000
         8126.5         64.398        0.12100
         8127.0         64.699        0.12500
         8127.5         65.843        0.13100
         8128.0         66.898        0.13700
         8128.5         67.952        0.14400
         8129.0         68.599        0.15100
         8129.5         68.976        0.15100
         8130.0         68.876        0.15000
         8130.5         68.775        0.14900
         8131.0         68.675        0.14900
         8131.5         69.317        0.16000
         8132.0         71.074        0.17000
         8132.5         72.831        0.17900
         8133.0         72.711        0.17900
         8133.5         70.783        0.16700
