###############################################
##         ENVERUS                           ##
##         ESS - Open Hole                   ##
##         PERMIAN / DELAWARE                ##
##         Nov 02 2023  V4.0                 ##
##         42-109-31448-00-00                ##
###############################################
## Copyright 2017-2023  ENVERUS.  All Rights Reserved. 
## Confidential - Property of ENVERUS, use governed by terms and 
## conditions found within the existing Information Services Subscription Agreement 
## (as may be amended, the “ISSA”) between Customer and ENVERUS. 
## 
~VERSION INFORMATION
# MNEM.UNIT                               DATA : DESCRIPTION OF MNEMONIC
#-----.-----     ----------------------------- : -----------------------------
VERS.                                     2.00 : CWLS LOG ASCII STANDARD - VERSION 2.00
WRAP.                                       NO : MULTIPLE LINES PER DEPTH STEP
VEND.                                  ENVERUS : VENDOR
TYPE.                          ESS - OPEN HOLE : ENVERUS ESSENTIAL CURVES – ACCESSIBLE THROUGH ENVERUS PRISM(TM)
DOC.                                  31981796 : ENVERUS HEADER RAW DOCUMENT ID
#___________________________________________________________________________________________________ 
~WELL INFORMATION 
# ZFHslD71edIju97HcKZ52TF5U8X6gSJhIkoGhJkY8ckYnZzQD/y6zifgDis2Hn4asra90GxYkgpqCQaJUi2DCw== 
# MNEM.UNIT                                              DATA : DESCRIPTION OF MNEMONIC 
#-----.-----                    ----------------------------- : ----------------------------- 
CNTY.                                               CULBERSON : COUNTY 
STATE.                                                  TEXAS : STATE 
CNTRY.                                                    USA : COUNTRY 
API.                                             42-109-31448 : API (10 Digit) 
API_14.                                    42-109-31448-00-00 : API (14 Digits) 
API_14_std.                                 42-109-31448-0000 : API (14 Digits Standard) 
UWI.                                           42109314480000 : UNIQUE WELL ID 
WELL.                                               TRIKEN  1 : WELL NAME
STRT.FT                                                   4.0 : START DEPTH
STOP.FT                                               13097.0 : STOP DEPTH
STEP.FT                                                   0.5 : STEP BETWEEN DEPTHS
NULL.                                                 -999.25 : NULL VALUE
COMP.                                             MARALO  LLC : COMPANY 
DATE.                                             04-NOV-1984 : LOG DATE
#___________________________________________________________________________________________________ 
~CURVE INFORMATION 
# MNEM.UNIT           : CURVE DESCRIPTION 
#-----.-----          : ----------------------------- 
 DEPT.FT               : MEASURED DEPTH 
 CALI.IN               : CALIPER (CAL - CAL) 
 GR.API                : GAMMA RAY (GR) 
 DT.US/FT              : SONIC DELTA TRANSIT TIME (DT) 
 #___________________________________________________________________________________________________ 
~A         DEPT           CALI             GR             DT
# ...
        10564.0         10.490         86.173         63.432
        10564.5         10.499         78.210         63.916
        10565.0         10.508         69.765         64.399
        10565.5         10.518         63.026         64.883
        10566.0         10.527         62.352         65.367
        10566.5         10.516         61.678         64.342
        10567.0         10.487         61.004         63.045
        10567.5         10.458         60.329         61.748
        10568.0         10.429         59.655         60.451
        10568.5         10.400         55.439         59.890
        10569.0         10.371         51.067         60.179
        10569.5         10.342         46.695         60.468
        10570.0         10.313         42.323         60.757
        10570.5         10.296         44.284         60.684
        10571.0         10.287         49.756         59.693
        10571.5         10.278         55.228         58.703
        10572.0         10.269         60.700         57.712
        10572.5         10.260         66.172         56.721
        10573.0         10.251         61.837         57.513
        10573.5         10.242         54.483         58.427
        10574.0         10.233         54.318         59.341
        10574.5         10.224         57.521         60.255
        10575.0         10.215         60.723         61.168
        10575.5         10.205         63.926         61.728
        10576.0         10.196         67.129         61.876
        10576.5         10.187         70.331         62.024
        10577.0         10.178         73.534         62.172
        10577.5         10.169         74.094         62.013
        10578.0         10.160         72.685         61.843
        10578.5         10.151         71.276         61.673
        10579.0         10.146         69.867         61.241
        10579.5         10.143         68.459         60.464
        10580.0         10.141         67.050         59.160
        10580.5         10.138         65.641         57.851
        10581.0         10.136         59.586         56.542
        10581.5         10.133         52.834         55.233
        10582.0         10.131         49.235         53.924
        10582.5         10.128         46.554         54.164
        10583.0         10.126         43.873         54.663
        10583.5         10.123         46.262         55.162
        10584.0         10.120         49.610         55.660
        10584.5         10.118         52.958         56.159
        10585.0         10.115         56.307         56.657
        10585.5         10.113         59.655         57.156
        10586.0         10.110         63.003         57.654
        10586.5         10.108         63.765         58.153
        10587.0         10.105         62.042         58.504
        10587.5         10.103         60.318         58.117
        10588.0         10.100         58.595         57.730
        10588.5         10.098         56.872         57.343
        10589.0         10.095         55.148         57.351
        10589.5         10.093         55.347         57.614
        10590.0         10.090         56.969         57.877
        10590.5         10.088         58.591         58.140
        10591.0         10.085         60.213         58.404
        10591.5         10.083         61.835         58.678
        10592.0         10.080         63.456         59.330
        10592.5         10.078         65.078         59.982
        10593.0         10.075         66.700         60.634
        10593.5         10.073         63.554         61.286
        10594.0         10.070         59.461         61.938
        10594.5         10.068         55.369         62.590
        10595.0         10.065         56.386         62.934
        10595.5         10.063         57.659         61.533
        10596.0         10.060         58.931         60.133
        10596.5         10.058         60.203         58.985
        10597.0         10.055         61.475         58.863
        10597.5         10.053         62.748         58.742
        10598.0         10.050         64.020         58.620
        10598.5         10.048         63.706         58.499
        10599.0         10.045         58.544         57.830
        10599.5         10.043         53.690         55.571
        10600.0         10.040         51.228         53.312
        10600.5         10.038         48.765         52.888
        10601.0         10.038         46.303         52.525
        10601.5         10.039         43.792         52.203
        10602.0         10.040         41.221         52.183
        10602.5         10.042         38.649         52.163
        10603.0         10.043         36.077         52.143
        10603.5         10.044         36.569         52.124
        10604.0         10.045         37.980         52.455
        10604.5         10.047         39.391         52.828
        10605.0         10.048         40.803         53.948
        10605.5         10.049         42.214         55.242
        10606.0         10.050         43.625         56.536
        10606.5         10.052         45.037         57.831
        10607.0         10.053         52.064         59.125
        10607.5         10.054         60.315         60.419
        10608.0         10.056         68.565         61.714
        10608.5         10.057         76.815         61.881
        10609.0         10.058         85.066         60.471
        10609.5         10.059         82.320         59.062
        10610.0         10.061         75.422         57.652
        10610.5         10.062         68.524         56.242
        10611.0         10.063         61.960         54.832
        10611.5         10.064         56.399         55.347
        10612.0         10.066         61.132         57.873
        10612.5         10.067         67.898         60.399
        10613.0         10.068         74.665         62.925
        10613.5         10.070         81.431         65.451
        10614.0         10.071         88.197         63.639
        10614.5         10.072         83.759         61.758
        10615.0         10.073         77.211         59.877
        10615.5         10.075         70.663         57.995
        10616.0         10.076         64.115         56.114
        10616.5         10.077         57.567         54.233
        10617.0         10.078         52.747         55.218
        10617.5         10.080         52.917         56.391
        10618.0         10.085         53.087         57.564
        10618.5         10.094         53.257         58.737
        10619.0         10.103         53.427         58.514
        10619.5         10.112         51.836         58.128
        10620.0         10.121         49.482         57.742
        10620.5         10.130         47.128         57.570
        10621.0         10.139         44.886         57.835
        10621.5         10.148         48.032         58.101
        10622.0         10.157         51.178         58.367
        10622.5         10.166         49.996         58.633
        10623.0         10.175         46.468         58.541
        10623.5         10.184         42.940         58.021
        10624.0         10.193         48.281         58.075
        10624.5         10.202         56.587         59.453
        10625.0         10.211         64.893         60.830
        10625.5         10.220         73.198         62.208
        10626.0         10.229         75.550         63.097
        10626.5         10.238         71.735         62.831
        10627.0         10.247         67.920         62.565
        10627.5         10.256         64.105         62.298
        10628.0         10.265         60.290         62.032
        10628.5         10.274         56.475         61.765
        10629.0         10.276         60.140         61.499
        10629.5         10.272         66.193         61.107
