~Version Information Block
 VERS.                2.00:     CWLS LOG ASCII STANDARD - VERSION 2.000000
 WRAP.                  NO:     One Line Per Depth Step
#
~Well Information Block
#MNEM.UNIT                     Data                         Information
#----------   ------------------------------------------   ----------------
 STRT.F                                        31.0000:     START DEPTH
 STOP.F                                     15936.0000:     STOP DEPTH
 STEP.F                                         0.5000:     STEP
 NULL.                                       -999.2500:     NULL VALUE
 COMP.                             AMERCN QUASAR PETRO:     COMPANY
 WELL.                                    SCOTT UNIT 1:     WELL
 FLD .                                         WILDCAT:     FIELD
 LOC .        Survey  PSL              - Abs  6331     - Blk  45   - Section  19:     LOCATION
 CNTY.                                              TX:     COUNTY
 STAT.                                              TX:     STATE
 CTRY.                        UNITED STATES OF AMERICA:     COUNTRY
 SRVC.                                      GEOGRAPHIX:     SERVICE COMPANY
 DATE.                                                :     DATE
 API .                                  42109313620000:     API NUMBER
 UWI .                                  42109313620000:     UWI NUMBER
 TVD .                                              NO:     TVD flag
 WSTA.                                             LOC:     Well status
#
~Curve Information Block
#MNEM.UNIT       API CODE      Curve Description
#----------    -------------   -------------------
 DEPT.F                    :   Depth in Feet
 LLD .OHMM                 :   LATEROLOG DEEP
 GRS .GAPI                 :   GAMMA RAY FROM SONIC LOG
 CALS.IN                   :   CALIPER FROM SONIC LOG
 MSFL.OHMM                 :   MICRO SPHERICALLY FOCUSED
 LLS .OHMM                 :   LATEROLOG SHALLOW
 DT  .US/F                 :   DELTA TIME
#
~Parameter Information Block
#MNEM.UNIT            Value               Description
#----------    --------------------    -------------------
 RUN .                         ONE:    Run Number
 PDAT.                          GL:    Permanent Datum
 EPD .FT                          :    Elevation Of Perm. Datum
 LMF .               KELLY BUSHING:    Log Measured From
 EKB .FT                          :    Elevation Of Kelly Bushing
 DF .FT                           :    Elevation Of Derrick Floor
 GL .FT                           :    Elevation Of Ground Level
 TD  .FT                          :    Total Depth
 CSGD.FT                          :    Casing Bottom (Driller) 1
 CSGL.FT                          :    Casing Bottom (Logger) 1
 MUD .                            :    Drilling Fluid Type
 MUDV .CP                         :    Drilling Fluid Viscosity
 MUDD .LB/USG                     :    Drilling Fluid Density
 FL .ML/30MIN                     :    Drilling Fluid Loss
 PH.                              :    Drilling Fluid Ph
 MUDS .                           :    Mud Sample Source
 RM .OHMM                         :    Resistivity Of Mud Sample
 RMT .DEGF                        :    Mud Sample Temperature
 RMF .OHMM                        :    Mud Filtrate Resistivity
 RMFT.DEGF                        :    Mud Filtrate Sample Temperature
 RMC .OHMM                        :    Mud Cake Resistivity
 RMCT.DEGF                        :    Mud Cake Sample Temperature
 RMB .OHMM                        :    Mud Resistivity At Bht
 TMAX .DEGF                       :    Bottom Hole Temperature
#
~Other Information Block
<DescLogPlotStart>   NEURALOG PLOT DEFINITION
PLOTDEFVERSION: 3
LASFILE: E:\Nair Innovations\42_TEXAS\109_Culberson\42109313620000_1.las
DEPTHSCALE: 239.999996
RESOLUTION: 200
DEPTHLABELFREQ: 100.000000
HEAVYGRIDFREQ: 50.000000
MEDIUMGRIDFREQ: 50.000000
LIGHTGRIDFREQ: 10.000000
#
#   TRACK 1
#
STARTTRACK: 
 LEFTX: 0.500000 inch
 RIGHTX: 3.000000 inch
 SCALETYPE: Linear
 NUMCHARTDIVISIONS: 10
CURVE: GRS   1.504600   250.000000 (0,0,255)      Solid             2     N    
CURVE: CALS  6.474400   14.873500  (0,131,131)    Solid             2     N    
ENDTRACK: 
#
#   TRACK 2
#
STARTTRACK: 
 LEFTX: 3.500000 inch
 RIGHTX: 6.000000 inch
 SCALETYPE: Log
 NUMCYCLES: 4
 STARTCYCLE: 2
CURVE: LLS   0.200000   2000.000000 (255,0,0)      Solid             4     Y   
BACKUP: 2000.000000 20000000.000000 (255,0,0)      Solid             4    
BACKUP: 0.000020   0.200000   (255,0,0)      Solid             4    
CURVE: MSFL  0.200000   2000.000000 (0,131,131)    Solid             2     N   
ENDTRACK: 
#
#   TRACK 3
#
STARTTRACK: 
 LEFTX: 6.500000 inch
 RIGHTX: 9.000000 inch
 SCALETYPE: Linear
 NUMCHARTDIVISIONS: 10
CURVE: LLD   0.200000   2000.000000 (255,0,255)    Solid             4     N   
CURVE: DT    190.000000 50.000000  (255,0,131)    Solid             2     N    
ENDTRACK: 
<DescLogPlotEnd>
<DepthTrack type='Reference' track='1' Label='0' color='0' hor='0' />
<Reference font='144,0,-900,0,500,0,16777216,Arial' />
~A DEPTH     LLD              GRS              CALS             MSFL             LLS              DT              
# ...
   15886.000 448.14420000     30.49030000      6.82950000       35.12990000      147.35040000     46.38300000     
   15886.500 590.07900000     32.83470000      6.85920000       31.45990000      158.48380000     46.38300000     
   15887.000 631.99920000     35.02720000      6.85860000       36.09620000      161.87930000     46.01820000     
   15887.500 631.86970000     37.27410000      6.82780000       36.59000000      163.15390000     46.03360000     
   15888.000 631.17650000     37.25900000      6.82720000       26.28880000      166.32410000     46.43110000     
   15888.500 621.82840000     37.24400000      6.82660000       31.00510000      157.38100000     46.94660000     
   15889.000 589.61950000     37.98340000      6.82600000       37.16240000      133.38800000     46.93010000     
   15889.500 459.70150000     37.96690000      6.82540000       50.02770000      117.81990000     46.90420000     
   15890.000 389.90470000     37.95180000      6.82480000       58.05710000      111.48480000     46.74770000     
   15890.500 364.88660000     33.26440000      6.82420000       54.43000000      108.42930000     46.56530000     
   15891.000 339.90090000     31.89760000      6.82360000       50.84310000      105.46850000     46.38300000     
   15891.500 321.05000000     31.88250000      6.82300000       50.83260000      105.44670000     46.24770000     
   15892.000 304.01210000     32.01780000      6.82240000       50.82210000      107.20430000     46.06090000     
   15892.500 291.65180000     30.72050000      6.82160000       43.59980000      114.26350000     46.12440000     
   15893.000 295.63430000     28.82340000      6.79090000       26.59750000      124.43320000     46.38300000     
   15893.500 343.90280000     27.30280000      6.79030000       27.71350000      132.88100000     46.56530000     
   15894.000 411.22030000     25.78210000      6.78970000       38.02980000      138.71850000     46.74770000     
   15894.500 478.36050000     25.76760000      6.78910000       50.07480000      146.81930000     46.74770000     
   15895.000 541.34980000     25.75300000      6.81870000       52.17590000      154.81150000     46.74770000     
   15895.500 597.61850000     26.13880000      6.81970000       51.45220000      159.10170000     46.56530000     
   15896.000 638.33510000     27.37920000      6.81750000       70.25090000      161.27870000     46.38300000     
   15896.500 626.08790000     29.77650000      6.81690000       57.52910000      156.86370000     46.38300000     
   15897.000 569.17880000     32.11770000      6.81630000       42.99490000      146.39980000     46.38300000     
   15897.500 480.52440000     36.22140000      6.81570000       70.08250000      134.76570000     46.47420000     
   15898.000 384.67440000     42.42280000      6.81510000       114.35120000     129.19350000     46.38300000     
   15898.500 307.09090000     -999.25000000    6.81450000       129.25980000     127.49250000     46.38300000     
   15899.000 271.29640000     -999.25000000    6.82810000       130.16150000     127.12880000     46.27030000     
   15899.500 264.07090000     -999.25000000    6.81320000       129.20120000     124.78880000     46.20060000     
   15900.000 271.38730000     -999.25000000    6.81260000       126.88170000     118.95380000     46.20060000     
   15900.500 302.92360000     -999.25000000    6.81200000       114.09900000     107.69920000     46.20060000     
   15901.000 324.44380000     -999.25000000    6.81140000       94.07800000      102.92940000     45.93950000     
   15901.500 324.37730000     -999.25000000    6.81080000       107.94250000     100.01330000     45.65350000     
   15902.000 324.31090000     -999.25000000    6.81030000       138.27040000     98.00260000      45.56230000     
   15902.500 324.24440000     -999.25000000    6.80940000       168.01550000     96.64330000      45.75970000     
   15903.000 324.17570000     -999.25000000    6.77890000       219.09710000     97.96350000      45.92710000     
   15903.500 324.70490000     -999.25000000    6.71780000       287.36140000     99.30170000      46.20060000     
   15904.000 365.52300000     -999.25000000    6.68700000       294.59960000     102.05350000     46.38300000     
   15904.500 1546.51550000    -999.25000000    6.68640000       206.06060000     104.88170000     46.38300000     
   15905.000 1599.55740000    -999.25000000    6.71610000       138.39640000     107.78810000     46.20060000     
   15905.500 1074.02640000    -999.25000000    6.78840000       107.96270000     106.29320000     46.10940000     
   15906.000 632.17510000     -999.25000000    6.83560000       75.15070000      108.00330000     46.20060000     
   15906.500 542.68760000     -999.25000000    6.80480000       96.48310000      111.10120000     46.38300000     
   15907.000 588.22250000     -999.25000000    6.80410000       151.94080000     112.24360000     46.56530000     
   15907.500 568.95750000     -999.25000000    6.77330000       127.01640000     110.68260000     46.74770000     
   15908.000 568.84090000     -999.25000000    6.77270000       72.21570000      108.47000000     46.93010000     
   15908.500 813.50020000     -999.25000000    6.77220000       134.15390000     106.86350000     46.74770000     
   15909.000 780.42540000     -999.25000000    6.80180000       110.61390000     103.25170000     46.63530000     
   15909.500 728.36150000     -999.25000000    6.83140000       97.40530000      100.42750000     46.51360000     
   15910.000 560.60320000     -999.25000000    6.83080000       85.99230000      97.68050000      46.32240000     
   15910.500 689.05300000     -999.25000000    6.82720000       54.63610000      97.66100000      46.03980000     
   15911.000 620.05140000     -999.25000000    6.79940000       38.38010000      101.75870000     45.83590000     
   15911.500 546.61800000     -999.25000000    6.79880000       35.24630000      112.03110000     45.78860000     
   15912.000 508.68160000     -999.25000000    6.82850000       47.15040000      130.41260000     45.93360000     
   15912.500 669.78980000     -999.25000000    6.82780000       43.62020000      143.63890000     46.12470000     
   15913.000 600.16340000     -999.25000000    6.82720000       40.66180000      143.14650000     46.38300000     
   15913.500 517.20590000     -999.25000000    6.82660000       40.97270000      129.63030000     46.65650000     
   15914.000 388.61710000     -999.25000000    6.82600000       51.76690000      88.80250000      47.02130000     
   15914.500 309.53500000     -999.25000000    6.82530000       41.52410000      75.72310000      47.04100000     
   15915.000 336.12060000     -999.25000000    6.79450000       45.09090000      78.42420000      46.83890000     
   15915.500 536.65450000     -999.25000000    6.79390000       56.97000000      95.70010000      46.56530000     
   15916.000 810.91990000     -999.25000000    6.79330000       86.11510000      128.83980000     46.47420000     
   15916.500 1194.28860000    -999.25000000    6.79270000       89.69800000      155.57020000     46.56530000     
   15917.000 1097.33560000    -999.25000000    6.79210000       65.67200000      166.62300000     46.75760000     
   15917.500 1067.31420000    -999.25000000    6.79150000       59.76240000      164.31200000     47.31020000     
   15918.000 1212.39060000    -999.25000000    6.79090000       56.44030000      157.63240000     47.78700000     
   15918.500 1800.19260000    -999.25000000    6.79030000       51.96840000      147.11720000     48.13230000     
   15919.000 1585.23400000    -999.25000000    6.78970000       39.72130000      141.13660000     48.38910000     
   15919.500 873.07360000     -999.25000000    6.78910000       41.51500000      139.05490000     48.50610000     
   15920.000 728.50430000     -999.25000000    6.78850000       42.12820000      137.24680000     48.57140000     
   15920.500 811.81680000     -999.25000000    6.78790000       32.77740000      139.12350000     48.53680000     
