~VERSION INFORMATION
VERS. 2.0 : CWLS Log ASCII Standard - version 2.0
WRAP.  NO : One line per depth step
#--------------------------------------------------#
#----------------DRILLING INFO, INC.---------------#
#---------------WWW.DRILLINGINFO.COM---------------#
#------------------COPYRIGHT 2015------------------#
#--------------------------------------------------#
#THIS FILE MAY BE USED ONLY IN ACCORDANCE WITH A CURRENT SUBSCRIPTION AGREEMENT BETWEEN
#THE USER AND DRILLING INFO, INC. NO PART OF THIS FILE MAY BE REPRODUCED, USED, COPIED,
#MODIFIED, PROPAGATED, OR DISTRIBUTED EXCEPT IN ACCORDANCE WITH THE SUBSCRIPTION
#AGREEMENT. UNAUTHORIZED USE OR DISTRIBUTION OF ALL OR ANY PART OF THIS FILE MAY VIOLATE
#COPYRIGHT, TRADEMARK, AND/OR OTHER LAWS AND IS SUBJECT TO CIVIL AS WELL AS CRIMINAL
#SANCTIONS.
#--------------------------------------------------#
#THIS FILE IS PROVIDED "AS-IS" AND ALL WARRANTIES ARE EXPRESSLY DISCLAIMED, WHETHER
#EXPRESS, ORAL, IMPLIED, STATUTORY OR OTHERWISE, INCLUDING ANY IMPLIED WARRANTY OF FITNESS
#FOR A PARTICULAR PURPOSE, MERCHANTABILITY, TITLE OR NON-INFRINGEMENT, AND ANY WARRANTIES
#ARISING BY VIRTUE OF CUSTOM OF TRADE OR COURSE OF DEALING.  FURTHER, DRILLING INFO,
#INC. AND ITS LICENSORS DO NOT REPRESENT OR WARRANT THAT THIS FILE WILL MEET USER'S
#REQUIREMENTS OR ARE SUITABLE FOR USER'S NEEDS OR THAT THE DATA OR RESULTS PROVIDED IN
#CONJUNCTION THEREWITH ARE CORRECT, ACCURATE, TIMELY OR RELIABLE. THESE DISCLAIMERS SHALL
#APPLY REGARDLESS OF ANY FAILURE OF ESSENTIAL PURPOSE OF ANY LIMITED REMEDY.  SOME
#JURISDICTIONS DO NOT ALLOW THE EXCLUSION OF CERTAIN WARRANTIES SO SOME OF THE ABOVE
#EXCLUSIONS MAY NOT APPLY. IN NO EVENT SHALL DRILLING INFO, INC. OR ANY OF ITS AFFILIATES
#BE LIABLE UNDER ANY LEGAL THEORY, WHETHER IN TORT (INCLUDING WITHOUT LIMITATION
#NEGLIGENCE), CONTRACT, STRICT LIABILITY, STATUTORY OR OTHERWISE, FOR ANY SPECIAL,
#INCIDENTAL, CONSEQUENTIAL, EXEMPLARY, PUNITIVE OR INDIRECT DAMAGE OF ANY KIND, INCLUDING
#WITHOUT LIMITATION LOSS OF REVENUE, PROFITS, GOODWILL, USE, AND/OR DATA OR THE COST OF
#PROCUREMENT OF SUBSTITUTE GOODS OR SERVICES, EVEN IF APPRISED OF THE POSSIBILITY OF SUCH
#DAMAGES IN ADVANCE.
#--------------------------------------------------#
~WELL INFORMATION
#MNEMONIC     .UNIT              VALUE :DESCRIPTION
#--------------------------------------------------#
STRT       .FT                4 :START DEPTH
STOP       .FT                10042 :STOP DEPTH
STEP       .FT                   0.500 :STEP
NULL       .                  -999.250 :NULL
API        .                421093139500 :API NUMBER
COMP       .         MOBIL OIL CORPORATION :COMPANY
WELL       .        MADERA-BROMAN  1 :WELL
DATE       .                27-Jun-1979 :LOG DATE
~CURVE INFORMATION
#MNEMONIC     .UNIT      API CODE :CURVE DESCRIPTION
#--------------------------------------------------#
DEPTH       .FT                      :Measured Depth
DT.US/FT        UNKNOWN   :DT
GR.API        UNKNOWN   :GR
CAL.INCH        UNKNOWN   :CAL
~A    DEPTH    DT    GR    CAL
# ...
 7809.5     79.421   123.535   9.849
 7810     80.32   120.183   9.853
 7810.5     81.218   116.831   9.853
 7811     82.117   113.479   9.853
 7811.5     82.604   113.939   9.853
 7812     81.869   116.278   9.853
 7812.5     81.403   118.616   9.853
 7813     81.385   120.955   9.853
 7813.5     81.367   123.294   9.853
 7814     81.951   125.633   9.853
 7814.5     82.537   123.817   9.853
 7815     83.475   122.419   9.853
 7815.5     84.883   125.796   9.853
 7816     85.533   129.172   9.853
 7816.5     84.941   132.548   9.853
 7817     84.349   134.131   9.853
 7817.5     83.758   132.825   9.853
 7818     83.519   131.519   9.853
 7818.5     83.556   130.213   9.829
 7819     83.592   128.907   9.799
 7819.5     83.188   127.601   9.77
 7820     80.08   126.295   9.741
 7820.5     76.973   121.146   9.711
 7821     78.641   111.507   9.722
 7821.5     80.725   115.291   9.742
 7822     82.809   120.406   9.761
 7822.5     84.893   125.521   9.78
 7823     84.566   126.781   9.799
 7823.5     83.662   126.498   9.818
 7824     82.757   126.216   9.837
 7824.5     82.618   125.933   9.856
 7825     83.487   125.65   9.876
 7825.5     84.356   125.368   9.895
 7826     85.225   125.537   9.914
 7826.5     86.094   126.052   9.933
 7827     85.738   126.566   9.93
 7827.5     85.183   126.953   9.903
 7828     84.628   126.783   9.875
 7828.5     84.074   126.613   9.848
 7829     84.142   126.443   9.82
 7829.5     84.46   126.831   9.792
 7830     84.779   132.49   9.765
 7830.5     84.677   136.714   9.737
 7831     82.52   134.844   9.709
 7831.5     80.363   132.974   9.722
 7832     80.224   131.364   9.74
 7832.5     80.77   130.142   9.758
 7833     81.316   128.92   9.776
 7833.5     81.862   127.698   9.793
 7834     82.408   126.476   9.811
 7834.5     83.567   124.17   9.829
 7835     84.726   121.028   9.847
 7835.5     85.885   117.887   9.864
 7836     86.264   114.892   9.882
 7836.5     85.6   118.284   9.867
 7837     84.936   121.677   9.839
 7837.5     84.272   125.069   9.811
 7838     84.402   128.462   9.784
 7838.5     84.563   131.854   9.756
 7839     82.302   135.246   9.728
 7839.5     82.188   138.639   9.721
 7840     82.521   136.264   9.725
 7840.5     82.855   132.841   9.729
 7841     83.188   129.418   9.733
 7841.5     83.146   126.61   9.737
 7842     82.836   125.303   9.741
 7842.5     82.799   123.996   9.745
 7843     83.431   122.689   9.749
 7843.5     84.063   122.591   9.753
 7844     84.695   122.738   9.757
 7844.5     85.327   122.884   9.762
 7845     84.711   123.03   9.746
 7845.5     83.886   123.717   9.719
 7846     83.062   130.66   9.692
 7846.5     82.534   130.87   9.664
 7847     82.359   129.674   9.637
 7847.5     82.121   128.478   9.61
 7848     81.868   127.281   9.583
 7848.5     81.614   126.085   9.557
 7849     81.514   119.717   9.532
 7849.5     82.21   111.047   9.506
 7850     82.906   115.262   9.481
 7850.5     83.601   119.476   9.467
 7851     83.843   123.69   9.462
 7851.5     83.493   125.722   9.457
 7852     83.143   125.942   9.452
 7852.5     82.793   126.161   9.447
 7853     82.952   126.381   9.442
 7853.5     83.203   126.601   9.437
 7854     83.454   124.922   9.432
 7854.5     82.761   122.766   9.428
 7855     81.629   123.98   9.423
 7855.5     80.496   126.621   9.418
 7856     79.364   127.23   9.413
 7856.5     78.231   127.077   9.408
 7857     79.136   126.924   9.403
 7857.5     80.225   126.771   9.398
 7858     81.313   126.618   9.393
 7858.5     82.401   126.465   9.388
 7859     83.489   126.312   9.383
 7859.5     84.578   145.967   9.378
 7860     85.18   167.478   9.373
 7860.5     85.783   188.99   9.368
 7861     86.385   210.501   9.363
 7861.5     86.396   210.843   9.358
 7862     85.139   201.916   9.353
 7862.5     83.882   192.99   9.348
 7863     82.624   184.064   9.361
 7863.5     81.367   175.138   9.393
 7864     80.149   166.211   9.424
 7864.5     80.323   157.285   9.455
 7865     80.496   148.359   9.486
 7865.5     80.67   139.433   9.517
 7866     80.53   130.507   9.548
 7866.5     80.586   127.113   9.579
 7867     81.411   126.757   9.61
 7867.5     82.237   126.4   9.641
 7868     83.062   126.044   9.672
 7868.5     83.888   125.687   9.703
 7869     84.713   125.331   9.734
 7869.5     85.539   124.974   9.76
 7870     86.364   126.738   9.707
 7870.5     86.259   128.973   9.654
 7871     85.61   131.208   9.601
 7871.5     84.961   133.442   9.548
 7872     84.312   135.677   9.495
 7872.5     83.663   137.912   9.467
 7873     83.014   140.146   9.462
 7873.5     82.365   142.381   9.456
 7874     81.715   142.088   9.451
 7874.5     81.94   141.454   9.445
 7875     82.427   141.01   9.44
 7875.5     82.915   141.732   9.435
 7876     83.402   142.455   9.429
 7876.5     83.814   143.178   9.424
 7877     82.788   137.72   9.418
 7877.5     81.762   130.434   9.413
 7878     81.631   126.41   9.407
 7878.5     81.994   125.299   9.402
 7879     82.358   124.188   9.397
 7879.5     82.742   123.361   9.391
 7880     83.396   125.595   9.386
 7880.5     84.05   127.829   9.38
 7881     84.703   130.063   9.375
 7881.5     84.914   132.297   9.369
 7882     84.345   134.531   9.364
 7882.5     83.776   132.56   9.358
 7883     83.207   129.481   9.353
 7883.5     82.639   126.402   9.348
 7884     82.662   122.829   9.342
 7884.5     84.156   119.239   9.337
 7885     85.651   130.088   9.331
 7885.5     87.145   143.769   9.326
 7886     88.64   157.45   9.324
 7886.5     88.513   171.131   9.324
 7887     87.581   184.812   9.324
 7887.5     86.648   198.492   9.325
 7888     85.715   212.173   9.325
 7888.5     84.824   225.854   9.326
 7889     83.993   229.587   9.326
 7889.5     83.161   198.058   9.327
 7890     81.959   166.529   9.327
 7890.5     80.545   135   9.328
 7891     80.301   128.703   9.328
 7891.5     80.758   134.28   9.328
 7892     81.215   139.856   9.329
 7892.5     81.672   141.231   9.329
 7893     82.13   138.391   9.33
 7893.5     82.587   135.552   9.33
 7894     83.044   136.703   9.331
 7894.5     83.489   139.712   9.331
 7895     83.544   142.721   9.332
 7895.5     83.6   145.731   9.332
 7896     83.655   143.542   9.332
 7896.5     83.711   139.647   9.333
 7897     83.766   135.752   9.333
 7897.5     83.822   139.381   9.334
 7898     83.877   143.887   9.334
 7898.5     83.925   148.394   9.335
 7899     83.966   152.595   9.335
 7899.5     84.007   148.789   9.336
 7900     83.759   144.984   9.336
 7900.5     83.103   141.178   9.336
 7901     82.448   137.373   9.337
 7901.5     81.793   133.567   9.337
 7902     82.198   129.762   9.338
 7902.5     82.64   125.956   9.338
 7903     83.083   128.631   9.339
 7903.5     83.525   131.96   9.339
 7904     83.967   133.53   9.34
 7904.5     84.445   130.927   9.34
 7905     85.074   128.324   9.34
 7905.5     85.703   133.19   9.341
 7906     86.332   145.817   9.341
 7906.5     86.961   158.443   9.342
 7907     87.59   171.07   9.342
 7907.5     88.054   183.697   9.343
 7908     88.078   196.323   9.343
 7908.5     87.429   208.905   9.344
 7909     86.264   220.914   9.344
 7909.5     85.099   232.922   9.344
 7910     83.934   244.931   9.345
 7910.5     82.769   152.271   9.345
 7911     81.604   143.74   9.344
 7911.5     80.602   135.209   9.34
 7912     81.925   149.31   9.335
 7912.5     83.247   175.652   9.331
 7913     83.769   201.995   9.327
 7913.5     83.754   226.004   9.323
 7914     83.739   233.622   9.319
 7914.5     81.191   241.24   9.315
 7915     78.864   247.565   9.311
 7915.5     77.363   236   9.306
 7916     75.862   224.436   9.302
 7916.5     74.366   212.871   9.298
 7917     75.439   201.306   9.294
 7917.5     76.511   189.741   9.29
 7918     77.584   175.612   9.286
 7918.5     78.656   157.405   9.282
 7919     79.671   155.214   9.277
 7919.5     80.505   163.275   9.273
 7920     81.339   171.335   9.269
 7920.5     82.173   179.395   9.265
 7921     83.007   187.456   9.261
 7921.5     83.15   175.295   9.257
