###############################################
##         ENVERUS                           ##
##         ESS - Open Hole                   ##
##         PERMIAN / DELAWARE                ##
##         Nov 03 2023  V4.0                 ##
##         42-109-32508-00-00                ##
###############################################
## Copyright 2017-2023  ENVERUS.  All Rights Reserved. 
## Confidential - Property of ENVERUS, use governed by terms and 
## conditions found within the existing Information Services Subscription Agreement 
## (as may be amended, the “ISSA”) between Customer and ENVERUS. 
## 
~VERSION INFORMATION
# MNEM.UNIT                               DATA : DESCRIPTION OF MNEMONIC
#-----.-----     ----------------------------- : -----------------------------
VERS.                                     2.00 : CWLS LOG ASCII STANDARD - VERSION 2.00
WRAP.                                       NO : MULTIPLE LINES PER DEPTH STEP
VEND.                                  ENVERUS : VENDOR
TYPE.                          ESS - OPEN HOLE : ENVERUS ESSENTIAL CURVES – ACCESSIBLE THROUGH ENVERUS PRISM(TM)
DOC.                                  51093165 : ENVERUS HEADER RAW DOCUMENT ID
#___________________________________________________________________________________________________ 
~WELL INFORMATION 
# 1l9uGBxUQQhBCtjIwzslcirW42fLV8cokTOAxV7sfA093x4JFuWG6+twQwU/7oNL7vvW02EVanlAmdL+peO2nw== 
# MNEM.UNIT                                              DATA : DESCRIPTION OF MNEMONIC 
#-----.-----                    ----------------------------- : ----------------------------- 
CNTY.                                               CULBERSON : COUNTY 
STATE.                                                  TEXAS : STATE 
CNTRY.                                                    USA : COUNTRY 
API.                                             42-109-32508 : API (10 Digit) 
API_14.                                    42-109-32508-00-00 : API (14 Digits) 
API_14_std.                                 42-109-32508-0000 : API (14 Digits Standard) 
UWI.                                           42109325080000 : UNIQUE WELL ID 
WELL.                                  LT. GIBSON 12 STATE 1H : WELL NAME
STRT.FT                                                1970.5 : START DEPTH
STOP.FT                                                8727.0 : STOP DEPTH
STEP.FT                                                   0.5 : STEP BETWEEN DEPTHS
NULL.                                                 -999.25 : NULL VALUE
PREV_APII.                                     42109325080000 : WELL IDENTIFIER
#___________________________________________________________________________________________________ 
~PARAMETER INFORMATION 
# MNEM.UNIT                                              DATA : DESCRIPTION OF MNEMONIC 
#-----.-----                    ----------------------------- : ----------------------------- 
EKB.FT                                                   3552 : ELEVATION ABOVE MSL
#___________________________________________________________________________________________________ 
~CURVE INFORMATION 
# MNEM.UNIT           : CURVE DESCRIPTION 
#-----.-----          : ----------------------------- 
 DEPT.FT               : MEASURED DEPTH 
 GR__A.API             : GAMMA RAY (GAMMA RAY) 
 DT__A.US/FT           : SONIC DELTA TRANSIT TIME (SONIC) 
 #___________________________________________________________________________________________________ 
~A         DEPT          GR__A          DT__A
# ...
         4667.5         42.772        106.043
         4668.0         55.058        111.626
         4668.5         46.496        116.723
         4669.0        -10.051        125.718
         4669.5        -39.489        130.217
         4670.0        -52.433        130.604
         4670.5        -72.391        129.978
         4671.0       -105.007        125.030
         4671.5       -118.899        120.607
         4672.0       -118.060        124.113
         4672.5       -118.520        135.011
         4673.0       -128.639        138.956
         4673.5       -130.078        133.744
         4674.0       -125.156        124.834
         4674.5       -114.285        115.445
         4675.0        -82.422        111.891
         4675.5        -57.710        112.230
         4676.0        -72.318        111.056
         4676.5        -82.813        107.890
         4677.0       -104.279        105.263
         4677.5       -109.646        106.118
         4678.0       -112.109        109.787
         4678.5       -110.634        111.501
         4679.0        -91.528        109.817
         4679.5        -31.727        108.133
         4680.0         33.427        110.469
         4680.5         48.416        114.116
         4681.0         36.949        116.081
         4681.5          8.875        119.020
         4682.0        -21.521        126.135
         4682.5        -55.470        133.875
         4683.0        -66.406        135.808
         4683.5        -52.119        132.439
         4684.0        -26.453        123.810
         4684.5          4.856        118.269
         4685.0         19.922        118.129
         4685.5         -2.589        117.934
         4686.0        -25.358        118.792
         4686.5        -30.535        121.086
         4687.0        -35.929        120.323
         4687.5        -38.281        119.539
         4688.0        -31.835        118.129
         4688.5        -19.682        118.758
         4689.0        -11.450        125.920
         4689.5        -37.160        134.072
         4690.0        -80.166        140.589
         4690.5        -82.813        142.800
         4691.0        -82.066        139.411
         4691.5        -53.208        132.619
         4692.0        -26.126        129.657
         4692.5         -8.313        131.364
         4693.0        -31.221        134.112
         4693.5        -52.696        134.500
         4694.0        -25.708        126.648
         4694.5          5.397        120.422
         4695.0         21.763        119.493
         4695.5         15.898        120.487
         4696.0         -8.534        121.029
         4696.5        -13.284        119.243
         4697.0         -6.186        115.531
         4697.5         -4.616        113.733
         4698.0          3.383        111.461
         4698.5         24.105        109.269
         4699.0         40.716        108.382
         4699.5         46.171        109.461
         4700.0         35.697        112.644
         4700.5          0.056        115.130
         4701.0        -12.758        116.634
         4701.5        -16.016        117.612
         4702.0        -16.161        117.934
         4702.5         -8.510        118.129
         4703.0        -13.214        118.129
         4703.5        -18.869        117.459
         4704.0        -25.000        117.048
         4704.5        -13.108        116.875
         4705.0         13.457        110.529
         4705.5         75.625        104.375
         4706.0        144.897        104.483
         4706.5        124.131        108.429
         4707.0         27.987        112.621
         4707.5        -35.646        114.113
         4708.0        -83.594        113.450
         4708.5        -95.902        117.908
         4709.0       -113.016        123.131
         4709.5       -124.341        120.701
         4710.0       -111.119        114.573
         4710.5       -100.709        110.490
         4711.0        -79.985        109.210
         4711.5        -72.539        111.906
         4712.0        -98.448        114.815
         4712.5       -110.179        114.109
         4713.0       -111.915        112.931
         4713.5       -111.995        110.027
         4714.0       -123.487        107.846
         4714.5       -126.195        106.453
         4715.0       -127.344        105.848
         4715.5       -126.587        105.080
         4716.0       -125.016        103.915
         4716.5       -123.420        102.343
         4717.0       -124.219        101.365
         4717.5       -124.609        101.369
         4718.0       -124.235        101.560
         4718.5       -127.467         99.366
         4719.0       -135.222         95.857
         4719.5       -137.068         93.332
         4720.0       -129.393         92.178
         4720.5       -120.922         92.036
         4721.0       -111.263         92.625
         4721.5       -111.402         92.788
         4722.0       -113.836         93.177
         4722.5       -117.036         93.417
         4723.0       -119.924         94.689
         4723.5       -114.703         98.848
         4724.0       -109.450        101.627
         4724.5       -119.079        102.996
         4725.0       -121.801        100.063
         4725.5       -114.566         94.724
         4726.0       -105.565         94.737
         4726.5       -102.033        101.966
         4727.0       -101.563        125.691
         4727.5       -109.234        140.240
         4728.0       -115.439        135.703
         4728.5       -100.476        118.085
         4729.0        -79.648        103.697
         4729.5        -82.820         96.677
         4730.0       -104.757         95.109
         4730.5       -109.817         92.542
         4731.0       -109.860         89.050
         4731.5       -103.669         87.406
         4732.0       -106.595         87.329
         4732.5       -113.514         89.074
         4733.0       -118.750         91.099
         4733.5       -110.639         93.581
         4734.0        -97.828         96.851
         4734.5        -85.288        102.559
         4735.0        -47.321        108.775
         4735.5        -25.693        111.501
         4736.0        -52.637        111.346
         4736.5        -80.677        110.721
         4737.0       -114.917        112.186
         4737.5       -117.188        114.230
         4738.0       -112.392        114.035
         4738.5        -82.066        113.645
         4739.0        -57.278        113.825
         4739.5        -57.009        114.609
         4740.0        -48.886        116.360
         4740.5        -39.881        117.739
         4741.0        -53.946        117.348
         4741.5        -84.257        116.369
         4742.0        -99.664        115.576
         4742.5        -95.465        113.047
         4743.0        -79.055        111.289
         4743.5        -72.046        109.899
         4744.0        -83.203        108.577
         4744.5        -86.031        108.382
         4745.0       -102.263        108.611
         4745.5        -83.394        108.734
         4746.0        -60.326        107.950
         4746.5        -63.534        107.407
         4747.0        -83.984        113.610
         4747.5       -103.991        128.058
         4748.0       -111.328        133.298
         4748.5       -111.719        124.222
         4749.0       -113.242        104.328
         4749.5       -115.339         91.196
         4750.0       -117.188         89.084
         4750.5       -117.817         89.747
         4751.0       -114.844         90.253
         4751.5       -109.809         90.167
         4752.0       -110.729         89.968
         4752.5       -116.163         89.184
         4753.0       -126.183         88.205
         4753.5       -133.225         87.616
         4754.0       -134.161         87.135
