~VERSION INFORMATION
VERS.           1.2   :CWLS Log ASCII Standard - VERSION 1.2
WRAP.           NO    :One Line per depth step
PROD.  Schlumberger   :LAS Producer
PROG.  DLIS to ASCII 10C0-306                          :LAS Program name and version
CREA.        2007/06/08 22:43                          :LAS Creation date {YYYY/MM/DD hh:mm}
SOURCE.     294b92a6-1e54-4f75-8d20-4493e48002f1       :DLIS File Name
#--------------------------------------------------
~WELL INFORMATION
#MNEM.UNIT      DATA             DESCRIPTION
#---- ------ --------------   -----------------------------
STRT .F      4145.5000       :START DEPTH     
STOP .F      10380.0000      :STOP DEPTH     
STEP .F       0.5000         :STEP       
NULL .          -999.25      :NULL VALUE
COMP .                 COMPANY:  Chesapeake Operating Inc.          
WELL .                    WELL:  University Lands 4627-1            
FLD  .                   FIELD:  Wildcat                            
LOC  .                LOCATION:  1200' FNL & 1995; FEL              
CNTY .                  COUNTY:  Culberson                          
STAT .                   STATE:  Texas                              
CTRY .                 COUNTRY:                                     
SRVC .         SERVICE COMPANY:  Schlumberger                       
API  .              API NUMBER:  42-109-32287                       
DATE .                LOG DATE:  7-Jun-2007
UWI  .          UNIQUE WELL ID:  42-109-32287-0000                  
#-----------------------------------------------------------------------------
~PARAMETER INFORMATION
#MNEM.UNIT    VALUE                      DESCRIPTION
#---- -----   --------------------       ------------------------
CN   .        Chesapeake Operating Inc.  :Company Name
WN   .        University Lands 4627-1    :Well Name
FN   .        Wildcat                    :Field Name
FL   .        1200' FNL & 1995  FEL      :Field Location
FL1  .        Secion  27  Block  46  Abstract  2860 :Field Location Line 1
COUN .        Culberson                  :County or Rig Name
STAT .        Texas                      :State or Province
NATI .                                   :Nation
DATE .        7-Jun-2007                 :Date as Month-Day-Year
APIN .        42-109-32287               :API Serial Number
SECT .        27                         :Section
TOWN .        46                         :Township
RANG .        2860                       :Range
DMF  .        Kelly Bushing              :Drilling Measured From
LMF  .        Kelly Bushing              :Log Measured From
PDAT .        Ground Level               :Permanent Datum
ENGI .        Tarek Sheira               :Engineer's Name
WITN .        Wiley Tisdale /Jud Walker  :Witness's Name
LATI .                                   :Latitude
LONG .                                   :Longitude
LUL  .        Midland  TX                :Logging Unit Location
LUN  .              2365                 :Logging Unit Number
RUN  .        2                          :Run Number
SON  .        11592406                   :Service Order Number
BHT  .DEGF     185.00000                 :Bottom Hole Temperature (used in calculations)
BS   .IN         8.75000                 :Bit Size
DFD  .LB/G       8.60000                 :Drilling Fluid Density
DFV  .S         39.00000                 :Drilling Fluid Viscosity
DFL  .C3         8.00000                 :Drilling Fluid Loss
RMFS .OHMM       0.42100                 :Resistivity of Mud Filtrate Sample
EKB  .F       4323.00000                 :Elevation of Kelly Bushing
EGL  .F       4283.00000                 :Elevation of Ground Level
BLI  .F       10360.70020                :Bottom Log Interval
BSAL .PPM      500.00000                 :Borehole Salinity
FLEV .                                   :Fluid Level
MCST .                                   :Mud Cake Sample Temperature
MFST .DEGF      96.90000                 :Mud Filtrate Sample Temperature
MRT  .DEGF     185.00000                 :Maximum Recorded Temperature
MST  .DEGF      96.90000                 :Mud Sample Temperature
RMCS .                                   :Resistivity of Mud Cake Sample
RMS  .OHMM       0.42100                 :Resistivity of Mud Sample
RW   .OHMM       1.00000                 :Resistivity of Connate Water
TDD  .F       10350.00000                :Total Depth - Driller
TDL  .F       10362.00000                :Total Depth - Logger
TLI  .F       4200.00000                 :Top Log Interval
HIDE .        Formation Micro Imager     :Header Identifier
MATR .        LIME                       :Rock Matrix for Neutron Porosity Corrections
FNUM .           1.00000                 :Form Factor Numerator
FEXP .           2.00000                 :Form Factor Exponent
DFT  .        Fresh Mud                  :Drilling Fluid Type
DFPH .           9.00000                 :Drilling Fluid PH
MCSS .        Calculated                 :Mud Cake Sample Source
MFSS .        Calculated                 :Mud Filtrate Sample Source
MSS  .        Circulation Tank           :Mud Sample Source
OS1  .        TLD-APS-HNGS               :Other Services Line 1
OS2  .        HRLA-HNGS                  :Other Services Line 2
OS3  .        FMI-GR                     :Other Services Line 3
OS4  .        DSI-GR                     :Other Services Line 4
OS5  .        HNGS                       :Other Services Line 5
R1   .        -Tool ran as per tool sketch. :Remark Line 1
R2   .        -Hole size & standoff corrections applied to APS porosity. :Remark Line 2
R3   .        -Log performed on a limestone matrix (MDEN = 2.71 g/cc  DTM = 47.6 us/ft) :Remark Line 3
R4   .        -Hole & cement volumes computed using FCD = 7 . :Remark Line 4
R5   .        -Source of max. hole temperature is CTEM = 185 DegF. :Remark Line 5
R6   .        -Source of max. hole deviation is company man = 3 Deg. :Remark Line 6
R7   .        -Repeat performed off bottom for 300' as per client request. :Remark Line 7
R8   .        -Density measurment is affected by washouts. :Remark Line 8
TCS  .        9 00                       :Time Circulation Stopped
TLAB .        22 15                      :Time Logger At Bottom
EPD  .F         4283.000000              :Elevation of Permanent Datum above Mean Sea Level
APD  .F          40.000000               :Elevation of Depth Reference (LMF) above Permanent Datum
#-----------------------------------------------------------------------------
~CURVE INFORMATION
#MNEM.UNIT   API CODE                                  DESCRIPTION
#---- -----  --------                                  -----------------------
DEPT .F                                                :DEPTH (BOREHOLE) {F12.4}
C1   .IN                                               :Caliper 1 {F11.4}
C2   .IN                                               :Caliper 2 {F11.4}
CHRP .                                                 :Label Peak Coherence, Receiver Array, Compressional - Monopole P&S {F11.4}
CHR1 .                                                 :Label Peak Coherence, Receiver Array - Lower Dipole {F11.4}
CHR2 .                                                 :Label Peak Coherence, Receiver Array - Upper Dipole {F11.4}
DCAL .IN                                               :Differential Caliper {F11.4}
DEVI .DEG                                              :Hole Deviation {F11.4}
DT1R .US/F                                             :Delta-T Shear, Receiver Array - Lower Dipole {F11.4}
DT2  .US/F                                             :Delta-T Shear - Upper Dipole {F11.4}
DT2R .US/F                                             :Delta-T Shear, Receiver Array - Upper Dipole {F11.4}
DT4P .US/F                                             :Delta-T Compressional - Monopole P&S {F11.4}
DT4S .US/F                                             :Delta-T Shear - Monopole P&S {F11.4}
DTCO .US/F                                             :Delta-T Compressional {F11.4}
DTRP .US/F                                             :Delta-T Compressional, Receiver Array - Monopole P&S {F11.4}
DTRS .US/F                                             :Delta-T Shear, Receiver Array - Monopole P&S {F11.4}
DTSM .US/F                                             :Delta-T Shear {F11.4}
ED   .F                                                :East Departure {F11.4}
GR_EDTC.GAPI                                           :Gamma Ray {F11.4}
GTEM .DEGF                                             :Generalized Borehole Temperature {F11.4}
HAZI .DEG                                              :Hole Azimuth {F11.4}
ITT  .S                                                :Integrated Transit Time {F11.4}
ND   .F                                                :North Departure {F11.4}
P1AZ .DEG                                              :Pad 1 Azimuth {F11.4}
PR   .                                                 :Poisson's Ratio {F11.4}
RB   .DEG                                              :Relative Bearing {F11.4}
SDEV .DEG                                              :Sonde Deviation {F11.4}
SPHI .CFCF                                             :Sonic Porosity {F11.4}
STIT .F                                                :Stuck Tool Indicator, Total {F11.4}
TENS .LBF                                              :Cable Tension {F11.4}
#-----------------------------------------------------------------------------
# 
#      DEPT         C1         C2        CHRP       CHR1       CHR2       DCAL       DEVI       DT1R       DT2        DT2R       DT4P       DT4S       DTCO       DTRP       DTRS       DTSM        ED      GR_EDTC      GTEM       HAZI       ITT         ND        P1AZ        PR         RB        SDEV       SPHI       STIT       TENS
#
~A  
# ...
   9545.5000    10.1384     9.8147     0.7704     0.9918     0.9496     1.2253     2.8332   108.7448   109.3457   110.5965    61.9451   111.8323    61.9451    61.9451   111.8323   109.3457    45.9016    74.9388   177.9871   275.9265     0.0588   -15.0009    59.4829     0.2637   143.5898     2.8332     0.1015     0.0000  4287.0000
   9546.0000    10.1384     9.8147     0.7944     0.9873     0.9698     1.2253     2.8339   107.3765   109.4840   111.0619    64.4163   110.2294    64.4163    64.4163   110.2294   109.4840    45.8771    85.1331   177.9914   275.8927     0.0587   -14.9981    58.8368     0.2353   142.9779     2.8339     0.1189     0.0000  4315.0000
   9546.5000    10.1384     9.8147     0.8215     0.9591     0.9345     1.2253     2.8352   105.7316   110.7278   111.8661    59.2915   108.9275    59.2915    59.2915   108.9275   110.7278    45.8527    92.1148   177.9957   275.9252     0.0587   -14.9953    57.5599     0.2990   141.6688     2.8352     0.0827     0.0000  4325.0000
   9547.0000    10.1384     9.8147     0.7020     0.9912     0.9262     1.2253     2.8352   107.8378   106.9939   109.5523    59.0870   106.5605    59.0870    59.0870   106.5605   106.9939    45.8283    90.0683   178.0000   275.8910     0.0587   -14.9925    55.8479     0.2806   139.9913     2.8352     0.0812     0.0000  4403.0000
   9547.5000    10.1384     9.8147     0.7097     0.9902     0.9769     1.2253     2.8352   105.8313   107.2714   108.4948    60.0021   105.8383    60.0021    60.0021   105.8383   107.2714    45.8039    74.3837   178.0043   275.8628     0.0586   -14.9897    54.5358     0.2723   138.7078     2.8352     0.0877     0.0000  4398.0000
   9548.0000    10.1368     9.8147     0.7659     0.9858     0.9468     1.2245     2.8343   107.0317   110.6589   106.9653    58.8719   105.3051    58.8719    58.8719   105.3051   110.6589    45.7794    62.5814   178.0086   275.8785     0.0586   -14.9869    53.8988     0.3026   138.0551     2.8343     0.0797     0.0000  4265.0000
   9548.5000    10.1384     9.8147     0.7958     0.9687     0.8678     1.2253     2.8341   106.9868   108.3104   109.5879    59.1631   106.8612    59.1631    59.1631   106.8612   108.3104    45.7550    65.2493   178.0129   275.8796     0.0586   -14.9840    53.6072     0.2874   137.7626     2.8341     0.0818     0.0000  4339.0000
   9549.0000    10.1384     9.8147     0.8069     0.9938     0.9720     1.2253     2.8339   105.1361   106.9939   108.0249    60.1429   108.1105    60.1429    60.1429   108.1105   106.9939    45.7306    71.9939   178.0172   275.8773     0.0585   -14.9812    52.4365     0.2690   136.5941     2.8339     0.0887     0.0000  4378.0000
   9549.5000    10.1384     9.8147     0.8443     0.9956     0.9758     1.2253     2.8350   104.8449   106.7162   108.6624    61.0302   106.5827    61.0302    61.0302   106.5827   106.7162    45.7062    75.8241   178.0215   275.8779     0.0585   -14.9783    51.0950     0.2570   135.2522     2.8350     0.0950     0.0000  4365.0000
   9550.0000    10.1384     9.8147     0.8192     0.9903     0.9592     1.2253     2.8351   105.9613   108.1213   110.5531    60.9373   106.9510    60.9373    60.9373   106.9510   108.1213    45.6818    73.6681   178.0258   275.8568     0.0585   -14.9755    50.1309     0.2672   134.3090     2.8351     0.0943     0.0000  4351.0000
   9550.5000    10.1384     9.8147     0.8783     0.9902     0.9611     1.2253     2.8363   107.1626   107.7718   108.6412    60.3137   104.5872    60.3137    60.3137   104.5872   107.7718    45.6573    75.2066   178.0301   275.9010     0.0585   -14.9726    49.1551     0.2720   133.2893     2.8363     0.0899     0.0000  4349.0000
   9551.0000    10.1384     9.8147     0.8599     0.9861     0.9719     1.2253     2.8313   107.6930   104.9064   107.0246    59.7774   103.9286    59.7774    59.7774   103.9286   104.9064    45.6329    74.9025   178.0343   275.9217     0.0584   -14.9697    48.0856     0.2596   132.1986     2.8313     0.0861     0.0000  4315.0000
   9551.5000    10.1384     9.8147     0.8178     0.9873     0.9632     1.2253     2.8311   107.3312   103.6977   105.1227    59.8048   103.7368    59.8048    59.8048   103.7368   103.6977    45.6085    66.0500   178.0387   275.9188     0.0584   -14.9669    47.2064     0.2508   131.3224     2.8311     0.0863     0.0000  4343.0000
   9552.0000    10.1384     9.8147     0.8517     0.9915     0.9692     1.2253     2.8322   107.6537   104.8184   106.1292    57.9030   104.4249    57.9030    57.9030   104.4249   104.8184    45.5841    56.8861   178.0430   275.9685     0.0584   -14.9640    46.1829     0.2804   130.2489     2.8322     0.0729     0.0000  4308.0000
   9552.5000    10.1384     9.8147     0.7438     0.9870     0.9677     1.2253     2.8334   107.2940   108.8410   111.6434    57.6036   107.3547    57.6036    57.6036   107.3547   108.8410    45.5596    48.6495   178.0472   276.0135     0.0583   -14.9611    45.1581     0.3055   129.1789     2.8334     0.0707     0.0000  4378.0000
   9553.0000    10.1384     9.8147     0.8657     0.9885     0.9616     1.2253     2.8309   108.8039   107.4623   108.8417    60.8966   109.6516    60.8966    60.8966   109.6516   107.4623    45.5352    56.9580   178.0515   276.0783     0.0583   -14.9582    44.1192     0.2635   128.0751     2.8309     0.0940     0.0000  4404.0000
   9553.5000    10.1384     9.9128     0.7998     0.9741     0.9704     1.2750     2.8283   109.8202   105.8239   109.4376    60.2673   113.2804    60.2673    60.2673   113.2804   105.8239    45.5108    62.8688   178.0558   276.1157     0.0583   -14.9553    43.1878     0.2600   127.1056     2.8283     0.0896     0.0000  4363.0000
   9554.0000    10.1384     9.9128     0.8152     0.9825     0.9659     1.2750     2.8291   111.1126   109.4681   112.6330    66.6865   114.2219    66.6865    66.6865   114.2219   109.4681    45.4863    74.6876   178.0601   276.1639     0.0582   -14.9524    42.5420     0.2049   126.4113     2.8291     0.1350     0.0000  4406.0000
   9554.5000    10.1384     9.9128     0.8003     0.9822     0.9648     1.2750     2.8282   112.2816   110.4221   114.5457    62.8297   114.4562    62.8297    62.8297   114.4562   110.4221    45.4619    74.8811   178.0644   276.2096     0.0582   -14.9495    41.6280     0.2606   125.4515     2.8282     0.1077     0.0000  4384.0000
   9555.0000    10.1384    10.0232     0.8127     0.9884     0.9435     1.3306     2.8278   111.8642   110.3456   115.0806    63.8703   114.9268    63.8703    63.8703   114.9268   110.3456    45.4374    77.4665   178.0687   276.2162     0.0582   -14.9466    40.2832     0.2481   124.0992     2.8278     0.1151     0.0000  4432.0000
   9555.5000    10.1353    10.0109     0.7871     0.9874     0.9838     1.3229     2.8253   108.8943   108.5889   114.1984    65.9074   113.6742    65.9074    65.9074   113.6742   108.5889    45.4129    73.4851   178.0730   276.2379     0.0581   -14.9437    39.2691     0.2084   123.0629     2.8253     0.1295     0.0000  4498.0000
   9556.0000    10.1008     9.9128     0.8400     0.9870     0.9639     1.2564     2.8230   108.0944   107.6002   110.7066    62.9821   112.5884    62.9821    62.9821   112.5884   107.6002    45.3885    70.7240   178.0773   276.2804     0.0581   -14.9408    38.9528     0.2394   122.7038     2.8230     0.1088     0.0000  4359.0000
   9556.5000    10.0382     9.9128     0.8674     0.9745     0.9695     1.2253     2.8242   107.4318   108.1909   111.0650    60.7492   107.0481    60.7492    60.7492   107.0481   108.1909    45.3640    66.9071   178.0816   276.3466     0.0581   -14.9380    38.6365     0.2698   122.3214     2.8242     0.0930     0.0000  4432.0000
   9557.0000    10.0382     9.9128     0.8313     0.9742     0.9584     1.2253     2.8227   107.0222   107.4758   109.7753    60.0766   107.6735    60.0766    60.0766   107.6735   107.4758    45.3395    63.6244   178.0859   276.3680     0.0581   -14.9352    37.0657     0.2728   120.7280     2.8227     0.0882     0.0000  4458.0000
   9557.5000    10.0382     9.9128     0.8683     0.9780     0.9687     1.2253     2.8214   105.6949   105.7472   105.1074    60.9040   108.1806    60.9040    60.9040   108.1806   105.7472    45.3150    60.1673   178.0902   276.4114     0.0580   -14.9323    35.5923     0.2518   119.2104     2.8214     0.0941     0.0000  4401.0000
