###############################################
##         ENVERUS                           ##
##         ESS - Open Hole                   ##
##         PERMIAN / DELAWARE                ##
##         Nov 02 2023  V4.0                 ##
##         42-109-10429-00-00                ##
###############################################
## Copyright 2017-2023  ENVERUS.  All Rights Reserved. 
## Confidential - Property of ENVERUS, use governed by terms and 
## conditions found within the existing Information Services Subscription Agreement 
## (as may be amended, the “ISSA”) between Customer and ENVERUS. 
## 
~VERSION INFORMATION
# MNEM.UNIT                               DATA : DESCRIPTION OF MNEMONIC
#-----.-----     ----------------------------- : -----------------------------
VERS.                                     2.00 : CWLS LOG ASCII STANDARD - VERSION 2.00
WRAP.                                       NO : MULTIPLE LINES PER DEPTH STEP
VEND.                                  ENVERUS : VENDOR
TYPE.                          ESS - OPEN HOLE : ENVERUS ESSENTIAL CURVES – ACCESSIBLE THROUGH ENVERUS PRISM(TM)
DOC.                                  32032754 : ENVERUS HEADER RAW DOCUMENT ID
#___________________________________________________________________________________________________ 
~WELL INFORMATION 
# hXqYWT5FmhW7UEcPXxReyvN++rqgSwBrBdup88XCyeQNQmx1Fo1vv7xYmZNr9HC+TZh0ltY2ePdKOSE9Z1hlZw== 
# MNEM.UNIT                                              DATA : DESCRIPTION OF MNEMONIC 
#-----.-----                    ----------------------------- : ----------------------------- 
CNTY.                                               CULBERSON : COUNTY 
STATE.                                                  TEXAS : STATE 
CNTRY.                                                    USA : COUNTRY 
API.                                             42-109-10429 : API (10 Digit) 
API_14.                                    42-109-10429-00-00 : API (14 Digits) 
API_14_std.                                 42-109-10429-0000 : API (14 Digits Standard) 
UWI.                                           42109104290000 : UNIQUE WELL ID 
WELL.                                          ROUNSAVILLE  1 : WELL NAME
STRT.FT                                                     0 : START DEPTH
STOP.FT                                                8409.0 : STOP DEPTH
STEP.FT                                                   0.5 : STEP BETWEEN DEPTHS
NULL.                                                 -999.25 : NULL VALUE
COMP.                                     EOG RESOURCES  INC. : COMPANY
#___________________________________________________________________________________________________ 
~CURVE INFORMATION 
# MNEM.UNIT           : CURVE DESCRIPTION 
#-----.-----          : ----------------------------- 
 DEPT.FT               : MEASURED DEPTH 
 CALI.IN               : CALIPER (CAL - CAL) 
 GR.API                : GAMMA RAY (GR) 
 SP.MV                 : SPONTANEOUS POTENTIAL (SP) 
 DT.US/FT              : SONIC DELTA TRANSIT TIME (DT) 
 RESD.OHMM             : DEEP INDUCTION RESISTIVITY (ILD - ILD) 
 #___________________________________________________________________________________________________ 
~A         DEPT           CALI             GR             SP             DT           RESD
# ...
         6776.0          9.151         60.325        -37.010         62.039         71.810
         6776.5          9.150         62.960        -37.376         61.994         70.371
         6777.0          9.149         63.752        -37.741         61.948         68.932
         6777.5          9.147         63.754        -38.106         61.903         69.041
         6778.0          9.146         62.535        -37.764         61.857         69.285
         6778.5          9.145         62.249        -37.345         61.812         69.530
         6779.0          9.144         63.057        -36.926         61.766         69.774
         6779.5          9.143         62.373        -36.507         61.721         70.019
         6780.0          9.142         61.688        -36.088         61.909         67.484
         6780.5          9.141         62.144        -35.669         62.495         60.705
         6781.0          9.139         62.795        -35.250         64.147         53.927
         6781.5          9.138         62.504        -34.831         65.800         49.266
         6782.0          9.177         61.918        -34.412         67.977         47.684
         6782.5          9.223         61.085        -33.993         69.037         46.102
         6783.0          9.269         61.548        -33.574         68.037         45.920
         6783.5          9.304         64.722        -33.155         66.040         46.013
         6784.0          9.272         65.898        -32.997         64.043         46.105
         6784.5          9.240         65.064        -33.097         63.368         46.197
         6785.0          9.207         62.623        -33.197         63.430         46.289
         6785.5          9.175         60.183        -33.297         63.970         47.651
         6786.0          9.161         58.879        -33.397         64.595         49.146
         6786.5          9.157         57.853        -33.497         65.220         50.641
         6787.0          9.154         61.341        -33.597         65.627         51.714
         6787.5          9.150         64.564        -33.697         65.627         50.665
         6788.0          9.146         66.577        -33.798         65.334         49.616
         6788.5          9.142         64.873        -33.898         64.812         48.576
         6789.0          9.143         64.067        -33.998         64.290         49.645
         6789.5          9.146         64.069        -34.098         63.768         50.715
         6790.0          9.150         61.415        -34.110         63.714         51.784
         6790.5          9.154         57.753        -34.077         63.808         52.853
         6791.0          9.158         56.813        -34.045         64.135         53.020
         6791.5          9.162         55.873        -34.012         64.462         52.182
         6792.0          9.165         54.933        -33.979         64.746         51.344
         6792.5          9.169         55.925        -33.947         64.859         50.505
         6793.0          9.173         57.186        -33.914         65.026         49.667
         6793.5          9.177         58.531        -33.881         65.382         48.829
         6794.0          9.181         60.320        -33.849         65.737         47.609
         6794.5          9.184         62.538        -33.816         65.787         46.257
         6795.0          9.188         64.326        -33.878         65.786         44.906
         6795.5          9.191         64.121        -34.012         65.786         43.554
         6796.0          9.189         62.336        -34.145         65.785         43.141
         6796.5          9.188         61.015        -34.279         65.784         43.376
         6797.0          9.186         60.329        -34.412         65.784         43.611
         6797.5          9.185         60.512        -34.545         65.783         43.843
         6798.0          9.183         60.744        -34.679         65.783         44.005
         6798.5          9.181         62.069        -34.812         65.782         44.166
         6799.0          9.180         62.996        -34.946         65.804         44.328
         6799.5          9.178         61.034        -35.079         65.914         44.490
         6800.0          9.177         59.071        -35.213         66.023         44.651
         6800.5          9.175         57.109        -35.346         65.857         46.481
         6801.0          9.173         56.064        -35.479         64.138         48.974
         6801.5          9.172         55.703        -35.531         62.420         50.655
         6802.0          9.170         56.898        -35.187         60.702         51.684
         6802.5          9.170         55.919        -34.844         60.741         52.713
         6803.0          9.170         51.892        -34.500         62.182         53.280
         6803.5          9.170         47.865        -34.157         64.424         52.067
         6804.0          9.170         45.201        -34.111         65.126         50.854
         6804.5          9.173         48.914        -34.183         65.376         49.641
         6805.0          9.177         52.627        -34.254         65.626         48.428
         6805.5          9.182         56.016        -34.326         65.876         47.979
         6806.0          9.186         56.434        -34.351         66.034         47.658
         6806.5          9.191         56.851        -34.348         64.924         47.337
         6807.0          9.195         59.283        -34.224         63.813         47.016
         6807.5          9.200         60.607        -33.829         62.986         47.948
         6808.0          9.204         59.849        -33.434         63.427         49.386
         6808.5          9.208         57.954        -33.201         63.867         50.825
         6809.0          9.213         57.302        -33.574         64.308         52.263
         6809.5          9.217         57.300        -33.946         64.748         52.086
         6810.0          9.222         55.865        -34.318         64.558         51.440
         6810.5          9.226         56.978        -34.691         64.374         50.795
         6811.0          9.231         57.417        -34.563         64.739         50.149
         6811.5          9.235         56.005        -33.513         65.098         49.504
         6812.0          9.239         56.396        -32.519         65.301         48.858
         6812.5          9.244         56.788        -33.256         65.505         48.213
         6813.0          9.248         55.781        -33.993         65.709         47.567
         6813.5          9.253         54.642        -34.730         65.912         47.038
         6814.0          9.257         54.820        -35.136         66.116         47.752
         6814.5          9.262         56.165        -34.886         66.319         48.467
         6815.0          9.266         55.401        -34.636         65.628         49.181
         6815.5          9.270         56.843        -34.386         64.575         49.896
         6816.0          9.278         60.270        -34.151         63.522         50.218
         6816.5          9.288         58.533        -33.881         64.177         50.223
         6817.0          9.297         56.795        -33.505         64.848         50.227
         6817.5          9.307         57.215        -33.129         65.520         50.232
         6818.0          9.316         58.502        -32.753         65.818         50.236
         6818.5          9.326         59.789        -32.377         65.712         50.163
         6819.0          9.336         60.582        -32.001         66.455         50.071
         6819.5          9.345         60.355        -31.625         66.647         49.980
