###############################################
##         ENVERUS                           ##
##         ESS - Open Hole                   ##
##         PERMIAN / DELAWARE                ##
##         Nov 02 2023  V4.0                 ##
##         42-109-00406-00-00                ##
###############################################
## Copyright 2017-2023  ENVERUS.  All Rights Reserved. 
## Confidential - Property of ENVERUS, use governed by terms and 
## conditions found within the existing Information Services Subscription Agreement 
## (as may be amended, the “ISSA”) between Customer and ENVERUS. 
## 
~VERSION INFORMATION
# MNEM.UNIT                               DATA : DESCRIPTION OF MNEMONIC
#-----.-----     ----------------------------- : -----------------------------
VERS.                                     2.00 : CWLS LOG ASCII STANDARD - VERSION 2.00
WRAP.                                       NO : MULTIPLE LINES PER DEPTH STEP
VEND.                                  ENVERUS : VENDOR
TYPE.                          ESS - OPEN HOLE : ENVERUS ESSENTIAL CURVES – ACCESSIBLE THROUGH ENVERUS PRISM(TM)
DOC.                                  31976272 : ENVERUS HEADER RAW DOCUMENT ID
#___________________________________________________________________________________________________ 
~WELL INFORMATION 
# f03iSNYnaQ7mQXX2RIaOYtiytuBBABKYYIB1smJtyZkBcGMChrfvYQpeE0DESEj4BN+caz3q2IoGlEPFhwFUwg== 
# MNEM.UNIT                                              DATA : DESCRIPTION OF MNEMONIC 
#-----.-----                    ----------------------------- : ----------------------------- 
CNTY.                                               CULBERSON : COUNTY 
STATE.                                                  TEXAS : STATE 
CNTRY.                                                    USA : COUNTRY 
API.                                             42-109-00406 : API (10 Digit) 
API_14.                                    42-109-00406-00-00 : API (14 Digits) 
API_14_std.                                 42-109-00406-0000 : API (14 Digits Standard) 
UWI.                                           42109004060000 : UNIQUE WELL ID 
WELL.                                                  DRD_55 : WELL NAME
STRT.FT                                                 100.5 : START DEPTH
STOP.FT                                               12629.5 : STOP DEPTH
STEP.FT                                                   0.5 : STEP BETWEEN DEPTHS
NULL.                                                 -999.25 : NULL VALUE
#___________________________________________________________________________________________________ 
~PARAMETER INFORMATION 
# MNEM.UNIT                                              DATA : DESCRIPTION OF MNEMONIC 
#-----.-----                    ----------------------------- : -----------------------------
#___________________________________________________________________________________________________ 
~CURVE INFORMATION 
# MNEM.UNIT           : CURVE DESCRIPTION 
#-----.-----          : ----------------------------- 
 DEPT.FT               : MEASURED DEPTH 
 GR__A.API             : GAMMA RAY (GAMMA RAY) 
 DT__A.US/FT           : SONIC DELTA TRANSIT TIME (SONIC) 
 #___________________________________________________________________________________________________ 
~A         DEPT          GR__A          DT__A
# ...
         7582.5         60.075         70.722
         7583.0         46.721         65.099
         7583.5         31.321         59.477
         7584.0         20.239         56.148
         7584.5         14.864         54.265
         7585.0         11.557         54.132
         7585.5         11.907         54.252
         7586.0         18.557         56.143
         7586.5         25.270         60.478
         7587.0         35.142         65.635
         7587.5         51.776         71.518
         7588.0         62.925         75.742
         7588.5         70.398         80.305
         7589.0         78.789         83.359
         7589.5         81.883         84.300
         7590.0         81.538         84.126
         7590.5         77.669         81.007
         7591.0         71.898         77.065
         7591.5         64.669         75.608
         7592.0         58.963         75.421
         7592.5         55.962         75.329
         7593.0         57.913         76.336
         7593.5         65.162         79.191
         7594.0         74.732         82.712
         7594.5         77.834         84.176
         7595.0         79.038         82.406
         7595.5         79.427         81.415
         7596.0         78.869         81.157
         7596.5         78.571         80.158
         7597.0         80.259         78.508
         7597.5         83.205         77.817
         7598.0         84.793         79.963
         7598.5         85.027         81.161
         7599.0         86.622         82.047
         7599.5         89.438         84.091
         7600.0         95.277         85.764
         7600.5         95.536         86.442
         7601.0         93.391         84.881
         7601.5         87.982         85.663
         7602.0         75.750         85.612
         7602.5         64.392         82.444
         7603.0         60.517         80.767
         7603.5         60.721         81.932
         7604.0         63.360         83.998
         7604.5         62.738         82.990
         7605.0         62.932         81.614
         7605.5         65.511         83.290
         7606.0         69.173         84.311
         7606.5         70.078         83.502
         7607.0         67.414         82.097
         7607.5         61.720         79.707
         7608.0         56.198         76.396
         7608.5         50.844         71.642
         7609.0         46.349         68.744
         7609.5         44.475         68.500
         7610.0         51.284         69.583
         7610.5         70.896         72.241
         7611.0         78.451         75.085
         7611.5         87.363         80.747
         7612.0         90.526         85.429
         7612.5         91.686         86.892
         7613.0         93.593         87.172
         7613.5         93.686         87.040
         7614.0         92.544         86.030
         7614.5         76.820         82.808
         7615.0         72.404         79.382
         7615.5         66.022         74.776
         7616.0         53.493         68.757
         7616.5         44.600         64.358
         7617.0         34.606         61.539
         7617.5         32.905         61.576
         7618.0         40.840         64.984
         7618.5         50.927         68.841
         7619.0         64.874         73.137
         7619.5         74.080         78.193
         7620.0         78.255         82.679
         7620.5         72.681         83.870
         7621.0         70.029         81.274
         7621.5         67.218         79.933
         7622.0         65.358         79.761
         7622.5         64.493         79.880
         7623.0         66.918         79.530
         7623.5         72.343         78.243
         7624.0         77.573         77.406
         7624.5         75.061         79.224
         7625.0         67.982         79.521
         7625.5         67.552         79.521
         7626.0         69.899         79.256
         7626.5         81.284         82.783
         7627.0         83.679         84.908
         7627.5         84.013         83.900
         7628.0         81.169         83.664
         7628.5         78.504         83.105
         7629.0         76.168         82.135
         7629.5         75.875         82.135
         7630.0         77.154         82.843
         7630.5         80.373         83.483
         7631.0         81.134         82.945
         7631.5         79.496         82.615
         7632.0         68.199         81.501
         7632.5         62.129         80.063
         7633.0         58.705         78.613
         7633.5         57.118         77.917
         7634.0         56.266         77.731
         7634.5         55.655         77.425
         7635.0         55.672         77.239
         7635.5         56.135         77.126
         7636.0         56.250         77.286
         7636.5         56.548         77.855
         7637.0         56.548         78.357
         7637.5         56.548         78.563
         7638.0         56.430         78.492
         7638.5         55.952         77.976
         7639.0         54.907         76.519
         7639.5         52.119         73.075
         7640.0         46.591         69.541
         7640.5         41.356         65.644
         7641.0         31.653         61.468
         7641.5         20.931         57.542
         7642.0         14.472         55.221
         7642.5         11.310         53.964
         7643.0          9.408         53.601
         7643.5          8.631         53.293
         7644.0          9.297         53.044
         7644.5         12.016         57.604
         7645.0         17.273         61.767
         7645.5         29.409         66.716
         7646.0         37.258         71.357
         7646.5         50.665         75.630
         7647.0         58.763         79.634
         7647.5         63.662         80.829
         7648.0         64.891         80.568
         7648.5         62.104         78.042
         7649.0         57.484         73.870
         7649.5         53.129         69.826
         7650.0         45.109         67.742
         7650.5         39.035         67.249
         7651.0         38.945         70.218
         7651.5         50.539         74.295
         7652.0         61.815         78.145
         7652.5         69.964         82.581
         7653.0         72.067         84.690
         7653.5         65.521         84.854
         7654.0         61.671         83.185
         7654.5         60.158         81.049
         7655.0         58.198         80.802
         7655.5         56.780         80.444
         7656.0         54.936         79.866
         7656.5         54.464         79.332
         7657.0         54.998         81.618
         7657.5         56.461         83.195
         7658.0         58.268         82.798
         7658.5         59.285         82.635
         7659.0         60.045         82.473
         7659.5         60.027         83.229
         7660.0         60.376         83.577
         7660.5         61.114         83.473
         7661.0         63.514         83.590
         7661.5         64.891         83.968
         7662.0         63.274         82.342
         7662.5         59.999         81.638
         7663.0         57.976         81.881
         7663.5         57.738         82.635
         7664.0         59.255         82.515
         7664.5         62.067         82.619
         7665.0         64.837         83.148
         7665.5         66.063         81.989
         7666.0         64.343         80.364
         7666.5         63.202         79.045
         7667.0         61.719         77.754
         7667.5         59.155         74.000
         7668.0         55.824         70.141
         7668.5         50.026         65.274
         7669.0         41.295         61.041
