###############################################
##         ENVERUS                           ##
##         ESS - Open Hole                   ##
##         PERMIAN / DELAWARE                ##
##         Nov 03 2023  V4.0                 ##
##         42-109-32507-90-00                ##
###############################################
## Copyright 2017-2023  ENVERUS.  All Rights Reserved. 
## Confidential - Property of ENVERUS, use governed by terms and 
## conditions found within the existing Information Services Subscription Agreement 
## (as may be amended, the “ISSA”) between Customer and ENVERUS. 
## 
~VERSION INFORMATION
# MNEM.UNIT                               DATA : DESCRIPTION OF MNEMONIC
#-----.-----     ----------------------------- : -----------------------------
VERS.                                     2.00 : CWLS LOG ASCII STANDARD - VERSION 2.00
WRAP.                                       NO : MULTIPLE LINES PER DEPTH STEP
VEND.                                  ENVERUS : VENDOR
TYPE.                          ESS - OPEN HOLE : ENVERUS ESSENTIAL CURVES – ACCESSIBLE THROUGH ENVERUS PRISM(TM)
DOC.                                  51094130 : ENVERUS HEADER RAW DOCUMENT ID
#___________________________________________________________________________________________________ 
~WELL INFORMATION 
# OeTAuI96vYP/1gAnXdiC+b2e5mg9bdq0rVS4GA6NX+ctg1PKQ5RhcqUsdOd2aOUDNf5EtC5635oDT1THDUi6iw== 
# MNEM.UNIT                                              DATA : DESCRIPTION OF MNEMONIC 
#-----.-----                    ----------------------------- : ----------------------------- 
CNTY.                                               CULBERSON : COUNTY 
STATE.                                                  TEXAS : STATE 
CNTRY.                                                    USA : COUNTRY 
API.                                             42-109-32507 : API (10 Digit) 
API_14.                                    42-109-32507-90-00 : API (14 Digits) 
API_14_std.                                 42-109-32507-9000 : API (14 Digits Standard) 
UWI.                                           42109325079000 : UNIQUE WELL ID 
WELL.                               42109325070000_PREV_API14 : WELL NAME
STRT.FT                                                2104.5 : START DEPTH
STOP.FT                                                9085.0 : STOP DEPTH
STEP.FT                                                   0.5 : STEP BETWEEN DEPTHS
NULL.                                                 -999.25 : NULL VALUE
PREV_APII.                                     42109325070000 : WELL IDENTIFIER
#___________________________________________________________________________________________________ 
~PARAMETER INFORMATION 
# MNEM.UNIT                                              DATA : DESCRIPTION OF MNEMONIC 
#-----.-----                    ----------------------------- : ----------------------------- 
EKB.FT                                                 3578.5 : ELEVATION ABOVE MSL
#___________________________________________________________________________________________________ 
~CURVE INFORMATION 
# MNEM.UNIT           : CURVE DESCRIPTION 
#-----.-----          : ----------------------------- 
 DEPT.FT               : MEASURED DEPTH 
 GR__A.API             : GAMMA RAY (GAMMA RAY) 
 DT__A.US/FT           : SONIC DELTA TRANSIT TIME (SONIC) 
 #___________________________________________________________________________________________________ 
~A         DEPT          GR__A          DT__A
# ...
         3931.5        382.472        108.366
         3932.0        367.502        117.108
         3932.5        352.988        123.797
         3933.0        315.316        126.440
         3933.5        301.458        121.632
         3934.0        298.933        111.444
         3934.5        305.161        101.145
         3935.0        319.657         99.839
         3935.5        332.241        102.680
         3936.0        335.247        103.213
         3936.5        336.086        102.939
         3937.0        327.191        100.136
         3937.5        321.638         97.761
         3938.0        331.029         97.171
         3938.5        340.063         95.802
         3939.0        337.977         95.211
         3939.5        336.062         93.917
         3940.0        336.004         93.281
         3940.5        327.261         95.803
         3941.0        319.311         98.386
         3941.5        315.306        101.188
         3942.0        313.945        103.655
         3942.5        315.516        104.693
         3943.0        316.831        108.340
         3943.5        310.286        111.977
         3944.0        304.332        108.590
         3944.5        304.974        103.656
         3945.0        309.727         96.520
         3945.5        312.943         93.150
         3946.0        328.582         95.866
         3946.5        344.498         99.380
         3947.0        352.269        102.962
         3947.5        353.099        104.207
         3948.0        358.508        103.285
         3948.5        361.014        101.593
         3949.0        346.240         99.318
         3949.5        326.497         99.318
         3950.0        318.359         99.270
         3950.5        323.372         99.124
         3951.0        327.021         99.866
         3951.5        326.768         99.155
         3952.0        327.773         98.370
         3952.5        333.527         97.916
         3953.0        327.343        106.282
         3953.5        314.046        112.249
         3954.0        305.267        114.210
         3954.5        305.309        118.311
         3955.0        316.723        118.997
         3955.5        324.008        122.052
         3956.0        322.375        122.082
         3956.5        315.794        111.094
         3957.0        310.067        101.243
         3957.5        306.939         94.216
         3958.0        315.579         92.653
         3958.5        326.504         92.164
         3959.0        341.735         94.842
         3959.5        357.331         97.558
         3960.0        372.066        102.113
         3960.5        372.481        105.406
         3961.0        362.803        106.993
         3961.5        358.666        107.973
         3962.0        365.772        108.952
         3962.5        370.272        110.321
         3963.0        375.072        111.216
         3963.5        381.340        111.003
         3964.0        386.734        108.264
         3964.5        388.332        105.893
         3965.0        380.304        105.745
         3965.5        366.839        106.329
         3966.0        362.017        106.913
         3966.5        368.075        107.692
         3967.0        388.274        107.692
         3967.5        389.864        107.303
         3968.0        380.963        107.854
         3968.5        371.315        108.639
         3969.0        366.276        109.229
         3969.5        356.603        110.208
         3970.0        346.609        111.188
         3970.5        347.925        111.977
         3971.0        367.501        111.584
         3971.5        420.010        108.737
         3972.0        449.930        105.725
         3972.5        476.684        104.295
         3973.0        485.538         98.087
         3973.5        509.088         96.982
         3974.0        526.793         97.640
         3974.5        501.281        100.396
         3975.0        470.131        104.893
         3975.5        462.736        104.492
         3976.0        462.648         95.169
         3976.5        409.141         92.374
         3977.0        348.943         96.731
         3977.5        322.651         99.571
         3978.0        314.230        102.713
         3978.5        330.983        108.403
         3979.0        362.519        111.923
         3979.5        370.350        113.441
         3980.0        365.183        113.038
         3980.5        373.972        112.479
         3981.0        377.625        112.756
         3981.5        386.048        112.179
         3982.0        414.686        107.561
         3982.5        467.719        105.142
         3983.0        476.859        104.984
         3983.5        427.977        108.210
         3984.0        390.336        112.827
         3984.5        371.221        113.340
         3985.0        376.160        113.340
         3985.5        371.051        111.950
         3986.0        344.285        107.161
         3986.5        310.557        105.550
         3987.0        301.973        108.450
         3987.5        297.076        115.871
         3988.0        295.127        116.840
         3988.5        309.852        113.832
         3989.0        338.191        103.392
         3989.5        426.406         99.124
         3990.0        450.749         99.961
         3990.5        419.126        105.600
         3991.0        391.673        111.843
         3991.5        388.639        112.125
         3992.0        392.074        111.782
         3992.5        383.101        111.587
         3993.0        378.562        111.846
         3993.5        383.516        112.171
         3994.0        391.127        111.338
         3994.5        386.418        111.125
         3995.0        382.691        112.171
         3995.5        374.302        113.044
         3996.0        370.363        113.634
         3996.5        369.457        113.624
         3997.0        396.409        110.645
         3997.5        437.889        106.777
         3998.0        446.112        106.329
         3998.5        437.387        107.073
         3999.0        433.125        108.965
         3999.5        426.692        111.198
         4000.0        419.592        109.883
         4000.5        386.606        109.250
         4001.0        351.549        106.339
         4001.5        331.897        101.749
         4002.0        319.451         99.149
         4002.5        308.751         98.539
         4003.0        320.373         98.929
         4003.5        336.949        103.279
         4004.0        338.602        105.351
         4004.5        326.455        111.699
         4005.0        320.192        115.014
         4005.5        338.480        117.086
         4006.0        351.048        116.716
         4006.5        379.354        111.203
         4007.0        382.000        108.049
         4007.5        376.531        107.108
         4008.0        378.537        107.303
         4008.5        381.309        106.520
         4009.0        363.430        104.395
         4009.5        357.189        102.026
         4010.0        374.015         97.201
         4010.5        463.180         96.155
         4011.0        504.661        101.306
         4011.5        488.247        105.916
         4012.0        480.495        106.433
         4012.5        479.146        100.926
         4013.0        435.643         95.201
         4013.5        356.509         91.311
         4014.0        322.967         90.578
         4014.5        311.891         91.125
         4015.0        311.638         97.014
         4015.5        304.580        106.428
         4016.0        296.410        113.673
         4016.5        292.686        114.343
         4017.0        305.037        102.607
         4017.5        322.488         94.567
         4018.0        340.541         95.357
