###############################################
##         ENVERUS                           ##
##         ESS - Open Hole                   ##
##         PERMIAN / DELAWARE                ##
##         Nov 02 2023  V4.0                 ##
##         42-109-31375-00-00                ##
###############################################
## Copyright 2017-2023  ENVERUS.  All Rights Reserved. 
## Confidential - Property of ENVERUS, use governed by terms and 
## conditions found within the existing Information Services Subscription Agreement 
## (as may be amended, the “ISSA”) between Customer and ENVERUS. 
## 
~VERSION INFORMATION
# MNEM.UNIT                               DATA : DESCRIPTION OF MNEMONIC
#-----.-----     ----------------------------- : -----------------------------
VERS.                                     2.00 : CWLS LOG ASCII STANDARD - VERSION 2.00
WRAP.                                       NO : MULTIPLE LINES PER DEPTH STEP
VEND.                                  ENVERUS : VENDOR
TYPE.                          ESS - OPEN HOLE : ENVERUS ESSENTIAL CURVES – ACCESSIBLE THROUGH ENVERUS PRISM(TM)
DOC.                                  32006335 : ENVERUS HEADER RAW DOCUMENT ID
#___________________________________________________________________________________________________ 
~WELL INFORMATION 
# Eb7Zbut2Nwqt2ftj1i2q6V2Ye1Joym9Qrd6BFF0aHeZ6Mf1z+VAuEcbs4uVngcAWjTW62nvWGWatc34NWk2mnA== 
# MNEM.UNIT                                              DATA : DESCRIPTION OF MNEMONIC 
#-----.-----                    ----------------------------- : ----------------------------- 
CNTY.                                               CULBERSON : COUNTY 
STATE.                                                  TEXAS : STATE 
CNTRY.                                                    USA : COUNTRY 
API.                                             42-109-31375 : API (10 Digit) 
API_14.                                    42-109-31375-00-00 : API (14 Digits) 
API_14_std.                                 42-109-31375-0000 : API (14 Digits Standard) 
UWI.                                           42109313750000 : UNIQUE WELL ID 
WELL.                                      7806 JV-P DUVAL  1 : WELL NAME
STRT.FT                                                     0 : START DEPTH
STOP.FT                                               15739.0 : STOP DEPTH
STEP.FT                                                   0.5 : STEP BETWEEN DEPTHS
NULL.                                                 -999.25 : NULL VALUE
COMP.                                  BTA OIL PRODUCERS  LLC : COMPANY 
DATE.                                             26-MAY-1978 : LOG DATE
#___________________________________________________________________________________________________ 
~CURVE INFORMATION 
# MNEM.UNIT           : CURVE DESCRIPTION 
#-----.-----          : ----------------------------- 
 DEPT.FT               : MEASURED DEPTH 
 CALI.IN               : CALIPER (CAL - CAL) 
 GR.API                : GAMMA RAY (GR) 
 DT.US/FT              : SONIC DELTA TRANSIT TIME (DT) 
 #___________________________________________________________________________________________________ 
~A         DEPT           CALI             GR             DT
# ...
         9438.0         13.111         74.410         94.561
         9438.5         13.107         76.449         91.273
         9439.0         13.103         78.759         87.984
         9439.5         13.099         81.069         84.555
         9440.0         13.095         80.372         80.428
         9440.5         13.091         77.728         79.544
         9441.0         13.087         75.084         78.954
         9441.5         13.083         72.743         78.364
         9442.0         13.079         71.870         77.774
         9442.5         13.075         70.996         77.960
         9443.0         13.071         69.732         78.306
         9443.5         13.067         66.029         78.652
         9444.0         13.063         62.326         78.999
         9444.5         13.059         58.272         79.345
         9445.0         13.055         53.981         79.691
         9445.5         13.051         49.926         79.297
         9446.0         13.047         51.456         78.667
         9446.5         13.044         54.520         78.038
         9447.0         13.041         61.389         77.102
         9447.5         13.038         64.885         75.947
         9448.0         13.034         68.156         74.791
         9448.5         13.031         71.102         73.639
         9449.0         13.028         71.108         72.610
         9449.5         13.025         71.115         71.581
         9450.0         13.021         71.477         72.834
         9450.5         13.018         72.345         74.668
         9451.0         13.015         73.213         76.502
         9451.5         13.012         74.081         77.481
         9452.0         13.009         68.204         76.848
         9452.5         13.005         65.958         76.215
         9453.0         13.002         63.712         75.582
         9453.5         12.999         63.329         76.855
         9454.0         12.977         65.702         78.854
         9454.5         12.953         68.101         80.202
         9455.0         12.929         70.216         79.714
         9455.5         12.917         71.402         79.225
         9456.0         12.910         72.397         78.737
         9456.5         12.903         73.338         78.376
         9457.0         12.897         73.686         78.657
         9457.5         12.890         73.228         78.939
         9458.0         12.883         72.771         79.221
         9458.5         12.877         71.903         79.276
         9459.0         12.870         70.875         79.041
         9459.5         12.863         69.847         78.807
         9460.0         12.856         66.175         78.573
         9460.5         12.850         61.276         78.338
         9461.0         12.843         56.378         77.655
         9461.5         12.836         47.174         76.289
         9462.0         12.830         36.684         74.923
         9462.5         12.823         30.532         73.557
         9463.0         12.817         34.382         72.191
         9463.5         12.817         38.045         70.758
         9464.0         12.817         41.709         68.787
         9464.5         12.816         47.379         66.815
         9465.0         12.816         57.033         64.084
         9465.5         12.816         66.687         60.729
         9466.0         12.815         74.880         58.456
         9466.5         12.815         77.945         61.441
         9467.0         12.815         79.733         65.918
         9467.5         12.815         81.356         71.663
         9468.0         12.814         80.726         76.492
         9468.5         12.814         80.096         75.809
         9469.0         12.814         78.505         75.450
         9469.5         12.813         75.469         75.731
         9470.0         12.816         75.581         76.013
         9470.5         12.821         76.697         76.295
         9471.0         12.826         78.479         77.116
         9471.5         12.832         80.262         78.279
         9472.0         12.837         80.987         79.442
         9472.5         12.842         80.243         79.867
         9473.0         12.847         79.499         80.035
         9473.5         12.851         76.272         80.202
         9474.0         12.851         72.027         80.182
         9474.5         12.852         68.244         80.155
         9475.0         12.852         64.844         80.128
         9475.5         12.853         63.109         80.101
         9476.0         12.853         63.652         79.900
         9476.5         12.854         65.404         79.382
         9477.0         12.854         66.895         78.928
         9477.5         12.855         62.697         79.193
         9478.0         12.856         58.499         79.458
         9478.5         12.856         54.727         79.723
         9479.0         12.857         53.064         79.988
         9479.5         12.857         54.723         78.376
         9480.0         12.858         56.573         76.559
         9480.5         12.858         58.408         74.742
         9481.0         12.859         59.966         72.925
         9481.5         12.859         61.523         71.108
         9482.0         12.860         59.998         69.291
         9482.5         12.860         57.200         69.061
         9483.0         12.861         53.987         71.145
         9483.5         12.861         50.775         73.230
         9484.0         12.862         55.355         74.011
         9484.5         12.862         60.181         72.824
         9485.0         12.863         63.654         71.636
         9485.5         12.863         61.719         70.448
         9486.0         12.864         59.784         69.261
         9486.5         12.864         58.517         69.288
         9487.0         12.865         61.564         70.304
         9487.5         12.865         63.856         71.320
         9488.0         12.866         66.148         71.790
         9488.5         12.866         68.209         71.991
         9489.0         12.867         68.547         73.168
         9489.5         12.867         68.884         76.172
         9490.0         12.868         70.614         79.175
         9490.5         12.868         72.808         80.280
         9491.0         12.869         75.001         80.883
         9491.5         12.870         74.929         81.487
         9492.0         12.870         74.542         80.025
         9492.5         12.871         74.156         78.522
         9493.0         12.871         72.859         77.020
         9493.5         12.867         69.245         80.201
         9494.0         12.863         65.631         83.941
         9494.5         12.859         62.210         83.356
         9495.0         12.855         60.257         81.944
         9495.5         12.852         59.133         80.532
         9496.0         12.848         60.212         79.120
         9496.5         12.844         61.291         77.996
         9497.0         12.840         61.999         76.925
         9497.5         12.836         62.005         75.854
         9498.0         12.832         62.012         74.782
         9498.5         12.830         61.719         74.494
         9499.0         12.829         57.656         74.351
         9499.5         12.827         56.639         74.209
         9500.0         12.825         56.426         74.066
         9500.5         12.824         61.449         74.104
         9501.0         12.831         64.236         74.644
         9501.5         12.853         65.716         74.339
         9502.0         12.852         67.196         73.893
         9502.5         12.845         67.450         73.448
         9503.0         12.838         66.115         73.805
         9503.5         12.831         64.779         74.528
