~VERSION INFORMATION
VERS. 2.0 : CWLS Log ASCII Standard - Version 2.0
WRAP. NO : One line per depth step
#--------------------------------------------------#
#----------------DRILLING INFO, INC.---------------#
#---------------WWW.DRILLINGINFO.COM---------------#
#------------------COPYRIGHT 2015------------------#
#--------------------------------------------------#
#THIS FILE MAY BE USED ONLY IN ACCORDANCE WITH A CURRENT SUBSCRIPTION AGREEMENT BETWEEN
#THE USER AND DRILLING INFO, INC. NO PART OF THIS FILE MAY BE REPRODUCED, USED, COPIED,
#MODIFIED, PROPAGATED, OR DISTRIBUTED EXCEPT IN ACCORDANCE WITH THE SUBSCRIPTION
#AGREEMENT. UNAUTHORIZED USE OR DISTRIBUTION OF ALL OR ANY PART OF THIS FILE MAY VIOLATE
#COPYRIGHT, TRADEMARK, AND/OR OTHER LAWS AND IS SUBJECT TO CIVIL AS WELL AS CRIMINAL
#SANCTIONS.
#--------------------------------------------------#
#THIS FILE IS PROVIDED "AS-IS" AND ALL WARRANTIES ARE EXPRESSLY DISCLAIMED, WHETHER
#EXPRESS, ORAL, IMPLIED, STATUTORY OR OTHERWISE, INCLUDING ANY IMPLIED WARRANTY OF FITNESS
#FOR A PARTICULAR PURPOSE, MERCHANTABILITY, TITLE OR NON-INFRINGEMENT, AND ANY WARRANTIES
#ARISING BY VIRTUE OF CUSTOM OF TRADE OR COURSE OF DEALING.  FURTHER, DRILLING INFO,
#INC. AND ITS LICENSORS DO NOT REPRESENT OR WARRANT THAT THIS FILE WILL MEET USER'S
#REQUIREMENTS OR ARE SUITABLE FOR USER'S NEEDS OR THAT THE DATA OR RESULTS PROVIDED IN
#CONJUNCTION THEREWITH ARE CORRECT, ACCURATE, TIMELY OR RELIABLE. THESE DISCLAIMERS SHALL
#APPLY REGARDLESS OF ANY FAILURE OF ESSENTIAL PURPOSE OF ANY LIMITED REMEDY.  SOME
#JURISDICTIONS DO NOT ALLOW THE EXCLUSION OF CERTAIN WARRANTIES SO SOME OF THE ABOVE
#EXCLUSIONS MAY NOT APPLY. IN NO EVENT SHALL DRILLING INFO, INC. OR ANY OF ITS AFFILIATES
#BE LIABLE UNDER ANY LEGAL THEORY, WHETHER IN TORT (INCLUDING WITHOUT LIMITATION
#NEGLIGENCE), CONTRACT, STRICT LIABILITY, STATUTORY OR OTHERWISE, FOR ANY SPECIAL,
#INCIDENTAL, CONSEQUENTIAL, EXEMPLARY, PUNITIVE OR INDIRECT DAMAGE OF ANY KIND, INCLUDING
#WITHOUT LIMITATION LOSS OF REVENUE, PROFITS, GOODWILL, USE, AND/OR DATA OR THE COST OF
#PROCUREMENT OF SUBSTITUTE GOODS OR SERVICES, EVEN IF APPRISED OF THE POSSIBILITY OF SUCH
#DAMAGES IN ADVANCE.
#--------------------------------------------------#
~WELL INFORMATION
#MNEMONIC     .UNIT              VALUE :DESCRIPTION
#--------------------------------------------------#
STRT       .ft                25.00000 :START DEPTH
STOP       .ft                17086.00000 :STOP DEPTH
STEP       .ft                0.50000 :STEP
NULL       .                -999.25000 :NULL VALUE
COMP       .                 :COMPANY
WELL       .                 :WELL
FLD       .                 :FIELD
LOC       .                 :LOCATION
CNTY       .                 :COUNTY
STAT       .                 :STATE
CTRY       .                 :COUNTRY
SRVC       .                 :SERVICE COMPANY
DATE       .                 :DATE
API       .                42109309270000 :API NUMBER
~CURVE INFORMATION
#MNEMONIC     .UNIT      API CODE :CURVE DESCRIPTION
#--------------------------------------------------#
DEPTH       .ft                      :Measured Depth
CAL       .in        UNKNOWN   :CAL
DT       .us/ft        UNKNOWN   :DT
GR       .gAPI        UNKNOWN   :GR
~A    DEPTH    CAL    DT    GR
# ...
11419.00000    10.77568    59.38715    75.98307
11419.50000    10.75821    59.29686    72.81610
11420.00000    10.75166    59.20656    69.64914
11420.50000    10.77641    59.11627    68.17158
11421.00000    10.80116    59.34547    68.97449
11421.50000    10.82590    64.51978    69.77740
11422.00000    10.85065    62.45822    70.58030
11422.50000    10.87540    60.27125    71.43453
11423.00000    10.90014    58.08429    72.45368
11423.50000    10.92489    56.46828    73.47284
11424.00000    10.94964    56.83515    74.49200
11424.50000    10.97438    57.20202    75.51116
11425.00000    10.99913    57.56889    76.76523
11425.50000    11.02388    57.45823    91.01107
11426.00000    11.04862    55.87838    105.25691
11426.50000    11.06111    56.76368    106.13323
11427.00000    11.05168    57.64899    100.05843
11427.50000    11.04226    58.53429    97.25412
11428.00000    11.03283    59.17466    98.54567
11428.50000    11.02340    58.69532    99.83722
11429.00000    11.01397    58.21599    98.19512
11429.50000    10.99747    57.73666    96.00325
11430.00000    10.95505    57.25732    93.81137
11430.50000    10.91264    56.77799    91.61950
11431.00000    10.89713    57.96703    89.42763
11431.50000    10.91137    59.34138    88.40224
11432.00000    10.92561    60.71574    88.66943
11432.50000    10.93985    62.09009    88.93662
11433.00000    10.95410    61.79066    87.92384
11433.50000    10.96834    60.68570    84.23261
11434.00000    10.98258    59.58075    80.54137
11434.50000    10.99682    59.38323    77.24458
11435.00000    11.00602    59.65899    80.15225
11435.50000    11.00408    59.93476    83.05992
11436.00000    11.00214    59.79325    85.96758
11436.50000    11.00021    59.62870    88.87525
11437.00000    10.99827    59.46415    91.78292
11437.50000    10.99634    59.29960    94.69058
11438.00000    10.99440    59.15934    93.04103
11438.50000    10.99246    59.46144    90.84815
11439.00000    10.99053    59.76354    88.52664
11439.50000    10.98859    60.06564    85.72278
11440.00000    10.98666    60.21138    82.91892
11440.50000    10.98472    60.15616    81.51921
11441.00000    10.98278    60.10094    81.46080
11441.50000    10.98085    60.04572    81.40239
11442.00000    10.97891    59.99050    81.34398
11442.50000    10.97759    59.93528    81.28557
11443.00000    10.97759    59.88005    78.94916
11443.50000    10.97760    59.82483    75.92003
11444.00000    10.97761    59.76961    72.89089
11444.50000    10.97762    59.69632    69.86175
11445.00000    10.97762    59.32699    72.43590
11445.50000    10.97763    58.95766    75.16287
11446.00000    10.97764    58.58832    77.88984
11446.50000    10.97765    58.21899    79.16489
11447.00000    10.97766    57.84965    78.04718
11447.50000    10.97767    58.16956    76.92947
11448.00000    10.97767    58.70121    75.81177
11448.50000    10.97768    59.23287    75.22746
11449.00000    10.97379    59.76452    78.63598
11449.50000    10.96318    60.29618    82.04449
11450.00000    10.95257    60.82783    81.65921
11450.50000    10.94196    61.35949    78.40137
11451.00000    10.93135    61.89114    75.14353
11451.50000    10.92074    60.14256    75.02064
11452.00000    10.91013    56.51965    82.20371
11452.50000    10.89952    57.31963    89.38678
11453.00000    10.88891    58.21959    96.56986
11453.50000    10.87830    59.11956    99.90731
11454.00000    10.86769    59.95570    96.40865
11454.50000    10.85708    60.62200    92.90999
11455.00000    10.84647    61.28830    92.95354
11455.50000    10.83586    61.95460    95.01568
11456.00000    10.84457    62.48631    97.07781
11456.50000    10.86118    62.13552    99.13995
11457.00000    10.87779    61.78472    101.20208
11457.50000    10.89440    61.43393    107.00843
11458.00000    10.91101    61.08314    116.97203
11458.50000    10.92762    60.73234    116.56873
11459.00000    10.94423    60.14567    108.04804
11459.50000    10.96084    59.19813    99.52734
11460.00000    10.97745    58.25058    91.00665
11460.50000    10.99405    57.30304    82.48596
11461.00000    11.01066    58.56855    83.36093
11461.50000    11.02727    51.82620    84.67089
11462.00000    11.03081    49.35797    85.98086
11462.50000    11.02021    49.81629    85.61942
11463.00000    11.00961    50.27461    81.66618
11463.50000    10.99901    50.73293    77.71293
11464.00000    10.98841    51.19126    73.75969
11464.50000    10.97782    52.18037    69.80644
11465.00000    10.96722    53.53283    65.85320
11465.50000    10.95662    54.88529    61.89995
11466.00000    10.94602    56.23775    57.94671
11466.50000    10.93543    57.59021    53.99346
11467.00000    10.92483    58.94267    54.88020
11467.50000    10.91570    59.55045    60.12111
11468.00000    10.90774    59.17171    65.36203
11468.50000    10.89977    58.79297    70.60294
11469.00000    10.89181    58.41423    75.84385
11469.50000    10.88385    58.03826    81.08476
11470.00000    10.87589    57.76247    80.85951
11470.50000    10.86793    57.48668    75.91397
11471.00000    10.85997    57.21089    70.96842
11471.50000    10.85200    56.93509    71.35528
11472.00000    10.84404    56.65930    73.43627
11472.50000    10.83608    56.38351    75.51725
11473.00000    10.83801    56.10772    77.21727
11473.50000    10.84554    56.40678    78.72161
11474.00000    10.85309    57.23884    80.22596
11474.50000    10.86063    58.07090    81.73031
11475.00000    10.86817    58.90296    83.23753
11475.50000    10.87571    59.73502    87.33827
11476.00000    10.88325    60.56708    91.43900
11476.50000    10.89079    61.39915    95.53973
11477.00000    10.89833    62.23121    99.64047
11477.50000    10.90587    62.56624    94.22083
11478.00000    10.91341    60.27179    88.48239
11478.50000    10.91799    57.97734    82.74395
11479.00000    10.88044    55.68289    76.97041
11479.50000    10.84290    53.84890    71.17314
11480.00000    10.80535    56.18255    76.64763
11480.50000    10.76780    58.51620    83.31581
11481.00000    10.73026    60.84985    89.98399
11481.50000    10.69271    64.56077    96.65217
11482.00000    10.72647    69.18478    99.36768
11482.50000    10.76941    71.43752    97.97137
11483.00000    10.81234    69.30904    96.57507
11483.50000    10.82330    67.18057    95.17876
11484.00000    10.80311    65.05210    93.78245
11484.50000    10.78293    62.92363    87.67707
11485.00000    10.76274    60.79515    79.29210
11485.50000    10.74256    58.66668    70.90714
11486.00000    10.72238    57.73970    72.54211
11486.50000    10.70219    58.54371    77.25536
11487.00000    10.68201    59.34772    81.96861
11487.50000    10.66182    60.15174    86.68187
11488.00000    10.64164    60.95575    91.39512
11488.50000    10.62145    61.77512    96.10838
11489.00000    10.60127    62.59926    100.82163
11489.50000    10.58109    63.42339    102.54177
11490.00000    10.56090    62.72016    96.17735
11490.50000    10.54363    61.97495    89.81292
11491.00000    10.54551    61.22974    83.44850
11491.50000    10.54739    60.48453    77.08408
11492.00000    10.54927    59.73931    70.71965
11492.50000    10.55115    58.99410    64.48984
11493.00000    10.55303    58.19335    67.17300
11493.50000    10.55491    57.33525    69.85615
11494.00000    10.55678    56.47714    72.53930
11494.50000    10.55866    55.61904    75.22246
11495.00000    10.56054    54.76093    77.04247
11495.50000    10.56242    58.04774    77.65544
11496.00000    10.56430    69.65988    78.26841
11496.50000    10.56618    76.81480    78.88137
11497.00000    10.56806    74.60589    78.45454
11497.50000    10.56994    72.39697    77.69254
11498.00000    10.57182    70.18805    76.93055
11498.50000    10.58513    67.97913    76.16855
11499.00000    10.61163    65.77021    75.40655
11499.50000    10.63813    63.56130    76.03318
11500.00000    10.66464    61.35238    76.70425
11500.50000    10.69114    59.14346    77.37532
11501.00000    10.71764    56.93454    78.04640
11501.50000    10.74414    62.40178    76.75411
11502.00000    10.77065    72.67464    74.93242
