###############################################
##         ENVERUS                           ##
##         ESS - Open Hole                   ##
##         PERMIAN / DELAWARE                ##
##         Nov 02 2023  V4.0                 ##
##         42-109-31408-00-00                ##
###############################################
## Copyright 2017-2023  ENVERUS.  All Rights Reserved. 
## Confidential - Property of ENVERUS, use governed by terms and 
## conditions found within the existing Information Services Subscription Agreement 
## (as may be amended, the “ISSA”) between Customer and ENVERUS. 
## 
~VERSION INFORMATION
# MNEM.UNIT                               DATA : DESCRIPTION OF MNEMONIC
#-----.-----     ----------------------------- : -----------------------------
VERS.                                     2.00 : CWLS LOG ASCII STANDARD - VERSION 2.00
WRAP.                                       NO : MULTIPLE LINES PER DEPTH STEP
VEND.                                  ENVERUS : VENDOR
TYPE.                          ESS - OPEN HOLE : ENVERUS ESSENTIAL CURVES – ACCESSIBLE THROUGH ENVERUS PRISM(TM)
DOC.                                  31850517 : ENVERUS HEADER RAW DOCUMENT ID
#___________________________________________________________________________________________________ 
~WELL INFORMATION 
# bqLd+XSZJOn45CI61XVoQu+UOVndmKoY6sdO6/bnbKn7IExcVbobTFa2ZjWyWmdO1mIol927X6bTh1nHm93KmQ== 
# MNEM.UNIT                                              DATA : DESCRIPTION OF MNEMONIC 
#-----.-----                    ----------------------------- : ----------------------------- 
CNTY.                                               CULBERSON : COUNTY 
STATE.                                                  TEXAS : STATE 
CNTRY.                                                    USA : COUNTRY 
API.                                             42-109-31408 : API (10 Digit) 
API_14.                                    42-109-31408-00-00 : API (14 Digits) 
API_14_std.                                 42-109-31408-0000 : API (14 Digits Standard) 
UWI.                                           42109314080000 : UNIQUE WELL ID 
WELL.                                           CASTILE 48  1 : WELL NAME
STRT.FT                                                2207.0 : START DEPTH
STOP.FT                                               11710.0 : STOP DEPTH
STEP.FT                                                   0.5 : STEP BETWEEN DEPTHS
NULL.                                                 -999.25 : NULL VALUE
COMP.                                         TENNECO OIL CO. : COMPANY 
DATE.                                             28-APR-1980 : LOG DATE
#___________________________________________________________________________________________________ 
~CURVE INFORMATION 
# MNEM.UNIT           : CURVE DESCRIPTION 
#-----.-----          : ----------------------------- 
 DEPT.FT               : MEASURED DEPTH 
 CALI.IN               : CALIPER (CAL - CAL) 
 GR.API                : GAMMA RAY (GR) 
 DT.US/FT              : SONIC DELTA TRANSIT TIME (DT) 
 RESS.OHMM             : SHALLOW INDUCTION RESISTIVITY (ILS - ILS) 
 RESD.OHMM             : DEEP INDUCTION RESISTIVITY (ILD - ILD) 
 #___________________________________________________________________________________________________ 
~A         DEPT           CALI             GR             DT           RESS           RESD
# ...
         5991.0         11.068         24.908         58.502        159.411        138.756
         5991.5         11.048         24.192         58.984        138.905        136.945
         5992.0         11.027         24.355         58.447        118.400        136.953
         5992.5         11.007         25.515         57.910        114.286        139.494
         5993.0         10.986         26.675         57.374        115.053        146.673
         5993.5         10.966         27.834         56.837        126.769        153.852
         5994.0         10.945         28.994         56.301        140.901        161.030
         5994.5         10.925         30.154         56.781        155.033        168.209
         5995.0         10.904         29.876         57.521        169.166        175.053
         5995.5         10.884         29.408         58.261        179.132        181.796
         5996.0         10.863         28.940         59.002        184.636        188.539
         5996.5         10.843         28.471         58.692        190.140        195.282
         5997.0         10.822         28.732         58.137        195.644        202.025
         5997.5         10.802         29.042         57.582        203.211        208.768
         5998.0         10.781         29.351         57.028        248.227        228.836
         5998.5         10.761         29.661         56.473        293.243        254.347
         5999.0         10.740         29.971         55.918        245.295        279.859
         5999.5         10.720         30.280         61.245        191.278        178.874
         6000.0         10.699         32.365         66.968        137.262        138.740
         6000.5         10.679         41.387         70.865         89.721         98.605
         6001.0         10.658         50.408         69.319         65.520         58.471
         6001.5         10.638         53.954         67.774         41.320         39.392
         6002.0         10.617         52.798         66.228         37.975         36.860
         6002.5         10.597         51.641         65.733         34.898         34.329
         6003.0         10.598         50.723         66.866         31.821         31.797
         6003.5         10.604         51.260         68.000         32.863         29.265
         6004.0         10.610         51.797         69.133         34.798         34.426
         6004.5         10.616         52.334         68.826         42.761         46.238
         6005.0         10.621         52.871         66.148         61.845         58.050
         6005.5         10.627         53.408         63.470         80.928         69.863
         6006.0         10.633         28.559         60.793         82.744         66.879
         6006.5         10.639         28.834         58.558         71.667         57.114
         6007.0         10.645         29.109         60.022         60.590         47.350
         6007.5         10.651         29.384         61.485         51.544         89.137
         6008.0         10.657         29.660         61.185         46.674        141.155
         6008.5         10.663         29.393         59.643         92.003        193.172
         6009.0         10.669         28.066         58.101        143.995        245.190
         6009.5         10.674         26.739         56.559        195.988        254.900
         6010.0         10.676         25.412         55.017        191.290        249.788
         6010.5         10.678         24.085         54.900        186.583        244.676
         6011.0         10.680         22.758         55.229        181.876        239.564
         6011.5         10.681         21.431         55.557        183.925        234.452
         6012.0         10.683         21.408         55.885        186.739        229.340
         6012.5         10.685         22.478         56.214        189.554        223.605
         6013.0         10.687         23.548         56.542        192.368        216.580
         6013.5         10.689         24.617         56.870        195.182        209.554
         6014.0         10.691         25.687         57.199        197.996        202.529
         6014.5         10.693         26.757         57.378        194.166        195.503
         6015.0         10.695         27.827         57.267        188.419        185.463
         6015.5         10.696         27.026         57.156        182.673        173.559
         6016.0         10.698         25.868         57.045        175.837        161.656
         6016.5         10.700         24.710         56.934        167.277        149.752
         6017.0         10.702         24.283         56.822        158.717        141.430
         6017.5         10.704         24.765         56.711        150.157        139.670
         6018.0         10.706         25.247         56.600        141.597        137.911
         6018.5         10.708         25.729         56.489        126.327        136.151
         6019.0         10.710         26.211         56.537        109.730        134.392
         6019.5         10.711         26.693         56.761         98.948        137.641
         6020.0         10.713         27.175         56.985        112.007        141.311
         6020.5         10.715         27.543         57.208        125.066        144.982
         6021.0         10.717         27.867         57.432        138.125        148.652
         6021.5         10.719         28.192         57.655        130.483        150.081
         6022.0         10.721         28.516         57.879        107.472        117.309
         6022.5         10.723         28.840         58.168         87.843         86.849
         6023.0         10.725         29.165         59.600         68.214         67.100
         6023.5         10.726         29.489         61.033         48.586         47.351
         6024.0         10.731         29.814         62.465         28.957         27.603
         6024.5         10.758         34.274         63.897         16.962         16.268
         6025.0         10.786         39.360         65.330         16.143         16.096
         6025.5         10.813         43.204         66.758         15.325         15.924
         6026.0         10.841         46.481         66.622         14.027         15.751
         6026.5         10.869         49.757         66.485         12.641         15.394
         6027.0         10.896         49.912         66.349         11.570         14.478
         6027.5         10.924         49.844         66.212         11.494         13.562
         6028.0         10.949         49.776         66.076         11.223         12.646
         6028.5         10.969         49.708         66.572         10.442         12.008
         6029.0         10.990         49.639         67.510          9.661         11.661
         6029.5         11.011         49.571         68.449          9.700         11.315
         6030.0         11.031         49.858         69.387         10.094         10.968
         6030.5         11.052         51.680         70.326          9.443         10.642
         6031.0         11.073         53.502         71.264          8.517         10.920
         6031.5         11.093         55.324         72.202          9.085         11.198
         6032.0         11.096         57.145         71.975          9.653         11.476
         6032.5         11.088         55.800         70.897         10.127         12.475
         6033.0         11.079         53.369         69.820         10.369         13.579
         6033.5         11.071         50.939         68.289         10.611         14.682
         6034.0         11.062         48.508         66.533         14.221         15.786
         6034.5         11.053         46.077         64.777         21.025         20.378
