###############################################
##         ENVERUS                           ##
##         ESS - Open Hole                   ##
##         PERMIAN / DELAWARE                ##
##         Nov 02 2023  V4.0                 ##
##         42-109-31550-00-00                ##
###############################################
## Copyright 2017-2023  ENVERUS.  All Rights Reserved. 
## Confidential - Property of ENVERUS, use governed by terms and 
## conditions found within the existing Information Services Subscription Agreement 
## (as may be amended, the “ISSA”) between Customer and ENVERUS. 
## 
~VERSION INFORMATION
# MNEM.UNIT                               DATA : DESCRIPTION OF MNEMONIC
#-----.-----     ----------------------------- : -----------------------------
VERS.                                     2.00 : CWLS LOG ASCII STANDARD - VERSION 2.00
WRAP.                                       NO : MULTIPLE LINES PER DEPTH STEP
VEND.                                  ENVERUS : VENDOR
TYPE.                          ESS - OPEN HOLE : ENVERUS ESSENTIAL CURVES – ACCESSIBLE THROUGH ENVERUS PRISM(TM)
DOC.                                  22584426 : ENVERUS HEADER RAW DOCUMENT ID
#___________________________________________________________________________________________________ 
~WELL INFORMATION 
# ASdzl/zqz3tyMoI2i40d5lqA861uk+/GXWRvioHJ4uiq1sQ7a4yIDDt4z64Puw3+ifUTTkKIB4eyCaXtXAsvCw== 
# MNEM.UNIT                                              DATA : DESCRIPTION OF MNEMONIC 
#-----.-----                    ----------------------------- : ----------------------------- 
CNTY.                                               CULBERSON : COUNTY 
STATE.                                                  TEXAS : STATE 
CNTRY.                                                    USA : COUNTRY 
API.                                             42-109-31550 : API (10 Digit) 
API_14.                                    42-109-31550-00-00 : API (14 Digits) 
API_14_std.                                 42-109-31550-0000 : API (14 Digits Standard) 
UWI.                                           42109315500000 : UNIQUE WELL ID 
WELL.                                       UNIVERSITY_6-46-1 : WELL NAME
STRT.FT                                                 249.5 : START DEPTH
STOP.FT                                               10300.0 : STOP DEPTH
STEP.FT                                                   0.5 : STEP BETWEEN DEPTHS
NULL.                                                 -999.25 : NULL VALUE
COMP.                                    MONSANTO OIL COMPANY : COMPANY 
FLD.                                                  WILDCAT : FIELD 
DATE.                                              10/31/2016 : DATE 
TVD.                                                       NO : TVD FLAG 
WSTA.                                                     LOC : WELL STATUS
#___________________________________________________________________________________________________ 
~PARAMETER INFORMATION 
# MNEM.UNIT                                              DATA : DESCRIPTION OF MNEMONIC 
#-----.-----                    ----------------------------- : ----------------------------- 
RUN.                                                      ONE : RUN NUMBER 
PDAT.                                                      GL : PERMANENT DATUM 
LMF.                                            KELLY BUSHING : LOG MEASURED FROM
#___________________________________________________________________________________________________ 
~CURVE INFORMATION 
# MNEM.UNIT           : CURVE DESCRIPTION 
#-----.-----          : ----------------------------- 
 DEPT.FT               : MEASURED DEPTH 
 DT.US/FT              : SONIC DELTA TRANSIT TIME (DELTA-T) 
 RESS_LL.OHMM          : SHALLOW LATEROLOG (LLS - LATERO-LOG SHALLOW (RESISTIVITY)) 
 RESD_LL.OHMM          : DEEP LATEROLOG (LLD - LATERO-LOG DEEP (RESISTIVITY)) 
 #___________________________________________________________________________________________________ 
~A         DEPT             DT        RESS_LL        RESD_LL
# ...
         1701.5         63.982      1312.5487      1716.7155
         1702.0         64.162      1453.2373      1831.6355
         1702.5         64.794      1328.4686      1686.2012
         1703.0         65.366      1196.6774      1480.3920
         1703.5         65.548      1089.3211      1191.2554
         1704.0         65.423       994.2885       967.0571
         1704.5         65.839       898.0309       967.0571
         1705.0         66.620       796.2143       788.1482
         1705.5         67.226       631.7242       595.7446
         1706.0         67.324       478.5469       432.0954
         1706.5         66.577       386.7784       352.9345
         1707.0         65.787       321.4106       288.2760
         1707.5         65.336       277.1651       235.4631
         1708.0         65.216       230.5003       192.3257
         1708.5         65.366       187.8860       157.6548
         1709.0         65.336       162.0215       147.3904
         1709.5         64.975       150.4568       147.4317
         1710.0         64.554       157.5841       156.8564
         1710.5         64.388       169.6966       173.6628
         1711.0         64.430       182.7402       192.2698
         1711.5         64.645       198.6163       212.8705
         1712.0         64.318       215.1280       235.6784
         1712.5         63.448       238.7066       260.9301
         1713.0         62.688       253.2435       274.6113
         1713.5         62.688       248.0261       277.1651
         1714.0         63.440       234.1057       259.7753
         1714.5         64.223       221.9505       255.0102
         1715.0         64.116       248.0261       282.6944
         1715.5         62.885       243.4765       301.6982
         1716.0         62.259       264.6294       301.0920
         1716.5         62.355       252.6606       301.6435
         1717.0         63.173       255.0102       236.8496
         1717.5         64.559       184.4396       221.8686
         1718.0         66.000       171.2747       210.4042
         1718.5         66.510       177.7353       194.9731
         1719.0         66.449       181.0564       201.1023
         1719.5         65.878       186.1548       205.3758
         1720.0         65.697       189.6332       207.7861
         1720.5         65.908       186.1548       209.9390
         1721.0         66.299       179.3882       197.7008
         1721.5         66.961       169.6966       191.1302
         1722.0         67.292       165.4773       185.8515
         1722.5         66.871       163.5283       182.7981
         1723.0         66.510       169.6966       191.7736
         1723.5         66.179       176.0977       204.2092
         1724.0         66.329       170.4050       195.2910
         1724.5         67.478       165.0490       195.6621
         1725.0         68.044       154.6936       175.2122
         1725.5         68.526       147.6970       166.2133
         1726.0         68.766       141.4091       163.0446
         1726.5         68.887       139.7176       160.5287
         1727.0         68.766       143.6519       165.8744
         1727.5         68.375       150.4568       172.1689
         1728.0         67.803       156.1610       179.6042
         1728.5         67.533       160.5287       186.1548
         1729.0         67.894       157.4242       180.4827
         1729.5         68.616       150.5688       172.9876
         1730.0         69.037       144.5271       165.6613
         1730.5         69.579       138.4302       159.5509
         1731.0         69.639       134.6389       154.0743
         1731.5         69.639       129.6860       147.6970
         1732.0         69.669       129.7761       149.2086
         1732.5         69.669       129.7557       151.5635
         1733.0         69.398       129.7070       155.0789
         1733.5         68.887       137.1548       163.6098
         1734.0         68.737       140.1321       163.4811
         1734.5         68.587       141.0169       163.5218
         1735.0         68.436       138.4302       163.5420
         1735.5         68.314       137.1548       161.9935
         1736.0         68.373       135.6648       159.9771
         1736.5         68.492       133.3984       157.9833
         1737.0         68.642       133.3984       154.6578
         1737.5         69.123       132.1693       151.0674
         1738.0         69.639       128.5971       147.5494
         1738.5         70.361       123.8925       144.1823
         1739.0         70.903       118.1945       137.9442
         1739.5         71.143       114.0888       133.0219
         1740.0         71.204       112.8158       131.6895
         1740.5         71.143       112.8840       129.7449
         1741.0         71.023       112.9247       130.0464
         1741.5         71.143       113.9748       130.6725
         1742.0         71.038       114.3129       132.5177
         1742.5         70.642       117.1842       135.4197
         1743.0         70.160       120.5910       138.4302
         1743.5         69.708       122.7166       144.1806
         1744.0         69.255       128.4596       151.3298
         1744.5         68.616       137.1759       160.4822
         1745.0         67.984       146.3913       177.7353
         1745.5         66.871       158.8907       198.6163
         1746.0         65.923       172.8675       193.1766
         1746.5         64.975       188.1644       228.2683
         1747.0         64.373       202.3276       238.3376
         1747.5         64.283       208.0249       241.4109
         1748.0         64.741       202.3276       243.4765
         1748.5         65.420       187.8860       219.9055
         1749.0         65.965       174.4751       198.6163
         1749.5         66.238       163.5283       186.1548
         1750.0         66.382       164.0336       187.5963
         1750.5         66.475       164.8921       189.0709
         1751.0         66.629       168.1331       195.8141
         1751.5         66.269       172.8675       206.1989
         1752.0         65.486       179.3882       217.4552
         1752.5         64.584       194.7476       229.6555
         1753.0         64.313       202.3276       241.2883
         1753.5         64.975       206.1082       239.6959
         1754.0         66.284       196.7863       226.1397
         1754.5         67.533       174.4751       202.9795
         1755.0         67.954       162.0215       188.9214
         1755.5         67.954       156.1321       181.0564
         1756.0         68.104       154.6936       179.7974
         1756.5         68.315       153.2682       178.5026
         1757.0         68.375       151.8560       177.1741
         1757.5         68.465       150.4568       175.7923
         1758.0         68.616       147.6970       174.4751
         1758.5         68.766       147.6970       173.0610
         1759.0         69.037       146.3361       170.2769
         1759.5         69.616       142.3283       165.5654
         1760.0         69.966       137.1548       157.4487
         1760.5         70.476       128.5494       146.9014
         1761.0         70.803       121.6045       139.2205
         1761.5         70.984       117.2002       133.3984
         1762.0         71.395       113.9046       130.4675
         1762.5         72.043       111.8502       126.2004
         1763.0         72.228       111.8842       127.1057
         1763.5         72.016       111.8842       128.7561
         1764.0         71.647       115.0347       131.2745
         1764.5         71.083       118.2740       135.0196
         1765.0         70.542       122.7354       139.7176
         1765.5         70.030       127.3650       145.6754
         1766.0         69.699       133.3984       154.6495
         1766.5         69.127       142.1506       165.6406
         1767.0         68.435       153.2682       178.0811
