###############################################
##         ENVERUS                           ##
##         ESS - Open Hole                   ##
##         PERMIAN / DELAWARE                ##
##         Nov 03 2023  V4.0                 ##
##         42-109-32572-90-00                ##
###############################################
## Copyright 2017-2023  ENVERUS.  All Rights Reserved. 
## Confidential - Property of ENVERUS, use governed by terms and 
## conditions found within the existing Information Services Subscription Agreement 
## (as may be amended, the “ISSA”) between Customer and ENVERUS. 
## 
~VERSION INFORMATION
# MNEM.UNIT                               DATA : DESCRIPTION OF MNEMONIC
#-----.-----     ----------------------------- : -----------------------------
VERS.                                     2.00 : CWLS LOG ASCII STANDARD - VERSION 2.00
WRAP.                                       NO : MULTIPLE LINES PER DEPTH STEP
VEND.                                  ENVERUS : VENDOR
TYPE.                          ESS - OPEN HOLE : ENVERUS ESSENTIAL CURVES – ACCESSIBLE THROUGH ENVERUS PRISM(TM)
DOC.                                  51093105 : ENVERUS HEADER RAW DOCUMENT ID
#___________________________________________________________________________________________________ 
~WELL INFORMATION 
# JLMmoJa/ja/TVcwAQvDk33OYEn4U2aLD16xKSNtVAxpK3Y/5Eg5lhKgsZNDQ5ZP0fRHfEZLFMAnipg5oeA7W3g== 
# MNEM.UNIT                                              DATA : DESCRIPTION OF MNEMONIC 
#-----.-----                    ----------------------------- : ----------------------------- 
CNTY.                                               CULBERSON : COUNTY 
STATE.                                                  TEXAS : STATE 
CNTRY.                                                    USA : COUNTRY 
API.                                             42-109-32572 : API (10 Digit) 
API_14.                                    42-109-32572-90-00 : API (14 Digits) 
API_14_std.                                 42-109-32572-9000 : API (14 Digits Standard) 
UWI.                                           42109325729000 : UNIQUE WELL ID 
WELL.                               42109325720000_PREV_API14 : WELL NAME
STRT.FT                                                2248.5 : START DEPTH
STOP.FT                                               10721.5 : STOP DEPTH
STEP.FT                                                   0.5 : STEP BETWEEN DEPTHS
NULL.                                                 -999.25 : NULL VALUE
PREV_APII.                                     42109325720000 : WELL IDENTIFIER
#___________________________________________________________________________________________________ 
~PARAMETER INFORMATION 
# MNEM.UNIT                                              DATA : DESCRIPTION OF MNEMONIC 
#-----.-----                    ----------------------------- : ----------------------------- 
EKB.FT                                                   3340 : ELEVATION ABOVE MSL
#___________________________________________________________________________________________________ 
~CURVE INFORMATION 
# MNEM.UNIT           : CURVE DESCRIPTION 
#-----.-----          : ----------------------------- 
 DEPT.FT               : MEASURED DEPTH 
 GR__A.API             : GAMMA RAY (GAMMA RAY) 
 DT__A.US/FT           : SONIC DELTA TRANSIT TIME (SONIC) 
 #___________________________________________________________________________________________________ 
~A         DEPT          GR__A          DT__A
# ...
         7816.5        167.570         84.629
         7817.0        162.615         84.383
         7817.5        160.560         82.539
         7818.0        157.024         79.970
         7818.5        137.447         65.412
         7819.0         90.718         63.291
         7819.5         71.733         61.296
         7820.0         67.154         59.659
         7820.5         50.830         56.801
         7821.0         43.165         56.262
         7821.5         41.096         55.970
         7822.0         42.152         55.918
         7822.5         52.290         58.916
         7823.0         84.064         68.010
         7823.5        171.950         77.649
         7824.0        195.560         78.639
         7824.5        237.697         86.020
         7825.0        237.573         89.163
         7825.5        237.825         92.281
         7826.0        243.293         93.367
         7826.5        251.257         94.338
         7827.0        255.739         94.728
         7827.5        246.854         91.227
         7828.0        234.298         86.697
         7828.5        179.140         77.482
         7829.0        136.325         75.439
         7829.5        130.814         73.372
         7830.0        127.389         72.580
         7830.5        122.896         72.794
         7831.0        127.759         74.105
         7831.5        131.258         75.867
         7832.0        133.604         77.023
         7832.5        137.194         78.477
         7833.0        137.761         77.708
         7833.5        135.421         76.914
         7834.0        136.274         76.523
         7834.5        140.639         75.905
         7835.0        142.985         75.936
         7835.5        143.906         76.945
         7836.0        141.693         77.531
         7836.5        139.422         77.620
         7837.0        130.813         75.467
         7837.5        114.168         71.641
         7838.0        107.585         71.445
         7838.5        103.996         71.836
         7839.0        103.438         72.268
         7839.5        103.863         74.595
         7840.0        114.625         75.445
         7840.5        118.305         76.107
         7841.0        118.880         75.938
         7841.5        118.351         75.912
         7842.0        120.647         74.178
         7842.5        113.613         70.726
         7843.0         97.356         69.785
         7843.5         86.400         69.688
         7844.0         90.305         69.800
         7844.5        108.425         75.921
         7845.0        124.759         79.182
         7845.5        136.847         80.332
         7846.0        141.292         80.527
         7846.5        134.467         79.860
         7847.0        121.961         75.957
         7847.5        111.237         73.984
         7848.0        108.806         73.984
         7848.5        109.198         74.198
         7849.0        109.589         74.588
         7849.5        108.348         75.237
         7850.0        106.523         74.749
         7850.5        107.632         74.457
         7851.0        103.957         74.165
         7851.5         98.551         74.553
         7852.0        101.455         75.924
         7852.5        108.215         76.732
         7853.0        114.338         77.012
         7853.5        115.018         77.207
         7854.0        112.232         77.512
         7854.5        112.421         77.968
         7855.0        117.335         79.367
         7855.5        128.328         80.430
         7856.0        133.508         80.537
         7856.5        144.240         84.039
         7857.0        155.845         87.470
         7857.5        163.635         86.281
         7858.0        165.198         85.793
         7858.5        165.318         85.598
         7859.0        162.025         82.955
         7859.5        163.715         83.801
         7860.0        168.817         85.382
         7860.5        177.047         86.783
         7861.0        163.973         87.273
         7861.5        165.422         89.321
         7862.0        172.753         89.606
         7862.5        184.795         89.414
         7863.0        180.333         89.414
         7863.5        166.697         89.607
         7864.0        155.429         88.457
         7864.5        117.713         75.523
         7865.0         86.867         68.411
         7865.5         63.405         65.781
         7866.0         55.398         65.489
         7866.5         55.147         65.487
         7867.0         62.225         69.290
         7867.5         63.405         73.789
         7868.0         63.024         74.275
         7868.5         61.069         74.570
         7869.0         61.043         73.849
         7869.5         60.682         72.823
         7870.0         61.430         72.282
         7870.5         63.014         71.743
         7871.0         62.645         71.440
         7871.5         67.710         72.599
         7872.0         68.102         74.212
         7872.5         62.695         66.665
         7873.0         47.168         65.500
         7873.5         41.912         63.219
         7874.0         52.398         59.825
         7874.5         91.697         69.288
         7875.0        112.890         85.204
         7875.5        147.365         87.592
         7876.0        163.251         88.703
         7876.5        176.621         95.806
         7877.0        180.020         97.136
         7877.5        183.562         97.715
         7878.0        180.480         98.093
         7878.5        172.738         97.910
         7879.0        172.882         97.576
         7879.5        175.676         95.107
         7880.0        173.566         94.312
         7880.5        169.534         94.297
         7881.0        170.190         93.979
         7881.5        165.208         93.239
         7882.0        156.919         92.493
         7882.5        156.183         91.776
         7883.0        170.063         91.660
         7883.5        182.962         91.856
         7884.0        185.833         92.599
         7884.5        182.310         93.496
         7885.0        172.496         93.516
         7885.5        167.989         92.922
         7886.0        166.035         91.820
         7886.5        165.558         90.521
         7887.0        164.384         89.534
         7887.5        168.426         89.414
         7888.0        179.433         90.469
         7888.5        203.547         93.982
         7889.0        210.069         94.101
         7889.5        188.938         88.616
         7890.0        170.492         87.255
         7890.5         74.661         79.963
         7891.0         61.661         71.098
         7891.5         60.274         69.160
         7892.0         55.688         70.442
         7892.5         54.403         70.469
         7893.0         60.923         70.469
         7893.5         62.739         70.229
         7894.0         59.285         69.356
         7894.5         54.915         68.906
         7895.0         55.186         68.839
         7895.5         87.315         68.895
         7896.0         99.517         72.092
         7896.5        122.259         70.042
         7897.0        103.458         67.686
         7897.5         93.934         66.858
         7898.0        106.013         66.203
         7898.5        122.376         72.919
         7899.0        108.820         75.187
         7899.5         87.989         70.327
         7900.0         85.467         69.821
         7900.5         91.668         69.395
         7901.0         87.946         70.371
         7901.5         71.984         69.293
         7902.0         69.667         68.554
         7902.5         72.763         68.380
         7903.0         69.588         69.776
