###############################################
##         ENVERUS                           ##
##         ESS - Open Hole                   ##
##         PERMIAN / DELAWARE                ##
##         Nov 03 2023  V4.0                 ##
##         42-109-32620-90-00                ##
###############################################
## Copyright 2017-2023  ENVERUS.  All Rights Reserved. 
## Confidential - Property of ENVERUS, use governed by terms and 
## conditions found within the existing Information Services Subscription Agreement 
## (as may be amended, the “ISSA”) between Customer and ENVERUS. 
## 
~VERSION INFORMATION
# MNEM.UNIT                               DATA : DESCRIPTION OF MNEMONIC
#-----.-----     ----------------------------- : -----------------------------
VERS.                                     2.00 : CWLS LOG ASCII STANDARD - VERSION 2.00
WRAP.                                       NO : MULTIPLE LINES PER DEPTH STEP
VEND.                                  ENVERUS : VENDOR
TYPE.                          ESS - OPEN HOLE : ENVERUS ESSENTIAL CURVES – ACCESSIBLE THROUGH ENVERUS PRISM(TM)
DOC.                                  51092952 : ENVERUS HEADER RAW DOCUMENT ID
#___________________________________________________________________________________________________ 
~WELL INFORMATION 
# LYPeWtxrle9FodilXqet+3VuPRh8A73lGXm1Q3+VPjdIM+tEhu367IfA47DlYFnVF+yDwY76OrXOyADpoj01xA== 
# MNEM.UNIT                                              DATA : DESCRIPTION OF MNEMONIC 
#-----.-----                    ----------------------------- : ----------------------------- 
CNTY.                                               CULBERSON : COUNTY 
STATE.                                                  TEXAS : STATE 
CNTRY.                                                    USA : COUNTRY 
API.                                             42-109-32620 : API (10 Digit) 
API_14.                                    42-109-32620-90-00 : API (14 Digits) 
API_14_std.                                 42-109-32620-9000 : API (14 Digits Standard) 
UWI.                                           42109326209000 : UNIQUE WELL ID 
WELL.                               42109326200000_PREV_API14 : WELL NAME
STRT.FT                                                2339.0 : START DEPTH
STOP.FT                                               10866.0 : STOP DEPTH
STEP.FT                                                   0.5 : STEP BETWEEN DEPTHS
NULL.                                                 -999.25 : NULL VALUE
PREV_APII.                                     42109326200000 : WELL IDENTIFIER
#___________________________________________________________________________________________________ 
~PARAMETER INFORMATION 
# MNEM.UNIT                                              DATA : DESCRIPTION OF MNEMONIC 
#-----.-----                    ----------------------------- : ----------------------------- 
EKB.FT                                                   3330 : ELEVATION ABOVE MSL
#___________________________________________________________________________________________________ 
~CURVE INFORMATION 
# MNEM.UNIT           : CURVE DESCRIPTION 
#-----.-----          : ----------------------------- 
 DEPT.FT               : MEASURED DEPTH 
 GR__A.API             : GAMMA RAY (GAMMA RAY) 
 DT__A.US/FT           : SONIC DELTA TRANSIT TIME (SONIC) 
 #___________________________________________________________________________________________________ 
~A         DEPT          GR__A          DT__A
# ...
         5123.0        243.523        109.788
         5123.5        301.919         99.877
         5124.0        402.876         94.708
         5124.5        424.726         94.559
         5125.0        397.300        103.402
         5125.5        312.260        114.446
         5126.0        250.636        118.777
         5126.5        219.456        119.158
         5127.0        209.007        118.914
         5127.5        223.932        118.355
         5128.0        225.019        119.052
         5128.5        204.825        121.819
         5129.0        180.511        123.402
         5129.5        171.258        122.672
         5130.0        175.688        120.251
         5130.5        181.479        118.836
         5131.0        188.213        118.022
         5131.5        209.104        117.610
         5132.0        222.329        117.553
         5132.5        212.052        116.785
         5133.0        202.289        115.948
         5133.5        194.497        117.434
         5134.0        184.036        118.454
         5134.5        168.763        119.383
         5135.0        161.654        121.016
         5135.5        140.796        124.515
         5136.0        117.238        131.341
         5136.5         95.192        139.309
         5137.0         94.343        136.552
         5137.5         92.478        128.603
         5138.0         85.526        125.264
         5138.5         82.034        127.279
         5139.0         86.488        128.019
         5139.5         95.621        122.537
         5140.0        103.390        117.020
         5140.5        103.419        110.846
         5141.0        102.813        110.687
         5141.5        115.187        112.652
         5142.0        129.816        115.087
         5142.5        183.770        116.738
         5143.0        243.257        116.451
         5143.5        276.362        114.533
         5144.0        269.855        113.963
         5144.5        237.335        115.178
         5145.0        203.775        116.593
         5145.5        186.751        117.635
         5146.0        178.582        119.689
         5146.5        160.970        120.562
         5147.0        135.839        120.161
         5147.5        138.207        118.557
         5148.0        155.963        115.526
         5148.5        194.989        113.018
         5149.0        213.429        111.837
         5149.5        220.774        114.784
         5150.0        212.710        120.613
         5150.5        192.029        127.062
         5151.0        181.683        128.586
         5151.5        188.810        125.483
         5152.0        197.204        119.562
         5152.5        202.510        116.339
         5153.0        217.574        113.888
         5153.5        235.928        111.719
         5154.0        228.648        116.569
         5154.5        187.977        122.823
         5155.0        157.231        124.372
         5155.5        165.495        124.257
         5156.0        184.062        120.632
         5156.5        224.546        118.155
         5157.0        236.280        117.186
         5157.5        241.517        115.625
         5158.0        237.394        116.081
         5158.5        235.816        116.349
         5159.0        241.557        115.058
         5159.5        241.449        114.109
         5160.0        244.398        113.942
         5160.5        252.614        112.372
         5161.0        265.058        109.631
         5161.5        272.591        108.927
         5162.0        262.496        110.017
         5162.5        219.074        114.309
         5163.0        202.491        116.648
         5163.5        186.271        121.931
         5164.0        168.730        125.643
         5164.5        136.283        128.078
         5165.0        136.216        128.364
         5165.5        152.786        123.671
         5166.0        163.869        123.882
         5166.5        168.566        125.176
         5167.0        158.677        125.710
         5167.5        166.907        124.096
         5168.0        171.743        121.030
         5168.5        175.748        120.562
         5169.0        177.999        117.787
         5169.5        185.293        117.954
         5170.0        195.407        116.049
         5170.5        224.373        113.503
         5171.0        249.937        107.613
         5171.5        304.450        103.244
         5172.0        329.266        101.526
         5172.5        315.041        108.707
         5173.0        258.697        116.549
         5173.5        209.426        115.993
         5174.0        203.772        114.576
         5174.5        165.474        121.061
         5175.0        112.272        131.659
         5175.5         73.121        137.496
         5176.0         71.724        136.143
         5176.5         76.536        126.397
         5177.0         78.155        121.832
         5177.5         78.643        119.810
         5178.0         81.747        116.940
         5178.5         95.452        112.159
         5179.0        115.967        110.732
         5179.5        136.948        111.980
         5180.0        140.959        116.371
         5180.5        201.163        116.984
         5181.0        218.730        118.723
         5181.5        203.770        120.963
         5182.0        204.359        120.896
         5182.5        238.158        120.049
         5183.0        236.074        117.945
         5183.5        177.841        121.765
         5184.0        158.792        123.080
         5184.5        121.203        121.882
         5185.0        134.997        119.960
         5185.5        153.139        116.633
         5186.0        158.994        116.305
         5186.5        172.423        116.015
         5187.0        183.123        113.574
         5187.5        169.588        111.863
         5188.0        153.485        109.227
         5188.5        122.111        112.672
         5189.0        116.699        114.566
         5189.5        109.845        114.677
         5190.0        105.699        112.838
         5190.5        107.520        107.483
         5191.0        112.909        106.386
         5191.5        116.723        106.520
         5192.0        115.990        107.211
         5192.5        114.571        108.275
         5193.0        114.970        119.485
         5193.5        107.625        127.489
         5194.0         97.468        128.933
         5194.5        103.123        118.626
         5195.0        118.657        109.939
         5195.5        126.880        106.753
         5196.0        125.393        105.561
         5196.5        112.062        103.426
         5197.0        106.587        102.307
         5197.5        108.617        100.891
         5198.0        111.822        100.925
         5198.5        114.573        102.692
         5199.0        126.798        106.110
         5199.5        144.447        108.185
         5200.0        142.247        104.312
         5200.5        127.597        102.390
         5201.0        121.977         98.972
         5201.5        117.564         95.636
         5202.0        113.903         95.398
         5202.5        106.728         94.415
         5203.0        103.794         91.741
         5203.5        110.628         91.073
         5204.0        116.148         90.873
         5204.5        124.024         94.737
         5205.0        135.512         98.051
         5205.5        134.206        102.698
         5206.0        123.351        101.303
         5206.5        114.548         98.165
         5207.0        114.172         96.690
         5207.5        114.639         95.837
         5208.0        116.567         96.735
         5208.5        115.744         96.690
         5209.0        109.377         97.661
         5209.5        105.945        100.350
