###############################################
##         ENVERUS                           ##
##         ESS - Open Hole                   ##
##         PERMIAN / DELAWARE                ##
##         Nov 02 2023  V4.0                 ##
##         42-109-32346-90-00                ##
###############################################
## Copyright 2017-2023  ENVERUS.  All Rights Reserved. 
## Confidential - Property of ENVERUS, use governed by terms and 
## conditions found within the existing Information Services Subscription Agreement 
## (as may be amended, the “ISSA”) between Customer and ENVERUS. 
## 
~VERSION INFORMATION
# MNEM.UNIT                               DATA : DESCRIPTION OF MNEMONIC
#-----.-----     ----------------------------- : -----------------------------
VERS.                                     2.00 : CWLS LOG ASCII STANDARD - VERSION 2.00
WRAP.                                       NO : MULTIPLE LINES PER DEPTH STEP
VEND.                                  ENVERUS : VENDOR
TYPE.                          ESS - OPEN HOLE : ENVERUS ESSENTIAL CURVES – ACCESSIBLE THROUGH ENVERUS PRISM(TM)
DOC.                                  51092887 : ENVERUS HEADER RAW DOCUMENT ID
#___________________________________________________________________________________________________ 
~WELL INFORMATION 
# XhrHiXkIrwGIJmPLTIo0+WseqdI1VWn+o0JF90EYfb9BJ/ikjsIPmHpj3yVLlwnYQ/npclNvflN3Ll99f4ZCqQ== 
# MNEM.UNIT                                              DATA : DESCRIPTION OF MNEMONIC 
#-----.-----                    ----------------------------- : ----------------------------- 
CNTY.                                               CULBERSON : COUNTY 
STATE.                                                  TEXAS : STATE 
CNTRY.                                                    USA : COUNTRY 
API.                                             42-109-32346 : API (10 Digit) 
API_14.                                    42-109-32346-90-00 : API (14 Digits) 
API_14_std.                                 42-109-32346-9000 : API (14 Digits Standard) 
UWI.                                           42109323469000 : UNIQUE WELL ID 
WELL.                                                  DRD_55 : WELL NAME
STRT.FT                                                 334.5 : START DEPTH
STOP.FT                                                4950.0 : STOP DEPTH
STEP.FT                                                   0.5 : STEP BETWEEN DEPTHS
NULL.                                                 -999.25 : NULL VALUE
PREV_APII.                                     42109323460000 : WELL IDENTIFIER
#___________________________________________________________________________________________________ 
~PARAMETER INFORMATION 
# MNEM.UNIT                                              DATA : DESCRIPTION OF MNEMONIC 
#-----.-----                    ----------------------------- : -----------------------------
#___________________________________________________________________________________________________ 
~CURVE INFORMATION 
# MNEM.UNIT           : CURVE DESCRIPTION 
#-----.-----          : ----------------------------- 
 DEPT.FT               : MEASURED DEPTH 
 CALI.IN               : CALIPER (CAL - CALIPER) 
 GR.API                : GAMMA RAY (GAMMA RAY) 
 DT.US/FT              : SONIC DELTA TRANSIT TIME (SONIC) 
 #___________________________________________________________________________________________________ 
~A         DEPT           CALI             GR             DT
# ...
         2182.5          9.275         38.281         75.252
         2183.0          9.294         38.988         76.252
         2183.5          9.294         41.970         77.496
         2184.0          9.314         43.036         77.858
         2184.5          9.314         43.275         77.819
         2185.0          9.333         43.665         77.546
         2185.5          9.333         42.431         77.591
         2186.0          9.353         42.105         77.863
         2186.5          9.372         44.062         78.030
         2187.0          9.394         44.207         78.083
         2187.5          9.431         41.439         77.970
         2188.0          9.435         40.193         77.940
         2188.5          9.450         44.219         78.322
         2189.0          9.431         48.332         78.627
         2189.5          9.424         53.780         78.822
         2190.0          9.411         55.244         78.762
         2190.5          9.411         56.247         78.240
         2191.0          9.411         54.091         77.210
         2191.5          9.381         53.021         76.476
         2192.0          9.372         53.411         76.646
         2192.5          9.372         53.088         77.555
         2193.0          9.372         52.688         78.665
         2193.5          9.372         48.159         78.535
         2194.0          9.372         45.065         77.501
         2194.5          9.392         41.351         76.516
         2195.0          9.431         40.710         77.171
         2195.5          9.431         47.330         79.013
         2196.0          9.470         48.935         80.848
         2196.5          9.470         50.323         80.444
         2197.0          9.470         51.890         80.155
         2197.5          9.450         51.684         80.162
         2198.0          9.450         50.832         79.815
         2198.5          9.450         50.192         79.142
         2199.0          9.450         49.910         78.447
         2199.5          9.450         49.839         77.757
         2200.0          9.450         49.033         77.861
         2200.5          9.470         49.570         78.606
         2201.0          9.500         55.086         79.387
         2201.5          9.528         56.414         79.938
         2202.0          9.541         55.429         80.058
         2202.5          9.567         54.083         80.260
         2203.0          9.587         51.776         80.447
         2203.5          9.587         43.167         81.603
         2204.0          9.587         40.350         82.804
         2204.5          9.602         37.639         83.685
         2205.0          9.567         38.391         83.855
         2205.5          9.548         42.812         80.239
         2206.0          9.527         46.212         81.036
         2206.5          9.470         48.905         81.226
         2207.0          9.428         47.107         83.408
         2207.5          9.392         45.765         85.460
         2208.0          9.397         45.365         85.438
         2208.5          9.411         45.093         84.732
         2209.0          9.372         44.834         82.448
         2209.5          9.286         46.020         80.980
         2210.0          9.275         46.589         82.204
         2210.5          9.255         46.589         85.727
         2211.0          9.255         46.703         85.880
         2211.5          9.255         46.784         86.336
         2212.0          9.255         47.571         86.777
         2212.5          9.255         48.003         86.397
         2213.0          9.255         46.238         86.285
         2213.5          9.272         47.003         86.157
         2214.0          9.255         47.953         85.151
         2214.5          9.236         47.953         83.511
         2215.0          9.236         50.105         83.797
         2215.5          9.177         51.934         84.626
         2216.0          9.097         47.297         86.010
         2216.5          9.041         41.961         86.543
         2217.0          9.041         37.810         85.295
         2217.5          9.041         37.686         84.665
         2218.0          9.041         40.413         83.588
         2218.5          9.014         48.415         84.015
         2219.0          8.963         48.475         83.330
         2219.5          8.963         42.576         81.649
         2220.0          8.963         39.664         80.912
         2220.5          8.905         35.334         80.296
         2221.0          8.905         33.600         82.262
         2221.5          8.996         35.000         84.922
         2222.0          9.041         35.867         86.810
         2222.5          9.080         35.909         86.871
         2223.0          9.080         35.836         86.034
         2223.5          9.080         36.605         86.034
         2224.0          9.080         37.611         86.073
         2224.5          9.060         39.957         85.711
         2225.0          9.060         41.706         86.069
         2225.5          8.981         41.521         86.281
         2226.0          8.944         41.491         85.694
         2226.5          8.920         41.560         83.212
         2227.0          8.885         43.547         82.259
         2227.5          8.885         46.326         81.025
         2228.0          8.885         46.394         80.763
         2228.5          8.885         45.815         81.839
         2229.0          8.866         48.479         81.606
         2229.5          8.866         50.938         81.354
         2230.0          8.866         49.541         80.667
         2230.5          8.846         47.674         79.975
         2231.0          8.846         47.758         79.728
         2231.5          8.866         48.148         79.709
         2232.0          8.866         47.412         79.754
         2232.5          8.866         45.241         80.282
         2233.0          8.922         46.909         79.882
         2233.5          8.963         49.298         77.044
         2234.0          9.041         48.931         78.001
         2234.5          9.080         47.968         75.831
         2235.0          9.099         52.444         76.762
         2235.5          9.119         54.553         79.188
         2236.0          9.138         52.892         80.086
         2236.5          9.138         51.462         79.366
         2237.0          9.113         52.426         77.074
         2237.5          9.015         51.394         74.969
         2238.0          8.897         51.345         74.163
         2238.5          8.866         53.969         74.352
         2239.0          8.866         56.191         75.453
         2239.5          8.866         55.361         76.359
         2240.0          8.866         55.361         76.291
         2240.5          8.853         57.015         75.685
         2241.0          8.846         58.619         75.569
         2241.5          8.846         59.678         74.968
         2242.0          8.846         61.298         74.694
         2242.5          8.846         61.429         74.927
         2243.0          8.846         60.819         74.582
         2243.5          8.846         60.624         74.402
         2244.0          8.846         60.824         74.344
         2244.5          8.846         62.199         74.286
         2245.0          8.843         63.573         74.344
         2245.5          8.827         62.979         74.344
         2246.0          8.827         59.958         74.519
         2246.5          8.821         53.241         74.327
         2247.0          8.807         56.470         74.053
         2247.5          8.807         57.488         74.192
         2248.0          8.807         56.253         74.500
