~Version Information
 VERS.                  2.0:   CWLS log ASCII Standard -VERSION 2.0
 WRAP.                   NO:   One line per depth step
~Well Information Block
#MNEM.UNIT     VALUE/NAME     DESCRIPTION
#---------     -----------    ---------------------------
 STRT.F              8400.0000: START DEPTH
 STOP.F             14130.0000: STOP DEPTH
 STEP.F                 0.5000: STEP DEPTH
 NULL.                 -999.25: NULL VALUE
 LOC .            42-109-33596:  LOCATION
 FL1 .            42-109-33596:  LOCATIONLINE1
 PROV.                      TX:  PROVINCE
 STAT.                      TX:  STATE NAME
 CNTY.               CULBERSON:  COUNTY NAME
 FLD .              WOLFCAMP B:  FIELD NAME
 WELL.           DALE STATE 5H:  WELL NAME
 COMP.     CAPITAN ENERGY INC.:  COMPANY
 DMF .             Drill Floor:  DRILL MEAS FROM
 PDAT.                      GL:  PERMANENT DATUM
 DATE.             11-Feb-2020:  DATE
 SVCO.             Halliburton:  SERVICECONAME
 HIDE.                        :  WELLNAMEOPERAT
 BASI.                 PERMIAN:  BASIN
 UWI .            42-109-33596:  UNIQUE WELL IDENTIFIER
 API .            42-109-33596:  API NUMBER
 RANG.                     N/A:  RANGE
 TOWN.                     N/A:  TOWNSHIP
 SECT.                     N/A:  SECTION
 SON .               906289953:  JOB NUMBER
 CTRY.                        :  COUNTRY
 SRVC.             Halliburton:  SERVICE COMPANY
 LMF .             Drill Floor:  LOG MEASURED FROM
 TVDS.ft             3291.0000:  TVDSS CORRECTN
 EGL .ft             3266.0000:  GROUND ELEVATION
 APD .ft               25.0000:  DEPTH ABOVE PD
 EPD .ft             3266.0000:  ELEVATION
 BAP .ft                0.0000:  GL ELEV ONSHORE
 GVFD.g                 1.0000:  GRAVITY FIELD
 EKB .ft             3291.0000:  KB ELEVATION
 EDF .ft             3291.0000:  DF ELEVATION
~Curve Information Block
#MNEM.UNIT                 API CODE     Curve Description
#---------               -----------    ---------------------------
 DEPT.F                 00 000 000 000:  Depth
 CCL .V                 00 000 000 000:  Casing Collar Locator
 NPHI_OH.pu             00 000 000 000:  NPHI_OH
 NPHI_CHI.decp          00 000 000 000:  NPHI_CHI
 GR_OH.api              00 000 000 000:  GR_OH
 GR_CHI.api             00 000 000 000:  GR_CHI
 RHOB_OH.g/cc           00 000 000 000:  RHOB_OH
 RHOB_CHI.g/cc          00 000 000 000:  RHOB_CHI
 PE_OH.NONE             00 000 000 000:  PE_OH
 PE_CHI.NONE            00 000 000 000:  PE_CHI
 LLS_CHI.ohmm           00 000 000 000:  LLS_CHI
 LLS_OH.ohmm            00 000 000 000:  LLS_OH
 LLD_OH.ohmm            00 000 000 000:  LLD_OH
 LLD_CHI.ohmm           00 000 000 000:  LLD_CHI
 DTC_OH.uspf            00 000 000 000:  DTC_OH
 DTC_CHI.uspf           00 000 000 000:  DTC_CHI
 SPHW_CHI.decp          00 000 000 000:  SPHW_CHI
#Other Information
#
#WARRANTY: Halliburton will use its best efforts to furnish customers with 
#accurate information and interpretations that are part of, and incident to, the services 
#provided.  However, Halliburton cannot and does not warrant the accuracy 
#or correctness of such information and interpretations.  Under no circumstances should any 
#such information or interpretation be relied upon as the sole basis for any drilling, 
#completion, production, or financial decision or any procedure involving any risk to the 
#safety of any drilling venture, drilling rig or its crew or any other third party.  The 
#Customer has full responsibility for all drilling, completion and production operation.  
#Halliburton makes no representations or warranties, either expressed or 
#implied, including, but not limited to, the implied warranties of merchantability or fitness 
#for a particular purpose, with respect to the services rendered.  In no event will 
#Halliburton be liable for failure to obtain any particular results or for 
#any damages, including, but not limited to, indirect, special or consequential damages, 
#resulting from the use of any information or interpretation provided by Halliburton.
#
~A    DEPT      CCL   NPHI_OH NPHI_CHI  GR_OH    GR_CHI  RHOB_OH RHOB_CHI  PE_OH  PE_CHI LLS_CHI   LLS_OH    LLD_OH    LLD_CHI  DTC_OH  DTC_CHI SPHW_CHI 
# ...
   12958.0000  0.0120 -999.25   0.1079  -999.25 106.8739 -999.25   2.5696 -999.25 3.3180  56.9128   -999.25   -999.25   55.0885 -999.25 69.4532 0.1545
   12958.5000  0.0330 -999.25   0.1076  -999.25 108.1365 -999.25   2.5695 -999.25 3.3333  58.5777   -999.25   -999.25   56.0419 -999.25 69.3566 0.1539
   12959.0000  0.0123 -999.25   0.1056  -999.25 105.2791 -999.25   2.5699 -999.25 3.3477  60.1056   -999.25   -999.25   57.6230 -999.25 69.1599 0.1525
   12959.5000 -0.0270 -999.25   0.1025  -999.25 100.2653 -999.25   2.5715 -999.25 3.3497  58.9018   -999.25   -999.25   56.9107 -999.25 68.9425 0.1509
   12960.0000  0.0526 -999.25   0.1028  -999.25 101.9201 -999.25   2.5715 -999.25 3.3592  59.3343   -999.25   -999.25   56.4831 -999.25 68.9968 0.1513
   12960.5000 -0.0218 -999.25   0.1073  -999.25 113.2456 -999.25   2.5695 -999.25 3.3877  62.9965   -999.25   -999.25   57.3120 -999.25 69.3730 0.1540
   12961.0000  0.0364 -999.25   0.1037  -999.25 102.0042 -999.25   2.5707 -999.25 3.3511  58.7956   -999.25   -999.25   56.1127 -999.25 69.2395 0.1530
   12961.5000  0.0294 -999.25   0.1004  -999.25  91.8551 -999.25   2.5726 -999.25 3.3391  57.5254   -999.25   -999.25   58.0822 -999.25 69.1908 0.1527
   12962.0000  0.0612 -999.25   0.1035  -999.25  95.5004 -999.25   2.5698 -999.25 3.3415  61.0469   -999.25   -999.25   61.9560 -999.25 69.5193 0.1550
   12962.5000 -0.0471 -999.25   0.1083  -999.25 102.9116 -999.25   2.5659 -999.25 3.3564  67.0679   -999.25   -999.25   67.0106 -999.25 69.9659 0.1582
   12963.0000 -0.0112 -999.25   0.1138  -999.25 113.2844 -999.25   2.5626 -999.25 3.3775  73.0396   -999.25   -999.25   70.5484 -999.25 70.4881 0.1619
   12963.5000  0.0469 -999.25   0.1099  -999.25 105.6444 -999.25   2.5665 -999.25 3.3825  71.0362   -999.25   -999.25   70.0392 -999.25 69.9682 0.1582
   12964.0000  0.0146 -999.25   0.1058  -999.25  98.0675 -999.25   2.5708 -999.25 3.3900  68.4413   -999.25   -999.25   68.6631 -999.25 69.6013 0.1556
   12964.5000 -0.0039 -999.25   0.1014  -999.25  90.0699 -999.25   2.5749 -999.25 3.3878  64.1895   -999.25   -999.25   66.1403 -999.25 69.3551 0.1539
   12965.0000 -0.0132 -999.25   0.1081  -999.25 103.4354 -999.25   2.5689 -999.25 3.3889  69.3202   -999.25   -999.25   67.8888 -999.25 69.7389 0.1566
   12965.5000 -0.0093 -999.25   0.1085  -999.25 103.2009 -999.25   2.5674 -999.25 3.3772  69.4665   -999.25   -999.25   69.0438 -999.25 69.8453 0.1573
   12966.0000  0.0086 -999.25   0.1077  -999.25 100.7478 -999.25   2.5674 -999.25 3.3679  68.5408   -999.25   -999.25   69.5509 -999.25 69.8496 0.1574
   12966.5000  0.0448 -999.25   0.1090  -999.25 102.2819 -999.25   2.5667 -999.25 3.3754  70.7422   -999.25   -999.25   71.7759 -999.25 69.9772 0.1583
   12967.0000 -0.0172 -999.25   0.1115  -999.25 106.7465 -999.25   2.5661 -999.25 3.3796  72.0456   -999.25   -999.25   71.7880 -999.25 70.1025 0.1591
   12967.5000 -0.0029 -999.25   0.1126  -999.25 109.6604 -999.25   2.5675 -999.25 3.3975  73.4995   -999.25   -999.25   71.6724 -999.25 70.0503 0.1588
   12968.0000  0.0308 -999.25   0.1074  -999.25 100.1831 -999.25   2.5724 -999.25 3.3971  69.0056   -999.25   -999.25   68.6924 -999.25 69.5669 0.1554
   12968.5000 -0.0102 -999.25   0.0976  -999.25  83.4915 -999.25   2.5806 -999.25 3.3930  59.9806   -999.25   -999.25   62.6120 -999.25 69.1918 0.1527
   12969.0000 -0.0036 -999.25   0.0934  -999.25  77.5964 -999.25   2.5836 -999.25 3.3912  55.9348   -999.25   -999.25   58.8361 -999.25 69.1160 0.1522
   12969.5000 -0.0078 -999.25   0.1043  -999.25 102.3307 -999.25   2.5749 -999.25 3.3816  60.4089   -999.25   -999.25   57.1341 -999.25 69.2703 0.1533
   12970.0000 -0.0190 -999.25   0.1060  -999.25 106.3674 -999.25   2.5738 -999.25 3.3637  57.7877   -999.25   -999.25   53.9567 -999.25 69.3984 0.1542
   12970.5000  0.0035 -999.25   0.1047  -999.25 100.9964 -999.25   2.5743 -999.25 3.3359  54.4487   -999.25   -999.25   52.2291 -999.25 69.4364 0.1544
   12971.0000  0.0101 -999.25   0.1076  -999.25 104.1304 -999.25   2.5724 -999.25 3.3421  57.1017   -999.25   -999.25   54.6225 -999.25 69.7709 0.1568
   12971.5000 -0.0108 -999.25   0.1027  -999.25  91.1996 -999.25   2.5757 -999.25 3.3409  55.5300   -999.25   -999.25   56.1588 -999.25 69.6728 0.1561
   12972.0000  0.0068 -999.25   0.1075  -999.25  99.6799 -999.25   2.5722 -999.25 3.3555  60.2605   -999.25   -999.25   59.1155 -999.25 70.0102 0.1585
   12972.5000 -0.0139 -999.25   0.1109  -999.25 106.7976 -999.25   2.5698 -999.25 3.3865  66.6533   -999.25   -999.25   63.6028 -999.25 70.2768 0.1604
   12973.0000  0.0132 -999.25   0.1089  -999.25 103.5804 -999.25   2.5709 -999.25 3.4192  71.5741   -999.25   -999.25   68.6092 -999.25 70.0461 0.1587
   12973.5000 -0.0050 -999.25   0.1073  -999.25 101.0601 -999.25   2.5720 -999.25 3.4671  79.9378   -999.25   -999.25   76.8111 -999.25 69.8777 0.1576
   12974.0000  0.0156 -999.25   0.1115  -999.25 109.9342 -999.25   2.5696 -999.25 3.5195  93.7912   -999.25   -999.25   87.3597 -999.25 70.0386 0.1587
   12974.5000  0.0011 -999.25   0.1107  -999.25 106.2152 -999.25   2.5706 -999.25 3.4993  89.4221   -999.25   -999.25   85.1340 -999.25 70.0260 0.1586
   12975.0000 -0.0117 -999.25   0.1125  -999.25 109.1538 -999.25   2.5701 -999.25 3.4745  84.3807   -999.25   -999.25   79.7774 -999.25 70.2406 0.1601
   12975.5000 -0.0302 -999.25   0.1135  -999.25 110.6785 -999.25   2.5700 -999.25 3.4315  75.1213   -999.25   -999.25   70.7014 -999.25 70.4693 0.1617
   12976.0000 -0.0113 -999.25   0.1114  -999.25 106.0267 -999.25   2.5721 -999.25 3.3781  63.5056   -999.25   -999.25   60.4553 -999.25 70.4350 0.1615
   12976.5000 -0.0042 -999.25   0.1085  -999.25 100.4171 -999.25   2.5740 -999.25 3.3297  54.2936   -999.25   -999.25   52.5061 -999.25 70.3269 0.1607
   12977.0000  0.0344 -999.25   0.1040  -999.25  90.7090 -999.25   2.5765 -999.25 3.2907  47.7269   -999.25   -999.25   48.1768 -999.25 70.1063 0.1592
   12977.5000 -0.0073 -999.25   0.1032  -999.25  89.7539 -999.25   2.5766 -999.25 3.2945  48.4461   -999.25   -999.25   49.3146 -999.25 69.9499 0.1581
   12978.0000 -0.0075 -999.25   0.1048  -999.25  94.0036 -999.25   2.5746 -999.25 3.3293  54.8875   -999.25   -999.25   55.1540 -999.25 69.8562 0.1574
   12978.5000  0.0296 -999.25   0.1036  -999.25  91.2784 -999.25   2.5756 -999.25 3.3524  58.2926   -999.25   -999.25   59.8708 -999.25 69.6744 0.1561
   12979.0000 -0.0005 -999.25   0.1087  -999.25  99.9896 -999.25   2.5717 -999.25 3.3647  64.2887   -999.25   -999.25   64.6602 -999.25 69.9116 0.1578
   12979.5000  0.0070 -999.25   0.1085  -999.25  98.6427 -999.25   2.5715 -999.25 3.3600  63.9937   -999.25   -999.25   65.2437 -999.25 69.9592 0.1581
   12980.0000  0.0059 -999.25   0.1085  -999.25  98.2896 -999.25   2.5716 -999.25 3.3729  65.9127   -999.25   -999.25   67.2359 -999.25 69.9975 0.1584
   12980.5000 -0.0111 -999.25   0.1104  -999.25 103.2607 -999.25   2.5707 -999.25 3.4032  71.6041   -999.25   -999.25   70.8522 -999.25 70.0034 0.1584
   12981.0000  0.0165 -999.25   0.1137  -999.25 112.4353 -999.25   2.5696 -999.25 3.4356  78.0662   -999.25   -999.25   74.2472 -999.25 70.0887 0.1590
   12981.5000  0.0132 -999.25   0.1078  -999.25  99.7560 -999.25   2.5745 -999.25 3.3881  66.5960   -999.25   -999.25   66.6258 -999.25 69.5490 0.1552
   12982.0000  0.0050 -999.25   0.1064  -999.25  96.9909 -999.25   2.5757 -999.25 3.3166  55.4846   -999.25   -999.25   56.9738 -999.25 69.3263 0.1537
   12982.5000  0.1499 -999.25   0.1090  -999.25 101.3919 -999.25   2.5736 -999.25 3.2447  48.1544   -999.25   -999.25   49.6081 -999.25 69.4398 0.1545
   12983.0000  0.1326 -999.25   0.1109  -999.25 103.7559 -999.25   2.5724 -999.25 3.1812  42.1340   -999.25   -999.25   43.7966 -999.25 69.6806 0.1562
   12983.5000 -0.0057 -999.25   0.1107  -999.25 100.6662 -999.25   2.5725 -999.25 3.1207  36.5050   -999.25   -999.25   39.0284 -999.25 69.8913 0.1576
   12984.0000 -0.0007 -999.25   0.1118  -999.25 100.2655 -999.25   2.5719 -999.25 3.0919  34.1940   -999.25   -999.25   37.0042 -999.25 70.2282 0.1600
