###############################################
##         ENVERUS                           ##
##         ESS - Open Hole                   ##
##         PERMIAN / DELAWARE                ##
##         Nov 03 2023  V4.0                 ##
##         42-109-32507-90-00                ##
###############################################
## Copyright 2017-2023  ENVERUS.  All Rights Reserved. 
## Confidential - Property of ENVERUS, use governed by terms and 
## conditions found within the existing Information Services Subscription Agreement 
## (as may be amended, the “ISSA”) between Customer and ENVERUS. 
## 
~VERSION INFORMATION
# MNEM.UNIT                               DATA : DESCRIPTION OF MNEMONIC
#-----.-----     ----------------------------- : -----------------------------
VERS.                                     2.00 : CWLS LOG ASCII STANDARD - VERSION 2.00
WRAP.                                       NO : MULTIPLE LINES PER DEPTH STEP
VEND.                                  ENVERUS : VENDOR
TYPE.                          ESS - OPEN HOLE : ENVERUS ESSENTIAL CURVES – ACCESSIBLE THROUGH ENVERUS PRISM(TM)
DOC.                                  51094130 : ENVERUS HEADER RAW DOCUMENT ID
#___________________________________________________________________________________________________ 
~WELL INFORMATION 
# OeTAuI96vYP/1gAnXdiC+b2e5mg9bdq0rVS4GA6NX+ctg1PKQ5RhcqUsdOd2aOUDNf5EtC5635oDT1THDUi6iw== 
# MNEM.UNIT                                              DATA : DESCRIPTION OF MNEMONIC 
#-----.-----                    ----------------------------- : ----------------------------- 
CNTY.                                               CULBERSON : COUNTY 
STATE.                                                  TEXAS : STATE 
CNTRY.                                                    USA : COUNTRY 
API.                                             42-109-32507 : API (10 Digit) 
API_14.                                    42-109-32507-90-00 : API (14 Digits) 
API_14_std.                                 42-109-32507-9000 : API (14 Digits Standard) 
UWI.                                           42109325079000 : UNIQUE WELL ID 
WELL.                               42109325070000_PREV_API14 : WELL NAME
STRT.FT                                                2104.5 : START DEPTH
STOP.FT                                                9085.0 : STOP DEPTH
STEP.FT                                                   0.5 : STEP BETWEEN DEPTHS
NULL.                                                 -999.25 : NULL VALUE
PREV_APII.                                     42109325070000 : WELL IDENTIFIER
#___________________________________________________________________________________________________ 
~PARAMETER INFORMATION 
# MNEM.UNIT                                              DATA : DESCRIPTION OF MNEMONIC 
#-----.-----                    ----------------------------- : ----------------------------- 
EKB.FT                                                 3578.5 : ELEVATION ABOVE MSL
#___________________________________________________________________________________________________ 
~CURVE INFORMATION 
# MNEM.UNIT           : CURVE DESCRIPTION 
#-----.-----          : ----------------------------- 
 DEPT.FT               : MEASURED DEPTH 
 GR__A.API             : GAMMA RAY (GAMMA RAY) 
 DT__A.US/FT           : SONIC DELTA TRANSIT TIME (SONIC) 
 #___________________________________________________________________________________________________ 
~A         DEPT          GR__A          DT__A
# ...
         6193.5         82.394        130.766
         6194.0         70.905        134.566
         6194.5         67.995        122.133
         6195.0        108.585        108.936
         6195.5        139.142         91.925
         6196.0        160.715         82.863
         6196.5        213.092         68.744
         6197.0        237.603         77.606
         6197.5        217.124         92.960
         6198.0        174.419         96.203
         6198.5        146.022         76.290
         6199.0        219.128         42.972
         6199.5        303.766         36.474
         6200.0        331.686         36.560
         6200.5        298.945         48.298
         6201.0        215.007         62.263
         6201.5        193.158         79.804
         6202.0        188.304         84.685
         6202.5        194.604         86.833
         6203.0        201.559         82.798
         6203.5        211.755         66.965
         6204.0        224.520         57.660
         6204.5        245.838         51.787
         6205.0        272.838         43.315
         6205.5        287.162         50.340
         6206.0        271.873         67.010
         6206.5        221.794         79.035
         6207.0        168.971         99.152
         6207.5        115.786        118.651
         6208.0         87.245        127.717
         6208.5         69.692        133.665
         6209.0         65.141        135.225
         6209.5         65.661        134.471
         6210.0         74.595        133.204
         6210.5         89.584        133.207
         6211.0        108.240        121.118
         6211.5        157.170        101.962
         6212.0        216.162         61.839
         6212.5        270.217         54.352
         6213.0        283.839         47.122
         6213.5        262.820         56.539
         6214.0        244.302         60.211
         6214.5        233.084         55.527
         6215.0        228.283         53.271
         6215.5        238.206         51.477
         6216.0        246.275         51.353
         6216.5        246.181         53.469
         6217.0        268.491         45.681
         6217.5        304.794         39.066
         6218.0        312.334         42.188
         6218.5        278.941         44.884
         6219.0        232.278         41.139
         6219.5        230.939         38.577
         6220.0        235.843         39.313
         6220.5        233.548         40.500
         6221.0        248.901         37.589
         6221.5        271.407         31.933
         6222.0        277.165         30.588
         6222.5        243.111         38.364
         6223.0        184.522         65.643
         6223.5        135.220        124.607
         6224.0         87.743        144.258
         6224.5         60.231        145.902
         6225.0         46.086        145.529
         6225.5         46.355        143.272
         6226.0         52.256        134.884
         6226.5         79.006        102.098
         6227.0        147.665         80.501
         6227.5        205.884         57.694
         6228.0        228.704         43.736
         6228.5        265.646         35.182
         6229.0        297.457         33.885
         6229.5        307.615         34.275
         6230.0        301.935         38.469
         6230.5        292.853         44.372
         6231.0        283.670         45.296
         6231.5        280.775         49.577
         6232.0        269.140         57.577
         6232.5        239.005         66.905
         6233.0        217.928         70.497
         6233.5        220.404         65.490
         6234.0        239.266         54.054
         6234.5        283.964         43.023
         6235.0        316.282         39.303
         6235.5        329.989         40.610
         6236.0        321.678         43.407
         6236.5        289.463         48.253
         6237.0        281.888         56.653
         6237.5        274.285         56.971
         6238.0        274.489         52.649
         6238.5        288.517         57.890
         6239.0        246.841         78.172
         6239.5        182.311         92.565
         6240.0        161.723         95.868
         6240.5        148.831         91.886
         6241.0        172.006         88.451
         6241.5        172.338         91.400
         6242.0        168.501         93.576
         6242.5        152.963        102.687
         6243.0        122.813        118.004
         6243.5         68.420        135.290
         6244.0         61.278        145.754
         6244.5         53.643        152.215
         6245.0         49.392        155.270
         6245.5         45.822        156.767
         6246.0         46.004        155.649
         6246.5         44.137        153.744
         6247.0         42.278        152.678
         6247.5         55.395        151.630
         6248.0         69.876        142.042
         6248.5        104.110        119.300
         6249.0        139.965        102.097
         6249.5        168.532         90.640
         6250.0        165.960         87.880
         6250.5        165.717         88.562
         6251.0        169.591         92.034
         6251.5        161.708         94.704
         6252.0        156.614         97.621
         6252.5        155.166         97.955
         6253.0        155.945         98.166
         6253.5        155.002         97.761
         6254.0        148.213         98.150
         6254.5        138.966        102.152
         6255.0        123.020        111.541
         6255.5         82.834        125.277
         6256.0         73.714        133.419
         6256.5         47.317        143.685
         6257.0         40.796        148.619
         6257.5         35.940        150.961
         6258.0         39.914        150.672
         6258.5         55.878        147.614
         6259.0         54.258        148.642
         6259.5         38.254        152.010
         6260.0         30.967        156.157
         6260.5         32.254        158.536
         6261.0         41.461        147.997
         6261.5         90.934        126.952
         6262.0        123.821         95.919
         6262.5        239.824         52.836
         6263.0        270.999         46.714
         6263.5        268.649         49.501
         6264.0        252.222         61.958
         6264.5        192.858         85.428
         6265.0        185.043         82.004
         6265.5        235.469         75.172
         6266.0        263.629         62.377
         6266.5        315.360         47.464
         6267.0        327.302         55.779
         6267.5        252.148         69.511
         6268.0        232.515         78.139
         6268.5        170.340         91.094
         6269.0        157.429         95.790
         6269.5        153.399        100.392
         6270.0        147.908        106.122
         6270.5        129.851        108.854
         6271.0        129.433        109.056
         6271.5        137.303        106.404
         6272.0        145.723        104.371
         6272.5        150.370        104.796
         6273.0        138.112        107.932
         6273.5        106.766        115.418
         6274.0        101.778        120.098
         6274.5         97.345        122.143
         6275.0         90.665        122.229
         6275.5         92.072        118.092
         6276.0         99.696        115.424
         6276.5        105.390        115.546
         6277.0        104.916        116.114
         6277.5         89.248        127.591
         6278.0         72.032        136.116
         6278.5         51.045        142.768
         6279.0         37.882        147.350
         6279.5         33.331        149.470
         6280.0         31.370        152.355
