###############################################
##         ENVERUS                           ##
##         ESS - Open Hole                   ##
##         PERMIAN / DELAWARE                ##
##         Nov 02 2023  V4.0                 ##
##         42-109-10429-00-00                ##
###############################################
## Copyright 2017-2023  ENVERUS.  All Rights Reserved. 
## Confidential - Property of ENVERUS, use governed by terms and 
## conditions found within the existing Information Services Subscription Agreement 
## (as may be amended, the “ISSA”) between Customer and ENVERUS. 
## 
~VERSION INFORMATION
# MNEM.UNIT                               DATA : DESCRIPTION OF MNEMONIC
#-----.-----     ----------------------------- : -----------------------------
VERS.                                     2.00 : CWLS LOG ASCII STANDARD - VERSION 2.00
WRAP.                                       NO : MULTIPLE LINES PER DEPTH STEP
VEND.                                  ENVERUS : VENDOR
TYPE.                          ESS - OPEN HOLE : ENVERUS ESSENTIAL CURVES – ACCESSIBLE THROUGH ENVERUS PRISM(TM)
DOC.                                  32032754 : ENVERUS HEADER RAW DOCUMENT ID
#___________________________________________________________________________________________________ 
~WELL INFORMATION 
# hXqYWT5FmhW7UEcPXxReyvN++rqgSwBrBdup88XCyeQNQmx1Fo1vv7xYmZNr9HC+TZh0ltY2ePdKOSE9Z1hlZw== 
# MNEM.UNIT                                              DATA : DESCRIPTION OF MNEMONIC 
#-----.-----                    ----------------------------- : ----------------------------- 
CNTY.                                               CULBERSON : COUNTY 
STATE.                                                  TEXAS : STATE 
CNTRY.                                                    USA : COUNTRY 
API.                                             42-109-10429 : API (10 Digit) 
API_14.                                    42-109-10429-00-00 : API (14 Digits) 
API_14_std.                                 42-109-10429-0000 : API (14 Digits Standard) 
UWI.                                           42109104290000 : UNIQUE WELL ID 
WELL.                                          ROUNSAVILLE  1 : WELL NAME
STRT.FT                                                     0 : START DEPTH
STOP.FT                                                8409.0 : STOP DEPTH
STEP.FT                                                   0.5 : STEP BETWEEN DEPTHS
NULL.                                                 -999.25 : NULL VALUE
COMP.                                     EOG RESOURCES  INC. : COMPANY
#___________________________________________________________________________________________________ 
~CURVE INFORMATION 
# MNEM.UNIT           : CURVE DESCRIPTION 
#-----.-----          : ----------------------------- 
 DEPT.FT               : MEASURED DEPTH 
 CALI.IN               : CALIPER (CAL - CAL) 
 GR.API                : GAMMA RAY (GR) 
 SP.MV                 : SPONTANEOUS POTENTIAL (SP) 
 DT.US/FT              : SONIC DELTA TRANSIT TIME (DT) 
 RESD.OHMM             : DEEP INDUCTION RESISTIVITY (ILD - ILD) 
 #___________________________________________________________________________________________________ 
~A         DEPT           CALI             GR             SP             DT           RESD
# ...
         2508.0         13.007         44.452        -53.538         75.210       1453.735
         2508.5         13.007         44.055        -53.528         74.788       1453.761
         2509.0         13.006         44.573        -53.518         74.418       1453.786
         2509.5         13.003         46.292        -53.508         75.384       1453.812
         2510.0         12.968         48.012        -53.499         76.349       1453.838
         2510.5         12.932         49.732        -53.489         77.314       1453.863
         2511.0         12.909         51.451        -53.783         78.279       1453.889
         2511.5         12.968         53.138        -53.858         79.244       1453.914
         2512.0         13.026         53.050        -53.933         79.483       1453.940
         2512.5         13.085         52.962        -54.008         78.380       1453.965
         2513.0         13.143         51.771        -54.083         75.011       1453.991
         2513.5         13.200         48.980        -54.083         73.604       1454.016
         2514.0         13.217         46.189        -54.017         73.685       1454.042
         2514.5         13.233         50.542        -53.950         74.457       1454.068
         2515.0         13.249         56.777        -53.884         79.000       1454.093
         2515.5         13.266         60.415        -53.817         81.602       1454.119
         2516.0         13.261         62.273        -53.751         81.680       1454.144
         2516.5         13.244         62.060        -53.742         81.757       1454.170
         2517.0         13.227         60.397        -53.791         81.835       1454.195
         2517.5         13.243         58.734        -53.840         80.370       1454.221
         2518.0         13.294         58.237        -53.954         79.444       1454.246
         2518.5         13.302         58.617        -54.119         79.947       1454.272
         2519.0         13.274         58.996        -54.284         80.871       1454.297
         2519.5         13.245         59.008        -54.448         79.945       1454.323
         2520.0         13.217         58.362        -54.330         78.795       1454.349
         2520.5         13.318         57.717        -54.058         80.627       1454.374
         2521.0         13.434         59.520        -53.786         83.217       1454.400
         2521.5         13.551         62.151        -53.514         85.807       1454.425
         2522.0         13.643         63.039        -53.241         86.904       1454.451
         2522.5         13.661         62.456        -52.969         83.910       1454.476
         2523.0         13.678         57.750        -52.697         80.309       1454.502
         2523.5         13.696         51.551        -52.425         77.942       1454.527
         2524.0         13.719         48.335        -52.153         77.692       1454.553
         2524.5         13.787         51.605        -51.880         81.052       1454.579
         2525.0         13.856         54.875        -51.730         81.666       1454.604
         2525.5         13.875         58.145        -51.982         82.279       1454.630
         2526.0         13.703         61.415        -52.233         82.548       1454.655
         2526.5         13.530         64.108        -52.485         82.595       1454.681
         2527.0         13.357         64.822        -52.737         82.643       1454.706
         2527.5         13.184         59.652        -52.987         82.462       1454.732
         2528.0         13.316         54.925        -52.978         81.990       1454.757
         2528.5         13.402         54.917        -52.968         80.720       1454.783
         2529.0         13.260         54.518        -52.899         75.222       1454.809
         2529.5         13.118         49.504        -52.740         69.724       1454.834
         2530.0         13.001         44.491        -52.581         64.638       1454.860
         2530.5         12.912         45.539        -52.422         64.953       1454.885
         2531.0         12.880         53.708        -52.119         70.060       1454.911
         2531.5         12.848         61.944        -51.812         75.905       1454.936
         2532.0         12.816         70.180        -51.505         81.749       1454.962
         2532.5         12.784         75.614        -51.198         82.380       1454.987
         2533.0         12.803         73.106        -50.891         82.550       1455.013
         2533.5         12.923         70.599        -50.585         82.131       1455.039
         2534.0         13.043         71.377        -50.278         81.406       1455.064
         2534.5         13.089         71.040        -49.971         81.038       1455.090
         2535.0         13.031         69.753        -49.918         80.994       1455.115
         2535.5         12.973         68.466        -50.326         80.950       1455.141
         2536.0         12.915         67.848        -50.734         81.444       1455.166
         2536.5         12.858         69.524        -51.142         82.473       1455.192
         2537.0         12.831         68.575        -51.550         81.806       1455.217
         2537.5         12.830         66.028        -51.958         80.457       1455.243
         2538.0         12.829         63.480        -52.366         79.109       1455.269
         2538.5         12.825         60.933        -52.774         77.680       1455.294
         2539.0         12.815         56.834        -53.109         72.769       1455.320
         2539.5         12.805         46.421        -53.099         67.858       1455.345
         2540.0         12.795         36.009        -53.090         62.946       1455.371
         2540.5         12.785         34.694        -53.080         60.866       1455.396
         2541.0         12.775         33.581        -53.071         60.583       1455.422
         2541.5         12.765         32.467        -53.061         61.039       1455.447
         2542.0         12.755         38.194        -52.910         64.567       1455.473
         2542.5         12.751         44.163        -52.722         69.100       1455.499
         2543.0         12.795         50.131        -52.534         73.633       1455.524
         2543.5         12.840         56.099        -52.345         78.085       1455.550
         2544.0         12.885         62.067        -52.157         81.177       1455.575
         2544.5         12.929         61.873        -51.969         81.494       1455.601
         2545.0         12.974         61.393        -51.781         81.497       1455.626
         2545.5         13.016         59.931        -51.600         81.480       1455.652
         2546.0         12.976         58.132        -51.457         80.775       1455.677
         2546.5         12.937         57.573        -51.315         80.071       1455.703
         2547.0         12.897         59.192        -51.173         79.367       1455.729
         2547.5         12.861         63.040        -51.030         79.108       1455.754
         2548.0         12.850         66.888        -50.888         79.613       1455.780
         2548.5         12.840         70.737        -50.746         78.942       1455.805
         2549.0         12.829         72.885        -50.603         78.094       1455.831
         2549.5         12.818         74.372        -50.461         77.246       1455.485
         2550.0         12.807         65.863        -50.319         76.397       1454.866
         2550.5         12.796         60.502        -50.176         75.549       1454.247
         2551.0         12.785         59.494        -50.034         75.939       1453.628
         2551.5         12.848         61.557        -49.892         76.935       1453.009
