###############################################
##         ENVERUS                           ##
##         ESS - Open Hole                   ##
##         PERMIAN / DELAWARE                ##
##         Nov 02 2023  V4.0                 ##
##         42-109-32346-90-00                ##
###############################################
## Copyright 2017-2023  ENVERUS.  All Rights Reserved. 
## Confidential - Property of ENVERUS, use governed by terms and 
## conditions found within the existing Information Services Subscription Agreement 
## (as may be amended, the “ISSA”) between Customer and ENVERUS. 
## 
~VERSION INFORMATION
# MNEM.UNIT                               DATA : DESCRIPTION OF MNEMONIC
#-----.-----     ----------------------------- : -----------------------------
VERS.                                     2.00 : CWLS LOG ASCII STANDARD - VERSION 2.00
WRAP.                                       NO : MULTIPLE LINES PER DEPTH STEP
VEND.                                  ENVERUS : VENDOR
TYPE.                          ESS - OPEN HOLE : ENVERUS ESSENTIAL CURVES – ACCESSIBLE THROUGH ENVERUS PRISM(TM)
DOC.                                  51092887 : ENVERUS HEADER RAW DOCUMENT ID
#___________________________________________________________________________________________________ 
~WELL INFORMATION 
# XhrHiXkIrwGIJmPLTIo0+WseqdI1VWn+o0JF90EYfb9BJ/ikjsIPmHpj3yVLlwnYQ/npclNvflN3Ll99f4ZCqQ== 
# MNEM.UNIT                                              DATA : DESCRIPTION OF MNEMONIC 
#-----.-----                    ----------------------------- : ----------------------------- 
CNTY.                                               CULBERSON : COUNTY 
STATE.                                                  TEXAS : STATE 
CNTRY.                                                    USA : COUNTRY 
API.                                             42-109-32346 : API (10 Digit) 
API_14.                                    42-109-32346-90-00 : API (14 Digits) 
API_14_std.                                 42-109-32346-9000 : API (14 Digits Standard) 
UWI.                                           42109323469000 : UNIQUE WELL ID 
WELL.                                                  DRD_55 : WELL NAME
STRT.FT                                                 334.5 : START DEPTH
STOP.FT                                                4950.0 : STOP DEPTH
STEP.FT                                                   0.5 : STEP BETWEEN DEPTHS
NULL.                                                 -999.25 : NULL VALUE
PREV_APII.                                     42109323460000 : WELL IDENTIFIER
#___________________________________________________________________________________________________ 
~PARAMETER INFORMATION 
# MNEM.UNIT                                              DATA : DESCRIPTION OF MNEMONIC 
#-----.-----                    ----------------------------- : -----------------------------
#___________________________________________________________________________________________________ 
~CURVE INFORMATION 
# MNEM.UNIT           : CURVE DESCRIPTION 
#-----.-----          : ----------------------------- 
 DEPT.FT               : MEASURED DEPTH 
 CALI.IN               : CALIPER (CAL - CALIPER) 
 GR.API                : GAMMA RAY (GAMMA RAY) 
 DT.US/FT              : SONIC DELTA TRANSIT TIME (SONIC) 
 #___________________________________________________________________________________________________ 
~A         DEPT           CALI             GR             DT
# ...
          928.5         11.126          6.043         49.446
          929.0         11.166          6.628         49.718
          929.5         11.225          7.213         50.180
          930.0         11.402          6.823         50.461
          930.5         11.589          6.884         51.081
          931.0         11.677          8.618         50.259
          931.5         11.692          8.721         48.507
          932.0         11.692          7.992         47.177
          932.5         11.738          7.992         52.302
          933.0         11.870          7.090         52.154
          933.5         12.014          5.418         50.612
          934.0         12.073          5.068         51.913
          934.5         12.011          6.113         51.083
          935.0         11.985          7.018         51.705
          935.5         12.059          6.496         51.343
          936.0         12.143          6.628         51.714
          936.5         12.181          6.823         51.041
          937.0         12.049          7.018         52.025
          937.5         11.973          7.018         51.462
          938.0         12.011          6.055         51.417
          938.5         12.077          5.070         52.516
          939.0         12.095          5.767         52.960
          939.5         12.047          7.036         52.058
          940.0         11.999          7.213         51.897
          940.5         11.948          7.213         51.897
          941.0         11.906          6.774         52.772
          941.5         11.743          6.238         50.505
          942.0         11.487          6.238         50.770
          942.5         11.470          5.574         53.908
          943.0         11.559          5.263         55.879
          943.5         11.584          5.263         57.871
          944.0         11.537          5.568         52.989
          944.5         11.231          7.183         50.584
          945.0         11.277          7.212         51.794
          945.5         11.317          5.540         50.183
          946.0         11.228          5.068         53.325
          946.5         11.041          6.250         55.005
          947.0         10.868          7.956         55.662
          947.5         10.801          8.772         57.747
          948.0         10.903          8.191         57.730
          948.5         11.022          7.407         47.161
          949.0         10.467          7.602         48.644
          949.5          9.407          8.214         57.402
          950.0          9.003          7.797         50.420
          950.5          8.931          6.998         50.678
          951.0          8.920          6.238         51.390
          951.5          8.963          6.695         50.319
          952.0          9.010          7.680         50.478
          952.5          9.089          8.187         49.995
          953.0          9.187          7.700         49.669
          953.5          9.255          7.602         50.258
          954.0          9.333          7.213         51.009
          954.5          9.385          5.627         51.091
          955.0          9.450          4.150         50.399
          955.5          9.504          4.417         50.268
          956.0          9.509          5.068         49.812
          956.5          9.545          5.822         50.154
          957.0          9.567          5.848         50.108
          957.5          9.587          5.659         50.389
          958.0          9.626          5.458         50.510
          958.5          9.624          5.458         50.381
          959.0          9.567          5.458         50.728
          959.5          9.544          5.883         50.392
          960.0          9.450          6.823         50.734
          960.5          9.386          7.213         50.263
          961.0          9.307          6.823         49.828
          961.5          9.209          7.093         49.931
          962.0          9.099          7.602         50.031
          962.5          9.041          7.021         49.868
          963.0          9.021          4.617         50.416
          963.5          8.963          3.704         50.010
          964.0          8.963          5.195         51.025
          964.5          8.910          6.871         51.106
          965.0          8.885          6.871         50.862
          965.5          8.885          4.833         50.437
          966.0          8.941          4.678         50.426
          966.5          8.944          5.440         51.035
          967.0          9.001          5.653         50.882
          967.5          9.080          5.653         51.439
          968.0          9.080          6.238         50.883
          968.5          9.119          6.605         50.224
          969.0          9.177          5.815         50.511
          969.5          9.242          5.891         50.634
          970.0          9.294          6.433         50.311
          970.5          9.320          7.503         49.688
          971.0          9.399          8.456         49.058
          971.5          9.482          8.257         48.967
          972.0          9.567          7.119         49.189
          972.5          9.656          4.815         49.384
          973.0          9.754          4.094         47.565
          973.5          9.940          4.873         47.503
          974.0         10.387          4.739         47.583
          974.5         10.729          4.433         48.770
          975.0         10.908          6.255         51.568
          975.5         10.971          6.463         52.514
          976.0         10.971          4.893         50.402
          976.5         11.048          3.713         51.201
          977.0         11.107          3.704         51.773
          977.5         11.128          4.094         50.268
          978.0         11.166          4.289         47.622
          978.5         11.224          4.709         47.310
          979.0         11.244          5.304         48.669
          979.5         11.268          6.094         48.744
          980.0         11.283          6.238         50.842
          980.5         11.348          5.971         50.351
          981.0         11.385          5.263         50.288
          981.5         10.759          5.355         50.440
          982.0         10.636          6.433         50.725
          982.5         11.074          7.213         50.725
          983.0         11.213          6.054         52.267
          983.5         11.315          5.068         54.227
          984.0         11.329          5.458         55.367
          984.5         10.590          6.781         53.777
          985.0          9.872          6.823         52.881
          985.5          9.497          6.065         52.491
          986.0          9.392          5.068         51.724
          986.5          9.353          4.483         50.993
          987.0          9.353          5.068         51.540
          987.5          9.353          4.855         51.891
          988.0          9.353          4.678         51.314
          988.5          9.353          4.912         51.759
          989.0          9.353          5.312         50.707
          989.5          9.353          5.742         51.318
          990.0          9.353          6.628         50.159
          990.5          9.372          7.018         50.840
          991.0          9.392          6.628         52.425
          991.5          9.392          7.118         51.587
          992.0          9.392          7.992         52.492
          992.5          9.431          7.812         52.297
          993.0          9.431          5.652         52.325
          993.5          9.450          5.545         51.523
          994.0          9.489          7.602         51.003
