~Version Information
 VERS.                  2.0:   CWLS log ASCII Standard -VERSION 2.0
 WRAP.                   NO:   One line per depth step
~Well Information Block
#MNEM.UNIT     VALUE/NAME     DESCRIPTION
#---------     -----------    ---------------------------
 STRT.F              8580.0000: START DEPTH
 STOP.F             14491.0000: STOP DEPTH
 STEP.F                 0.5000: STEP DEPTH
 NULL.               -999.2500: NULL VALUE
 LOC .     1072' FWL & 424' FNL:  LOCATION
 FL2 .     A2085 SEC 12 BLK 113:  LOCATIONLINE2
 FL1 .     1072' FWL & 424' FNL:  LOCATIONLINE1
 CNTY.               CULBERSON:  COUNTY NAME
 FLD .              WOLFCAMP B:  FIELD NAME
 WELL.           DALE STATE 2H:  WELL NAME
 COMP.     CAPITAN ENERGY INC.:  COMPANY
 DMF .                      KB:  DRILL MEAS FROM
 PDAT.                      GL:  PERMANENT DATUM
 DATE.             11-Feb-2020:  DATE
 SVCO.             Halliburton:  SERVICECONAME
 PROV.                      TX:  PROVINCE
 STAT.                      TX:  STATE NAME
 CTRY.                     USA:  COUNTRY NAME
 HIDE.                        :  WELLNAMEOPERAT
 UWI .            42-109-33544:  UNIQUE WELL IDENTIFIER
 API .            42-109-33544:  API NUMBER
 RANG.                     N/A:  RANGE
 TOWN.                     N/A:  TOWNSHIP
 SECT.                     N/A:  SECTION
 SON .               906290231:  JOB NUMBER
 SRVC.             Halliburton:  SERVICE COMPANY
 LMF .                      KB:  LOG MEASURED FROM
 TVDS.ft           3291.000000:  TVDSS CORRECTN
 EGL .ft           3266.000000:  GROUND ELEVATION
 APD .ft             25.000000:  DEPTH ABOVE PD
 EPD .ft           3266.000000:  ELEVATION
 BAP .ft              0.000000:  GL ELEV ONSHORE
 GVFD.g               1.000000:  GRAVITY FIELD
 EKB .ft           3291.000000:  KB ELEVATION
 EDF .ft           3291.000000:  DF ELEVATION
~Parameter Information Block
#MNEM.UNIT       Value        Description
#---------     -----------    ---------------------------
 BARI.                     OFF:  BARITE CORR 
 BRMP.                      No:  BromidePresent 
 CSF5.        Conductor Casing:  Casing Func5 
 CSF6.        Conductor Casing:  Casing Func6 
 DATE.               07-Feb-20:  Run Date 
 DCS .               07-Feb-20:  DateCircEndT 
 DLAB.               07-Feb-20:  LogStartDateT 
 ENGI.                John Doe:  Engineer Name 
 LSRV.             OH WIRELINE:  NameOfService 
 LSTM.ucts  09.26.51 07-Feb-20:  Log Start Time 
 LTYP.                     RAW:  LogDataType 
 LUL .                  ODESSA:  LoggingUnitLoc 
 LUN .                12100315:  LoggingUnitNum 
 SCT1.               07-Feb-20:  StartDateRun1 
 TCS .                   09 26:  Time Ciculation Ended 
 TDCE.ucts  09.26.51 07-Feb-20:  Time Circ End 
 TLAB.                   09 26:  LogStartTimeT 
~Curve Information Block
#MNEM.UNIT                 API CODE     Curve Description
#---------               -----------    ---------------------------
 DEPT.F                 00 000 000 000:  Depth
 CCL .V                 00 000 000 000:  Casing Collar Locator
 NPHI_OH.pu             00 000 000 000:  NPHI_OH
 NPHI_CHI.decp          00 000 000 000:  NPHI_CHI
 GR  .api               00 000 000 000:  Gamma API
 GR_CHI.api             00 000 000 000:  GR_CHI
 RHOB_OH.g/cc           00 000 000 000:  RHOB_OH
 RHOB_CHI.g/cc          00 000 000 000:  RHOB_CHI
 PE_OH.b/e              00 000 000 000:  PE_OH
 PE_CHI.b/e             00 000 000 000:  PE_CHI
 LLS_CHI.ohmm           00 000 000 000:  LLS_CHI
 LLS_OH.ohmm            00 000 000 000:  LLS_OH
 LLD_OH.ohmm            00 000 000 000:  LLD_OH
 LLD_CHI.ohmm           00 000 000 000:  LLD_CHI
 DTC_OH.uspf            00 000 000 000:  DTC_OH
 DTC_CHI.uspf           00 000 000 000:  DTC_CHI
 SPHW_CHI.decp          00 000 000 000:  SPHW_CHI
#Other Information
#
#WARRANTY: Halliburton will use its best efforts to furnish customers with 
#accurate information and interpretations that are part of, and incident to, the services 
#provided.  However, Halliburton cannot and does not warrant the accuracy 
#or correctness of such information and interpretations.  Under no circumstances should any 
#such information or interpretation be relied upon as the sole basis for any drilling, 
#completion, production, or financial decision or any procedure involving any risk to the 
#safety of any drilling venture, drilling rig or its crew or any other third party.  The 
#Customer has full responsibility for all drilling, completion and production operation.  
#Halliburton makes no representations or warranties, either expressed or 
#implied, including, but not limited to, the implied warranties of merchantability or fitness 
#for a particular purpose, with respect to the services rendered.  In no event will 
#Halliburton be liable for failure to obtain any particular results or for 
#any damages, including, but not limited to, indirect, special or consequential damages, 
#resulting from the use of any information or interpretation provided by Halliburton.
#
~A    DEPT       CCL     NPHI_OH  NPHI_CHI    GR      GR_CHI   RHOB_OH  RHOB_CHI   PE_OH   PE_CHI LLS_CHI   LLS_OH     LLD_OH   LLD_CHI   DTC_OH   DTC_CHI SPHW_CHI 
# ...
   12505.0000   32.5734 -999.2500   0.0787 -999.2500  85.3811 -999.2500   2.6140 -999.2500 3.2364  27.7008 -999.2500  -999.2500  33.0217 -999.2500 70.8415 0.1644
   12505.5000   23.0830 -999.2500   0.0780 -999.2500  83.5055 -999.2500   2.6148 -999.2500 3.2360  27.5529 -999.2500  -999.2500  32.9131 -999.2500 70.5881 0.1626
   12506.0000   80.7274 -999.2500   0.0790 -999.2500  87.5358 -999.2500   2.6123 -999.2500 3.2392  29.8663 -999.2500  -999.2500  35.5660 -999.2500 70.8513 0.1644
   12506.5000    0.0000 -999.2500   0.0825 -999.2500  97.6434 -999.2500   2.6056 -999.2500 3.2349  34.8087 -999.2500  -999.2500  41.0848 -999.2500 71.6331 0.1700
   12507.0000    0.0000 -999.2500   0.0780 -999.2500  90.3623 -999.2500   2.6126 -999.2500 3.2121  29.2966 -999.2500  -999.2500  34.6222 -999.2500 70.9889 0.1654
   12507.5000   52.6350 -999.2500   0.0745 -999.2500  84.7205 -999.2500   2.6185 -999.2500 3.2087  26.6856 -999.2500  -999.2500  31.6923 -999.2500 70.5705 0.1625
   12508.0000    0.0000 -999.2500   0.0703 -999.2500  73.7969 -999.2500   2.6261 -999.2500 3.2129  23.0645 -999.2500  -999.2500  27.6448 -999.2500 69.7261 0.1565
   12508.5000    0.0000 -999.2500   0.0711 -999.2500  80.2442 -999.2500   2.6241 -999.2500 3.3006  29.9990 -999.2500  -999.2500  36.0700 -999.2500 70.3607 0.1610
   12509.0000    0.0000 -999.2500   0.0708 -999.2500  82.3250 -999.2500   2.6238 -999.2500 3.3752  36.1758 -999.2500  -999.2500  43.6910 -999.2500 70.5509 0.1623
   12509.5000    0.0000 -999.2500   0.0682 -999.2500  79.2498 -999.2500   2.6274 -999.2500 3.4247  37.5470 -999.2500  -999.2500  45.5122 -999.2500 70.3142 0.1606
   12510.0000  -11.1000 -999.2500   0.0725 -999.2500  91.4724 -999.2500   2.6200 -999.2500 3.4537  48.4657 -999.2500  -999.2500  58.3291 -999.2500 71.4579 0.1687
   12510.5000    0.0000 -999.2500   0.0716 -999.2500  86.3945 -999.2500   2.6236 -999.2500 3.3895  38.3951 -999.2500  -999.2500  46.1494 -999.2500 71.2177 0.1670
   12511.0000    0.0000 -999.2500   0.0710 -999.2500  84.2032 -999.2500   2.6259 -999.2500 3.3476  33.1598 -999.2500  -999.2500  39.7199 -999.2500 71.2039 0.1669
   12511.5000   32.6316 -999.2500   0.0749 -999.2500  88.1634 -999.2500   2.6220 -999.2500 3.2781  30.3682 -999.2500  -999.2500  36.3058 -999.2500 71.7043 0.1705
   12512.0000   39.9129 -999.2500   0.0744 -999.2500  80.6450 -999.2500   2.6255 -999.2500 3.1988  22.7274 -999.2500  -999.2500  27.2597 -999.2500 71.2006 0.1669
   12512.5000  -21.1174 -999.2500   0.0818 -999.2500  92.2962 -999.2500   2.6157 -999.2500 3.1836  25.9126 -999.2500  -999.2500  31.0448 -999.2500 72.3836 0.1753
   12513.0000    0.0000 -999.2500   0.0834 -999.2500  88.7526 -999.2500   2.6162 -999.2500 3.1641  23.0280 -999.2500  -999.2500  27.6467 -999.2500 72.3452 0.1750
   12513.5000  -19.6027 -999.2500   0.0868 -999.2500  93.2526 -999.2500   2.6119 -999.2500 3.1959  26.0429 -999.2500  -999.2500  31.1922 -999.2500 72.9319 0.1792
   12514.0000   27.3797 -999.2500   0.0876 -999.2500  92.0350 -999.2500   2.6119 -999.2500 3.2171  26.6992 -999.2500  -999.2500  31.9260 -999.2500 72.9872 0.1795
   12514.5000  -16.3918 -999.2500   0.0902 -999.2500  96.8746 -999.2500   2.6075 -999.2500 3.2520  31.5351 -999.2500  -999.2500  37.6694 -999.2500 73.4095 0.1825
   12515.0000   12.8820 -999.2500   0.0892 -999.2500  92.6758 -999.2500   2.6099 -999.2500 3.2484  29.5967 -999.2500  -999.2500  35.3996 -999.2500 73.0970 0.1803
   12515.5000    0.0000 -999.2500   0.0912 -999.2500  97.2625 -999.2500   2.6064 -999.2500 3.2898  35.7250 -999.2500  -999.2500  42.6300 -999.2500 73.5081 0.1832
   12516.0000  -36.9186 -999.2500   0.0928 -999.2500  99.3339 -999.2500   2.6042 -999.2500 3.3194  39.8945 -999.2500  -999.2500  47.4894 -999.2500 73.7604 0.1850
   12516.5000    0.0000 -999.2500   0.0964 -999.2500 108.5538 -999.2500   2.5976 -999.2500 3.3993  56.2614 -999.2500  -999.2500  66.4356 -999.2500 74.5890 0.1909
   12517.0000    0.0000 -999.2500   0.0927 -999.2500  99.3053 -999.2500   2.6038 -999.2500 3.4208  49.8946 -999.2500  -999.2500  58.7934 -999.2500 73.8993 0.1860
   12517.5000   54.0284 -999.2500   0.0924 -999.2500  99.3720 -999.2500   2.6036 -999.2500 3.4531  51.9559 -999.2500  -999.2500  61.0984 -999.2500 73.9128 0.1861
   12518.0000   65.1509 -999.2500   0.0924 -999.2500 101.3444 -999.2500   2.6028 -999.2500 3.4540  51.1473 -999.2500  -999.2500  60.0271 -999.2500 74.0676 0.1872
   12518.5000    0.0000 -999.2500   0.0969 -999.2500 112.2277 -999.2500   2.5952 -999.2500 3.4306  54.5433 -999.2500  -999.2500  63.8909 -999.2500 74.9593 0.1935
   12519.0000   77.5342 -999.2500   0.0960 -999.2500 110.9946 -999.2500   2.5974 -999.2500 3.3762  44.1554 -999.2500  -999.2500  51.6497 -999.2500 74.9435 0.1934
   12519.5000    0.0000 -999.2500   0.0940 -999.2500 105.9749 -999.2500   2.6023 -999.2500 3.3365  34.6878 -999.2500  -999.2500  40.3954 -999.2500 74.7595 0.1921
   12520.0000    0.0000 -999.2500   0.0966 -999.2500 110.0164 -999.2500   2.5995 -999.2500 3.3466  35.6475 -999.2500  -999.2500  41.2406 -999.2500 75.3242 0.1961
   12520.5000    0.0000 -999.2500   0.0970 -999.2500 106.2678 -999.2500   2.6010 -999.2500 3.3285  30.8332 -999.2500  -999.2500  35.5708 -999.2500 75.2418 0.1955
   12521.0000  -64.3051 -999.2500   0.0984 -999.2500 104.2840 -999.2500   2.6007 -999.2500 3.2810  25.7038 -999.2500  -999.2500  29.8164 -999.2500 75.1838 0.1951
   12521.5000  -96.5637 -999.2500   0.1016 -999.2500 105.6484 -999.2500   2.5977 -999.2500 3.2321  22.7987 -999.2500  -999.2500  26.6579 -999.2500 75.3479 0.1962
   12522.0000    0.0000 -999.2500   0.1022 -999.2500 101.4819 -999.2500   2.5992 -999.2500 3.1696  17.7802 -999.2500  -999.2500  20.9147 -999.2500 75.1295 0.1947
   12522.5000   54.2899 -999.2500   0.0996 -999.2500  93.6522 -999.2500   2.6045 -999.2500 3.1397  14.6204 -999.2500  -999.2500  17.1997 -999.2500 74.5805 0.1908
   12523.0000   59.1015 -999.2500   0.1051 -999.2500 108.1889 -999.2500   2.5949 -999.2500 3.2179  21.4970 -999.2500  -999.2500  25.1088 -999.2500 75.8359 0.1997
   12523.5000   32.3534 -999.2500   0.1049 -999.2500 107.1540 -999.2500   2.5955 -999.2500 3.2349  21.6190 -999.2500  -999.2500  25.1290 -999.2500 75.8562 0.1998
   12524.0000  -42.6238 -999.2500   0.1113 -999.2500 117.8933 -999.2500   2.5861 -999.2500 3.2689  25.9944 -999.2500  -999.2500  30.1816 -999.2500 76.8171 0.2066
   12524.5000   10.3325 -999.2500   0.1101 -999.2500 106.1350 -999.2500   2.5916 -999.2500 3.1977  17.1322 -999.2500  -999.2500  19.9550 -999.2500 76.1619 0.2020
   12525.0000   10.1291 -999.2500   0.1161 -999.2500 112.2004 -999.2500   2.5841 -999.2500 3.1994  17.5226 -999.2500  -999.2500  20.4387 -999.2500 76.8346 0.2068
   12525.5000   64.4619 -999.2500   0.1160 -999.2500 108.6157 -999.2500   2.5854 -999.2500 3.2155  17.0020 -999.2500  -999.2500  19.7039 -999.2500 76.7471 0.2061
   12526.0000    0.0000 -999.2500   0.1132 -999.2500 100.1267 -999.2500   2.5903 -999.2500 3.2268  15.7047 -999.2500  -999.2500  18.0592 -999.2500 76.2138 0.2024
   12526.5000    0.0000 -999.2500   0.1134 -999.2500 101.9546 -999.2500   2.5889 -999.2500 3.2932  19.7739 -999.2500  -999.2500  22.4852 -999.2500 76.4204 0.2038
   12527.0000    0.0000 -999.2500   0.1181 -999.2500 111.4600 -999.2500   2.5808 -999.2500 3.3420  26.0921 -999.2500  -999.2500  29.6319 -999.2500 77.1323 0.2089
   12527.5000   42.8523 -999.2500   0.1219 -999.2500 115.8931 -999.2500   2.5758 -999.2500 3.3312  26.3915 -999.2500  -999.2500  30.1488 -999.2500 77.4667 0.2112
   12528.0000    0.0000 -999.2500   0.1313 -999.2500 130.9213 -999.2500   2.5626 -999.2500 3.3024  28.4964 -999.2500  -999.2500  33.0138 -999.2500 78.5318 0.2188
   12528.5000    0.0000 -999.2500   0.1363 -999.2500 135.0473 -999.2500   2.5573 -999.2500 3.2520  25.2137 -999.2500  -999.2500  29.4716 -999.2500 78.9165 0.2215
   12529.0000    0.0000 -999.2500   0.1315 -999.2500 118.8718 -999.2500   2.5676 -999.2500 3.1567  14.8891 -999.2500  -999.2500  17.4689 -999.2500 77.9833 0.2149
   12529.5000   33.9418 -999.2500   0.1360 -999.2500 128.4041 -999.2500   2.5603 -999.2500 3.2002  18.7698 -999.2500  -999.2500  21.9804 -999.2500 78.6882 0.2199
