~Version Information
 VERS.                  2.0:   CWLS log ASCII Standard -VERSION 2.0
 WRAP.                   NO:   One line per depth step
~Well Information Block
#MNEM.UNIT     VALUE/NAME     DESCRIPTION
#---------     -----------    ---------------------------
 STRT.F              8683.0000: START DEPTH
 STOP.F             14089.5000: STOP DEPTH
 STEP.F                 0.5000: STEP DEPTH
 NULL.                 -999.25: NULL VALUE
 LOC .       API  42-109-32906:  LOCATION
 FL1 .       API  42-109-32906:  LOCATIONLINE1
 DMF .                      KB:  DRILL MEAS FROM
 PDAT.                      GL:  PERMANENT DATUM
 PROV.                   TEXAS:  PROVINCE
 STAT.                   TEXAS:  STATE NAME
 CNTY.               CULBERSON:  COUNTY NAME
 LUL .                  ODESSA:  LOGGINGUNITLOC
 FLD .     FORD, WEST (WOLFCAMP):  FIELD NAME
 WELL.     SHELLY FEE 40 No. 2H:  WELL NAME
 COMP.     CAPITAN ENERGY, INC.:  COMPANY
 DATE.             08-Jun-2018:  DATE
 SVCO.             Halliburton:  SERVICECONAME
 HIDE.                        :  WELLNAMEOPERAT
 BASI.                   BACIA:  BASIN
 UWI .            42-109-32906Lat:  UNIQUE WELL IDENTIFIER
 API .            42-109-32906Lat:  API NUMBER
 RANG.                     N/A:  RANGE
 TOWN.                     N/A:  TOWNSHIP
 SECT.                     N/A:  SECTION
 SON .               902848974:  JOB NUMBER
 CTRY.                        :  COUNTRY
 SRVC.             Halliburton:  SERVICE COMPANY
 LMF .                      KB:  LOG MEASURED FROM
 BAP .ft                0.0000:  GL ELEV ONSHORE
 GVFD.g                 1.0000:  GRAVITY FIELD
~Curve Information Block
#MNEM.UNIT                 API CODE     Curve Description
#---------               -----------    ---------------------------
 DEPT.F                 00 000 000 000:  Depth
 CCL .mV                00 000 000 000:  Casing Collar Locator
 DTC_CHI.uspf           00 000 000 000:  DTC_CHI
 DTC_OH.uspf            00 000 000 000:  DTC_OH
 GR_CHI.api             00 000 000 000:  GR_CHI
 GR_OH.api              00 000 000 000:  GR_OH
 LLD_CHI.ohmm           00 000 000 000:  LLD_CHI
 LLD_OH.ohmm            00 000 000 000:  LLD_OH
 LLS_CHI.ohmm           00 000 000 000:  LLS_CHI
 LLS_OH.ohmm            00 000 000 000:  LLS_OH
 MSFL_CHI.ohmm          00 000 000 000:  MSFL_CHI
 MSFL_OH.ohmm           00 000 000 000:  MSFL_OH
 NPHI_CHI.pu            00 000 000 000:  NPHI_CHI
 NPHI_OH.pu             00 000 000 000:  NPHI_OH
 PE_CHI.b/e             00 000 000 000:  PE_CHI
 PE_OH.NONE             00 000 000 000:  Pe_OH
 RHOB_CHI.g/cc          00 000 000 000:  RHOB_CHI
 RHOB_OH.g/cc           00 000 000 000:  RHOB_OH
 SPHI_CHI.pu            00 000 000 000:  SPHI_CHI
#Other Information
#
#WARRANTY: Halliburton will use its best efforts to furnish customers with 
#accurate information and interpretations that are part of, and incident to, the services 
#provided.  However, Halliburton cannot and does not warrant the accuracy 
#or correctness of such information and interpretations.  Under no circumstances should any 
#such information or interpretation be relied upon as the sole basis for any drilling, 
#completion, production, or financial decision or any procedure involving any risk to the 
#safety of any drilling venture, drilling rig or its crew or any other third party.  The 
#Customer has full responsibility for all drilling, completion and production operation.  
#Halliburton makes no representations or warranties, either expressed or 
#implied, including, but not limited to, the implied warranties of merchantability or fitness 
#for a particular purpose, with respect to the services rendered.  In no event will 
#Halliburton be liable for failure to obtain any particular results or for 
#any damages, including, but not limited to, indirect, special or consequential damages, 
#resulting from the use of any information or interpretation provided by Halliburton.
#
~A    DEPT       CCL    DTC_CHI DTC_OH   GR_CHI   GR_OH   LLD_CHI   LLD_OH   LLS_CHI   LLS_OH   MSFL_CHI  MSFL_OH     NPHI_CHI   NPHI_OH   PE_CHI    PE_OH   RHOB_CHI  RHOB_OH SPHI_CHI 
# ...
   13699.0000   -1.6250 69.1737 -999.25  98.4200  -999.25  57.3618   -999.25  53.5036   -999.25  28.2319    -999.25      15.8974 -999.25     3.2768 -999.25     2.5291 -999.25 15.2600
   13699.5000   -1.7273 69.8242 -999.25  95.8638  -999.25  57.8825   -999.25  54.6622   -999.25  28.5979    -999.25      16.6575 -999.25     3.3010 -999.25     2.5227 -999.25 15.7200
   13700.0000   -1.8636 70.0410 -999.25  98.0598  -999.25  58.6421   -999.25  55.5004   -999.25  28.9229    -999.25      16.8840 -999.25     3.3081 -999.25     2.5189 -999.25 15.8700
   13700.5000   -1.9658 70.8291 -999.25 120.3045  -999.25  60.0860   -999.25  56.4061   -999.25  28.9963    -999.25      17.4882 -999.25     3.2535 -999.25     2.4962 -999.25 16.4300
   13701.0000   -2.0681 70.1633 -999.25 118.3643  -999.25  60.5966   -999.25  56.8087   -999.25  28.9675    -999.25      16.4496 -999.25     3.2680 -999.25     2.5060 -999.25 15.9600
   13701.5000   -2.1533 69.3159 -999.25 112.1810  -999.25  61.1104   -999.25  56.9938   -999.25  29.3226    -999.25      15.5433 -999.25     3.3035 -999.25     2.5218 -999.25 15.3600
   13702.0000   -2.2556 68.8086 -999.25 113.2544  -999.25  60.4835   -999.25  55.8280   -999.25  28.9877    -999.25      14.9589 -999.25     3.2966 -999.25     2.5292 -999.25 15.0000
   13702.5000   -2.3578 68.3801 -999.25 108.8117  -999.25  59.4925   -999.25  54.6146   -999.25  28.6918    -999.25      14.5967 -999.25     3.2934 -999.25     2.5374 -999.25 14.7000
   13703.0000   -2.4601 68.6203 -999.25 115.1834  -999.25  58.1716   -999.25  53.1208   -999.25  28.0041    -999.25      14.9062 -999.25     3.2506 -999.25     2.5301 -999.25 14.8700
   13703.5000   -2.5453 68.0194 -999.25 104.1998  -999.25  57.3620   -999.25  52.3113   -999.25  27.8580    -999.25      14.3121 -999.25     3.2657 -999.25     2.5439 -999.25 14.4400
   13704.0000   -2.6475 67.6081 -999.25 106.9117  -999.25  56.2809   -999.25  50.7064   -999.25  27.3468    -999.25      13.9044 -999.25     3.2484 -999.25     2.5492 -999.25 14.1500
   13704.5000   -2.7498 67.6404 -999.25 113.5989  -999.25  54.4952   -999.25  48.5920   -999.25  26.5098    -999.25      14.0833 -999.25     3.2012 -999.25     2.5449 -999.25 14.1700
   13705.0000   -2.8861 68.1196 -999.25 123.9914  -999.25  53.4035   -999.25  47.3486   -999.25  25.8755    -999.25      14.6988 -999.25     3.1494 -999.25     2.5318 -999.25 14.5100
   13705.5000   -2.9884 68.0407 -999.25 122.6478  -999.25  52.0060   -999.25  45.9391   -999.25  25.3158    -999.25      14.7236 -999.25     3.1228 -999.25     2.5326 -999.25 14.4600
   13706.0000   -3.0907 67.9630 -999.25 125.3925  -999.25  51.5783   -999.25  45.3268   -999.25  25.0767    -999.25      14.6534 -999.25     3.1115 -999.25     2.5326 -999.25 14.4000
   13706.5000   -3.1759 67.7064 -999.25 119.2539  -999.25  52.4465   -999.25  46.3211   -999.25  25.5213    -999.25      14.2587 -999.25     3.1470 -999.25     2.5401 -999.25 14.2200
   13707.0000   -3.2781 67.4235 -999.25 114.3178  -999.25  53.5707   -999.25  47.5090   -999.25  25.9381    -999.25      13.6726 -999.25     3.1843 -999.25     2.5481 -999.25 14.0200
   13707.5000   -3.3804 67.7095 -999.25 111.8576  -999.25  56.5835   -999.25  50.9587   -999.25  26.9229    -999.25      13.4144 -999.25     3.2334 -999.25     2.5467 -999.25 14.2200
   13708.0000   -3.4826 68.0633 -999.25 114.5661  -999.25  57.2890   -999.25  51.8816   -999.25  27.1128    -999.25      13.6909 -999.25     3.2336 -999.25     2.5401 -999.25 14.4700
   13708.5000   -3.5678 68.0620 -999.25 112.4294  -999.25  58.0951   -999.25  52.7874   -999.25  27.5446    -999.25      13.7317 -999.25     3.2532 -999.25     2.5413 -999.25 14.4700
   13709.0000   -3.6701 68.4227 -999.25 110.0048  -999.25  58.2487   -999.25  53.3561   -999.25  27.8999    -999.25      14.4228 -999.25     3.2583 -999.25     2.5357 -999.25 14.7300
   13709.5000   -3.7724 68.6775 -999.25 112.1574  -999.25  58.1318   -999.25  53.3433   -999.25  27.8631    -999.25      14.7649 -999.25     3.2489 -999.25     2.5305 -999.25 14.9100
   13710.0000   -3.9087 69.2641 -999.25 122.2850  -999.25  56.9314   -999.25  52.0824   -999.25  27.1400    -999.25      15.4124 -999.25     3.1959 -999.25     2.5162 -999.25 15.3200
   13710.5000   -4.0109 69.0463 -999.25 120.2896  -999.25  55.3981   -999.25  50.4643   -999.25  26.4525    -999.25      15.1447 -999.25     3.1712 -999.25     2.5198 -999.25 15.1700
   13711.0000   -4.1132 68.6172 -999.25 117.3397  -999.25  53.5347   -999.25  48.3670   -999.25  25.7171    -999.25      14.7606 -999.25     3.1477 -999.25     2.5270 -999.25 14.8600
   13711.5000   -4.2155 68.3608 -999.25 113.0232  -999.25  52.7938   -999.25  47.6036   -999.25  25.5218    -999.25      14.5800 -999.25     3.1470 -999.25     2.5325 -999.25 14.6800
   13712.0000   -4.3007 68.3951 -999.25 115.4594  -999.25  51.7599   -999.25  46.4622   -999.25  25.0654    -999.25      14.7035 -999.25     3.1213 -999.25     2.5303 -999.25 14.7100
   13712.5000   -4.4029 67.9627 -999.25 108.7014  -999.25  50.3461   -999.25  45.0033   -999.25  24.6514    -999.25      14.4176 -999.25     3.1175 -999.25     2.5393 -999.25 14.4000
   13713.0000   -4.5052 67.5184 -999.25 106.4104  -999.25  49.4764   -999.25  43.8384   -999.25  24.4618    -999.25      14.2242 -999.25     3.1157 -999.25     2.5467 -999.25 14.0900
   13713.5000   -4.5904 67.3546 -999.25 110.1893  -999.25  50.3561   -999.25  44.3428   -999.25  24.9095    -999.25      14.2108 -999.25     3.1294 -999.25     2.5479 -999.25 13.9700
   13714.0000   -4.6926 67.2644 -999.25 112.7080  -999.25  52.0558   -999.25  45.8064   -999.25  25.6930    -999.25      14.1334 -999.25     3.1642 -999.25     2.5494 -999.25 13.9100
   13714.5000   -4.7949 66.9252 -999.25 103.5466  -999.25  54.1702   -999.25  48.0885   -999.25  26.7773    -999.25      13.6382 -999.25     3.2358 -999.25     2.5603 -999.25 13.6700
   13715.0000   -4.9312 67.4603 -999.25 111.5648  -999.25  55.0008   -999.25  48.9852   -999.25  26.9799    -999.25      14.1381 -999.25     3.2248 -999.25     2.5487 -999.25 14.0500
   13715.5000   -5.0335 67.7307 -999.25 112.4270  -999.25  55.5912   -999.25  49.7827   -999.25  27.1590    -999.25      14.3250 -999.25     3.2273 -999.25     2.5442 -999.25 14.2400
   13716.0000   -5.1358 67.7830 -999.25 104.7234  -999.25  55.5442   -999.25  50.2065   -999.25  27.1107    -999.25      14.1943 -999.25     3.2345 -999.25     2.5465 -999.25 14.2700
   13716.5000   -5.2380 68.4812 -999.25 112.8507  -999.25  55.0912   -999.25  49.9737   -999.25  26.6458    -999.25      14.8052 -999.25     3.1926 -999.25     2.5316 -999.25 14.7700
   13717.0000   -5.3232 69.2862 -999.25 121.4515  -999.25  53.6724   -999.25  48.8203   -999.25  25.7148    -999.25      15.5000 -999.25     3.1310 -999.25     2.5146 -999.25 15.3400
   13717.5000   -5.4255 68.9268 -999.25 111.4390  -999.25  52.3529   -999.25  47.6991   -999.25  25.3448    -999.25      15.1795 -999.25     3.1342 -999.25     2.5241 -999.25 15.0800
   13718.0000   -5.5277 68.9770 -999.25 111.0003  -999.25  52.3186   -999.25  47.7316   -999.25  25.3288    -999.25      15.2201 -999.25     3.1341 -999.25     2.5236 -999.25 15.1200
   13718.5000   -5.6129 69.3346 -999.25 120.6656  -999.25  53.3958   -999.25  48.5339   -999.25  25.7269    -999.25      15.7359 -999.25     3.1276 -999.25     2.5139 -999.25 15.3700
   13719.0000   -5.7152 69.3111 -999.25 120.0442  -999.25  53.9040   -999.25  49.0732   -999.25  25.9507    -999.25      15.6808 -999.25     3.1393 -999.25     2.5148 -999.25 15.3500
   13719.5000   -5.8174 68.9848 -999.25 115.7528  -999.25  53.1978   -999.25  48.2503   -999.25  25.8402    -999.25      15.5257 -999.25     3.1412 -999.25     2.5213 -999.25 15.1200
   13720.0000   -5.8686 68.5262 -999.25 111.1848  -999.25  52.8006   -999.25  47.6978   -999.25  25.8084    -999.25      15.1306 -999.25     3.1519 -999.25     2.5303 -999.25 14.8000
   13720.5000    0.0000 68.5614 -999.25 114.8301  -999.25  53.8596   -999.25  48.6114   -999.25  26.2150    -999.25      15.1386 -999.25     3.1643 -999.25     2.5286 -999.25 14.8200
