~Version Information
 VERS.                  2.0:   CWLS log ASCII Standard -VERSION 2.0
 WRAP.                   NO:   One line per depth step
~Well Information Block
#MNEM.UNIT     VALUE/NAME     DESCRIPTION
#---------     -----------    ---------------------------
 STRT.F              8400.0000: START DEPTH
 STOP.F             14130.0000: STOP DEPTH
 STEP.F                 0.5000: STEP DEPTH
 NULL.                 -999.25: NULL VALUE
 LOC .            42-109-33596:  LOCATION
 FL1 .            42-109-33596:  LOCATIONLINE1
 PROV.                      TX:  PROVINCE
 STAT.                      TX:  STATE NAME
 CNTY.               CULBERSON:  COUNTY NAME
 FLD .              WOLFCAMP B:  FIELD NAME
 WELL.           DALE STATE 5H:  WELL NAME
 COMP.     CAPITAN ENERGY INC.:  COMPANY
 DMF .             Drill Floor:  DRILL MEAS FROM
 PDAT.                      GL:  PERMANENT DATUM
 DATE.             11-Feb-2020:  DATE
 SVCO.             Halliburton:  SERVICECONAME
 HIDE.                        :  WELLNAMEOPERAT
 BASI.                 PERMIAN:  BASIN
 UWI .            42-109-33596:  UNIQUE WELL IDENTIFIER
 API .            42-109-33596:  API NUMBER
 RANG.                     N/A:  RANGE
 TOWN.                     N/A:  TOWNSHIP
 SECT.                     N/A:  SECTION
 SON .               906289953:  JOB NUMBER
 CTRY.                        :  COUNTRY
 SRVC.             Halliburton:  SERVICE COMPANY
 LMF .             Drill Floor:  LOG MEASURED FROM
 TVDS.ft             3291.0000:  TVDSS CORRECTN
 EGL .ft             3266.0000:  GROUND ELEVATION
 APD .ft               25.0000:  DEPTH ABOVE PD
 EPD .ft             3266.0000:  ELEVATION
 BAP .ft                0.0000:  GL ELEV ONSHORE
 GVFD.g                 1.0000:  GRAVITY FIELD
 EKB .ft             3291.0000:  KB ELEVATION
 EDF .ft             3291.0000:  DF ELEVATION
~Curve Information Block
#MNEM.UNIT                 API CODE     Curve Description
#---------               -----------    ---------------------------
 DEPT.F                 00 000 000 000:  Depth
 CCL .V                 00 000 000 000:  Casing Collar Locator
 NPHI_OH.pu             00 000 000 000:  NPHI_OH
 NPHI_CHI.decp          00 000 000 000:  NPHI_CHI
 GR_OH.api              00 000 000 000:  GR_OH
 GR_CHI.api             00 000 000 000:  GR_CHI
 RHOB_OH.g/cc           00 000 000 000:  RHOB_OH
 RHOB_CHI.g/cc          00 000 000 000:  RHOB_CHI
 PE_OH.NONE             00 000 000 000:  PE_OH
 PE_CHI.NONE            00 000 000 000:  PE_CHI
 LLS_CHI.ohmm           00 000 000 000:  LLS_CHI
 LLS_OH.ohmm            00 000 000 000:  LLS_OH
 LLD_OH.ohmm            00 000 000 000:  LLD_OH
 LLD_CHI.ohmm           00 000 000 000:  LLD_CHI
 DTC_OH.uspf            00 000 000 000:  DTC_OH
 DTC_CHI.uspf           00 000 000 000:  DTC_CHI
 SPHW_CHI.decp          00 000 000 000:  SPHW_CHI
#Other Information
#
#WARRANTY: Halliburton will use its best efforts to furnish customers with 
#accurate information and interpretations that are part of, and incident to, the services 
#provided.  However, Halliburton cannot and does not warrant the accuracy 
#or correctness of such information and interpretations.  Under no circumstances should any 
#such information or interpretation be relied upon as the sole basis for any drilling, 
#completion, production, or financial decision or any procedure involving any risk to the 
#safety of any drilling venture, drilling rig or its crew or any other third party.  The 
#Customer has full responsibility for all drilling, completion and production operation.  
#Halliburton makes no representations or warranties, either expressed or 
#implied, including, but not limited to, the implied warranties of merchantability or fitness 
#for a particular purpose, with respect to the services rendered.  In no event will 
#Halliburton be liable for failure to obtain any particular results or for 
#any damages, including, but not limited to, indirect, special or consequential damages, 
#resulting from the use of any information or interpretation provided by Halliburton.
#
~A    DEPT      CCL   NPHI_OH NPHI_CHI  GR_OH    GR_CHI  RHOB_OH RHOB_CHI  PE_OH  PE_CHI LLS_CHI   LLS_OH    LLD_OH    LLD_CHI  DTC_OH  DTC_CHI SPHW_CHI 
# ...
    9910.5000 -0.0015 -999.25   0.1458  -999.25 114.1234 -999.25   2.5681 -999.25 3.0571  19.6197   -999.25   -999.25   23.8220 -999.25 75.9951 0.2008
    9911.0000 -0.0228 -999.25   0.1444  -999.25 109.8205 -999.25   2.5689 -999.25 3.0472  18.3854   -999.25   -999.25   22.7399 -999.25 75.8726 0.1999
    9911.5000  0.0024 -999.25   0.1490  -999.25 117.9961 -999.25   2.5658 -999.25 3.0881  20.8947   -999.25   -999.25   25.3458 -999.25 76.6531 0.2055
    9912.0000  0.0000 -999.25   0.1465  -999.25 109.9125 -999.25   2.5690 -999.25 3.0927  20.1130   -999.25   -999.25   25.1205 -999.25 76.1754 0.2021
    9912.5000  0.0028 -999.25   0.1487  -999.25 112.8962 -999.25   2.5685 -999.25 3.1197  21.8435   -999.25   -999.25   26.9859 -999.25 76.4643 0.2041
    9913.0000  0.0050 -999.25   0.1493  -999.25 113.8785 -999.25   2.5699 -999.25 3.1322  22.9756   -999.25   -999.25   27.9567 -999.25 76.4170 0.2038
    9913.5000 -0.0408 -999.25   0.1505  -999.25 119.1976 -999.25   2.5705 -999.25 3.1478  25.4440   -999.25   -999.25   29.7640 -999.25 76.5600 0.2048
    9914.0000 -0.0013 -999.25   0.1500  -999.25 121.1276 -999.25   2.5721 -999.25 3.1503  26.6406   -999.25   -999.25   30.3341 -999.25 76.4244 0.2038
    9914.5000  0.0018 -999.25   0.1478  -999.25 116.9564 -999.25   2.5742 -999.25 3.1311  25.4459   -999.25   -999.25   28.8368 -999.25 75.9909 0.2008
    9915.0000 -0.0280 -999.25   0.1436  -999.25 105.4951 -999.25   2.5778 -999.25 3.0937  21.8992   -999.25   -999.25   25.4792 -999.25 75.2604 0.1956
    9915.5000 -0.0087 -999.25   0.1424  -999.25 100.5776 -999.25   2.5788 -999.25 3.0783  19.8987   -999.25   -999.25   23.5657 -999.25 75.1747 0.1950
    9916.0000 -0.0213 -999.25   0.1439  -999.25 101.6962 -999.25   2.5778 -999.25 3.0899  20.0626   -999.25   -999.25   23.9898 -999.25 75.4035 0.1966
    9916.5000 -0.0106 -999.25   0.1459  -999.25 104.8401 -999.25   2.5754 -999.25 3.1197  21.9545   -999.25   -999.25   26.4705 -999.25 75.7463 0.1991
    9917.0000  0.0561 -999.25   0.1411  -999.25  94.5707 -999.25   2.5789 -999.25 3.1315  20.5874   -999.25   -999.25   26.1881 -999.25 75.1388 0.1948
    9917.5000  0.0893 -999.25   0.1407  -999.25  95.1969 -999.25   2.5777 -999.25 3.1421  21.1271   -999.25   -999.25   27.0634 -999.25 75.2807 0.1958
    9918.0000 -0.0289 -999.25   0.1443  -999.25 103.4699 -999.25   2.5726 -999.25 3.1368  22.7578   -999.25   -999.25   28.3555 -999.25 75.9130 0.2002
    9918.5000  0.0135 -999.25   0.1450  -999.25 105.4751 -999.25   2.5715 -999.25 3.1182  21.7622   -999.25   -999.25   26.8522 -999.25 76.0693 0.2013
    9919.0000 -0.0277 -999.25   0.1489  -999.25 114.2402 -999.25   2.5693 -999.25 3.1444  24.9601   -999.25   -999.25   29.7089 -999.25 76.6270 0.2053
    9919.5000 -0.0080 -999.25   0.1551  -999.25 130.5484 -999.25   2.5662 -999.25 3.2086  31.9221   -999.25   -999.25   35.8534 -999.25 77.8447 0.2139
    9920.0000 -0.0009 -999.25   0.1564  -999.25 133.3001 -999.25   2.5664 -999.25 3.2350  35.1886   -999.25   -999.25   39.1234 -999.25 78.0532 0.2154
    9920.5000  0.0863 -999.25   0.1493  -999.25 111.4712 -999.25   2.5727 -999.25 3.1742  27.1528   -999.25   -999.25   32.5245 -999.25 76.2323 0.2025
    9921.0000  0.0090 -999.25   0.1457  -999.25 101.4921 -999.25   2.5766 -999.25 3.1554  23.4250   -999.25   -999.25   29.3071 -999.25 75.4761 0.1971
    9921.5000 -0.0012 -999.25   0.1499  -999.25 111.2792 -999.25   2.5729 -999.25 3.1685  25.5872   -999.25   -999.25   31.2748 -999.25 76.1259 0.2017
    9922.0000  0.0322 -999.25   0.1540  -999.25 123.1353 -999.25   2.5695 -999.25 3.1905  28.2199   -999.25   -999.25   33.3044 -999.25 77.0327 0.2082
    9922.5000 -0.0003 -999.25   0.1515  -999.25 117.9092 -999.25   2.5707 -999.25 3.1605  25.4113   -999.25   -999.25   30.4646 -999.25 76.5189 0.2045
    9923.0000 -0.0150 -999.25   0.1470  -999.25 109.8117 -999.25   2.5731 -999.25 3.1233  22.8298   -999.25   -999.25   27.6736 -999.25 75.7957 0.1994
    9923.5000  0.0212 -999.25   0.1494  -999.25 118.5849 -999.25   2.5697 -999.25 3.1518  26.9969   -999.25   -999.25   31.3739 -999.25 76.5091 0.2044
    9924.0000 -0.0135 -999.25   0.1458  -999.25 110.8637 -999.25   2.5718 -999.25 3.1468  26.9054   -999.25   -999.25   31.7441 -999.25 75.8893 0.2001
    9924.5000 -0.0040 -999.25   0.1453  -999.25 108.5316 -999.25   2.5728 -999.25 3.1671  28.5790   -999.25   -999.25   33.8562 -999.25 75.7893 0.1994
    9925.0000  0.0069 -999.25   0.1430  -999.25 101.7875 -999.25   2.5768 -999.25 3.1722  27.8880   -999.25   -999.25   33.6395 -999.25 75.2185 0.1953
    9925.5000 -0.0180 -999.25   0.1419  -999.25  98.2275 -999.25   2.5791 -999.25 3.1591  26.0674   -999.25   -999.25   31.5889 -999.25 74.9826 0.1937
    9926.0000 -0.0542 -999.25   0.1477  -999.25 111.7527 -999.25   2.5744 -999.25 3.1758  29.7212   -999.25   -999.25   34.3248 -999.25 75.9415 0.2004
    9926.5000  0.0011 -999.25   0.1498  -999.25 117.2546 -999.25   2.5724 -999.25 3.1724  29.0051   -999.25   -999.25   33.1226 -999.25 76.4448 0.2040
    9927.0000 -0.0168 -999.25   0.1451  -999.25 103.0325 -999.25   2.5762 -999.25 3.1332  23.0321   -999.25   -999.25   28.0139 -999.25 75.5354 0.1976
    9927.5000  0.0065 -999.25   0.1451  -999.25 102.5219 -999.25   2.5766 -999.25 3.1340  22.7687   -999.25   -999.25   28.0255 -999.25 75.3856 0.1965
    9928.0000 -0.0083 -999.25   0.1456  -999.25 104.3616 -999.25   2.5763 -999.25 3.1349  23.3225   -999.25   -999.25   28.5830 -999.25 75.3417 0.1962
    9928.5000 -0.0043 -999.25   0.1523  -999.25 123.2377 -999.25   2.5709 -999.25 3.1836  29.4728   -999.25   -999.25   33.8091 -999.25 76.7656 0.2063
    9929.0000  0.0124 -999.25   0.1481  -999.25 112.0716 -999.25   2.5734 -999.25 3.1291  23.4548   -999.25   -999.25   27.8837 -999.25 75.9837 0.2007
    9929.5000 -0.0134 -999.25   0.1476  -999.25 110.3236 -999.25   2.5731 -999.25 3.1061  20.9960   -999.25   -999.25   25.1277 -999.25 76.0847 0.2014
    9930.0000  0.0346 -999.25   0.1453  -999.25 104.0638 -999.25   2.5752 -999.25 3.0866  19.0425   -999.25   -999.25   23.2435 -999.25 75.6837 0.1986
    9930.5000 -0.0011 -999.25   0.1455  -999.25 104.6120 -999.25   2.5756 -999.25 3.0991  20.1540   -999.25   -999.25   24.5918 -999.25 75.5625 0.1978
    9931.0000  0.0231 -999.25   0.1452  -999.25 103.7717 -999.25   2.5769 -999.25 3.1202  22.1692   -999.25   -999.25   27.1600 -999.25 75.2228 0.1954
    9931.5000  0.0254 -999.25   0.1452  -999.25 103.6827 -999.25   2.5770 -999.25 3.1353  23.3664   -999.25   -999.25   28.9029 -999.25 75.1046 0.1945
    9932.0000  0.0052 -999.25   0.1482  -999.25 111.9116 -999.25   2.5730 -999.25 3.1526  25.7217   -999.25   -999.25   31.2149 -999.25 75.7466 0.1991
    9932.5000  0.0398 -999.25   0.1452  -999.25 105.7355 -999.25   2.5739 -999.25 3.1241  22.4110   -999.25   -999.25   27.9736 -999.25 75.4297 0.1968
    9933.0000  0.0090 -999.25   0.1414  -999.25  98.8091 -999.25   2.5760 -999.25 3.1016  19.6848   -999.25   -999.25   25.2235 -999.25 75.0683 0.1943
    9933.5000  0.0019 -999.25   0.1458  -999.25 108.3940 -999.25   2.5713 -999.25 3.1033  21.0917   -999.25   -999.25   26.1726 -999.25 75.8301 0.1996
    9934.0000  0.0322 -999.25   0.1473  -999.25 110.6725 -999.25   2.5700 -999.25 3.1009  20.4860   -999.25   -999.25   25.3221 -999.25 76.1818 0.2021
    9934.5000 -0.0155 -999.25   0.1490  -999.25 113.5117 -999.25   2.5691 -999.25 3.1034  20.2719   -999.25   -999.25   24.7793 -999.25 76.5451 0.2047
    9935.0000 -0.0353 -999.25   0.1492  -999.25 112.6759 -999.25   2.5689 -999.25 3.1045  19.9129   -999.25   -999.25   24.3718 -999.25 76.6915 0.2057
    9935.5000  0.0468 -999.25   0.1458  -999.25 104.0498 -999.25   2.5722 -999.25 3.1024  19.1082   -999.25   -999.25   23.9361 -999.25 76.1481 0.2019
    9936.0000 -0.0133 -999.25   0.1445  -999.25 100.4220 -999.25   2.5740 -999.25 3.1223  19.9450   -999.25   -999.25   25.1675 -999.25 75.9711 0.2006
    9936.5000 -0.0002 -999.25   0.1457  -999.25 101.3088 -999.25   2.5737 -999.25 3.1369  20.6750   -999.25   -999.25   26.0058 -999.25 76.1863 0.2022
