~Version Information
 VERS.                  2.0:   CWLS log ASCII Standard -VERSION 2.0
 WRAP.                   NO:   One line per depth step
~Well Information Block
#MNEM.UNIT     VALUE/NAME     DESCRIPTION
#---------     -----------    ---------------------------
 STRT.F              8830.0000: START DEPTH
 STOP.F             14230.0000: STOP DEPTH
 STEP.F                 0.5000: STEP DEPTH
 NULL.                 -999.25: NULL VALUE
 LOC .       API  42-109-33374Lat:  LOCATION
 FL1 .       API  42-109-33374Lat:  LOCATIONLINE1
 DMF .                      KB:  DRILL MEAS FROM
 PDAT.                      GL:  PERMANENT DATUM
 CTRY.                     USA:  COUNTRY NAME
 CNTY.               CULBERSON:  COUNTY NAME
 FLD .     FORD, WEST (WOLFCAMP):  FIELD NAME
 WELL.        MOTHER FEE 28 4H:  WELL NAME
 COMP.          CAPITAN ENERGY:  COMPANY
 DATE.             02-May-2019:  DATE
 SVCO.             Halliburton:  SERVICECONAME
 PROV.                   TEXAS:  PROVINCE
 STAT.                   TEXAS:  STATE NAME
 HIDE.                        :  WELLNAMEOPERAT
 BASI.                 PERMIAN:  BASIN
 UWI .            42-109-33374Lat:  UNIQUE WELL IDENTIFIER
 API .            42-109-33374Lat:  API NUMBER
 RANG.                     N/A:  RANGE
 TOWN.                     N/A:  TOWNSHIP
 SECT.                     N/A:  SECTION
 SON .               905631317:  JOB NUMBER
 SRVC.             Halliburton:  SERVICE COMPANY
 LMF .                      KB:  LOG MEASURED FROM
 BAP .ft                0.0000:  GL ELEV ONSHORE
 GVFD.g                 1.0000:  GRAVITY FIELD
~Curve Information Block
#MNEM.UNIT                 API CODE     Curve Description
#---------               -----------    ---------------------------
 DEPT.F                 00 000 000 000:  Depth
 CCL .V                 00 000 000 000:  Casing Collar Locator
 NPHI_OH.pu             00 000 000 000:  NPHI_OH
 NPHI_CHI.pu            00 000 000 000:  NPHI_CHI
 GR_OH.api              00 000 000 000:  GR_OH
 GR_CHI.api             00 000 000 000:  GR_CHI
 RHOB_OH.g/cc           00 000 000 000:  RHOB_OH
 RHOB_CHI.g/cc          00 000 000 000:  RHOB_CHI
 PE_OH.b/e              00 000 000 000:  PE_OH
 PE_CHI.b/e             00 000 000 000:  PE_CHI
 RT10_OH.ohmm           00 000 000 000:  RT10_OH
 RT10_CHI.ohmm          00 000 000 000:  RT10_CHI
 RT30_OH.ohmm           00 000 000 000:  RT30_OH
 RT30_CHI.ohmm          00 000 000 000:  RT30_CHI
 RT90_OH.ohmm           00 000 000 000:  RT90_OH
 RT90_CHI.ohmm          00 000 000 000:  RT90_CHI
 SPHI_CHI.pu            00 000 000 000:  SPHI_CHI
 DTC_CHI.uspf           00 000 000 000:  DTC_CHI
 DTC_OH.uspf            00 000 000 000:  DTC_OH
 SGF .cu                00 000 000 000:  Formation Sigma
 CRNF.NONE              00 000 000 000:  CM GrsCaptRatio
 RIN .NONE              00 000 000 000:  CM GrsInelRatio
#Other Information
#
#WARRANTY: Halliburton will use its best efforts to furnish customers with 
#accurate information and interpretations that are part of, and incident to, the services 
#provided.  However, Halliburton cannot and does not warrant the accuracy 
#or correctness of such information and interpretations.  Under no circumstances should any 
#such information or interpretation be relied upon as the sole basis for any drilling, 
#completion, production, or financial decision or any procedure involving any risk to the 
#safety of any drilling venture, drilling rig or its crew or any other third party.  The 
#Customer has full responsibility for all drilling, completion and production operation.  
#Halliburton makes no representations or warranties, either expressed or 
#implied, including, but not limited to, the implied warranties of merchantability or fitness 
#for a particular purpose, with respect to the services rendered.  In no event will 
#Halliburton be liable for failure to obtain any particular results or for 
#any damages, including, but not limited to, indirect, special or consequential damages, 
#resulting from the use of any information or interpretation provided by Halliburton.
#
~A    DEPT      CCL   NPHI_OH NPHI_CHI  GR_OH    GR_CHI  RHOB_OH RHOB_CHI  PE_OH  PE_CHI RT10_OH RT10_CHI RT30_OH RT30_CHI RT90_OH  RT90_CHI SPHI_CHI DTC_CHI DTC_OH    SGF    CRNF   RIN   
# ...
   12420.5000 17.4319 -999.25  16.0821  -999.25 110.0010 -999.25   2.5014 -999.25 2.9046 -999.25  41.1222 -999.25  42.2458  -999.25  44.9423  21.9300 78.6023 -999.25 28.6717 1.1140 1.0796
   12421.0000 17.4591 -999.25  16.1433  -999.25 110.0518 -999.25   2.5018 -999.25 2.9549 -999.25  42.7915 -999.25  43.9607  -999.25  46.7667  22.0100 78.7288 -999.25 28.1474 1.0931 1.0741
   12421.5000 17.4138 -999.25  15.9573  -999.25 109.5745 -999.25   2.5039 -999.25 2.9979 -999.25  44.5089 -999.25  45.7250  -999.25  48.6436  21.8400 78.4814 -999.25 27.6699 1.0758 1.0681
   12422.0000 17.3642 -999.25  15.5692  -999.25 109.0492 -999.25   2.5071 -999.25 3.0284 -999.25  46.2589 -999.25  47.5228  -999.25  50.5561  21.4600 77.9387 -999.25 27.3581 1.0692 1.0653
   12422.5000 17.3944 -999.25  15.1826  -999.25 108.3716 -999.25   2.5104 -999.25 3.0571 -999.25  47.9337 -999.25  49.2433  -999.25  52.3865  21.0700 77.3871 -999.25 26.8869 1.0690 1.0645
   12423.0000 17.4466 -999.25  14.8953  -999.25 107.8513 -999.25   2.5123 -999.25 3.0731 -999.25  49.4511 -999.25  50.8023  -999.25  54.0450  20.7900 77.0006 -999.25 26.4420 1.0759 1.0641
   12423.5000 17.4395 -999.25  14.7457  -999.25 107.1317 -999.25   2.5145 -999.25 3.1216 -999.25  51.4068 -999.25  52.8114  -999.25  56.1823  20.6500 76.7989 -999.25 25.6738 1.0837 1.0618
   12424.0000 17.4189 -999.25  14.4919  -999.25 105.8187 -999.25   2.5202 -999.25 3.2096 -999.25  53.7047 -999.25  55.1721  -999.25  58.6937  20.3500 76.3680 -999.25 25.0240 1.0839 1.0582
   12424.5000 17.4218 -999.25  14.2379  -999.25 103.3117 -999.25   2.5267 -999.25 3.3183 -999.25  56.5737 -999.25  58.1194  -999.25  61.8292  20.0300 75.9284 -999.25 24.2481 1.0813 1.0561
   12425.0000 17.4219 -999.25  14.0977  -999.25 100.0467 -999.25   2.5309 -999.25 3.4167 -999.25  59.8004 -999.25  61.4343  -999.25  65.3556  19.8800 75.7071 -999.25 23.5659 1.0733 1.0520
   12425.5000 17.4331 -999.25  13.9411  -999.25  97.3104 -999.25   2.5337 -999.25 3.4939 -999.25  63.2044 -999.25  64.9313  -999.25  69.0759  19.7300 75.5003 -999.25 23.0713 1.0704 1.0498
   12426.0000 17.4202 -999.25  13.7432  -999.25  95.6931 -999.25   2.5371 -999.25 3.5627 -999.25  66.3337 -999.25  68.1461  -999.25  72.4959  19.5300 75.2164 -999.25 22.8324 1.0651 1.0451
   12426.5000 17.4211 -999.25  13.5852  -999.25  94.6525 -999.25   2.5379 -999.25 3.5878 -999.25  68.6489 -999.25  70.5245  -999.25  75.0261  19.4000 75.0366 -999.25 22.9905 1.0616 1.0417
   12427.0000 17.4346 -999.25  13.5534  -999.25  93.4051 -999.25   2.5366 -999.25 3.5859 -999.25  69.7587 -999.25  71.6647  -999.25  76.2390  19.4100 75.0504 -999.25 23.2147 1.0504 1.0412
   12427.5000 17.4205 -999.25  13.5922  -999.25  91.4871 -999.25   2.5319 -999.25 3.5359 -999.25  69.8643 -999.25  71.7731  -999.25  76.3544  19.5400 75.2257 -999.25 23.4336 1.0430 1.0400
   12428.0000 17.4231 -999.25  13.6281  -999.25  89.6109 -999.25   2.5282 -999.25 3.4896 -999.25  69.4855 -999.25  71.3840  -999.25  75.9405  19.6300 75.3615 -999.25 23.4323 1.0332 1.0412
   12428.5000 17.3992 -999.25  13.6673  -999.25  88.0096 -999.25   2.5247 -999.25 3.4463 -999.25  69.2327 -999.25  71.1243  -999.25  75.6641  19.7300 75.4998 -999.25 22.9654 1.0224 1.0428
   12429.0000 17.4210 -999.25  13.5200  -999.25  86.6606 -999.25   2.5244 -999.25 3.4254 -999.25  69.6505 -999.25  71.5535  -999.25  76.1207  19.6000 75.3173 -999.25 22.4949 1.0180 1.0426
   12429.5000 17.4206 -999.25  13.5412  -999.25  85.6066 -999.25   2.5210 -999.25 3.4021 -999.25  71.2338 -999.25  73.1801  -999.25  77.8511  19.7100 75.4698 -999.25 21.9299 1.0087 1.0427
   12430.0000 17.4582 -999.25  13.2442  -999.25  85.0552 -999.25   2.5254 -999.25 3.4502 -999.25  73.5598 -999.25  75.5696  -999.25  80.3932  19.3800 74.9965 -999.25 21.6054 1.0062 1.0384
   12430.5000 17.4602 -999.25  12.8787  -999.25  84.7264 -999.25   2.5335 -999.25 3.5460 -999.25  76.2037 -999.25  78.2858  -999.25  83.2828  18.9100 74.3406 -999.25 21.3124 1.0043 1.0327
   12431.0000 17.4196 -999.25  12.3635  -999.25  83.7810 -999.25   2.5436 -999.25 3.6401 -999.25  78.6605 -999.25  80.8097  -999.25  85.9678  18.2600 73.4233 -999.25 20.9886 1.0008 1.0275
   12431.5000 17.4216 -999.25  12.1829  -999.25  82.0754 -999.25   2.5466 -999.25 3.6864 -999.25  80.9163 -999.25  83.1271  -999.25  88.4331  18.0600 73.1399 -999.25 20.7039 0.9931 1.0251
   12432.0000 17.4190 -999.25  12.1241  -999.25  80.0613 -999.25   2.5461 -999.25 3.7000 -999.25  83.0396 -999.25  85.3085  -999.25  90.7537  18.0400 73.1075 -999.25 20.3549 0.9841 1.0258
   12432.5000 17.4216 -999.25  12.2116  -999.25  77.9171 -999.25   2.5414 -999.25 3.6700 -999.25  85.0490 -999.25  87.3727  -999.25  92.9497  18.2300 73.3824 -999.25 20.2240 0.9738 1.0267
   12433.0000 17.4356 -999.25  12.2108  -999.25  76.2490 -999.25   2.5388 -999.25 3.6474 -999.25  86.6028 -999.25  88.9690  -999.25  94.6479  18.3000 73.4698 -999.25 20.1546 0.9663 1.0241
   12433.5000 17.5139 -999.25  12.1591  -999.25  75.2871 -999.25   2.5388 -999.25 3.6511 -999.25  87.9123 -999.25  90.3143  -999.25  96.0790  18.2600 73.4209 -999.25 20.0363 0.9621 1.0206
   12434.0000 17.4154 -999.25  12.0544  -999.25  75.0968 -999.25   2.5396 -999.25 3.6501 -999.25  88.9859 -999.25  91.4172  -999.25  97.2524  18.1600 73.2714 -999.25 19.8189 0.9570 1.0192
   12434.5000 17.4198 -999.25  12.0851  -999.25  75.3870 -999.25   2.5381 -999.25 3.6352 -999.25  90.1669 -999.25  92.6305  -999.25  98.5431  18.2300 73.3733 -999.25 19.5084 0.9538 1.0203
   12435.0000 17.4464 -999.25  12.0996  -999.25  75.6936 -999.25   2.5373 -999.25 3.6359 -999.25  91.6583 -999.25  94.1626  -999.25 100.1730  18.2700 73.4386 -999.25 19.3026 0.9497 1.0217
   12435.5000 17.3845 -999.25  11.8626  -999.25  75.3709 -999.25   2.5414 -999.25 3.6764 -999.25  93.4321 -999.25  95.9849  -999.25 102.1116  17.9900 73.0313 -999.25 19.0955 0.9454 1.0186
   12436.0000 17.4255 -999.25  11.4468  -999.25  74.0583 -999.25   2.5495 -999.25 3.7515 -999.25  95.1804 -999.25  97.7809  -999.25 104.0223  17.4500 72.2763 -999.25 18.8804 0.9369 1.0095
   12436.5000 17.4639 -999.25  11.0426  -999.25  72.0116 -999.25   2.5573 -999.25 3.8239 -999.25  96.8251 -999.25  99.4706  -999.25 105.8198  16.9300 71.5382 -999.25 18.7525 0.9268 0.9991
   12437.0000 17.4223 -999.25  10.6519  -999.25  69.8688 -999.25   2.5650 -999.25 3.8926 -999.25  98.2771 -999.25 100.9622  -999.25 107.4066  16.4200 70.8189 -999.25 18.6390 0.9203 0.9890
   12437.5000 17.4252 -999.25  10.3655  -999.25  67.6187 -999.25   2.5695 -999.25 3.9218 -999.25  99.4472 -999.25 102.1643  -999.25 108.6855  16.0600 70.3149 -999.25 18.5943 0.9122 0.9824
   12438.0000 17.4395 -999.25  10.0931  -999.25  65.5235 -999.25   2.5737 -999.25 3.9395 -999.25 100.1635 -999.25 102.9002  -999.25 109.4683  15.7200 69.8309 -999.25 18.6232 0.9054 0.9784
   12438.5000 17.4046 -999.25   9.7858  -999.25  63.3817 -999.25   2.5791 -999.25 3.9728 -999.25 100.5178 -999.25 103.2642  -999.25 109.8555  15.3200 69.2601 -999.25 18.6703 0.9049 0.9761
   12439.0000 17.4224 -999.25   9.4970  -999.25  61.3282 -999.25   2.5846 -999.25 4.0072 -999.25 100.6066 -999.25 103.3554  -999.25 109.9525  14.9300 68.7140 -999.25 18.6982 0.9087 0.9752
   12439.5000 17.4455 -999.25   9.0530  -999.25  59.5123 -999.25   2.5934 -999.25 4.0640 -999.25 100.6000 -999.25 103.3486  -999.25 109.9453  14.3300 67.8610 -999.25 18.6025 0.9159 0.9747
   12440.0000 17.4395 -999.25   8.8627  -999.25  58.2470 -999.25   2.5972 -999.25 4.0918 -999.25 100.7407 -999.25 103.4932  -999.25 110.0991  14.0700 67.4966 -999.25 18.4142 0.9175 0.9738
   12440.5000 17.4217 -999.25   8.7402  -999.25  57.2228 -999.25   2.5999 -999.25 4.1193 -999.25 101.2310 -999.25 103.9969  -999.25 110.6350  13.9100 67.2640 -999.25 18.3189 0.9162 0.9716
   12441.0000 17.4198 -999.25   8.7207  -999.25  56.0425 -999.25   2.6017 -999.25 4.1607 -999.25 101.8311 -999.25 104.6133  -999.25 111.2908  13.8700 67.2078 -999.25 18.3973 0.9128 0.9667
   12441.5000 17.3720 -999.25   8.6133  -999.25  54.7601 -999.25   2.6042 -999.25 4.1855 -999.25 101.9718 -999.25 104.7579  -999.25 111.4446  13.7200 66.9952 -999.25 18.6274 0.9106 0.9616
