~VERSION INFORMATION
VERS. 2.0 : CWLS Log ASCII Standard - Version 2.0
WRAP. NO : One line per depth step
#--------------------------------------------------#
#----------------DRILLING INFO, INC.---------------#
#---------------WWW.DRILLINGINFO.COM---------------#
#------------------COPYRIGHT 2015------------------#
#--------------------------------------------------#
#THIS FILE MAY BE USED ONLY IN ACCORDANCE WITH A CURRENT SUBSCRIPTION AGREEMENT BETWEEN
#THE USER AND DRILLING INFO, INC. NO PART OF THIS FILE MAY BE REPRODUCED, USED, COPIED,
#MODIFIED, PROPAGATED, OR DISTRIBUTED EXCEPT IN ACCORDANCE WITH THE SUBSCRIPTION
#AGREEMENT. UNAUTHORIZED USE OR DISTRIBUTION OF ALL OR ANY PART OF THIS FILE MAY VIOLATE
#COPYRIGHT, TRADEMARK, AND/OR OTHER LAWS AND IS SUBJECT TO CIVIL AS WELL AS CRIMINAL
#SANCTIONS.
#--------------------------------------------------#
#THIS FILE IS PROVIDED "AS-IS" AND ALL WARRANTIES ARE EXPRESSLY DISCLAIMED, WHETHER
#EXPRESS, ORAL, IMPLIED, STATUTORY OR OTHERWISE, INCLUDING ANY IMPLIED WARRANTY OF FITNESS
#FOR A PARTICULAR PURPOSE, MERCHANTABILITY, TITLE OR NON-INFRINGEMENT, AND ANY WARRANTIES
#ARISING BY VIRTUE OF CUSTOM OF TRADE OR COURSE OF DEALING.  FURTHER, DRILLING INFO,
#INC. AND ITS LICENSORS DO NOT REPRESENT OR WARRANT THAT THIS FILE WILL MEET USER'S
#REQUIREMENTS OR ARE SUITABLE FOR USER'S NEEDS OR THAT THE DATA OR RESULTS PROVIDED IN
#CONJUNCTION THEREWITH ARE CORRECT, ACCURATE, TIMELY OR RELIABLE. THESE DISCLAIMERS SHALL
#APPLY REGARDLESS OF ANY FAILURE OF ESSENTIAL PURPOSE OF ANY LIMITED REMEDY.  SOME
#JURISDICTIONS DO NOT ALLOW THE EXCLUSION OF CERTAIN WARRANTIES SO SOME OF THE ABOVE
#EXCLUSIONS MAY NOT APPLY. IN NO EVENT SHALL DRILLING INFO, INC. OR ANY OF ITS AFFILIATES
#BE LIABLE UNDER ANY LEGAL THEORY, WHETHER IN TORT (INCLUDING WITHOUT LIMITATION
#NEGLIGENCE), CONTRACT, STRICT LIABILITY, STATUTORY OR OTHERWISE, FOR ANY SPECIAL,
#INCIDENTAL, CONSEQUENTIAL, EXEMPLARY, PUNITIVE OR INDIRECT DAMAGE OF ANY KIND, INCLUDING
#WITHOUT LIMITATION LOSS OF REVENUE, PROFITS, GOODWILL, USE, AND/OR DATA OR THE COST OF
#PROCUREMENT OF SUBSTITUTE GOODS OR SERVICES, EVEN IF APPRISED OF THE POSSIBILITY OF SUCH
#DAMAGES IN ADVANCE.
#--------------------------------------------------#
~WELL INFORMATION
#MNEMONIC     .UNIT              VALUE :DESCRIPTION
#--------------------------------------------------#
STRT       .ft                52.00000 :START DEPTH
STOP       .ft                8797.00000 :STOP DEPTH
STEP       .ft                0.50000 :STEP
NULL       .                -999.25000 :NULL VALUE
COMP       .                 :COMPANY
WELL       .                 :WELL
FLD       .                 :FIELD
LOC       .                 :LOCATION
CNTY       .                 :COUNTY
STAT       .                 :STATE
CTRY       .                 :COUNTRY
SRVC       .                 :SERVICE COMPANY
DATE       .                 :DATE
API       .                42109700290000 :API NUMBER
~CURVE INFORMATION
#MNEMONIC     .UNIT      API CODE :CURVE DESCRIPTION
#--------------------------------------------------#
DEPTH       .ft                      :Measured Depth
DT       .us/ft        UNKNOWN   :DT
GR       .gAPI        UNKNOWN   :GR
ILD       .ohmm        UNKNOWN   :ILD
ILS       .ohmm        UNKNOWN   :ILS
SP       .mV        UNKNOWN   :SP
~A    DEPTH    DT    GR    ILD    ILS    SP
# ...
5858.50000    61.46397    96.71133    347.90868    187.98906    -51.22329
5859.00000    60.48956    95.19904    329.61944    187.52252    -51.22302
5859.50000    59.90114    87.88996    311.33020    187.21284    -50.21294
5860.00000    59.31273    79.05279    303.13978    187.98386    -47.95980
5860.50000    60.24773    76.63029    296.03975    188.75488    -45.70667
5861.00000    61.18292    75.95426    298.71934    189.52591    -43.45353
5861.50000    62.11812    75.27974    322.90691    190.29693    -41.20040
5862.00000    63.05331    79.52557    347.09448    191.06795    -39.03260
5862.50000    63.20815    83.77140    371.28204    191.83897    -37.06562
5863.00000    62.96143    88.01723    377.13316    192.60999    -35.09864
5863.50000    62.71471    92.26307    365.67136    193.38102    -33.60688
5864.00000    62.46798    93.31038    354.20957    194.15204    -37.55499
5864.50000    62.22126    91.83172    342.74778    194.92306    -41.50310
5865.00000    61.97454    90.35305    343.45691    195.69408    -45.45121
5865.50000    61.82674    89.02543    351.65199    196.46510    -48.48138
5866.00000    61.93133    87.74688    358.97111    197.23612    -47.99023
5866.50000    62.03593    86.46832    351.87061    197.40330    -47.49908
5867.00000    62.14052    85.63695    344.77011    196.23458    -47.00793
5867.50000    61.94532    84.82672    344.33675    195.06587    -47.70675
5868.00000    61.49191    84.75351    351.50022    193.89716    -48.42198
5868.50000    61.03850    85.11306    358.66369    192.72845    -49.13720
5869.00000    60.58510    85.47260    293.49253    191.55973    -49.85243
5869.50000    60.13169    85.83215    317.68087    190.39102    -50.56766
5870.00000    60.62301    84.50841    341.86921    189.22231    -49.71967
5870.50000    61.40032    83.09808    366.05754    188.05360    -48.54986
5871.00000    62.17762    81.68775    369.17716    186.88489    -47.38005
5871.50000    62.95493    81.17592    342.00253    185.71617    -46.21024
5872.00000    62.44191    84.04121    314.82790    184.54746    -45.93940
5872.50000    61.90019    86.90651    291.05036    183.37875    -47.57724
5873.00000    61.35848    87.70077    291.04542    182.21004    -49.21507
5873.50000    60.81676    86.51830    291.04049    181.04132    -50.85290
5874.00000    60.65543    85.33582    291.03555    179.87261    -50.87258
5874.50000    60.62445    84.15335    286.02952    178.70390    -48.96204
5875.00000    60.59347    82.97088    266.92490    177.53519    -47.05150
5875.50000    60.56249    81.78840    247.82028    176.36647    -45.14096
5876.00000    60.93987    80.60593    249.52907    175.19776    -43.23042
5876.50000    61.77138    81.79533    262.45451    174.02905    -41.31988
5877.00000    62.60289    83.03568    275.37995    172.86034    -44.96645
5877.50000    63.43440    84.78838    288.30538    171.69162    -49.49513
5878.00000    64.26591    86.76314    295.84315    170.52291    -50.55942
5878.50000    64.37335    88.73789    279.26932    169.35420    -51.62371
5879.00000    64.02809    90.51083    262.69548    168.18549    -52.68800
5879.50000    62.92966    89.52198    246.12165    167.01677    -53.75230
5880.00000    61.83124    88.53312    229.54781    165.84806    -54.81659
5880.50000    60.73281    87.54427    212.97398    164.67935    -55.88088
5881.00000    59.63439    86.55542    204.49596    163.51064    -54.66589
5881.50000    58.75960    83.17689    213.28202    162.97971    -53.26202
5882.00000    58.46949    79.46165    222.06809    166.74521    -51.85816
5882.50000    58.17938    75.74642    230.85416    170.51071    -50.45429
5883.00000    57.88926    73.84962    239.64023    174.27622    -50.71458
5883.50000    57.59915    73.57903    273.94921    178.04172    -53.33436
5884.00000    57.30904    73.30843    313.14933    181.80722    -55.95415
5884.50000    57.01893    72.09458    352.34944    185.57272    -57.67678
5885.00000    56.72881    70.56677    391.54955    189.33822    -55.62974
5885.50000    56.70986    70.14748    430.74966    193.10372    -53.58271
5886.00000    56.75032    71.34621    469.94977    196.86922    -51.53568
5886.50000    56.79079    72.54494    509.14988    199.07716    -50.88459
5887.00000    57.21439    73.74368    548.34999    198.89456    -53.10813
5887.50000    57.88193    74.94241    585.86283    198.71196    -55.33167
5888.00000    58.54946    75.51199    599.74579    198.52936    -57.55521
5888.50000    59.32397    75.96366    613.62874    198.34676    -59.77875
5889.00000    60.27645    76.41533    627.51169    198.16416    -58.27575
5889.50000    61.22892    76.86700    641.39464    197.98156    -55.95594
5890.00000    62.18140    77.42603    655.27759    197.79896    -53.63614
5890.50000    63.13388    78.31868    593.93600    197.61635    -51.31633
5891.00000    64.08635    79.21134    529.75063    194.82096    -48.99652
5891.50000    63.83660    81.11501    465.56527    191.43784    -46.67672
5892.00000    63.51822    84.04824    401.37991    188.05472    -44.35691
5892.50000    63.19983    86.98147    362.56611    184.67160    -42.60117
5893.00000    62.88145    89.91471    326.13834    181.28848    -46.69277
5893.50000    62.56307    88.66435    289.71057    177.90535    -49.67320
5894.00000    62.24469    86.92414    253.28280    174.52223    -46.53536
5894.50000    62.32478    85.18393    241.18239    171.13911    -43.39753
5895.00000    62.71383    83.44371    230.38194    167.75599    -40.25970
5895.50000    63.10288    86.11272    219.58150    164.37287    -39.82559
5896.00000    63.11216    90.93485    209.83462    162.19857    -46.11219
5896.50000    63.06589    95.68359    217.51437    161.77785    -50.49553
5897.00000    63.01961    94.84306    225.19412    161.35712    -51.45035
5897.50000    62.97334    94.00253    232.87388    160.93640    -52.40518
5898.00000    63.26178    93.16199    240.55363    160.51568    -53.36000
5898.50000    63.77719    92.32146    248.23338    160.09495    -53.52264
5899.00000    63.92949    91.48092    330.40058    159.67423    -52.86769
5899.50000    63.61469    90.64039    316.08550    159.25350    -52.21273
5900.00000    63.29990    92.26091    301.77041    158.83278    -51.55778
5900.50000    62.98510    93.97660    287.45533    158.41206    -50.90282
5901.00000    62.67031    95.69229    273.14025    157.99133    -50.24787
5901.50000    62.65165    96.66227    258.82517    157.57061    -49.51100
5902.00000    62.79381    97.41556    244.51009    157.14988    -47.20447
5902.50000    62.93597    98.18493    231.67432    156.72916    -44.89794
5903.00000    62.82844    99.75550    225.02721    156.30844    -42.59141
5903.50000    62.39005    101.32607    218.38009    155.88771    -40.28489
5904.00000    61.95166    100.66775    211.73298    155.46699    -37.97836
5904.50000    61.51326    99.21701    205.08586    155.04626    -35.67183
5905.00000    61.07487    96.30031    198.43875    154.62554    -33.36530
5905.50000    61.09311    91.18138    191.79163    154.20482    -38.77450
5906.00000    61.36086    86.06245    186.84794    153.78409    -44.51727
5906.50000    61.62861    80.99063    202.51993    153.36337    -50.26004
5907.00000    60.74644    79.83867    218.19191    152.94264    -51.23618
5907.50000    59.81584    78.68672    233.86390    152.52192    -50.56640
5908.00000    59.41958    77.53476    228.71635    152.10119    -49.89663
5908.50000    59.11913    75.61016    221.10595    151.68047    -49.22684
5909.00000    58.81868    73.41522    213.49556    152.29729    -48.55707
5909.50000    58.51823    71.22028    205.88516    153.39439    -47.88729
5910.00000    58.26337    73.20427    198.27477    154.49149    -47.21751
5910.50000    58.91031    75.61503    200.65148    155.58858    -48.99877
5911.00000    59.64247    78.02580    207.01829    156.68568    -52.07155
5911.50000    60.51241    80.43656    213.38510    157.78278    -54.84898
5912.00000    61.42880    80.70970    219.75191    158.87988    -54.21184
5912.50000    62.34519    80.57468    226.11872    159.97698    -53.57471
