###############################################
##         ENVERUS                           ##
##         ESS - Open Hole                   ##
##         PERMIAN / DELAWARE                ##
##         Nov 02 2023  V4.0                 ##
##         42-109-31383-00-00                ##
###############################################
## Copyright 2017-2023  ENVERUS.  All Rights Reserved. 
## Confidential - Property of ENVERUS, use governed by terms and 
## conditions found within the existing Information Services Subscription Agreement 
## (as may be amended, the “ISSA”) between Customer and ENVERUS. 
## 
~VERSION INFORMATION
# MNEM.UNIT                               DATA : DESCRIPTION OF MNEMONIC
#-----.-----     ----------------------------- : -----------------------------
VERS.                                     2.00 : CWLS LOG ASCII STANDARD - VERSION 2.00
WRAP.                                       NO : MULTIPLE LINES PER DEPTH STEP
VEND.                                  ENVERUS : VENDOR
TYPE.                          ESS - OPEN HOLE : ENVERUS ESSENTIAL CURVES – ACCESSIBLE THROUGH ENVERUS PRISM(TM)
DOC.                                  31887493 : ENVERUS HEADER RAW DOCUMENT ID
#___________________________________________________________________________________________________ 
~WELL INFORMATION 
# e8MMFGpko9nixUfuEkfb9P8cKS4olzuguLrtdgPIjARTX3oRymgI2EYtnk6GmA/F0PbYW2Z7xnLx5OgyGayifw== 
# MNEM.UNIT                                              DATA : DESCRIPTION OF MNEMONIC 
#-----.-----                    ----------------------------- : ----------------------------- 
CNTY.                                               CULBERSON : COUNTY 
STATE.                                                  TEXAS : STATE 
CNTRY.                                                    USA : COUNTRY 
API.                                             42-109-31383 : API (10 Digit) 
API_14.                                    42-109-31383-00-00 : API (14 Digits) 
API_14_std.                                 42-109-31383-0000 : API (14 Digits Standard) 
UWI.                                           42109313830000 : UNIQUE WELL ID 
WELL.                                          KIRK  T. A.  1 : WELL NAME
STRT.FT                                                  43.0 : START DEPTH
STOP.FT                                               16492.0 : STOP DEPTH
STEP.FT                                                   0.5 : STEP BETWEEN DEPTHS
NULL.                                                 -999.25 : NULL VALUE
COMP.                                             EXXON CORP. : COMPANY 
DATE.                                             05-AUG-1981 : LOG DATE
#___________________________________________________________________________________________________ 
~CURVE INFORMATION 
# MNEM.UNIT           : CURVE DESCRIPTION 
#-----.-----          : ----------------------------- 
 DEPT.FT               : MEASURED DEPTH 
 CALI.IN               : CALIPER (CAL - CAL) 
 GR.API                : GAMMA RAY (GR) 
 SP.MV                 : SPONTANEOUS POTENTIAL (SP) 
 DT.US/FT              : SONIC DELTA TRANSIT TIME (DT) 
 RESS.OHMM             : SHALLOW INDUCTION RESISTIVITY (ILS - ILS) 
 RESD.OHMM             : DEEP INDUCTION RESISTIVITY (ILD - ILD) 
 NPHI.V/V              : NEUTRON POROSITY (NPHI) 
 #___________________________________________________________________________________________________ 
~A         DEPT           CALI             GR             SP             DT           RESS           RESD           NPHI
# ...
         8552.0         13.003         65.549       -999.250         65.543        102.465        108.298     -999.25000
         8552.5         13.000         73.166       -999.250         68.162        115.139        112.327     -999.25000
         8553.0         12.998         75.885       -999.250         71.324        119.154        116.356     -999.25000
         8553.5         12.995         73.005       -999.250         73.635        119.149        119.351     -999.25000
         8554.0         12.992         70.126       -999.250         71.849        106.602        121.461     -999.25000
         8554.5         12.989         67.247       -999.250         70.063         94.044        123.570     -999.25000
         8555.0         12.987         64.367       -999.250         68.277         81.486        125.680     -999.25000
         8555.5         12.984         61.488       -999.250         68.054         88.399        127.790     -999.25000
         8556.0         12.981         67.296       -999.250         69.197         98.626        129.900     -999.25000
         8556.5         12.978         74.291       -999.250         70.341        108.853        132.010     -999.25000
         8557.0         12.976         77.410       -999.250         71.484        119.079        136.703     -999.25000
         8557.5         12.973         71.433       -999.250         72.452        129.306        151.852     -999.25000
         8558.0         12.970         65.457       -999.250         70.515        131.283        164.135     -999.25000
         8558.5         12.967         59.480       -999.250         68.577        128.544        167.329     -999.25000
         8559.0         12.965         62.855       -999.250         66.640        125.805        170.524     -999.25000
         8559.5         12.962         71.999       -999.250         67.798        128.191        173.719     -999.25000
         8560.0         12.959         81.143       -999.250         70.432        133.230        175.460     -999.25000
         8560.5         12.956         90.287       -999.250         75.320        138.269        176.117     -999.25000
         8561.0         12.954         98.486       -999.250         79.005        129.291        176.773     -999.25000
         8561.5         12.951         91.587       -999.250         77.042        116.054        177.430     -999.25000
         8562.0         12.948         84.688       -999.250         75.080        114.865        169.894     -999.25000
         8562.5         12.946         77.789       -999.250         73.118        123.714        157.426     -999.25000
         8563.0         12.943         74.786       -999.250         71.155        132.563        166.201     -999.25000
         8563.5         12.940         77.758       -999.250         69.193        141.412        174.975     -999.25000
         8564.0         12.937         80.729       -999.250         68.781        149.190        183.750     -999.25000
         8564.5         12.935         77.621       -999.250         69.498        141.888        187.751     -999.25000
         8565.0         12.932         73.473       -999.250         70.216        134.585        188.016     -999.25000
         8565.5         12.929         69.325       -999.250         70.933        127.283        188.281     -999.25000
         8566.0         12.926         61.304       -999.250         66.115        119.981        188.546     -999.25000
         8566.5         12.924         52.108       -999.250         63.752        129.833        188.811     -999.25000
         8567.0         12.921         42.911       -999.250         61.390        145.652        192.372     -999.25000
         8567.5         12.918         33.714       -999.250         59.028        161.472        207.774     -999.25000
         8568.0         12.915         24.517       -999.250         56.665        177.291        223.176     -999.25000
         8568.5         12.913         28.848       -999.250         56.968        193.111        219.167     -999.25000
         8569.0         12.910         40.790       -999.250         60.507        193.706        211.400     -999.25000
         8569.5         12.907         56.431       -999.250         64.911        193.248        203.632     -999.25000
         8570.0         12.904         72.072       -999.250         69.822        192.790        195.348     -999.25000
         8570.5         12.902         87.713       -999.250         74.733        176.289        180.065     -999.25000
         8571.0         12.900         87.876       -999.250         74.549        147.362        164.781     -999.25000
         8571.5         12.901         78.609       -999.250         73.250        118.434        149.498     -999.25000
         8572.0         12.901         69.343       -999.250         71.951         89.507        134.215     -999.25000
         8572.5         12.902         60.076       -999.250         68.849         85.129        118.931     -999.25000
         8573.0         12.903         50.809       -999.250         65.542         87.306        119.036     -999.25000
         8573.5         12.903         41.543       -999.250         62.235         93.227        121.195     -999.25000
         8574.0         12.904         42.516       -999.250         58.927        108.075        123.353     -999.25000
         8574.5         12.905         51.434       -999.250         60.946        122.923        125.512     -999.25000
         8575.0         12.905         60.352       -999.250         64.067        137.772        127.671     -999.25000
         8575.5         12.906         69.270       -999.250         67.230        152.620        128.941     -999.25000
         8576.0         12.907         78.188       -999.250         70.393        167.468        125.967     -999.25000
         8576.5         12.907         87.106       -999.250         73.557        182.317        122.992     -999.25000
         8577.0         12.908         86.362       -999.250         76.720        157.749        120.018     -999.25000
         8577.5         12.909         81.672       -999.250         76.436        129.479        117.168     -999.25000
         8578.0         12.910         76.982       -999.250         75.967        101.210        122.654     -999.25000
         8578.5         12.910         68.261       -999.250         74.791         77.708        128.140     -999.25000
         8579.0         12.911         57.173       -999.250         73.368         87.984        133.626     -999.25000
         8579.5         12.912         46.086       -999.250         71.945         98.260        139.111     -999.25000
         8580.0         12.912         35.311       -999.250         69.042        108.537        144.597     -999.25000
         8580.5         12.913         41.997       -999.250         64.157        118.813        150.083     -999.25000
         8581.0         12.914         48.683       -999.250         62.527        129.089        155.569     -999.25000
         8581.5         12.914         55.369       -999.250         65.968        139.365        154.546     -999.25000
         8582.0         12.915         62.054       -999.250         69.410        132.164        151.410     -999.25000
         8582.5         12.916         68.740       -999.250         72.851        117.081        148.274     -999.25000
         8583.0         12.916         65.996       -999.250         75.229        101.998        145.138     -999.25000
         8583.5         12.917         61.741       -999.250         72.142         86.916        142.002     -999.25000
         8584.0         12.918         57.487       -999.250         69.055         86.810        138.866     -999.25000
         8584.5         12.918         39.514       -999.250         65.968         95.369        142.724     -999.25000
         8585.0         12.919         39.775       -999.250         63.441        103.928        147.046     -999.25000
