~VERSION INFORMATION
VERS. 2.0 : CWLS Log ASCII Standard - version 2.0
WRAP.  NO : One line per depth step
#--------------------------------------------------#
#----------------DRILLING INFO, INC.---------------#
#---------------WWW.DRILLINGINFO.COM---------------#
#------------------COPYRIGHT 2015------------------#
#--------------------------------------------------#
#THIS FILE MAY BE USED ONLY IN ACCORDANCE WITH A CURRENT SUBSCRIPTION AGREEMENT BETWEEN
#THE USER AND DRILLING INFO, INC. NO PART OF THIS FILE MAY BE REPRODUCED, USED, COPIED,
#MODIFIED, PROPAGATED, OR DISTRIBUTED EXCEPT IN ACCORDANCE WITH THE SUBSCRIPTION
#AGREEMENT. UNAUTHORIZED USE OR DISTRIBUTION OF ALL OR ANY PART OF THIS FILE MAY VIOLATE
#COPYRIGHT, TRADEMARK, AND/OR OTHER LAWS AND IS SUBJECT TO CIVIL AS WELL AS CRIMINAL
#SANCTIONS.
#--------------------------------------------------#
#THIS FILE IS PROVIDED "AS-IS" AND ALL WARRANTIES ARE EXPRESSLY DISCLAIMED, WHETHER
#EXPRESS, ORAL, IMPLIED, STATUTORY OR OTHERWISE, INCLUDING ANY IMPLIED WARRANTY OF FITNESS
#FOR A PARTICULAR PURPOSE, MERCHANTABILITY, TITLE OR NON-INFRINGEMENT, AND ANY WARRANTIES
#ARISING BY VIRTUE OF CUSTOM OF TRADE OR COURSE OF DEALING.  FURTHER, DRILLING INFO,
#INC. AND ITS LICENSORS DO NOT REPRESENT OR WARRANT THAT THIS FILE WILL MEET USER'S
#REQUIREMENTS OR ARE SUITABLE FOR USER'S NEEDS OR THAT THE DATA OR RESULTS PROVIDED IN
#CONJUNCTION THEREWITH ARE CORRECT, ACCURATE, TIMELY OR RELIABLE. THESE DISCLAIMERS SHALL
#APPLY REGARDLESS OF ANY FAILURE OF ESSENTIAL PURPOSE OF ANY LIMITED REMEDY.  SOME
#JURISDICTIONS DO NOT ALLOW THE EXCLUSION OF CERTAIN WARRANTIES SO SOME OF THE ABOVE
#EXCLUSIONS MAY NOT APPLY. IN NO EVENT SHALL DRILLING INFO, INC. OR ANY OF ITS AFFILIATES
#BE LIABLE UNDER ANY LEGAL THEORY, WHETHER IN TORT (INCLUDING WITHOUT LIMITATION
#NEGLIGENCE), CONTRACT, STRICT LIABILITY, STATUTORY OR OTHERWISE, FOR ANY SPECIAL,
#INCIDENTAL, CONSEQUENTIAL, EXEMPLARY, PUNITIVE OR INDIRECT DAMAGE OF ANY KIND, INCLUDING
#WITHOUT LIMITATION LOSS OF REVENUE, PROFITS, GOODWILL, USE, AND/OR DATA OR THE COST OF
#PROCUREMENT OF SUBSTITUTE GOODS OR SERVICES, EVEN IF APPRISED OF THE POSSIBILITY OF SUCH
#DAMAGES IN ADVANCE.
#--------------------------------------------------#
~WELL INFORMATION
#MNEMONIC     .UNIT              VALUE :DESCRIPTION
#--------------------------------------------------#
STRT       .FT                0 :START DEPTH
STOP       .FT                10142 :STOP DEPTH
STEP       .FT                   0.500 :STEP
NULL       .                  -999.250 :NULL
API        .                421093138200 :API NUMBER
COMP       .         SHELL OIL COMPANY :COMPANY
WELL       .        SIBLEY  1 :WELL
DATE       .                08-Aug-1978 :LOG DATE
~CURVE INFORMATION
#MNEMONIC     .UNIT      API CODE :CURVE DESCRIPTION
#--------------------------------------------------#
DEPTH       .FT                      :Measured Depth
CAL.INCH        UNKNOWN   :CAL
DT.US/FT        UNKNOWN   :DT
GR.API        UNKNOWN   :GR
~A    DEPTH    CAL    DT    GR
# ...
 3285     12.526   66.694   59.795
 3285.5     12.528   67.502   56.681
 3286     12.529   67.688   60.084
 3286.5     12.528   65.982   63.487
 3287     12.525   64.275   66.89
 3287.5     12.523   62.569   64.744
 3288     12.52   65.202   61.485
 3288.5     12.518   68.119   58.226
 3289     12.515   71.037   65.374
 3289.5     12.512   73.954   78.203
 3290     12.51   76.871   91.032
 3290.5     12.507   76.184   102.716
 3291     12.504   75.297   111.771
 3291.5     12.502   74.411   120.826
 3292     12.499   73.524   129.882
 3292.5     12.496   72.637   129.549
 3293     12.494   71.75   106.211
 3293.5     12.491   72.209   97.863
 3294     12.488   72.983   94.988
 3294.5     12.486   73.758   93.53
 3295     12.483   74.532   97.896
 3295.5     12.48   73.769   102.262
 3296     12.478   71.493   106.628
 3296.5     12.475   69.217   107.38
 3297     12.472   68.145   100.338
 3297.5     12.47   69.164   89.608
 3298     12.467   70.184   90.9
 3298.5     12.464   71.204   92.192
 3299     12.462   71.333   93.484
 3299.5     12.459   70.768   94.776
 3300     12.457   70.202   88.623
 3300.5     12.454   69.636   82.466
 3301     12.452   69.07   81.037
 3301.5     12.452   68.295   81.531
 3302     12.453   66.961   82.024
 3302.5     12.454   65.627   82.518
 3303     12.454   64.703   77.238
 3303.5     12.455   63.865   68.397
 3304     12.455   63.028   62.463
 3304.5     12.456   61.632   61.635
 3305     12.457   60.036   60.806
 3305.5     12.457   58.439   59.977
 3306     12.458   56.843   54.223
 3306.5     12.458   56.159   48.12
 3307     12.459   56.673   45.07
 3307.5     12.459   57.187   42.444
 3308     12.46   57.701   40.356
 3308.5     12.461   59.204   38.267
 3309     12.461   60.871   38.927
 3309.5     12.462   62.538   41.935
 3310     12.462   64.205   55.482
 3310.5     12.463   65.873   64.42
 3311     12.469   67.129   68.987
 3311.5     12.478   67.616   73.392
 3312     12.487   68.103   72.354
 3312.5     12.496   67.427   68.834
 3313     12.505   66.719   65.315
 3313.5     12.515   66.01   63.348
 3314     12.524   65.589   63.021
 3314.5     12.533   65.767   62.693
 3315     12.542   65.945   62.365
 3315.5     12.551   66.123   62.037
 3316     12.549   68.394   62.727
 3316.5     12.544   70.946   67.256
 3317     12.539   73.499   71.784
 3317.5     12.535   76.052   76.313
 3318     12.53   75.001   97.56
 3318.5     12.525   73.814   101.207
 3319     12.521   72.626   102.723
 3319.5     12.516   72.261   101.753
 3320     12.511   71.909   89.739
 3320.5     12.507   71.244   85.682
 3321     12.502   69.766   81.625
 3321.5     12.497   68.287   77.567
 3322     12.493   66.617   73.51
 3322.5     12.488   64.634   69.453
 3323     12.483   62.65   65.395
 3323.5     12.479   60.666   61.338
 3324     12.474   58.683   57.064
 3324.5     12.469   56.699   50.063
 3325     12.464   55.62   43.062
 3325.5     12.463   56.031   36.06
 3326     12.462   56.442   33.407
 3326.5     12.461   56.852   36.345
 3327     12.46   57.263   39.283
 3327.5     12.459   57.64   42.221
 3328     12.458   57.61   42.444
 3328.5     12.457   57.579   42.071
 3329     12.456   57.549   41.699
 3329.5     12.455   57.519   41.326
 3330     12.454   57.664   40.953
 3330.5     12.453   57.928   41.58
 3331     12.452   58.719   42.385
 3331.5     12.451   60.866   43.189
 3332     12.45   63.012   47.738
 3332.5     12.449   65.159   53.368
 3333     12.448   66.353   56.664
 3333.5     12.447   66.92   59.019
 3334     12.446   67.488   61.373
 3334.5     12.445   67.51   63.728
 3335     12.444   67.175   66.082
 3335.5     12.443   66.841   67.907
 3336     12.442   66.896   68.174
 3336.5     12.441   67.67   68.44
 3337     12.44   68.445   71.248
 3337.5     12.439   69.094   76.882
 3338     12.438   69.415   82.515
 3338.5     12.437   69.736   84.012
 3339     12.436   71.377   84.596
 3339.5     12.435   73.093   85.18
 3340     12.434   74.409   88.312
 3340.5     12.433   73.789   94.819
 3341     12.432   73.169   96.902
 3341.5     12.431   72.011   91.735
 3342     12.43   70.395   86.569
 3342.5     12.429   68.78   81.403
 3343     12.428   67.165   76.237
 3343.5     12.427   65.041   71.07
 3344     12.426   61.348   65.904
 3344.5     12.425   57.655   60.738
 3345     12.424   54.099   55.135
 3345.5     12.423   53.86   48.356
 3346     12.422   53.62   41.576
 3346.5     12.421   53.381   34.797
 3347     12.42   53.142   26.349
 3347.5     12.421   52.902   26.894
 3348     12.425   52.663   27.44
 3348.5     12.43   52.424   27.986
 3349     12.435   52.359   28.531
 3349.5     12.439   52.595   29.077
 3350     12.444   52.813   29.623
 3350.5     12.448   52.753   30.169
 3351     12.453   52.692   31.149
 3351.5     12.458   53.171   32.456
 3352     12.462   53.765   33.763
 3352.5     12.467   54.209   35.069
 3353     12.471   54.445   36.376
 3353.5     12.476   55.205   37.54
 3354     12.481   60.208   38.46
 3354.5     12.485   62.743   40.865
 3355     12.49   64.919   48.517
 3355.5     12.494   67.094   56.168
 3356     12.499   68.435   63.82
 3356.5     12.507   66.043   71.472
 3357     12.514   63.652   79.124
 3357.5     12.521   63.537   79.176
 3358     12.528   65.616   76.179
 3358.5     12.535   67.695   73.183
 3359     12.542   68.632   70.186
 3359.5     12.549   68.798   67.889
 3360     12.556   68.965   67.58
 3360.5     12.563   68.732   67.271
 3361     12.57   68.354   64.53
 3361.5     12.578   67.977   58.992
 3362     12.585   67.599   60.658
 3362.5     12.592   67.727   63.63
 3363     12.599   67.88   63.075
 3363.5     12.606   68.033   62.74
 3364     12.613   68.186   62.651
 3364.5     12.62   66.964   62.563
 3365     12.622   65.67   61.257
 3365.5     12.624   64.375   59.386
 3366     12.625   63.108   57.515
 3366.5     12.627   64.745   55.644
 3367     12.628   66.383   56.908
 3367.5     12.629   68.021   60.362
 3368     12.631   69.659   63.817
 3368.5     12.632   71.297   65.022
 3369     12.633   71.774   64.625
 3369.5     12.635   71.208   64.227
 3370     12.636   70.643   63.83
 3370.5     12.638   70.843   63.929
 3371     12.639   71.147   64.445
 3371.5     12.64   71.451   64.204
 3372     12.642   71.401   62.76
 3372.5     12.643   71.34   61.317
 3373     12.643   71.279   62.137
 3373.5     12.642   71.402   64.722
 3374     12.641   71.638   67.308
 3374.5     12.639   71.617   69.894
 3375     12.638   71.027   69.266
 3375.5     12.637   70.437   67.851
 3376     12.636   69.847   65.659
 3376.5     12.635   69.257   64.769
 3377     12.633   68.666   63.878
 3377.5     12.632   68.076   62.988
 3378     12.631   68.241   62.631
 3378.5     12.63   68.427   63.233
 3379     12.628   68.613   63.835
 3379.5     12.627   68.8   64.436
 3380     12.626   68.289   64.959
 3380.5     12.625   67.745   63.775
 3381     12.624   67.339   62.591
 3381.5     12.622   67.211   61.407
 3382     12.621   68.027   60.223
 3382.5     12.62   68.842   62.997
 3383     12.619   69.576   62.456
 3383.5     12.618   69.729   61.915
 3384     12.616   69.882   61.374
 3384.5     12.615   70.035   64.8
 3385     12.614   70.329   67.012
 3385.5     12.613   71.67   68.174
 3386     12.612   72.82   69.336
 3386.5     12.61   72.803   70.498
 3387     12.609   72.786   71.66
 3387.5     12.608   72.768   75.408
 3388     12.607   72.969   81.256
 3388.5     12.606   73.98   87.104
 3389     12.604   74.991   92.951
 3389.5     12.603   75.852   98.799
 3390     12.602   73.84   100.954
 3390.5     12.601   71.828   102.407
 3391     12.597   69.816   103.861
 3391.5     12.584   67.804   100.884
 3392     12.572   65.792   95.673
 3392.5     12.559   68.171   90.242
 3393     12.546   69.275   84.812
 3393.5     12.533   68.627   84.143
 3394     12.521   67.98   86.987
 3394.5     12.508   67.608   86.59
 3395     12.495   67.919   84.214
 3395.5     12.482   68.231   84.25
 3396     12.47   68.542   86.243
 3396.5     12.457   67.201   88.235
