~Version Information
 VERS.                  2.0:   CWLS log ASCII Standard -VERSION 2.0
 WRAP.                   NO:   One line per depth step
~Well Information Block
#MNEM.UNIT     VALUE/NAME     DESCRIPTION
#---------     -----------    ---------------------------
 STRT.F              8830.0000: START DEPTH
 STOP.F             14230.0000: STOP DEPTH
 STEP.F                 0.5000: STEP DEPTH
 NULL.                 -999.25: NULL VALUE
 LOC .       API  42-109-33374Lat:  LOCATION
 FL1 .       API  42-109-33374Lat:  LOCATIONLINE1
 DMF .                      KB:  DRILL MEAS FROM
 PDAT.                      GL:  PERMANENT DATUM
 CTRY.                     USA:  COUNTRY NAME
 CNTY.               CULBERSON:  COUNTY NAME
 FLD .     FORD, WEST (WOLFCAMP):  FIELD NAME
 WELL.        MOTHER FEE 28 4H:  WELL NAME
 COMP.          CAPITAN ENERGY:  COMPANY
 DATE.             02-May-2019:  DATE
 SVCO.             Halliburton:  SERVICECONAME
 PROV.                   TEXAS:  PROVINCE
 STAT.                   TEXAS:  STATE NAME
 HIDE.                        :  WELLNAMEOPERAT
 BASI.                 PERMIAN:  BASIN
 UWI .            42-109-33374Lat:  UNIQUE WELL IDENTIFIER
 API .            42-109-33374Lat:  API NUMBER
 RANG.                     N/A:  RANGE
 TOWN.                     N/A:  TOWNSHIP
 SECT.                     N/A:  SECTION
 SON .               905631317:  JOB NUMBER
 SRVC.             Halliburton:  SERVICE COMPANY
 LMF .                      KB:  LOG MEASURED FROM
 BAP .ft                0.0000:  GL ELEV ONSHORE
 GVFD.g                 1.0000:  GRAVITY FIELD
~Curve Information Block
#MNEM.UNIT                 API CODE     Curve Description
#---------               -----------    ---------------------------
 DEPT.F                 00 000 000 000:  Depth
 CCL .V                 00 000 000 000:  Casing Collar Locator
 NPHI_OH.pu             00 000 000 000:  NPHI_OH
 NPHI_CHI.pu            00 000 000 000:  NPHI_CHI
 GR_OH.api              00 000 000 000:  GR_OH
 GR_CHI.api             00 000 000 000:  GR_CHI
 RHOB_OH.g/cc           00 000 000 000:  RHOB_OH
 RHOB_CHI.g/cc          00 000 000 000:  RHOB_CHI
 PE_OH.b/e              00 000 000 000:  PE_OH
 PE_CHI.b/e             00 000 000 000:  PE_CHI
 RT10_OH.ohmm           00 000 000 000:  RT10_OH
 RT10_CHI.ohmm          00 000 000 000:  RT10_CHI
 RT30_OH.ohmm           00 000 000 000:  RT30_OH
 RT30_CHI.ohmm          00 000 000 000:  RT30_CHI
 RT90_OH.ohmm           00 000 000 000:  RT90_OH
 RT90_CHI.ohmm          00 000 000 000:  RT90_CHI
 SPHI_CHI.pu            00 000 000 000:  SPHI_CHI
 DTC_CHI.uspf           00 000 000 000:  DTC_CHI
 DTC_OH.uspf            00 000 000 000:  DTC_OH
 SGF .cu                00 000 000 000:  Formation Sigma
 CRNF.NONE              00 000 000 000:  CM GrsCaptRatio
 RIN .NONE              00 000 000 000:  CM GrsInelRatio
#Other Information
#
#WARRANTY: Halliburton will use its best efforts to furnish customers with 
#accurate information and interpretations that are part of, and incident to, the services 
#provided.  However, Halliburton cannot and does not warrant the accuracy 
#or correctness of such information and interpretations.  Under no circumstances should any 
#such information or interpretation be relied upon as the sole basis for any drilling, 
#completion, production, or financial decision or any procedure involving any risk to the 
#safety of any drilling venture, drilling rig or its crew or any other third party.  The 
#Customer has full responsibility for all drilling, completion and production operation.  
#Halliburton makes no representations or warranties, either expressed or 
#implied, including, but not limited to, the implied warranties of merchantability or fitness 
#for a particular purpose, with respect to the services rendered.  In no event will 
#Halliburton be liable for failure to obtain any particular results or for 
#any damages, including, but not limited to, indirect, special or consequential damages, 
#resulting from the use of any information or interpretation provided by Halliburton.
#
~A    DEPT      CCL   NPHI_OH NPHI_CHI  GR_OH    GR_CHI  RHOB_OH RHOB_CHI  PE_OH  PE_CHI RT10_OH RT10_CHI RT30_OH RT30_CHI RT90_OH  RT90_CHI SPHI_CHI DTC_CHI DTC_OH    SGF    CRNF   RIN   
    8830.0000 17.4082  3.8400   6.1355  47.8106  49.6567  2.6453   2.6502  3.5192 3.7554 36.4604  51.4139 37.5241  52.8186  43.0482  56.1900  10.0600 61.8213 58.5998 15.9398 0.9255 1.1263
    8830.5000 17.4203  3.4600   5.8929  51.5149  48.9192  2.6455   2.6571  3.6712 3.7943 38.2478  51.4973 40.0346  52.9043  46.1800  56.2812   9.5000 61.0316 58.8529 16.4653 0.9450 1.1308
    8831.0000 17.5315  3.8800   5.9839  60.6335  49.2646  2.6375   2.6579  3.5585 3.7819 41.0276  49.5458 42.7390  50.8995  49.4247  54.1485   9.6100 61.1913 59.7552 16.8777 0.9702 1.1378
    8831.5000 17.4303  4.9000   6.1751  66.0128  51.3178  2.6310   2.6558  3.2499 3.7370 38.5376  46.6943 38.3129  47.9701  44.2407  51.0320   9.9400 61.6582 60.5211 17.2707 1.0111 1.1496
    8832.0000 17.4875  4.6800   6.4928  57.2179  54.9151  2.6365   2.6514  3.4815 3.6708 34.0039  43.6049 33.8002  44.7963  38.6382  47.6556  10.5300 62.4886 61.1133 18.0337 1.0545 1.1637
    8832.5000 17.4405  4.8900   6.9706  57.9624  60.1975  2.6443   2.6439  3.7330 3.5753 36.0521  40.0882 35.8355  41.1836  40.8083  43.8123  11.4400 63.7751 61.1012 19.1516 1.0935 1.1749
    8833.0000 17.4489  5.7800   7.5890  59.8461  65.4895  2.6549   2.6357  3.8360 3.4804 32.2445  36.1650 31.8954  37.1531  35.9572  39.5246  12.5800 65.3949 61.4068 20.6129 1.1167 1.1814
    8833.5000 17.4942  6.3200   7.9719  61.5302  69.3806  2.6598   2.6302  3.8694 3.3676 24.9164  31.2128 24.4597  32.0656  27.1377  34.1123  13.2400 66.3201 61.9364 22.0578 1.1221 1.1836
    8834.0000 17.4463  8.0700   8.4429  67.0630  70.8268  2.6541   2.6019  3.7956 3.2910 23.2530  26.2771 22.4051  26.9950  24.6762  28.7181  13.9800 67.3690 63.3415 22.8890 1.1360 1.1839
    8834.5000 17.4681  9.5700   8.7081  70.9173  70.3395  2.6390   2.6027  3.4742 3.2626 18.8691  22.0199 17.9465  22.6216  19.4238  24.0655  14.2600 67.7634 65.1001 23.4455 1.1567 1.1873
    8835.0000 17.4591  8.8300   8.7285  72.5562  70.7040  2.6135   2.6056  3.0246 3.2498 17.6661  18.8848 16.6854  19.4008  17.9107  20.6391  14.1800 67.6442 66.0317 24.3671 1.1925 1.1952
    8835.5000 17.4352  8.2900   8.9984  71.4429  75.0077  2.5905   2.6030  2.7752 3.1315 13.8166  16.4339 13.2952  16.8830  14.0066  17.9606  14.4000 67.9626 68.8686 25.7405 1.2208 1.2075
    8836.0000 17.4585  7.9700   9.8320  72.9916  82.5820  2.5884   2.5929  2.7665 2.8162 12.1423  14.1767 11.8567  14.5641  12.3674  15.4937  15.2400 69.1426 69.4253 27.0619 1.2282 1.2208
    8836.5000 17.4506  9.1100  10.9072  81.1898  89.1718  2.5891   2.5775  2.7479 2.7232 11.5311  12.1446 11.2499  12.4765  11.6543  13.2728  16.3700 70.7418 69.4333 27.9167 1.2163 1.2314
    8837.0000 17.3302 11.5700  11.7690  86.6650  90.4665  2.5794   2.5626  2.6242 2.6297  8.6985  10.7275  8.4737  11.0206   8.7019  11.7241  17.3100 72.0826 70.1759 27.1740 1.1733 1.2336
    8837.5000 17.6066 11.6500  11.8256  86.5691  85.8559  2.5682   2.5606  2.5042 2.6093  7.6669  10.2116  7.4581  10.4907   7.6399  11.1603  17.3800 72.1694 71.5395 25.4673 1.1255 1.2249
    8838.0000 17.4365 10.7300  11.4972  82.5592  76.4573  2.5680   2.5615  2.4508 2.6135  7.8816  10.8543  7.6444  11.1508   7.8508  11.8626  17.1000 71.7768 73.0527 23.5317 1.0872 1.2078
    8838.5000 17.4453 10.0500  10.4962  73.1439  66.7443  2.5824   2.5722  2.5018 2.6740  8.5892  12.5176  8.3752  12.8596   8.6569  13.6804  16.1100 70.3821 73.2549 22.3905 1.0870 1.1927
    8839.0000 17.3926  8.4000   9.5016  58.5050  59.6762  2.5922   2.5872  2.6858 2.7765  8.8521  14.9472  8.8536  15.3556   9.2115  16.3357  15.0600 68.8994 67.7634 22.1967 1.1340 1.1861
    8839.5000 17.4479  6.5300   8.3139  53.5937  56.3630  2.5909   2.6039  2.9901 2.8684 13.8837  16.9993 14.9217  17.4638  15.7454  18.5785  13.8100 67.1228 67.6516 23.1188 1.1969 1.1866
    8840.0000 17.4859  8.3300   7.5756  66.5452  56.8607  2.5877   2.6176  2.9804 2.9401 13.0460  17.5973 13.8095  18.0781  14.6484  19.2320  12.9500 65.9093 67.5669 24.4855 1.2307 1.1884
    8840.5000 17.3966 10.4600   8.1394  78.5650  60.4992  2.5837   2.6120  2.8656 2.9139 10.1091  16.5448 10.2287  16.9968  10.8910  18.0817  13.5000 66.6941 67.4656 25.7067 1.1996 1.1845
    8841.0000 17.4346 11.3100   9.2585  83.9635  65.7699  2.5815   2.6005  2.7118 2.8654  9.2383  14.7545  9.1003  15.1577   9.6771  16.1252  14.6200 68.2670 67.0400 25.8659 1.1302 1.1739
    8841.5000 17.4630 11.0200  10.3197  77.5994  69.8298  2.5933   2.5909  2.6591 2.8436  9.5222  13.3102  9.5039  13.6738  10.1349  14.5466  15.6500 69.7299 66.7956 25.4740 1.0893 1.1627
    8842.0000 17.4814  8.4200   9.7061  61.5877  70.9976  2.6153   2.6004  2.8344 2.8680 11.0032  12.6703 10.9057  13.0165  11.6729  13.8473  14.9400 68.7280 65.9795 25.3332 1.1014 1.1576
    8842.5000 17.2154  5.7600   8.5908  49.2758  69.5720  2.6247   2.6119  3.0400 2.8798 13.2187  12.4462 13.7033  12.7863  14.6585  13.6025  13.7900 67.0926 62.9363 25.7680 1.1559 1.1650
    8843.0000 17.4267  6.9100   7.8249  54.9586  69.4557  2.5941   2.6216  2.7794 2.9055 14.3219  12.0011 15.4889  12.3290  16.4086  13.1159  12.9500 65.9140 63.2418 27.0192 1.2249 1.1817
    8843.5000 17.6446  7.3700   8.0148  64.6231  74.1892  2.5834   2.6230  2.6713 2.9089 11.2305  10.9902 12.0311  11.2905  12.6195  12.0112  13.0600 66.0649 65.7332 29.3758 1.2760 1.1987
    8844.0000 17.4485  9.6800   8.7342  81.0556  83.6293  2.5814   2.6161  2.6623 2.8555  8.9408   9.1777  9.3685   9.4285   9.7045  10.0303  13.7300 67.0123 70.1798 31.8207 1.2911 1.2126
    8844.5000 17.4627 12.8900  10.1162  95.5321  92.5026  2.5784   2.6017  2.6454 2.7778  8.0799   7.1765  8.2513   7.3725   8.4284   7.8431  15.0700 68.9032 72.4195 33.7641 1.2754 1.2171
    8845.0000 17.5844 13.0200  11.3327  99.1845  96.3042  2.5736   2.5877  2.6147 2.6979  7.1569   5.5231  7.1902   5.6740   7.2454   6.0361  16.2500 70.5756 74.3056 33.8520 1.2378 1.2135
    8845.5000 17.1612 12.2700  11.7828  95.6212  96.5516  2.5770   2.5839  2.6201 2.6683  6.3954   4.5420  6.4116   4.6661   6.3901   4.9639  16.6300 71.1116 74.4534 33.1612 1.2193 1.2073
    8846.0000 17.4010 12.2800  11.6473  90.3287  96.8544  2.5906   2.5868  2.6567 2.6722  6.2581   4.2317  6.3002   4.3473   6.2232   4.6248  16.4400 70.8400 73.8464 32.1244 1.2169 1.2020
    8846.5000 17.4252 11.9100  10.9859  87.7231  98.6805  2.5945   2.5951  2.6656 2.6885  6.2029   4.3539  6.2750   4.4728   6.1256   4.7583  15.7400 69.8502 73.7513 31.4453 1.2338 1.2015
    8847.0000 17.4097 11.5400  10.7638  87.0767 100.4657  2.5931   2.5975  2.6195 2.7036  6.2061   4.6932  6.2889   4.8214   6.1198   5.1292  15.5300 69.5663 73.0415 31.3510 1.2601 1.2044
    8847.5000 17.3527 11.8300  10.7278  86.8489 100.9153  2.5851   2.5977  2.6055 2.7173  6.1551   5.0403  6.2609   5.1780   6.0850   5.5086  15.5300 69.5570 72.7791 31.1259 1.2734 1.2067
    8848.0000 17.5863 11.0200  11.0797  83.5078  99.3958  2.5728   2.5916  2.6385 2.7011  6.3562   5.3427  6.5211   5.4887   6.3374   5.8391  15.9600 70.1605 72.0145 30.6639 1.2668 1.2105
    8848.5000 17.4487 10.3700  11.4956  77.8927  96.2772  2.5649   2.5848  2.6690 2.6871  6.7780   5.6114  7.0700   5.7647   6.8842   6.1327  16.4400 70.8509 70.7781 30.0119 1.2571 1.2141
    8849.0000 17.4085  9.2500  11.6740  67.3839  92.2318  2.5630   2.5801  2.6576 2.6712  6.5164   5.9448  6.9508   6.1072   6.7920   6.4970  16.6900 71.2054 70.5765 29.4222 1.2552 1.2183
    8849.5000 17.4259  8.5200  11.4882  63.5786  87.3792  2.5751   2.5822  2.6407 2.6936  7.6414   6.3210  7.6396   6.4937   7.5014   6.9082  16.5200 70.9557 69.5987 29.3928 1.2729 1.2204
    8850.0000 17.4817 12.0800  10.8997  78.9976  82.2418  2.6182   2.5922  2.8531 2.7562  7.6920   6.6303  8.3669   6.8114   8.2935   7.2462  15.8600 70.0260 69.3499 29.6990 1.2923 1.2210
    8850.5000 17.4546 11.7000  10.4234  79.3974  78.2273  2.6226   2.6000  2.8925 2.7967  7.7971   6.6734  8.5598   6.8557   8.5133   7.2933  15.3200 69.2645 70.1849 30.4893 1.3024 1.2186
    8851.0000 17.4325 11.1000  10.4515  81.5451  76.9704  2.5921   2.6000  2.7872 2.7939  8.0269   6.4225  8.9067   6.5980   8.8741   7.0191  15.3300 69.2765 71.1180 31.2471 1.3055 1.2188
