###############################################
##         ENVERUS                           ##
##         ESS - Open Hole                   ##
##         PERMIAN / DELAWARE                ##
##         Nov 02 2023  V4.0                 ##
##         42-109-32297-90-00                ##
###############################################
## Copyright 2017-2023  ENVERUS.  All Rights Reserved. 
## Confidential - Property of ENVERUS, use governed by terms and 
## conditions found within the existing Information Services Subscription Agreement 
## (as may be amended, the “ISSA”) between Customer and ENVERUS. 
## 
~VERSION INFORMATION
# MNEM.UNIT                               DATA : DESCRIPTION OF MNEMONIC
#-----.-----     ----------------------------- : -----------------------------
VERS.                                     2.00 : CWLS LOG ASCII STANDARD - VERSION 2.00
WRAP.                                       NO : MULTIPLE LINES PER DEPTH STEP
VEND.                                  ENVERUS : VENDOR
TYPE.                          ESS - OPEN HOLE : ENVERUS ESSENTIAL CURVES – ACCESSIBLE THROUGH ENVERUS PRISM(TM)
DOC.                                  52921007 : ENVERUS HEADER RAW DOCUMENT ID
#___________________________________________________________________________________________________ 
~WELL INFORMATION 
# EM3SY5Bwx6x9YoJmjxbMXtwK21/gMzSEmeWIZ71LA4UD3Y8PQw/mHJ0IHc4n7dRi3zAL189RIdETacnakexX1Q== 
# MNEM.UNIT                                              DATA : DESCRIPTION OF MNEMONIC 
#-----.-----                    ----------------------------- : ----------------------------- 
CNTY.                                               CULBERSON : COUNTY 
STATE.                                                  TEXAS : STATE 
CNTRY.                                                    USA : COUNTRY 
API.                                             42-109-32297 : API (10 Digit) 
API_14.                                    42-109-32297-90-00 : API (14 Digits) 
API_14_std.                                 42-109-32297-9000 : API (14 Digits Standard) 
UWI.                                           42109322979000 : UNIQUE WELL ID 
WELL.                          MELISSA TAYLOR STATE 105-3  1H : WELL NAME
STRT.FT                                                 200.0 : START DEPTH
STOP.FT                                               10260.0 : STOP DEPTH
STEP.FT                                                   0.5 : STEP BETWEEN DEPTHS
NULL.                                                 -999.25 : NULL VALUE
PREV_API.                                        421093229700 : API NUMBER 
COMP.                              CHESAPEAKE OPERATING  INC. : COMPANY 
DATE.                                             17-JUN-2008 : LOG DATE
#___________________________________________________________________________________________________ 
~CURVE INFORMATION 
# MNEM.UNIT           : CURVE DESCRIPTION 
#-----.-----          : ----------------------------- 
 DEPT.FT               : MEASURED DEPTH 
 CALI.IN               : CALIPER (CAL - CAL) 
 GR.API                : GAMMA RAY (GR) 
 DT.US/FT              : SONIC DELTA TRANSIT TIME (DT) 
 RESS.OHMM             : SHALLOW INDUCTION RESISTIVITY (ILS - ILS) 
 RESD.OHMM             : DEEP INDUCTION RESISTIVITY (ILD - ILD) 
 DPHI.V/V              : DENSITY POROSITY (DPHI) 
 NPHI.V/V              : NEUTRON POROSITY (NPHI) 
 RHOB.G/CC             : BULK DENSITY (RHOB) 
 #___________________________________________________________________________________________________ 
~A         DEPT           CALI             GR             DT           RESS           RESD           DPHI           NPHI           RHOB
# ...
         3681.0         12.881         83.965         70.041       1856.385       2470.709        0.10478        0.09876         2.5070
         3681.5         12.865         88.115         71.252       1990.638       2569.830        0.10901        0.10308         2.5090
         3682.0         12.849         91.538         72.444       1574.235       2516.175        0.11603        0.10715         2.5150
         3682.5         12.833         88.699         72.046       1188.885       1575.038        0.11898        0.11121         2.5210
         3683.0         12.825         83.426         71.241        823.740        982.768        0.10673        0.11354         2.5270
         3683.5         12.839         75.456         68.274        464.130        752.458        0.08539        0.10155         2.5940
         3684.0         12.853         70.014         64.504        412.110        544.553        0.06405        0.08957         2.6450
         3684.5         12.868         67.795         62.685        487.602        557.633        0.04271        0.07933         2.6370
         3685.0         12.882         68.954         62.841        600.247        896.214        0.03620        0.07325         2.6290
         3685.5         12.897         70.113         63.821        596.201        818.564        0.04312        0.07450         2.6210
         3686.0         12.911         72.251         64.802        592.155        668.719        0.04882        0.07902         2.6130
         3686.5         12.925         75.631         65.782        537.444        582.553        0.05379        0.08438         2.6080
         3687.0         12.920         79.011         66.762        481.773        496.387        0.06241        0.08973         2.6020
         3687.5         12.912         83.358         67.743        426.101        417.772        0.06375        0.09508         2.5990
         3688.0         12.905         86.982         68.723        372.966        376.654        0.06535        0.10043         2.6000
         3688.5         12.898         86.010         68.873        345.016        341.290        0.06416        0.10571         2.6020
         3689.0         12.891         83.643         68.758        317.066        326.170        0.06405        0.10569         2.6040
         3689.5         12.883         81.277         68.294        295.061        311.051        0.06077        0.09916         2.6060
         3690.0         12.876         80.923         68.499        278.471        299.709        0.06149        0.09497         2.6010
         3690.5         12.869         81.890         69.427        292.514        304.115        0.06311        0.10379         2.5900
         3691.0         12.861         83.177         70.529        314.476        336.072        0.06995        0.11261         2.5790
         3691.5         12.854         84.463         71.216        386.261        453.787        0.07748        0.12045         2.5680
         3692.0         12.854         85.710         71.386        491.415        571.501        0.08512        0.11802         2.5730
         3692.5         12.856         83.344         70.749        596.569        689.215        0.08513        0.11370         2.5800
         3693.0         12.857         80.148         68.995        733.923        834.198        0.08119        0.10568         2.5880
         3693.5         12.858         80.149         69.128        903.137       1001.851        0.07000        0.09969         2.5860
         3694.0         12.860         84.911         70.650        966.157       1169.504        0.06570        0.10187         2.5680
         3694.5         12.861         92.577         72.377        940.853       1148.830        0.07393        0.11374         2.5610
         3695.0         12.863        100.244         73.982        851.001       1049.038        0.08768        0.12560         2.5610
         3695.5         12.864        103.894         74.720        765.245        987.115        0.08849        0.13519         2.5610
         3696.0         12.865        101.698         74.144        736.031       1015.225        0.08832        0.12922         2.5630
         3696.5         12.867         89.347         72.325        840.033       1043.335        0.08672        0.12324         2.5720
         3697.0         12.868         78.788         70.313       1006.214       1313.813        0.08232        0.10662         2.5820
         3697.5         12.870         68.229         65.854       1172.395       1829.418        0.07593        0.08790         2.5970
         3698.0         12.871         54.669         61.394       1604.735       3106.654        0.06102        0.06917         2.6340
         3698.5         12.873         40.076         57.891       1978.055       4561.159        0.04021        0.05045         2.6710
         3699.0         12.874         33.757         55.123       2618.501       5266.302        0.02086        0.03172         2.7070
         3699.5         12.876         34.521         53.472       2550.393       3957.487        0.00558        0.01409         2.7060
         3700.0         12.877         48.044         54.515       2007.682       2235.937       -0.00682        0.01002         2.6750
         3700.5         12.879         61.492         58.989       1557.406       1550.585        0.00478        0.02844         2.6450
         3701.0         12.880         74.940         63.463       1107.130       1118.638        0.02993        0.05128         2.6150
         3701.5         12.882         83.399         65.419        656.854        686.691        0.05743        0.07411         2.6080
         3702.0         12.883         83.586         65.579        440.061        656.073        0.06672        0.08854         2.6280
         3702.5         12.885         63.387         63.010        831.767       1326.547        0.05965        0.08174         2.6470
         3703.0         12.893         51.668         59.933       1571.729       1997.021        0.03517        0.06030         2.6670
         3703.5         12.914         46.768         56.831       2049.602       2708.752        0.01591        0.03886         2.6870
         3704.0         12.935         48.040         56.417       2416.675       2608.210        0.00372        0.02952         2.6480
         3704.5         12.955         58.675         60.372       2200.721       2642.390        0.00733        0.03102         2.6250
         3705.0         12.976         70.049         64.327       1410.462       1811.383        0.02996        0.05142         2.6030
         3705.5         12.988         81.422         67.594        961.968       1252.415        0.05564        0.07668         2.5800
         3706.0         12.975         89.603         68.904        823.205        769.390        0.07695        0.10194         2.5770
         3706.5         12.962         88.464         67.635        829.160        822.379        0.07836        0.11339         2.5940
         3707.0         12.949         87.324         66.367        739.612        792.019        0.06947        0.11210         2.6110
         3707.5         12.936         87.487         65.257        615.399        631.163        0.05452        0.11078         2.6280
         3708.0         12.923         88.383         65.703        491.185        470.308        0.03693        0.10941         2.6450
         3708.5         12.910         81.889         66.148        467.509        506.551        0.03354        0.10804         2.6430
         3709.0         12.893         72.104         65.275        671.339        681.266        0.05570        0.09846         2.6340
         3709.5         12.869         62.319         63.788        845.033        846.246        0.06702        0.08417         2.6240
         3710.0         12.846         54.242         62.301        893.766       1135.814        0.06987        0.06989         2.5890
