###############################################
##         ENVERUS                           ##
##         ESS - Open Hole                   ##
##         PERMIAN / DELAWARE                ##
##         Nov 03 2023  V4.0                 ##
##         42-109-32572-90-00                ##
###############################################
## Copyright 2017-2023  ENVERUS.  All Rights Reserved. 
## Confidential - Property of ENVERUS, use governed by terms and 
## conditions found within the existing Information Services Subscription Agreement 
## (as may be amended, the “ISSA”) between Customer and ENVERUS. 
## 
~VERSION INFORMATION
# MNEM.UNIT                               DATA : DESCRIPTION OF MNEMONIC
#-----.-----     ----------------------------- : -----------------------------
VERS.                                     2.00 : CWLS LOG ASCII STANDARD - VERSION 2.00
WRAP.                                       NO : MULTIPLE LINES PER DEPTH STEP
VEND.                                  ENVERUS : VENDOR
TYPE.                          ESS - OPEN HOLE : ENVERUS ESSENTIAL CURVES – ACCESSIBLE THROUGH ENVERUS PRISM(TM)
DOC.                                  51093105 : ENVERUS HEADER RAW DOCUMENT ID
#___________________________________________________________________________________________________ 
~WELL INFORMATION 
# JLMmoJa/ja/TVcwAQvDk33OYEn4U2aLD16xKSNtVAxpK3Y/5Eg5lhKgsZNDQ5ZP0fRHfEZLFMAnipg5oeA7W3g== 
# MNEM.UNIT                                              DATA : DESCRIPTION OF MNEMONIC 
#-----.-----                    ----------------------------- : ----------------------------- 
CNTY.                                               CULBERSON : COUNTY 
STATE.                                                  TEXAS : STATE 
CNTRY.                                                    USA : COUNTRY 
API.                                             42-109-32572 : API (10 Digit) 
API_14.                                    42-109-32572-90-00 : API (14 Digits) 
API_14_std.                                 42-109-32572-9000 : API (14 Digits Standard) 
UWI.                                           42109325729000 : UNIQUE WELL ID 
WELL.                               42109325720000_PREV_API14 : WELL NAME
STRT.FT                                                2248.5 : START DEPTH
STOP.FT                                               10721.5 : STOP DEPTH
STEP.FT                                                   0.5 : STEP BETWEEN DEPTHS
NULL.                                                 -999.25 : NULL VALUE
PREV_APII.                                     42109325720000 : WELL IDENTIFIER
#___________________________________________________________________________________________________ 
~PARAMETER INFORMATION 
# MNEM.UNIT                                              DATA : DESCRIPTION OF MNEMONIC 
#-----.-----                    ----------------------------- : ----------------------------- 
EKB.FT                                                   3340 : ELEVATION ABOVE MSL
#___________________________________________________________________________________________________ 
~CURVE INFORMATION 
# MNEM.UNIT           : CURVE DESCRIPTION 
#-----.-----          : ----------------------------- 
 DEPT.FT               : MEASURED DEPTH 
 GR__A.API             : GAMMA RAY (GAMMA RAY) 
 DT__A.US/FT           : SONIC DELTA TRANSIT TIME (SONIC) 
 #___________________________________________________________________________________________________ 
~A         DEPT          GR__A          DT__A
# ...
         8947.5        170.972         91.660
         8948.0        166.789         91.703
         8948.5        155.603         93.558
         8949.0        158.064         94.241
         8949.5        177.992         95.505
         8950.0        180.594         94.899
         8950.5        176.561         89.002
         8951.0        154.535         80.403
         8951.5        120.933         76.425
         8952.0        114.832         75.742
         8952.5        137.138         80.079
         8953.0        155.714         84.841
         8953.5        166.004         88.860
         8954.0        155.602         89.646
         8954.5        156.947         90.622
         8955.0        168.654         92.886
         8955.5        171.429         94.445
         8956.0        173.202         95.894
         8956.5        197.492         96.802
         8957.0        214.616         96.772
         8957.5        214.085         96.655
         8958.0        210.180         94.704
         8958.5        193.106         91.506
         8959.0        186.581         92.809
         8959.5        213.504         95.258
         8960.0        217.734         96.378
         8960.5        210.404         97.756
         8961.0        216.947         99.175
         8961.5        240.338        103.032
         8962.0        244.706        103.714
         8962.5        225.360        104.132
         8963.0        212.338        104.160
         8963.5        209.571         98.957
         8964.0        202.164         97.005
         8964.5        166.433         74.679
         8965.0        110.980         70.903
         8965.5         89.577         69.407
         8966.0         93.247         72.251
         8966.5        136.399         84.124
         8967.0        191.098         90.400
         8967.5        220.172         93.005
         8968.0        228.266         95.199
         8968.5        268.212        101.924
         8969.0        278.658        102.763
         8969.5        227.939        100.398
         8970.0        216.088         98.539
         8970.5        194.051         92.823
         8971.0        189.830         92.851
         8971.5        186.228         94.297
         8972.0        185.662         94.199
         8972.5        211.053         94.596
         8973.0        218.637         98.321
         8973.5        240.998        106.805
         8974.0        254.561        109.925
         8974.5        284.088        112.040
         8975.0        269.480        110.884
         8975.5        252.045        107.666
         8976.0        239.712        105.047
         8976.5        203.700         97.142
         8977.0        193.738         97.630
         8977.5        197.357         97.593
         8978.0        204.697         96.461
         8978.5        203.297         91.681
         8979.0        193.738         90.792
         8979.5        207.637         98.721
         8980.0        213.378         99.662
         8980.5        221.918        100.645
         8981.0        215.155         96.976
         8981.5        215.148         94.987
         8982.0        218.310         97.256
         8982.5        228.756         99.766
         8983.0        199.426         99.662
         8983.5        155.770         92.236
         8984.0        142.392         88.042
         8984.5         79.947         63.035
         8985.0         78.449         64.028
         8985.5         94.340         64.609
         8986.0         97.312         65.587
         8986.5        123.929         74.182
         8987.0        180.241         89.161
         8987.5        196.882         92.930
         8988.0        194.318         87.654
         8988.5        163.207         80.687
         8989.0        185.137         83.311
         8989.5        270.783        104.040
         8990.0        273.194        104.238
         8990.5        253.708        101.039
         8991.0        242.278         96.360
         8991.5        230.930         95.191
         8992.0        247.057         96.226
         8992.5        311.457        110.522
         8993.0        332.037        115.586
         8993.5        324.331        112.500
         8994.0        318.292        109.873
         8994.5        289.470        103.366
         8995.0        222.775         98.559
         8995.5        134.750         91.548
         8996.0        122.793         88.542
         8996.5         92.008         72.841
         8997.0         94.568         73.418
         8997.5        127.806         83.940
         8998.0        140.893         86.643
         8998.5        205.240         97.743
         8999.0        264.536        103.034
         8999.5        268.363        103.856
         9000.0        262.495        103.781
         9000.5        225.653        101.731
         9001.0        206.098        101.426
         9001.5        203.131        101.523
         9002.0        203.077        101.510
         9002.5        199.945        101.133
         9003.0        184.838        100.757
         9003.5        164.007         98.718
         9004.0        155.569         97.746
         9004.5        150.229         96.852
         9005.0        156.356         97.689
         9005.5        174.173        100.994
         9006.0        177.620        101.523
         9006.5        169.917        100.106
         9007.0        147.482         95.780
         9007.5        137.801         84.411
         9008.0        148.715         83.173
         9008.5        170.956         89.003
         9009.0        167.327         93.751
         9009.5        148.474         95.957
         9010.0        138.879         95.977
         9010.5        120.783         90.119
         9011.0        117.808         92.101
         9011.5        124.674         94.622
         9012.0        130.193         95.469
         9012.5        143.151         95.664
         9013.0        145.888         96.127
         9013.5        147.120         95.740
         9014.0        144.344         95.238
         9014.5        142.787         95.149
         9015.0        154.266         95.442
         9015.5        165.984         99.373
         9016.0        170.893        100.812
         9016.5        182.278        101.064
         9017.0        190.099        101.480
         9017.5        185.140        101.621
         9018.0        177.420         98.585
         9018.5        133.546         91.526
         9019.0        126.452         90.812
         9019.5        135.250         90.781
         9020.0        139.990         90.781
         9020.5        158.897         94.069
         9021.0        179.613         98.314
         9021.5        196.666         99.048
         9022.0        197.535         99.277
         9022.5        186.455        100.547
         9023.0        182.138        101.195
         9023.5        178.082        100.721
         9024.0        176.148         99.301
         9024.5        171.142         97.960
         9025.0        155.209         91.690
         9025.5        141.357         90.119
         9026.0        141.920         91.545
         9026.5        159.964         97.569
         9027.0        195.457         98.748
         9027.5        213.989        100.995
         9028.0        208.918        100.510
         9028.5        192.728         99.668
         9029.0        191.389         99.668
         9029.5        192.422         99.821
         9030.0        194.961        100.309
         9030.5        223.518        102.262
         9031.0        238.665        103.322
         9031.5        235.081        108.160
         9032.0        237.949        108.901
         9032.5        316.062        109.781
         9033.0        374.918        113.587
         9033.5        390.010        114.070
         9034.0        368.982        107.697
