~VERSION INFORMATION
VERS. 2.0 : CWLS Log ASCII Standard - Version 2.0
WRAP. NO : One line per depth step
#--------------------------------------------------#
#----------------DRILLING INFO, INC.---------------#
#---------------WWW.DRILLINGINFO.COM---------------#
#------------------COPYRIGHT 2015------------------#
#--------------------------------------------------#
#THIS FILE MAY BE USED ONLY IN ACCORDANCE WITH A CURRENT SUBSCRIPTION AGREEMENT BETWEEN
#THE USER AND DRILLING INFO, INC. NO PART OF THIS FILE MAY BE REPRODUCED, USED, COPIED,
#MODIFIED, PROPAGATED, OR DISTRIBUTED EXCEPT IN ACCORDANCE WITH THE SUBSCRIPTION
#AGREEMENT. UNAUTHORIZED USE OR DISTRIBUTION OF ALL OR ANY PART OF THIS FILE MAY VIOLATE
#COPYRIGHT, TRADEMARK, AND/OR OTHER LAWS AND IS SUBJECT TO CIVIL AS WELL AS CRIMINAL
#SANCTIONS.
#--------------------------------------------------#
#THIS FILE IS PROVIDED "AS-IS" AND ALL WARRANTIES ARE EXPRESSLY DISCLAIMED, WHETHER
#EXPRESS, ORAL, IMPLIED, STATUTORY OR OTHERWISE, INCLUDING ANY IMPLIED WARRANTY OF FITNESS
#FOR A PARTICULAR PURPOSE, MERCHANTABILITY, TITLE OR NON-INFRINGEMENT, AND ANY WARRANTIES
#ARISING BY VIRTUE OF CUSTOM OF TRADE OR COURSE OF DEALING.  FURTHER, DRILLING INFO,
#INC. AND ITS LICENSORS DO NOT REPRESENT OR WARRANT THAT THIS FILE WILL MEET USER'S
#REQUIREMENTS OR ARE SUITABLE FOR USER'S NEEDS OR THAT THE DATA OR RESULTS PROVIDED IN
#CONJUNCTION THEREWITH ARE CORRECT, ACCURATE, TIMELY OR RELIABLE. THESE DISCLAIMERS SHALL
#APPLY REGARDLESS OF ANY FAILURE OF ESSENTIAL PURPOSE OF ANY LIMITED REMEDY.  SOME
#JURISDICTIONS DO NOT ALLOW THE EXCLUSION OF CERTAIN WARRANTIES SO SOME OF THE ABOVE
#EXCLUSIONS MAY NOT APPLY. IN NO EVENT SHALL DRILLING INFO, INC. OR ANY OF ITS AFFILIATES
#BE LIABLE UNDER ANY LEGAL THEORY, WHETHER IN TORT (INCLUDING WITHOUT LIMITATION
#NEGLIGENCE), CONTRACT, STRICT LIABILITY, STATUTORY OR OTHERWISE, FOR ANY SPECIAL,
#INCIDENTAL, CONSEQUENTIAL, EXEMPLARY, PUNITIVE OR INDIRECT DAMAGE OF ANY KIND, INCLUDING
#WITHOUT LIMITATION LOSS OF REVENUE, PROFITS, GOODWILL, USE, AND/OR DATA OR THE COST OF
#PROCUREMENT OF SUBSTITUTE GOODS OR SERVICES, EVEN IF APPRISED OF THE POSSIBILITY OF SUCH
#DAMAGES IN ADVANCE.
#--------------------------------------------------#
~WELL INFORMATION
#MNEMONIC     .UNIT              VALUE :DESCRIPTION
#--------------------------------------------------#
STRT       .ft                25.00000 :START DEPTH
STOP       .ft                17086.00000 :STOP DEPTH
STEP       .ft                0.50000 :STEP
NULL       .                -999.25000 :NULL VALUE
COMP       .                 :COMPANY
WELL       .                 :WELL
FLD       .                 :FIELD
LOC       .                 :LOCATION
CNTY       .                 :COUNTY
STAT       .                 :STATE
CTRY       .                 :COUNTRY
SRVC       .                 :SERVICE COMPANY
DATE       .                 :DATE
API       .                42109309270000 :API NUMBER
~CURVE INFORMATION
#MNEMONIC     .UNIT      API CODE :CURVE DESCRIPTION
#--------------------------------------------------#
DEPTH       .ft                      :Measured Depth
CAL       .in        UNKNOWN   :CAL
DT       .us/ft        UNKNOWN   :DT
GR       .gAPI        UNKNOWN   :GR
~A    DEPTH    CAL    DT    GR
# ...
12509.50000    10.43901    63.98969    55.03495
12510.00000    10.38379    60.83796    54.39826
12510.50000    10.32858    60.61597    53.96608
12511.00000    10.27336    64.18301    53.53391
12511.50000    10.25937    67.75006    53.38914
12512.00000    10.27392    69.37113    54.87836
12512.50000    10.28847    67.71479    56.36758
12513.00000    10.30302    66.05846    57.85680
12513.50000    10.31757    64.40212    59.34602
12514.00000    10.33211    64.35035    60.83524
12514.50000    10.34666    64.87177    60.62184
12515.00000    10.36121    65.39319    58.58899
12515.50000    10.37576    65.91460    60.80358
12516.00000    10.39031    66.43602    63.88530
12516.50000    10.38854    65.26895    66.96702
12517.00000    10.35888    61.05138    68.29332
12517.50000    10.32921    62.00822    69.24150
12518.00000    10.29954    62.96507    70.65119
12518.50000    10.26987    63.69694    72.22030
12519.00000    10.23024    63.01228    73.78941
12519.50000    10.18193    62.32762    75.35851
12520.00000    10.13361    62.89340    59.94142
12520.50000    10.08530    63.96102    50.51665
12521.00000    10.97058    65.02864    50.63926
12521.50000    10.96959    66.09627    50.76187
12522.00000    10.92566    67.16389    50.88448
12522.50000    10.88172    66.60483    51.00709
12523.00000    10.83779    65.35769    51.97076
12523.50000    10.79386    64.11055    53.05488
12524.00000    10.74992    62.86340    55.21605
12524.50000    10.70599    61.95252    60.14574
12525.00000    10.66206    63.11802    65.07543
12525.50000    10.61812    64.28352    70.00512
12526.00000    10.57419    65.44902    74.93481
12526.50000    10.53026    64.89194    74.51690
12527.00000    10.51461    63.13755    73.48063
12527.50000    10.63096    61.38317    73.22453
12528.00000    10.74732    61.76320    76.07690
12528.50000    10.86368    63.08840    78.92926
12529.00000    10.98003    64.41360    81.78162
12529.50000    11.09639    65.73880    82.94648
12530.00000    11.21274    66.97491    75.48968
12530.50000    11.32910    65.40114    68.03287
12531.00000    11.27705    63.82738    66.12170
12531.50000    11.20948    62.44889    66.35323
12532.00000    11.14190    63.26574    66.58476
12532.50000    11.07433    64.08258    66.66181
12533.00000    11.00675    64.68588    61.51653
12533.50000    10.93918    64.31097    60.43604
12534.00000    10.87160    63.93605    69.44642
12534.50000    11.47325    64.20381    78.45679
12535.00000    11.84859    64.78958    85.87820
12535.50000    11.83051    65.37535    75.34967
12536.00000    11.81242    65.87726    64.82115
12536.50000    11.79434    66.23966    54.29263
12537.00000    11.77626    67.39755    52.19134
12537.50000    11.75818    66.42065    51.76296
12538.00000    11.74010    62.32834    51.33458
12538.50000    11.72201    63.18458    50.90620
12539.00000    11.70393    70.72082    50.47783
12539.50000    11.68585    77.29167    50.04945
12540.00000    11.66777    73.44417    49.62107
12540.50000    11.72050    69.59667    49.19270
12541.00000    11.78569    65.74917    48.76432
12541.50000    11.85087    61.90166    53.14388
12542.00000    11.91605    66.38375    58.96746
12542.50000    11.98123    68.83952    64.79104
12543.00000    12.04640    71.29529    70.61462
12543.50000    12.09250    70.92188    74.62103
12544.00000    12.01530    68.77863    76.25257
12544.50000    11.93809    66.63539    61.90459
12545.00000    11.86089    70.65158    57.32128
12545.50000    11.78368    86.72912    52.73797
12546.00000    11.70648    83.84666    48.68341
12546.50000    11.60303    80.96420    46.27279
12547.00000    11.47533    80.54890    43.99839
12547.50000    11.34765    81.81159    45.23858
12548.00000    11.21996    71.86048    46.47877
12548.50000    11.09227    69.18684    47.71896
12549.00000    11.07191    66.51319    48.18997
12549.50000    11.14653    63.83955    47.54210
12550.00000    11.22115    62.04982    47.46201
12550.50000    11.29577    68.40750    48.98783
12551.00000    11.37040    66.88474    50.51365
12551.50000    11.74666    65.36199    50.11858
12552.00000    12.17985    63.83923    48.82840
12552.50000    12.61305    62.31647    47.53822
12553.00000    12.63711    79.26460    47.57399
12553.50000    12.57253    74.71219    49.33323
12554.00000    12.50796    71.57333    51.09248
12554.50000    12.44338    72.38185    52.85172
12555.00000    12.37881    71.81481    54.61096
12555.50000    12.31423    71.24776    53.61694
12556.00000    12.24966    70.68072    51.94764
12556.50000    12.18508    70.11368    52.23174
12557.00000    12.12051    69.54664    53.45059
12557.50000    12.05593    69.33253    51.74015
12558.00000    11.99136    71.17976    50.02971
12558.50000    11.95299    73.02699    48.31927
12559.00000    11.92935    74.87422    49.97180
12559.50000    11.90572    76.72144    52.45352
12560.00000    11.88208    70.04521    54.93525
12560.50000    11.85844    73.13816    57.41697
12561.00000    12.00795    76.23110    59.89870
12561.50000    12.19915    76.58951    57.96560
12562.00000    12.31982    75.03870    54.24002
12562.50000    12.19125    73.48788    50.31015
12563.00000    12.06268    71.93707    46.88151
12563.50000    11.93411    74.89566    45.05293
12564.00000    11.80555    74.81816    43.22435
12564.50000    11.93153    74.74065    41.39577
12565.00000    12.07343    74.66315    40.70482
12565.50000    12.21533    74.58564    41.17580
12566.00000    12.35724    76.60215    41.64677
12566.50000    12.49914    79.28829    42.11775
12567.00000    12.64105    81.00172    44.07692
12567.50000    12.44381    78.54075    49.69005
12568.00000    11.68099    76.07978    55.30317
12568.50000    11.43895    73.61881    60.91630
12569.00000    11.56415    71.15784    58.62139
12569.50000    11.68936    71.33068    55.36735
12570.00000    11.81456    72.20655    52.11332
12570.50000    11.54724    71.72150    51.15333
12571.00000    11.05130    70.97383    52.16557
12571.50000    10.55536    70.22615    53.17782
12572.00000    10.05941    69.47848    54.19006
12572.50000    9.90042    68.73080    54.08387
12573.00000    9.97114    67.98313    52.04698
12573.50000    10.04186    72.16228    51.86499
12574.00000    10.11258    71.30202    52.40289
12574.50000    10.18330    70.44177    52.94079
12575.00000    10.25059    69.58151    53.47869
12575.50000    10.30642    68.72125    54.01659
12576.00000    10.36226    70.37967    55.74155
12576.50000    10.41810    71.82265    58.79326
12577.00000    10.47394    71.49403    61.84497
12577.50000    10.72435    71.86980    64.89668
12578.00000    11.15494    72.87146    67.94838
12578.50000    11.54585    72.21363    68.16508
12579.00000    11.53212    70.18026    64.37889
12579.50000    11.51838    68.14688    60.59271
12580.00000    11.50465    71.56403    56.80652
12580.50000    11.49092    77.09248    53.02034
12581.00000    11.47719    82.62092    53.49275
12581.50000    11.46345    88.14937    54.40878
12582.00000    11.55094    85.21258    55.32481
12582.50000    11.64929    82.06575    56.24084
12583.00000    11.74764    78.91893    57.15687
12583.50000    11.84598    75.77210    58.45625
12584.00000    11.94433    77.02265    59.93658
12584.50000    11.99216    79.15552    61.41690
12585.00000    12.00196    81.28839    62.89723
12585.50000    12.01175    83.42126    64.37756
12586.00000    12.02154    83.71364    65.85788
12586.50000    12.03134    83.37298    60.82122
12587.00000    12.04113    83.03232    55.68199
12587.50000    12.07640    82.69166    50.54277
12588.00000    12.14596    82.35101    45.40355
12588.50000    12.21552    83.84856    48.23022
12589.00000    12.25241    83.44255    51.43967
12589.50000    11.85391    80.49641    54.64912
12590.00000    11.45541    77.55027    57.85857
12590.50000    11.05691    74.60413    59.70356
12591.00000    10.65841    71.65799    59.57583
12591.50000    10.43048    68.93652    59.44810
12592.00000    10.44720    66.22516    59.32037
12592.50000    10.46392    63.51380    59.19263
