~VERSION INFORMATION
VERS. 2.0 : CWLS Log ASCII Standard - version 2.0
WRAP.  NO : One line per depth step
#--------------------------------------------------#
#----------------DRILLING INFO, INC.---------------#
#---------------WWW.DRILLINGINFO.COM---------------#
#------------------COPYRIGHT 2015------------------#
#--------------------------------------------------#
#THIS FILE MAY BE USED ONLY IN ACCORDANCE WITH A CURRENT SUBSCRIPTION AGREEMENT BETWEEN
#THE USER AND DRILLING INFO, INC. NO PART OF THIS FILE MAY BE REPRODUCED, USED, COPIED,
#MODIFIED, PROPAGATED, OR DISTRIBUTED EXCEPT IN ACCORDANCE WITH THE SUBSCRIPTION
#AGREEMENT. UNAUTHORIZED USE OR DISTRIBUTION OF ALL OR ANY PART OF THIS FILE MAY VIOLATE
#COPYRIGHT, TRADEMARK, AND/OR OTHER LAWS AND IS SUBJECT TO CIVIL AS WELL AS CRIMINAL
#SANCTIONS.
#--------------------------------------------------#
#THIS FILE IS PROVIDED "AS-IS" AND ALL WARRANTIES ARE EXPRESSLY DISCLAIMED, WHETHER
#EXPRESS, ORAL, IMPLIED, STATUTORY OR OTHERWISE, INCLUDING ANY IMPLIED WARRANTY OF FITNESS
#FOR A PARTICULAR PURPOSE, MERCHANTABILITY, TITLE OR NON-INFRINGEMENT, AND ANY WARRANTIES
#ARISING BY VIRTUE OF CUSTOM OF TRADE OR COURSE OF DEALING.  FURTHER, DRILLING INFO,
#INC. AND ITS LICENSORS DO NOT REPRESENT OR WARRANT THAT THIS FILE WILL MEET USER'S
#REQUIREMENTS OR ARE SUITABLE FOR USER'S NEEDS OR THAT THE DATA OR RESULTS PROVIDED IN
#CONJUNCTION THEREWITH ARE CORRECT, ACCURATE, TIMELY OR RELIABLE. THESE DISCLAIMERS SHALL
#APPLY REGARDLESS OF ANY FAILURE OF ESSENTIAL PURPOSE OF ANY LIMITED REMEDY.  SOME
#JURISDICTIONS DO NOT ALLOW THE EXCLUSION OF CERTAIN WARRANTIES SO SOME OF THE ABOVE
#EXCLUSIONS MAY NOT APPLY. IN NO EVENT SHALL DRILLING INFO, INC. OR ANY OF ITS AFFILIATES
#BE LIABLE UNDER ANY LEGAL THEORY, WHETHER IN TORT (INCLUDING WITHOUT LIMITATION
#NEGLIGENCE), CONTRACT, STRICT LIABILITY, STATUTORY OR OTHERWISE, FOR ANY SPECIAL,
#INCIDENTAL, CONSEQUENTIAL, EXEMPLARY, PUNITIVE OR INDIRECT DAMAGE OF ANY KIND, INCLUDING
#WITHOUT LIMITATION LOSS OF REVENUE, PROFITS, GOODWILL, USE, AND/OR DATA OR THE COST OF
#PROCUREMENT OF SUBSTITUTE GOODS OR SERVICES, EVEN IF APPRISED OF THE POSSIBILITY OF SUCH
#DAMAGES IN ADVANCE.
#--------------------------------------------------#
~WELL INFORMATION
#MNEMONIC     .UNIT              VALUE :DESCRIPTION
#--------------------------------------------------#
STRT       .FT                0 :START DEPTH
STOP       .FT                10142 :STOP DEPTH
STEP       .FT                   0.500 :STEP
NULL       .                  -999.250 :NULL
API        .                421093138200 :API NUMBER
COMP       .         SHELL OIL COMPANY :COMPANY
WELL       .        SIBLEY  1 :WELL
DATE       .                08-Aug-1978 :LOG DATE
~CURVE INFORMATION
#MNEMONIC     .UNIT      API CODE :CURVE DESCRIPTION
#--------------------------------------------------#
DEPTH       .FT                      :Measured Depth
CAL.INCH        UNKNOWN   :CAL
DT.US/FT        UNKNOWN   :DT
GR.API        UNKNOWN   :GR
~A    DEPTH    CAL    DT    GR
# ...
 2614     12.34   66.905   78.661
 2614.5     12.344   67.746   74.789
 2615     12.347   68.586   70.916
 2615.5     12.351   68.81   67.044
 2616     12.354   66.492   87.658
 2616.5     12.355   64.174   102.872
 2617     12.352   62.644   101.565
 2617.5     12.349   63.304   90.777
 2618     12.347   63.964   79.758
 2618.5     12.344   65.073   68.739
 2619     12.341   66.298   57.719
 2619.5     12.339   67.421   58.986
 2620     12.336   67.318   63.666
 2620.5     12.334   67.215   68.346
 2621     12.331   67.112   73.026
 2621.5     12.328   65.465   77.706
 2622     12.326   63.364   82.386
 2622.5     12.323   61.262   87.066
 2623     12.32   59.161   81.415
 2623.5     12.318   57.059   70.705
 2624     12.315   54.958   59.996
 2624.5     12.312   54.388   49.286
 2625     12.31   54.3   38.577
 2625.5     12.307   54.213   31.636
 2626     12.304   54.125   28.366
 2626.5     12.302   60.35   25.097
 2627     12.299   66.899   23.104
 2627.5     12.296   67.118   29.132
 2628     12.294   67.336   35.16
 2628.5     12.291   67.555   57.858
 2629     12.288   67.756   85.933
 2629.5     12.286   67.18   91.59
 2630     12.283   66.605   96.992
 2630.5     12.28   66.029   96.302
 2631     12.278   65.454   90.855
 2631.5     12.275   66.792   85.408
 2632     12.273   66.004   79.961
 2632.5     12.27   65.215   82.855
 2633     12.267   64.427   85.985
 2633.5     12.265   63.638   88.09
 2634     12.262   62.85   83.129
 2634.5     12.259   62.061   78.213
 2635     12.257   61.272   80.016
 2635.5     12.254   60.484   81.82
 2636     12.251   59.695   76.791
 2636.5     12.249   58.907   71.395
 2637     12.246   58.118   65.998
 2637.5     12.243   57.413   61.684
 2638     12.245   58.054   59.2
 2638.5     12.251   58.694   56.715
 2639     12.257   59.334   54.622
 2639.5     12.263   60.94   56.784
 2640     12.269   62.565   58.945
 2640.5     12.275   64.19   61.107
 2641     12.281   64.962   60.074
 2641.5     12.287   64.105   60.963
 2642     12.293   63.248   67.897
 2642.5     12.299   62.391   74.83
 2643     12.305   62.543   81.764
 2643.5     12.311   62.865   88.697
 2644     12.317   63.187   86.875
 2644.5     12.323   63.509   83.357
 2645     12.329   63.831   79.839
 2645.5     12.335   65.479   76.32
 2646     12.341   65.053   72.802
 2646.5     12.347   63.29   69.283
 2647     12.353   62.631   73.901
 2647.5     12.359   63.275   81.184
 2648     12.365   63.919   86.484
 2648.5     12.371   64.563   80.907
 2649     12.375   64.241   75.331
 2649.5     12.375   63.625   73.362
 2650     12.375   63.008   73.361
 2650.5     12.375   64.392   73.361
 2651     12.375   66.714   68.305
 2651.5     12.375   69.035   62.538
 2652     12.375   70.662   56.77
 2652.5     12.375   70.967   61.084
 2653     12.375   71.273   71.154
 2653.5     12.375   71.578   81.224
 2654     12.375   71.883   91.294
 2654.5     12.375   71.06   106.548
 2655     12.375   68.429   139.162
 2655.5     12.375   65.347   138.962
 2656     12.375   62.265   135.341
 2656.5     12.375   59.183   117.297
 2657     12.374   56.483   99.252
 2657.5     12.374   59.626   86.01
 2658     12.374   62.769   72.95
 2658.5     12.374   65.913   59.89
 2659     12.374   68.976   48.336
 2659.5     12.374   70.164   61.403
 2660     12.374   71.352   92.673
 2660.5     12.374   70.812   118.543
 2661     12.374   67.088   127.803
 2661.5     12.374   63.364   119.288
 2662     12.374   59.639   110.773
 2662.5     12.374   56.905   102.258
 2663     12.374   56.278   89.305
 2663.5     12.374   56.424   72.991
 2664     12.374   58.737   56.677
 2664.5     12.374   61.049   45.945
 2665     12.374   63.362   41.21
 2665.5     12.374   65.31   42.123
 2666     12.373   64.61   51.838
 2666.5     12.373   64.089   61.554
 2667     12.373   65.514   71.269
 2667.5     12.373   66.939   80.984
 2668     12.373   68.364   90.699
 2668.5     12.373   69.789   100.042
 2669     12.373   68.858   101.293
 2669.5     12.373   67.631   99.558
 2670     12.373   66.403   96.577
 2670.5     12.373   65.176   93.118
 2671     12.373   63.948   89.658
 2671.5     12.373   62.72   83.734
 2672     12.373   63.924   73.426
 2672.5     12.373   66.226   63.118
 2673     12.373   68.213   61.331
 2673.5     12.373   69.009   68.381
 2674     12.373   69.805   75.431
 2674.5     12.373   70.602   82.481
 2675     12.373   71.398   89.532
 2675.5     12.372   71.889   96.582
 2676     12.372   70.923   100.258
 2676.5     12.371   69.957   99.58
 2677     12.367   70.242   97.78
 2677.5     12.364   71.034   92.508
 2678     12.361   71.826   107.047
 2678.5     12.357   72.619   106.08
 2679     12.354   71.614   104.532
 2679.5     12.351   70.489   102.984
 2680     12.348   69.363   101.435
 2680.5     12.344   68.238   99.887
 2681     12.341   67.112   95.686
 2681.5     12.338   65.986   89.297
 2682     12.334   64.861   82.907
 2682.5     12.331   65.616   76.517
 2683     12.328   67.206   71.189
 2683.5     12.324   68.797   67.938
 2684     12.321   70.388   70.315
 2684.5     12.318   71.026   79.372
 2685     12.315   70.092   90.981
 2685.5     12.311   69.157   102.23
 2686     12.308   66.308   100.945
 2686.5     12.305   63.257   99.659
 2687     12.301   60.206   91.264
 2687.5     12.298   59.104   76.601
 2688     12.295   58.603   61.938
 2688.5     12.291   58.102   55.947
 2689     12.288   57.802   53.307
 2689.5     12.285   59.257   50.666
 2690     12.282   60.711   48.026
 2690.5     12.278   61.562   49.15
 2691     12.275   61.001   54.773
 2691.5     12.272   60.439   60.395
 2692     12.268   59.878   66.018
 2692.5     12.265   59.317   65.324
 2693     12.262   58.756   61.209
 2693.5     12.258   58.195   57.093
 2694     12.261   57.683   52.978
 2694.5     12.264   58.571   48.862
 2695     12.266   59.804   44.747
 2695.5     12.269   63.577   41.726
 2696     12.272   67.35   43.595
 2696.5     12.274   68.168   45.464
 2697     12.277   68.144   47.333
 2697.5     12.279   68.12   79.353
 2698     12.282   68.095   87.671
 2698.5     12.285   68.071   83.867
 2699     12.287   68.085   77.017
 2699.5     12.29   68.249   70.167
 2700     12.292   68.412   63.317
 2700.5     12.295   68.575   65.318
 2701     12.298   68.739   69.339
 2701.5     12.3   69.125   73.361
 2702     12.303   69.644   75.55
 2702.5     12.306   70.164   75.31
 2703     12.308   70.401   75.069
 2703.5     12.311   70.461   74.462
 2704     12.313   70.455   73.125
 2704.5     12.311   70.332   72.002
 2705     12.309   70.208   72.566
 2705.5     12.307   69.999   73.131
 2706     12.305   68.458   73.695
 2706.5     12.303   66.917   74.26
 2707     12.301   65.376   74.824
 2707.5     12.299   63.835   80.828
 2708     12.297   62.294   80.353
 2708.5     12.295   60.861   73.937
 2709     12.293   61.039   67.52
 2709.5     12.291   63.091   61.104
 2710     12.289   65.318   54.687
 2710.5     12.287   67.544   51.291
 2711     12.285   69.77   50.062
 2711.5     12.283   70.577   54.439
 2712     12.281   71.199   68.462
 2712.5     12.279   71.821   82.485
 2713     12.277   71.123   96.508
 2713.5     12.275   70.146   103.362
 2714     12.273   69.17   101.946
 2714.5     12.271   68.193   100.531
 2715     12.269   67.217   99.115
 2715.5     12.267   66.241   93.386
 2716     12.274   67.181   86.879
 2716.5     12.281   68.31   80.372
 2717     12.288   67.299   75.85
 2717.5     12.295   66.113   77.194
 2718     12.302   64.926   78.538
 2718.5     12.309   63.74   74.955
 2719     12.316   62.951   70.57
 2719.5     12.323   65.29   66.185
 2720     12.33   67.628   61.799
 2720.5     12.337   69.967   57.414
 2721     12.344   72.306   67.833
 2721.5     12.349   74.096   83.14
 2722     12.354   73.243   98.447
 2722.5     12.359   72.389   107.106
 2723     12.364   71.535   104.504
 2723.5     12.382   71.781   101.901
 2724     12.416   72.571   99.299
 2724.5     12.45   73.361   96.692
 2725     12.484   74.15   94.085
 2725.5     12.518   73.995   109.794
