###############################################
##         ENVERUS                           ##
##         ESS - Open Hole                   ##
##         PERMIAN / DELAWARE                ##
##         Nov 02 2023  V4.0                 ##
##         42-109-00406-00-00                ##
###############################################
## Copyright 2017-2023  ENVERUS.  All Rights Reserved. 
## Confidential - Property of ENVERUS, use governed by terms and 
## conditions found within the existing Information Services Subscription Agreement 
## (as may be amended, the “ISSA”) between Customer and ENVERUS. 
## 
~VERSION INFORMATION
# MNEM.UNIT                               DATA : DESCRIPTION OF MNEMONIC
#-----.-----     ----------------------------- : -----------------------------
VERS.                                     2.00 : CWLS LOG ASCII STANDARD - VERSION 2.00
WRAP.                                       NO : MULTIPLE LINES PER DEPTH STEP
VEND.                                  ENVERUS : VENDOR
TYPE.                          ESS - OPEN HOLE : ENVERUS ESSENTIAL CURVES – ACCESSIBLE THROUGH ENVERUS PRISM(TM)
DOC.                                  31976272 : ENVERUS HEADER RAW DOCUMENT ID
#___________________________________________________________________________________________________ 
~WELL INFORMATION 
# f03iSNYnaQ7mQXX2RIaOYtiytuBBABKYYIB1smJtyZkBcGMChrfvYQpeE0DESEj4BN+caz3q2IoGlEPFhwFUwg== 
# MNEM.UNIT                                              DATA : DESCRIPTION OF MNEMONIC 
#-----.-----                    ----------------------------- : ----------------------------- 
CNTY.                                               CULBERSON : COUNTY 
STATE.                                                  TEXAS : STATE 
CNTRY.                                                    USA : COUNTRY 
API.                                             42-109-00406 : API (10 Digit) 
API_14.                                    42-109-00406-00-00 : API (14 Digits) 
API_14_std.                                 42-109-00406-0000 : API (14 Digits Standard) 
UWI.                                           42109004060000 : UNIQUE WELL ID 
WELL.                                                  DRD_55 : WELL NAME
STRT.FT                                                 100.5 : START DEPTH
STOP.FT                                               12629.5 : STOP DEPTH
STEP.FT                                                   0.5 : STEP BETWEEN DEPTHS
NULL.                                                 -999.25 : NULL VALUE
#___________________________________________________________________________________________________ 
~PARAMETER INFORMATION 
# MNEM.UNIT                                              DATA : DESCRIPTION OF MNEMONIC 
#-----.-----                    ----------------------------- : -----------------------------
#___________________________________________________________________________________________________ 
~CURVE INFORMATION 
# MNEM.UNIT           : CURVE DESCRIPTION 
#-----.-----          : ----------------------------- 
 DEPT.FT               : MEASURED DEPTH 
 GR__A.API             : GAMMA RAY (GAMMA RAY) 
 DT__A.US/FT           : SONIC DELTA TRANSIT TIME (SONIC) 
 #___________________________________________________________________________________________________ 
~A         DEPT          GR__A          DT__A
# ...
        11671.5          6.158         47.958
        11672.0          5.400         47.436
        11672.5          5.219         47.128
        11673.0          5.050         46.556
        11673.5          4.500         46.808
        11674.0          4.200         47.116
        11674.5          4.200         47.200
        11675.0          4.392         47.149
        11675.5          5.397         46.960
        11676.0          6.167         46.893
        11676.5          7.140         46.638
        11677.0          8.605         45.959
        11677.5          9.000         46.810
        11678.0          9.244         47.895
        11678.5          9.300         47.515
        11679.0          9.300         46.969
        11679.5          8.848         47.892
        11680.0          8.378         47.894
        11680.5          7.609         47.265
        11681.0          7.200         46.519
        11681.5          6.970         47.268
        11682.0          6.900         48.000
        11682.5          6.900         48.508
        11683.0          6.900         48.520
        11683.5          6.900         49.009
        11684.0          6.600         49.480
        11684.5          6.300         48.520
        11685.0          6.084         48.400
        11685.5          6.000         48.314
        11686.0          6.255         48.502
        11686.5          6.600         48.520
        11687.0          6.600         48.403
        11687.5          6.900         48.683
        11688.0          6.868         48.507
        11688.5          6.900         48.319
        11689.0          6.900         48.160
        11689.5          6.900         47.752
        11690.0          6.790         48.324
        11690.5          6.600         48.520
        11691.0          6.300         48.789
        11691.5          6.300         49.368
        11692.0          6.412         49.285
        11692.5          6.357         48.763
        11693.0          6.600         48.114
        11693.5          6.600         47.322
        11694.0          6.600         46.808
        11694.5          6.465         46.600
        11695.0          6.000         46.480
        11695.5          5.700         46.291
        11696.0          6.300         45.778
        11696.5          6.512         46.325
        11697.0          7.664         46.327
        11697.5          8.100         45.689
        11698.0          7.679         45.520
        11698.5          6.910         45.404
        11699.0          6.900         45.520
        11699.5          6.571         45.383
        11700.0          5.502         46.455
        11700.5          6.368         46.614
        11701.0          6.600         46.935
        11701.5          6.900         47.324
        11702.0          7.176         47.550
        11702.5          8.168         47.800
        11703.0          8.700         47.794
        11703.5          9.000         47.680
        11704.0          8.727         47.267
        11704.5          8.177         47.529
        11705.0          6.808         48.012
        11705.5          5.757         49.568
        11706.0          4.969         49.840
        11706.5          4.499         49.960
        11707.0          4.200         50.430
        11707.5          4.259         51.232
        11708.0          6.072         50.573
        11708.5          6.900         49.444
        11709.0          6.600         48.619
        11709.5          6.000         48.640
        11710.0          6.286         48.638
        11710.5          6.600         48.338
        11711.0          6.900         47.660
        11711.5          7.200         47.320
        11712.0          7.864         47.586
        11712.5          7.867         47.773
        11713.0          7.697         48.302
        11713.5          7.228         48.640
        11714.0          6.900         48.937
        11714.5          7.511         49.240
        11715.0          8.701         49.312
        11715.5          9.950         49.480
        11716.0         10.500         49.480
        11716.5         10.200         49.480
        11717.0          9.942         49.480
        11717.5          9.472         49.480
        11718.0          9.300         49.719
        11718.5          8.400         50.027
        11719.0          7.764         50.080
        11719.5          7.295         49.960
        11720.0          6.525         49.810
        11720.5          6.844         49.502
        11721.0          6.900         49.127
        11721.5          6.900         48.527
        11722.0          6.372         48.520
        11722.5          6.300         48.520
        11723.0          6.109         48.520
        11723.5          6.000         48.496
        11724.0          5.770         48.400
        11724.5          6.000         48.400
        11725.0          6.000         48.400
        11725.5          6.000         48.400
        11726.0          6.000         48.280
        11726.5          6.000         48.089
        11727.0          6.000         48.142
        11727.5          6.000         47.920
        11728.0          5.315         47.800
        11728.5          4.845         47.578
        11729.0          4.624         47.730
        11729.5          4.800         47.683
        11730.0          5.263         47.745
        11730.5          6.000         47.800
        11731.0          6.502         47.719
        11731.5          6.600         47.828
        11732.0          6.360         47.824
        11732.5          6.900         47.516
        11733.0          6.900         47.320
        11733.5          6.151         47.381
        11734.0          5.082         47.193
        11734.5          4.800         46.885
        11735.0          4.743         46.840
        11735.5          4.500         46.630
        11736.0          4.500         46.600
        11736.5          4.500         46.374
        11737.0          4.200         46.414
        11737.5          4.500         46.362
        11738.0          4.500         46.360
        11738.5          4.543         46.103
        11739.0          5.100         45.795
        11739.5          5.809         45.640
        11740.0          5.149         45.740
        11740.5          5.820         45.592
        11741.0          6.300         45.520
        11741.5          6.300         45.400
        11742.0          6.600         45.269
        11742.5          6.600         45.160
        11743.0          7.301         45.040
        11743.5          8.337         45.040
        11744.0          8.400         45.203
        11744.5          8.124         45.280
        11745.0          7.655         45.520
        11745.5          6.900         45.646
        11746.0          6.716         45.954
        11746.5          6.247         46.240
        11747.0          5.700         45.986
        11747.5          5.700         45.640
        11748.0          5.700         45.520
        11748.5          5.700         45.520
        11749.0          5.700         45.640
        11749.5          5.700         45.640
        11750.0          6.039         45.744
        11750.5          6.391         45.927
        11751.0          6.000         46.360
        11751.5          6.300         46.480
        11752.0          6.600         46.553
        11752.5          7.186         46.360
        11753.0          7.800         46.480
        11753.5          8.100         46.590
        11754.0          8.100         46.612
        11754.5          7.436         46.446
        11755.0          6.667         46.231
        11755.5          5.897         46.206
        11756.0          5.128         47.145
        11756.5          4.800         47.257
        11757.0          4.789         47.320
        11757.5          4.500         47.512
        11758.0          4.200         48.300
