# Exported from Transform Software 5.2.0 on 27-Jun-2019 by user brian.umlang
# DI Transform - A Product of Drillinginfo, Inc. - www.drillinginfo.com
#
~VERSION INFORMATION
 VERS.        2.0 : LAS ASCII STANDARD - VERSION 2.0
 WRAP.         NO : ONE LINE PER DEPTH STEP

~WELL INFORMATION
#MNEM.UNIT       DATA TYPE       INFORMATION
#---------       ---------       -----------
 STRT.ft                   0 : Start Depth
 STOP.ft               12430 : Stop Depth
 STEP.ft                 0.5 : Step Length
 NULL.               -999.25 : Null Value
 COMP.                       : Company
 WELL.  42109313590000_API14 : Well Name
 FLD.                        : Field Name
 LOC.                        : Well Location
 CNTY.                       : County
 STAT.                       : State or Province
 CTRY.                       : Country
 SRVC.                       : Service Company
 DATE.                       : Date
 API.         42109313590000 : Well Identifier

~CURVE INFORMATION
#MNEM.UNIT       API CODE       CURVE DESCRIPTION
#---------       --------       -----------------
 DEPT.ft          : <Measured Depth>
 CAL.in           : Caliper
 DPHI.%           : Density Porosity
 DT.us/ft         : Sonic
 GR.gAPI          : Gamma Ray
 ILD.ohmm         : Deep Resistivity
 ILM.ohmm         : Medium Resistivity
 ILS.ohmm         : Shallow Resistivity
 NPHI.%           : Neutron Porosity
 RHOB.g/cm3       : Density
 SP.mV            : Spontaneous Potential

~PARAMETER INFORMATION
#MNEM.UNIT       VALUE       DESCRIPTION
#---------       -----       -----------
 EKB.ft      3771 : Elevation above MSL

~A      DEPT         CAL        DPHI          DT          GR         ILD         ILM         ILS        NPHI        RHOB          SP
# ...
      6496.5     13.3298     29.3613     70.7297     51.8362     22.1597     15.6264     26.3009     29.9713      2.5185   -125.2121
        6497     13.3147     29.1178     69.5349     54.4075     23.5784     15.8349     25.7377     29.9708      2.5205   -125.2071
      6497.5     13.2996     28.2822     67.5428     50.6542     24.0698     16.3744     25.7377     29.9703      2.5257   -125.2071
        6498     13.2038     26.8355     62.7899     44.5535     25.0991      17.363     27.0132     29.9698      2.5694   -125.2071
      6498.5     13.1032     24.8171     61.0038     38.4528     26.1151     17.6563      31.815     29.9693      2.6301   -124.3797
        6499     13.0029      16.972      57.644     32.3521     27.5212     17.9566     42.9332     29.9687       2.721   -123.4293
      6499.5      12.983     13.5143     55.3335     26.2514     38.5158     18.1055     78.2292     29.9682       2.725   -122.4195
        6500     12.9632      8.3463     54.3903     20.1507     38.7963     18.1055      95.852     29.9677       2.727   -121.2591
      6500.5     12.9434      8.0439     54.6517      14.351     38.6759     18.1055      95.852     29.9672      2.7288   -119.6337
        6501      12.929      8.9214     56.9737     13.1725     31.8678     18.0313     89.4739     29.9667      2.7293   -118.0082
      6501.5     12.9677     15.1679     61.2118     15.8222     29.0341     17.2745     70.8853     29.9661      2.6727   -116.3827
        6502     13.0462     20.5955     66.5746      22.422     23.7827     15.4718     45.2442     29.9656      2.5983   -114.7573
      6502.5     13.1248     28.1403      72.045     29.0219     20.5549     14.9333     39.5014     29.9651      2.5449   -113.1318
        6503     13.2034     29.2195     74.1875     35.6217     15.9722     14.3246     22.3281     29.9646      2.5514   -111.5064
      6503.5     13.2819     29.8327     75.1685     42.2216     15.3019     13.1607     16.6386     29.9641      2.5065   -109.8809
        6504     13.3605     29.9202     75.0044     48.8214     14.8945     12.6303     15.9681     29.9635      2.5064   -108.4484
      6504.5     13.4391     29.9202     74.5711     53.0445     14.2818     12.6303     15.9681      29.963      2.5046   -107.6406
        6505     13.5177     29.9202     74.8053     55.6219     13.5055     12.4783     15.5139     29.9625      2.5225   -106.8328
      6505.5     13.5962     29.9202     74.8626     57.8219     13.4417     11.1573      15.442      29.962       2.522    -105.577
        6506     13.6736     29.9202     74.6922     60.0218     12.8775     10.5328     15.4016     29.9615       2.517    -103.305
      6506.5     13.7364     29.9202     74.5711      61.526     12.7365     10.4174     15.5719      29.961      2.4855   -102.7219
        6507     13.7993     29.9202     74.3809     61.3576     12.5369     10.4174     15.3278     29.9604      2.4789   -102.7219
      6507.5     13.8166     29.9202     74.2079     61.1893     12.8436     10.4503      15.442     29.9599      2.4855   -102.7219
        6508     13.8166     29.9202     74.0868     61.0209     12.8436      10.946      15.442     29.9594       2.471   -102.7219
      6508.5     13.8166     29.9202     73.8386     60.8525     13.0606     10.8379     15.5719     29.9589      2.4705   -102.7219
        6509     13.8166     29.9202     73.7235     60.6842     13.0606     10.7309     15.5719     29.9584       2.474   -102.7219
      6509.5     13.8166     29.9202     73.5864     64.1367     13.3395     10.7185     15.5719     29.9578      2.4902   -102.7219
        6510     13.8166     29.9202     74.3323     63.1443      13.615     10.7185     15.1097     29.9573      2.4816   -102.4444
      6510.5     13.8166     29.9202     75.1197     62.1518     14.4126     10.7185     14.3209     29.9568      2.4749   -101.5789
        6511     13.8166     29.9202     75.3163     61.1594     14.9589     10.7185     13.7108     29.9563      2.4809   -101.5385
      6511.5     13.8166     29.9202     74.9028     60.1669     15.7029     10.7185     13.5055     29.9558      2.4895   -101.5385
        6512     13.8166     29.9202     74.4906     59.1745     15.7029     10.7185     13.3795     29.9552      2.4933   -101.5385
      6512.5     13.8166     29.9202     74.2291      58.182     15.7029     10.7185     13.0606     29.9547      2.5145   -101.5385
        6513     13.8166     29.9202     73.9081     57.1895     15.7029     10.7185     13.0802     29.9542      2.5213   -101.5385
      6513.5     13.8166     29.9202      73.464     56.7776     15.5719     10.7185     13.5055     29.9537      2.5281   -101.5385
        6514     13.8166     29.9202     72.8376     56.5476     15.5719     10.7185     13.5055     29.9532      2.5332   -101.5385
      6514.5     13.8166     29.9202     72.3915     56.3177     14.9333     10.7185     13.5055     29.9526      2.5325   -101.3565
        6515     13.8166     29.9202     72.3163     56.0877      14.883     10.7185     13.5055     29.9521      2.4955   -101.0135
      6515.5     13.8166     29.9202     71.9942     55.8578     15.8349     10.7185     13.5055     29.9516      2.5072   -100.6706
        6516     13.8166     29.9202     71.8466     55.6278     15.5622     10.7185     13.5055     29.9511      2.5084   -100.3277
      6516.5     13.8166     29.9202     71.9072     55.3978     15.1856     10.7185     13.2812     29.9506      2.5075    -99.9847
        6517     13.8166     29.9202     71.7861     55.1679     15.1856     10.7185     13.2812       29.95      2.5157    -99.6418
      6517.5     13.8166     29.9202     71.6143     54.7118     15.0045     10.7185     13.3929     29.9495      2.5165    -99.2989
        6518     13.8166     29.9202     71.8655     54.1678     14.8088     10.6042     13.3929      29.949      2.5141    -98.9559
      6518.5     13.8166     29.9202     72.4202     53.6239     14.8088     10.3787     13.3929     29.9485      2.5075     -98.613
        6519     13.8166     29.9202     72.5732     53.0799     14.8088     10.1917     13.3929      29.948      2.5218    -98.2701
      6519.5     13.8166     29.9202     72.4048      52.536     14.3316     10.1917     13.3929     29.9475      2.5276    -97.9208
        6520     13.8166     29.9202     71.2533     50.4544     13.8456     10.1917     13.3963     29.9469      2.5232    -97.5421
      6520.5     13.8166     29.9202     67.1092     49.6496     13.7336     10.4174     14.1008     29.9464      2.5175    -97.1634
        6521     13.8166     29.2303     62.8213     48.8447     13.7336     10.6174     14.4741     29.9459       2.535    -96.7789
      6521.5     13.8166     27.3029     63.1985     48.0398     13.8226     11.8505     15.9917     29.9454       2.573    -96.2876
        6522     13.8166     24.0074     64.6151      47.235     15.6082     12.2142     17.2565     29.9449      2.5544    -95.7964
      6522.5     13.8166     19.1688     64.8855     46.4301     17.0216     12.6303     26.4161     29.9443      2.6218    -95.3052
        6523     13.8166     21.0802     65.5736     45.6253     17.6191     12.6303     38.4343     29.9438      2.6181    -94.8139
      6523.5     13.8166     25.2059     68.2525     44.8204      17.676     12.6303     36.0198     29.9433       2.577    -94.3227
        6524     13.8166     29.2781     70.9814     44.0156     17.2182     12.8422     31.7739     29.9428       2.549    -93.8315
      6524.5     13.8166      29.521     71.9072     45.9081      16.651     12.8436     27.4969     29.9423      2.5037    -93.3402
        6525     13.8166      29.521     71.6693     47.8233      16.651     12.8436     27.2917     29.9417      2.4982    -92.9362
      6525.5     13.8036      29.521     70.6527     49.7384     16.6992     12.8436     27.2917     29.9412      2.4994    -92.5507
        6526     13.7832     28.8094     69.2339     51.6535      17.363     12.6058     27.2917     29.9407      2.4995    -92.1652
      6526.5     13.7628     28.5629     68.6249     53.5686      17.363      12.525     26.9323     29.9402      2.5608    -91.7796
