~Version Information
 VERS.                  2.0:   CWLS log ASCII Standard -VERSION 2.0
 WRAP.                   NO:   One line per depth step
~Well Information Block
#MNEM.UNIT     VALUE/NAME     DESCRIPTION
#---------     -----------    ---------------------------
 STRT.F              8400.0000: START DEPTH
 STOP.F             14661.0000: STOP DEPTH
 STEP.F                 0.5000: STEP DEPTH
 NULL.                 -999.25: NULL VALUE
 LOC .            42-109-33545:  LOCATION
 FL1 .            42-109-33545:  LOCATIONLINE1
 DMF .             Drill Floor:  DRILL MEAS FROM
 PDAT.                      GL:  PERMANENT DATUM
 CNTY.               CULBERSON:  COUNTY NAME
 FLD .              WOLFCAMP B:  FIELD NAME
 WELL.           DALE STATE 3H:  WELL NAME
 COMP.     CAPITAN ENERGY INC.:  COMPANY
 DATE.             12-Feb-2020:  DATE
 SVCO.             Halliburton:  SERVICECONAME
 PROV.                      TX:  PROVINCE
 STAT.                      TX:  STATE NAME
 HIDE.                        :  WELLNAMEOPERAT
 BASI.                 PERMIAN:  BASIN
 UWI .            42-109-33545:  UNIQUE WELL IDENTIFIER
 API .            42-109-33545:  API NUMBER
 RANG.                     N/A:  RANGE
 TOWN.                     N/A:  TOWNSHIP
 SECT.                     N/A:  SECTION
 SON .               906290460:  JOB NUMBER
 CTRY.                        :  COUNTRY
 SRVC.             Halliburton:  SERVICE COMPANY
 LMF .             Drill Floor:  LOG MEASURED FROM
 TVDS.ft             3291.0000:  TVDSS CORRECTN
 EGL .ft             3266.0000:  GROUND ELEVATION
 APD .ft               25.0000:  DEPTH ABOVE PD
 EPD .ft             3266.0000:  ELEVATION
 BAP .ft                0.0000:  GL ELEV ONSHORE
 GVFD.g                 1.0000:  GRAVITY FIELD
 EKB .ft             3291.0000:  KB ELEVATION
 EDF .ft             3291.0000:  DF ELEVATION
~Curve Information Block
#MNEM.UNIT                 API CODE     Curve Description
#---------               -----------    ---------------------------
 DEPT.F                 00 000 000 000:  Depth
 CCL .V                 00 000 000 000:  Casing Collar Locator
 NPHI_OH.pu             00 000 000 000:  NPHI_OH
 NPHI_CHI.decp          00 000 000 000:  NPHI_CHI
 GR_OH.api              00 000 000 000:  GR_OH
 GR_CHI.api             00 000 000 000:  GR_CHI
 RHOB_OH.g/cc           00 000 000 000:  RHOB_OH
 RHOB_CHI.g/cc          00 000 000 000:  RHOB_CHI
 PE_OH.NONE             00 000 000 000:  PE_OH
 PE_CHI.NONE            00 000 000 000:  PE_CHI
 LLS_CHI.ohmm           00 000 000 000:  LLS_CHI
 LLS_OH.ohmm            00 000 000 000:  LLS_OH
 LLD_OH.ohmm            00 000 000 000:  LLD_OH
 LLD_CHI.ohmm           00 000 000 000:  LLD_CHI
 DTC_OH.uspf            00 000 000 000:  DTC_OH
 DTC_CHI.uspf           00 000 000 000:  DTC_CHI
 SPHW_CHI.decp          00 000 000 000:  SPHW_CHI
#Other Information
#
#WARRANTY: Halliburton will use its best efforts to furnish customers with 
#accurate information and interpretations that are part of, and incident to, the services 
#provided.  However, Halliburton cannot and does not warrant the accuracy 
#or correctness of such information and interpretations.  Under no circumstances should any 
#such information or interpretation be relied upon as the sole basis for any drilling, 
#completion, production, or financial decision or any procedure involving any risk to the 
#safety of any drilling venture, drilling rig or its crew or any other third party.  The 
#Customer has full responsibility for all drilling, completion and production operation.  
#Halliburton makes no representations or warranties, either expressed or 
#implied, including, but not limited to, the implied warranties of merchantability or fitness 
#for a particular purpose, with respect to the services rendered.  In no event will 
#Halliburton be liable for failure to obtain any particular results or for 
#any damages, including, but not limited to, indirect, special or consequential damages, 
#resulting from the use of any information or interpretation provided by Halliburton.
#
~A    DEPT      CCL   NPHI_OH NPHI_CHI  GR_OH    GR_CHI  RHOB_OH RHOB_CHI  PE_OH  PE_CHI  LLS_CHI   LLS_OH    LLD_OH    LLD_CHI  DTC_OH  DTC_CHI SPHW_CHI 
# ...
   11712.5000  0.0000 -999.25   0.1090  -999.25  91.1179 -999.25   2.5807 -999.25 3.6169  107.1861   -999.25   -999.25  127.3031 -999.25 70.2890 0.1605
   11713.0000  0.0245 -999.25   0.1085  -999.25  90.7976 -999.25   2.5811 -999.25 3.6287  109.4208   -999.25   -999.25  130.0158 -999.25 70.2005 0.1598
   11713.5000  0.0000 -999.25   0.1077  -999.25  86.5746 -999.25   2.5818 -999.25 3.6439  111.8202   -999.25   -999.25  133.1723 -999.25 69.8656 0.1575
   11714.0000  0.0000 -999.25   0.1076  -999.25  85.4441 -999.25   2.5814 -999.25 3.6430  113.0900   -999.25   -999.25  134.8144 -999.25 69.7046 0.1563
   11714.5000  0.0216 -999.25   0.1051  -999.25  77.8039 -999.25   2.5841 -999.25 3.6688  112.3943   -999.25   -999.25  134.8597 -999.25 69.0682 0.1518
   11715.0000 -0.0183 -999.25   0.1053  -999.25  87.6658 -999.25   2.5839 -999.25 3.6636  113.1411   -999.25   -999.25  135.3998 -999.25 69.6183 0.1557
   11715.5000 -0.0296 -999.25   0.1025  -999.25  82.3011 -999.25   2.5874 -999.25 3.7005  113.1491   -999.25   -999.25  136.1981 -999.25 69.1588 0.1525
   11716.0000  0.0000 -999.25   0.1022  -999.25  85.1488 -999.25   2.5877 -999.25 3.7169  116.7230   -999.25   -999.25  140.2649 -999.25 69.3103 0.1535
   11716.5000 -0.0101 -999.25   0.1009  -999.25  81.8028 -999.25   2.5891 -999.25 3.7446  119.3722   -999.25   -999.25  143.6236 -999.25 69.0689 0.1518
   11717.0000 -0.0231 -999.25   0.0992  -999.25  69.7895 -999.25   2.5903 -999.25 3.7830  123.6221   -999.25   -999.25  149.4533 -999.25 68.1468 0.1453
   11717.5000  0.0000 -999.25   0.1004  -999.25  72.6639 -999.25   2.5875 -999.25 3.7840  129.3069   -999.25   -999.25  155.4395 -999.25 68.4775 0.1476
   11718.0000  0.0000 -999.25   0.1024  -999.25  80.2836 -999.25   2.5837 -999.25 3.7788  137.2983   -999.25   -999.25  163.5941 -999.25 69.1686 0.1525
   11718.5000  0.0590 -999.25   0.1016  -999.25  75.8784 -999.25   2.5842 -999.25 3.7903  137.8980   -999.25   -999.25  164.9444 -999.25 68.8019 0.1499
   11719.0000  0.0000 -999.25   0.1023  -999.25  85.3339 -999.25   2.5829 -999.25 3.7772  136.5488   -999.25   -999.25  162.2238 -999.25 69.6679 0.1561
   11719.5000  0.0000 -999.25   0.1007  -999.25  80.3441 -999.25   2.5841 -999.25 3.7917  132.3132   -999.25   -999.25  157.5634 -999.25 69.4101 0.1542
   11720.0000  0.0000 -999.25   0.1024  -999.25  89.9353 -999.25   2.5808 -999.25 3.7711  131.6676   -999.25   -999.25  155.1250 -999.25 70.4457 0.1616
   11720.5000  0.0885 -999.25   0.1019  -999.25  77.3069 -999.25   2.5797 -999.25 3.7991  133.6568   -999.25   -999.25  157.7794 -999.25 69.3844 0.1541
   11721.0000 -0.0374 -999.25   0.1032  -999.25  73.3447 -999.25   2.5768 -999.25 3.8058  139.8205   -999.25   -999.25  164.7869 -999.25 68.9209 0.1508
   11721.5000 -0.0264 -999.25   0.1067  -999.25  81.0415 -999.25   2.5706 -999.25 3.7905  151.4372   -999.25   -999.25  176.3692 -999.25 69.5436 0.1552
   11722.0000 -0.0102 -999.25   0.1078  -999.25  78.5097 -999.25   2.5680 -999.25 3.8031  160.3656   -999.25   -999.25  186.5873 -999.25 69.1444 0.1524
   11722.5000  0.2619 -999.25   0.1097  -999.25  85.1185 -999.25   2.5640 -999.25 3.7967  165.6522   -999.25   -999.25  191.0858 -999.25 69.6070 0.1556
   11723.0000 -0.0175 -999.25   0.1090  -999.25  84.8172 -999.25   2.5649 -999.25 3.8086  164.9004   -999.25   -999.25  190.5858 -999.25 69.5862 0.1555
   11723.5000  0.0000 -999.25   0.1088  -999.25  94.3871 -999.25   2.5657 -999.25 3.7945  162.0586   -999.25   -999.25  186.6913 -999.25 70.5602 0.1624
   11724.0000  0.0587 -999.25   0.1067  -999.25  87.2238 -999.25   2.5693 -999.25 3.8120  158.1943   -999.25   -999.25  183.8518 -999.25 70.0213 0.1586
   11724.5000 -0.0777 -999.25   0.1057  -999.25  86.7451 -999.25   2.5720 -999.25 3.8085  155.0671   -999.25   -999.25  181.1972 -999.25 70.0166 0.1585
   11725.0000  0.0000 -999.25   0.1042  -999.25  78.6510 -999.25   2.5748 -999.25 3.8187  151.7579   -999.25   -999.25  179.0133 -999.25 69.2805 0.1533
   11725.5000  0.0185 -999.25   0.1029  -999.25  74.5956 -999.25   2.5773 -999.25 3.8229  147.3327   -999.25   -999.25  174.9847 -999.25 68.9297 0.1508
   11726.0000  0.0000 -999.25   0.1016  -999.25  81.9484 -999.25   2.5807 -999.25 3.8098  140.8809   -999.25   -999.25  167.5734 -999.25 69.6916 0.1562
   11726.5000  0.0284 -999.25   0.1003  -999.25  80.6337 -999.25   2.5827 -999.25 3.8166  136.4674   -999.25   -999.25  162.7964 -999.25 69.6597 0.1560
   11727.0000  0.0000 -999.25   0.1000  -999.25  75.2633 -999.25   2.5823 -999.25 3.8270  135.5986   -999.25   -999.25  162.1183 -999.25 69.1903 0.1527
   11727.5000  0.0170 -999.25   0.1004  -999.25  75.6975 -999.25   2.5815 -999.25 3.8242  135.9831   -999.25   -999.25  162.4176 -999.25 69.2284 0.1530
   11728.0000  0.0405 -999.25   0.1018  -999.25  74.1129 -999.25   2.5788 -999.25 3.8258  141.3897   -999.25   -999.25  168.4744 -999.25 68.9755 0.1512
   11728.5000  0.0000 -999.25   0.1003  -999.25  74.2113 -999.25   2.5816 -999.25 3.8431  142.4991   -999.25   -999.25  170.6637 -999.25 69.0270 0.1515
   11729.0000  0.0000 -999.25   0.0972  -999.25  67.3577 -999.25   2.5867 -999.25 3.8799  141.9492   -999.25   -999.25  172.1685 -999.25 68.3764 0.1469
   11729.5000  0.0580 -999.25   0.0966  -999.25  78.7103 -999.25   2.5887 -999.25 3.8771  143.3908   -999.25   -999.25  173.1112 -999.25 69.4696 0.1547
   11730.0000  0.0138 -999.25   0.0940  -999.25  73.1210 -999.25   2.5935 -999.25 3.9015  141.0224   -999.25   -999.25  172.2058 -999.25 68.8287 0.1501
   11730.5000  0.0000 -999.25   0.0939  -999.25  65.6618 -999.25   2.5927 -999.25 3.9161  143.8030   -999.25   -999.25  176.3260 -999.25 68.0720 0.1448
   11731.0000 -0.0167 -999.25   0.0968  -999.25  80.1717 -999.25   2.5890 -999.25 3.8782  147.7200   -999.25   -999.25  178.3620 -999.25 69.4422 0.1545
   11731.5000 -0.0161 -999.25   0.0997  -999.25  86.5128 -999.25   2.5837 -999.25 3.8607  154.3543   -999.25   -999.25  184.1232 -999.25 70.0216 0.1586
   11732.0000 -0.0134 -999.25   0.0994  -999.25  63.9692 -999.25   2.5817 -999.25 3.9110  163.0650   -999.25   -999.25  196.8624 -999.25 67.8763 0.1434
   11732.5000  0.0163 -999.25   0.1024  -999.25  70.5949 -999.25   2.5757 -999.25 3.9026  172.0972   -999.25   -999.25  204.7617 -999.25 68.4492 0.1474
   11733.0000  0.0000 -999.25   0.1051  -999.25  73.7836 -999.25   2.5703 -999.25 3.8974  180.6169   -999.25   -999.25  212.6228 -999.25 68.5649 0.1483
   11733.5000  0.0359 -999.25   0.1059  -999.25  78.4361 -999.25   2.5687 -999.25 3.8936  181.5613   -999.25   -999.25  212.3247 -999.25 68.9930 0.1513
   11734.0000  0.0000 -999.25   0.1043  -999.25  79.2275 -999.25   2.5718 -999.25 3.8963  176.8280   -999.25   -999.25  207.4527 -999.25 69.2526 0.1531
   11734.5000  0.0000 -999.25   0.0991  -999.25  73.3527 -999.25   2.5816 -999.25 3.9249  166.1073   -999.25   -999.25  198.4500 -999.25 68.9537 0.1510
   11735.0000  0.0900 -999.25   0.0959  -999.25  72.5370 -999.25   2.5879 -999.25 3.9384  160.7524   -999.25   -999.25  193.9283 -999.25 68.8236 0.1501
   11735.5000  0.0881 -999.25   0.0960  -999.25  80.4606 -999.25   2.5886 -999.25 3.9257  159.1110   -999.25   -999.25  191.1227 -999.25 69.5495 0.1552
   11736.0000  0.0000 -999.25   0.0968  -999.25  76.4779 -999.25   2.5865 -999.25 3.9296  161.2054   -999.25   -999.25  193.5001 -999.25 69.2512 0.1531
   11736.5000  0.0213 -999.25   0.0978  -999.25  68.4186 -999.25   2.5839 -999.25 3.9325  162.4573   -999.25   -999.25  195.5199 -999.25 68.4591 0.1475
   11737.0000  0.0696 -999.25   0.1003  -999.25  75.5285 -999.25   2.5797 -999.25 3.9072  164.8984   -999.25   -999.25  196.4382 -999.25 69.1285 0.1523
   11737.5000  0.0000 -999.25   0.1013  -999.25  83.7509 -999.25   2.5787 -999.25 3.8892  166.2567   -999.25   -999.25  196.8855 -999.25 69.8464 0.1573
   11738.0000  0.0000 -999.25   0.0992  -999.25  65.6879 -999.25   2.5806 -999.25 3.9442  170.1793   -999.25   -999.25  204.6500 -999.25 68.1346 0.1452
   11738.5000  0.0637 -999.25   0.0986  -999.25  64.1808 -999.25   2.5810 -999.25 3.9653  175.9397   -999.25   -999.25  211.9059 -999.25 67.9793 0.1441
