###############################################
##         ENVERUS                           ##
##         ESS - Open Hole                   ##
##         PERMIAN / DELAWARE                ##
##         Nov 02 2023  V4.0                 ##
##         42-109-32297-90-00                ##
###############################################
## Copyright 2017-2023  ENVERUS.  All Rights Reserved. 
## Confidential - Property of ENVERUS, use governed by terms and 
## conditions found within the existing Information Services Subscription Agreement 
## (as may be amended, the “ISSA”) between Customer and ENVERUS. 
## 
~VERSION INFORMATION
# MNEM.UNIT                               DATA : DESCRIPTION OF MNEMONIC
#-----.-----     ----------------------------- : -----------------------------
VERS.                                     2.00 : CWLS LOG ASCII STANDARD - VERSION 2.00
WRAP.                                       NO : MULTIPLE LINES PER DEPTH STEP
VEND.                                  ENVERUS : VENDOR
TYPE.                          ESS - OPEN HOLE : ENVERUS ESSENTIAL CURVES – ACCESSIBLE THROUGH ENVERUS PRISM(TM)
DOC.                                  52921007 : ENVERUS HEADER RAW DOCUMENT ID
#___________________________________________________________________________________________________ 
~WELL INFORMATION 
# EM3SY5Bwx6x9YoJmjxbMXtwK21/gMzSEmeWIZ71LA4UD3Y8PQw/mHJ0IHc4n7dRi3zAL189RIdETacnakexX1Q== 
# MNEM.UNIT                                              DATA : DESCRIPTION OF MNEMONIC 
#-----.-----                    ----------------------------- : ----------------------------- 
CNTY.                                               CULBERSON : COUNTY 
STATE.                                                  TEXAS : STATE 
CNTRY.                                                    USA : COUNTRY 
API.                                             42-109-32297 : API (10 Digit) 
API_14.                                    42-109-32297-90-00 : API (14 Digits) 
API_14_std.                                 42-109-32297-9000 : API (14 Digits Standard) 
UWI.                                           42109322979000 : UNIQUE WELL ID 
WELL.                          MELISSA TAYLOR STATE 105-3  1H : WELL NAME
STRT.FT                                                 200.0 : START DEPTH
STOP.FT                                               10260.0 : STOP DEPTH
STEP.FT                                                   0.5 : STEP BETWEEN DEPTHS
NULL.                                                 -999.25 : NULL VALUE
PREV_API.                                        421093229700 : API NUMBER 
COMP.                              CHESAPEAKE OPERATING  INC. : COMPANY 
DATE.                                             17-JUN-2008 : LOG DATE
#___________________________________________________________________________________________________ 
~CURVE INFORMATION 
# MNEM.UNIT           : CURVE DESCRIPTION 
#-----.-----          : ----------------------------- 
 DEPT.FT               : MEASURED DEPTH 
 CALI.IN               : CALIPER (CAL - CAL) 
 GR.API                : GAMMA RAY (GR) 
 DT.US/FT              : SONIC DELTA TRANSIT TIME (DT) 
 RESS.OHMM             : SHALLOW INDUCTION RESISTIVITY (ILS - ILS) 
 RESD.OHMM             : DEEP INDUCTION RESISTIVITY (ILD - ILD) 
 DPHI.V/V              : DENSITY POROSITY (DPHI) 
 NPHI.V/V              : NEUTRON POROSITY (NPHI) 
 RHOB.G/CC             : BULK DENSITY (RHOB) 
 #___________________________________________________________________________________________________ 
~A         DEPT           CALI             GR             DT           RESS           RESD           DPHI           NPHI           RHOB
# ...
         7221.0         12.844         71.476         55.295        394.209        473.164        0.04803        0.00570         2.6400
         7221.5         12.830         66.047         54.358        492.774        595.228        0.04502        0.00129         2.6350
         7222.0         12.816         61.211         54.462        583.401        765.664        0.03772       -0.00311         2.6390
         7222.5         12.802         59.979         55.261        442.585        485.303        0.03120       -0.00537         2.6490
         7223.0         12.788         66.603         56.060        301.770        291.138        0.02553       -0.00212         2.6580
         7223.5         12.774         73.226         56.334        301.137        297.595        0.02446        0.00113         2.6680
         7224.0         12.760         75.482         56.493        326.310        391.936        0.02730        0.00439         2.6690
         7224.5         12.750         75.922         56.652        246.883        328.055        0.02861        0.00764         2.6670
         7225.0         12.752         76.716         57.017        279.369        277.324        0.02829        0.00803         2.6650
         7225.5         12.754         80.951         57.826        305.017        355.974        0.03022        0.00878         2.6630
         7226.0         12.757         90.070         58.310        227.353        264.374        0.03546        0.01450         2.6510
         7226.5         12.759         96.065         58.203        216.720        205.275        0.04232        0.02021         2.6360
         7227.0         12.761         93.370         58.096        311.821        337.881        0.04996        0.02089         2.6300
         7227.5         12.763         91.270         58.066        268.952        297.977        0.04902        0.01928         2.6330
         7228.0         12.768         91.426         58.508        226.082        258.073        0.04615        0.01784         2.6360
         7228.5         12.782         95.818         59.011        207.656        235.004        0.04279        0.01881         2.6400
         7229.0         12.795        101.699         58.967        220.255        246.009        0.03944        0.01979         2.6430
         7229.5         12.809        101.674         58.662        237.488        282.526        0.03975        0.02076         2.6420
         7230.0         12.823         97.589         57.388        298.481        337.963        0.04249        0.02174         2.6420
         7230.5         12.836         92.139         57.213        359.473        393.401        0.04622        0.01755         2.6410
         7231.0         12.850         86.689         57.691        368.338        393.115        0.05147        0.01461         2.6340
         7231.5         12.864         84.506         58.166        273.944        321.376        0.04997        0.01482         2.6300
         7232.0         12.877         85.730         58.628        185.592        263.709        0.04761        0.01982         2.6310
         7232.5         12.892         88.750         59.091        222.270        264.582        0.04650        0.02515         2.6330
         7233.0         12.907         91.770         59.525        220.834        264.739        0.04345        0.03049         2.6350
         7233.5         12.921         91.538         59.485        188.544        246.008        0.03948        0.03480         2.6370
         7234.0         12.936         89.506         58.804        237.951        270.112        0.03659        0.03816         2.6390
         7234.5         12.951         83.911         58.038        287.359        302.658        0.03375        0.03533         2.6460
         7235.0         12.966         78.315         57.507        336.766        350.528        0.03078        0.03234         2.6550
         7235.5         12.961         74.817         57.442        386.173        380.047        0.02782        0.02934         2.6630
         7236.0         12.929         75.605         57.272        337.070        342.278        0.03155        0.02635         2.6510
         7236.5         12.896         76.096         56.905        297.147        364.544        0.03543        0.02373         2.6480
         7237.0         12.864         75.666         56.913        357.339        341.167        0.03931        0.02166         2.6450
         7237.5         12.836         76.254         57.589        340.195        268.378        0.04239        0.01958         2.6420
         7238.0         12.821         81.288         58.350        286.979        193.511        0.04266        0.01751         2.6390
         7238.5         12.806         89.986         59.431        233.763        211.379        0.04347        0.01543         2.6390
         7239.0         12.792         98.662         60.887        183.875        172.860        0.04234        0.02485         2.6400
         7239.5         12.783        107.246         61.920        136.213         97.706        0.04424        0.03612         2.6400
         7240.0         12.790        115.831         62.589         88.551         91.385        0.04863        0.04739         2.6400
         7240.5         12.797        115.596         62.512         80.970         91.658        0.05303        0.05258         2.6300
         7241.0         12.803        110.252         59.933        137.565         94.474        0.05056        0.05202         2.6230
         7241.5         12.810         93.166         58.424        232.582        221.484        0.04130        0.03852         2.6320
         7242.0         12.817         76.331         57.750        327.599        335.598        0.03921        0.02124         2.6400
         7242.5         12.824         79.631         58.996        228.423        188.969        0.04657        0.01454         2.6280
         7243.0         12.831         91.958         60.853         96.535        101.975        0.05696        0.01155         2.6120
         7243.5         12.838        105.695         61.959        108.219         95.468        0.06481        0.01578         2.6100
         7244.0         12.860        112.644         61.426        132.423        124.051        0.06100        0.02855         2.6230
         7244.5         12.895        109.978         60.881        156.628        164.316        0.04258        0.04131         2.6360
         7245.0         12.930        111.513         61.335        180.833        175.876        0.03367        0.04563         2.6490
         7245.5         12.909        114.241         62.013        162.015        149.945        0.03202        0.04501         2.6540
         7246.0         12.886        116.071         62.207        173.828        169.071        0.03290        0.04445         2.6580
         7246.5         12.864        109.302         61.372        233.695        292.996        0.03580        0.04760         2.6570
         7247.0         12.841         94.782         60.177        293.561        355.551        0.03870        0.05075         2.6500
         7247.5         12.818         83.427         58.982        215.882        344.589        0.03972        0.04295         2.6440
         7248.0         12.798         84.328         58.036        322.014        338.150        0.03972        0.03462         2.6410
         7248.5         12.779         85.228         58.005        317.334        364.439        0.04276        0.02629         2.6400
         7249.0         12.759         86.129         58.750        248.027        296.202        0.04678        0.02212         2.6390
         7249.5         12.740         87.245         59.953        171.979        207.858        0.04862        0.02125         2.6360
         7250.0         12.726         91.139         61.429        164.703        200.503        0.04996        0.02255         2.6280
