###############################################
##         ENVERUS                           ##
##         ESS - Open Hole                   ##
##         PERMIAN / DELAWARE                ##
##         Nov 02 2023  V4.0                 ##
##         42-109-10429-00-00                ##
###############################################
## Copyright 2017-2023  ENVERUS.  All Rights Reserved. 
## Confidential - Property of ENVERUS, use governed by terms and 
## conditions found within the existing Information Services Subscription Agreement 
## (as may be amended, the “ISSA”) between Customer and ENVERUS. 
## 
~VERSION INFORMATION
# MNEM.UNIT                               DATA : DESCRIPTION OF MNEMONIC
#-----.-----     ----------------------------- : -----------------------------
VERS.                                     2.00 : CWLS LOG ASCII STANDARD - VERSION 2.00
WRAP.                                       NO : MULTIPLE LINES PER DEPTH STEP
VEND.                                  ENVERUS : VENDOR
TYPE.                          ESS - OPEN HOLE : ENVERUS ESSENTIAL CURVES – ACCESSIBLE THROUGH ENVERUS PRISM(TM)
DOC.                                  32032754 : ENVERUS HEADER RAW DOCUMENT ID
#___________________________________________________________________________________________________ 
~WELL INFORMATION 
# hXqYWT5FmhW7UEcPXxReyvN++rqgSwBrBdup88XCyeQNQmx1Fo1vv7xYmZNr9HC+TZh0ltY2ePdKOSE9Z1hlZw== 
# MNEM.UNIT                                              DATA : DESCRIPTION OF MNEMONIC 
#-----.-----                    ----------------------------- : ----------------------------- 
CNTY.                                               CULBERSON : COUNTY 
STATE.                                                  TEXAS : STATE 
CNTRY.                                                    USA : COUNTRY 
API.                                             42-109-10429 : API (10 Digit) 
API_14.                                    42-109-10429-00-00 : API (14 Digits) 
API_14_std.                                 42-109-10429-0000 : API (14 Digits Standard) 
UWI.                                           42109104290000 : UNIQUE WELL ID 
WELL.                                          ROUNSAVILLE  1 : WELL NAME
STRT.FT                                                     0 : START DEPTH
STOP.FT                                                8409.0 : STOP DEPTH
STEP.FT                                                   0.5 : STEP BETWEEN DEPTHS
NULL.                                                 -999.25 : NULL VALUE
COMP.                                     EOG RESOURCES  INC. : COMPANY
#___________________________________________________________________________________________________ 
~CURVE INFORMATION 
# MNEM.UNIT           : CURVE DESCRIPTION 
#-----.-----          : ----------------------------- 
 DEPT.FT               : MEASURED DEPTH 
 CALI.IN               : CALIPER (CAL - CAL) 
 GR.API                : GAMMA RAY (GR) 
 SP.MV                 : SPONTANEOUS POTENTIAL (SP) 
 DT.US/FT              : SONIC DELTA TRANSIT TIME (DT) 
 RESD.OHMM             : DEEP INDUCTION RESISTIVITY (ILD - ILD) 
 #___________________________________________________________________________________________________ 
~A         DEPT           CALI             GR             SP             DT           RESD
# ...
         1452.0         13.387         35.458          8.423         69.475        326.415
         1452.5         13.262         42.059          8.308         68.212        318.876
         1453.0         13.195         41.945          8.193         66.949        306.219
         1453.5         13.291         41.563          8.078         66.417        293.562
         1454.0         13.388         40.411          7.996         66.918        280.858
         1454.5         13.475         39.259          8.000         69.331        267.819
         1455.0         13.496         38.050          8.005         71.744        254.780
         1455.5         13.517         32.471          8.009         73.473        241.741
         1456.0         13.538         26.892          8.013         74.217        228.702
         1456.5         13.558         21.528          8.017         74.449        215.664
         1457.0         13.577         19.094          8.192         73.226        202.625
         1457.5         13.597         16.715          8.393         72.003        189.586
         1458.0         13.617         17.201          8.594         72.384        189.219
         1458.5         13.625         17.687          8.795         73.276        189.264
         1459.0         13.625         18.157          8.996         74.168        189.308
         1459.5         13.625         17.472          9.142         75.060        189.353
         1460.0         13.625         16.788          9.256         75.129        189.398
         1460.5         13.625         16.639          9.371         74.926        189.443
         1461.0         13.625         16.864          9.670         74.724        189.488
         1461.5         13.626         17.089         10.141         74.521        189.533
         1462.0         13.644         17.314         10.611         74.318        187.183
         1462.5         13.662         17.540         11.082         73.940        183.520
         1463.0         13.681         17.765         11.553         73.463        179.857
         1463.5         13.699         17.990         12.024         72.985        176.193
         1464.0         13.694         18.832         12.448         72.508        172.530
         1464.5         13.685         22.833         12.569         72.031        168.867
         1465.0         13.677         24.909         12.112         72.256        165.204
         1465.5         13.740         25.720         11.656         72.481        161.541
         1466.0         13.806         24.779         11.200         72.706        157.877
         1466.5         13.833         23.416         10.743         72.038        157.564
         1467.0         13.768         22.054         10.287         70.912        158.052
         1467.5         13.703         20.691          9.830         69.929        158.541
         1468.0         13.677         20.021          9.374         69.744        159.029
         1468.5         13.677         19.946          8.917         69.559        159.780
         1469.0         13.677         19.871          8.461         69.373        160.675
         1469.5         13.677         19.796          8.551         69.188        161.569
         1470.0         13.677         19.721          8.942         69.002        162.464
         1470.5         13.677         19.646          9.334         68.817        163.358
         1471.0         13.677         19.571          9.726         68.632        164.253
         1471.5         13.677         19.497         10.118         68.746        165.148
         1472.0         13.678         19.422         10.510         68.944        166.042
         1472.5         13.678         19.347         10.902         69.143        166.937
         1473.0         13.678         19.272         11.236         69.342        165.761
         1473.5         13.678         19.197         11.150         69.488        163.173
         1474.0         13.678         19.122         11.063         69.588        160.584
         1474.5         13.698         19.047         10.977         69.688        157.995
         1475.0         13.741         19.186         10.843         69.788        155.407
         1475.5         13.784         19.360         10.623         69.888        152.818
         1476.0         13.828         19.534         10.403         70.893        150.229
         1476.5         13.871         19.708         10.183         72.075        148.896
         1477.0         13.915         19.962          9.963         73.257        148.933
         1477.5         13.880         22.066         10.120         73.265        148.970
         1478.0         13.800         24.170         10.395         73.131        149.204
         1478.5         13.745         26.275         10.669         71.490        153.139
         1479.0         13.722         27.960         10.944         69.430        157.073
         1479.5         13.699         27.568         11.219         68.610        161.008
         1480.0         13.677         24.611         11.494         68.890        164.942
         1480.5         13.654         21.654         11.769         70.103        168.876
         1481.0         13.632         19.500         12.044         70.876        172.811
         1481.5         13.609         18.543         12.319         70.504        176.745
         1482.0         13.586         17.586         12.593         69.205        180.680
         1482.5         13.564         17.164         12.581         67.907        184.959
         1483.0         13.541         17.685         12.389         67.335        189.571
         1483.5         13.536         18.206         12.197         67.097        194.183
         1484.0         13.554         18.634         12.005         66.858        198.795
         1484.5         13.573         18.576         11.814         66.620        203.407
         1485.0         13.591         18.518         11.786         66.381        208.019
         1485.5         13.592         18.460         12.036         66.143        212.632
         1486.0         13.551         18.402         12.287         65.904        217.244
         1486.5         13.510         18.344         12.537         65.931        221.856
         1487.0         13.469         18.286         12.787         66.036        226.468
         1487.5         13.458         18.164         13.037         66.141        228.436
         1488.0         13.466         17.569         13.287         66.247        230.379
         1488.5         13.474         16.974         13.537         66.352        232.322
         1489.0         13.481         16.378         13.787         66.457        234.266
         1489.5         13.489         16.127         14.037         66.563        236.209
         1490.0         13.497         16.752         14.287         66.841        238.152
         1490.5         13.505         17.067         14.105         67.811        240.096
         1491.0         13.513         16.587         13.874         68.780        231.729
         1491.5         13.521         16.107         13.644         69.750        217.908
         1492.0         13.529         15.926         13.414         70.719        204.087
         1492.5         13.514         16.620         13.184         71.689        190.267
         1493.0         13.496         17.314         12.954         72.658        176.446
         1493.5         13.478         17.039         12.723         73.691        167.851
         1494.0         13.460         17.530         12.493         74.815        165.282
         1494.5         13.442         19.196         12.263         74.791        162.713
         1495.0         13.424         20.862         12.200         74.582        160.143
         1495.5         13.406         22.727         12.395         73.311        157.574
