~Version Information
 VERS.                  2.0:   CWLS log ASCII Standard -VERSION 2.0
 WRAP.                   NO:   One line per depth step
~Well Information Block
#MNEM.UNIT     VALUE/NAME     DESCRIPTION
#---------     -----------    ---------------------------
 STRT.F              8683.0000: START DEPTH
 STOP.F             14089.5000: STOP DEPTH
 STEP.F                 0.5000: STEP DEPTH
 NULL.                 -999.25: NULL VALUE
 LOC .       API  42-109-32906:  LOCATION
 FL1 .       API  42-109-32906:  LOCATIONLINE1
 DMF .                      KB:  DRILL MEAS FROM
 PDAT.                      GL:  PERMANENT DATUM
 PROV.                   TEXAS:  PROVINCE
 STAT.                   TEXAS:  STATE NAME
 CNTY.               CULBERSON:  COUNTY NAME
 LUL .                  ODESSA:  LOGGINGUNITLOC
 FLD .     FORD, WEST (WOLFCAMP):  FIELD NAME
 WELL.     SHELLY FEE 40 No. 2H:  WELL NAME
 COMP.     CAPITAN ENERGY, INC.:  COMPANY
 DATE.             08-Jun-2018:  DATE
 SVCO.             Halliburton:  SERVICECONAME
 HIDE.                        :  WELLNAMEOPERAT
 BASI.                   BACIA:  BASIN
 UWI .            42-109-32906Lat:  UNIQUE WELL IDENTIFIER
 API .            42-109-32906Lat:  API NUMBER
 RANG.                     N/A:  RANGE
 TOWN.                     N/A:  TOWNSHIP
 SECT.                     N/A:  SECTION
 SON .               902848974:  JOB NUMBER
 CTRY.                        :  COUNTRY
 SRVC.             Halliburton:  SERVICE COMPANY
 LMF .                      KB:  LOG MEASURED FROM
 BAP .ft                0.0000:  GL ELEV ONSHORE
 GVFD.g                 1.0000:  GRAVITY FIELD
~Curve Information Block
#MNEM.UNIT                 API CODE     Curve Description
#---------               -----------    ---------------------------
 DEPT.F                 00 000 000 000:  Depth
 CCL .mV                00 000 000 000:  Casing Collar Locator
 DTC_CHI.uspf           00 000 000 000:  DTC_CHI
 DTC_OH.uspf            00 000 000 000:  DTC_OH
 GR_CHI.api             00 000 000 000:  GR_CHI
 GR_OH.api              00 000 000 000:  GR_OH
 LLD_CHI.ohmm           00 000 000 000:  LLD_CHI
 LLD_OH.ohmm            00 000 000 000:  LLD_OH
 LLS_CHI.ohmm           00 000 000 000:  LLS_CHI
 LLS_OH.ohmm            00 000 000 000:  LLS_OH
 MSFL_CHI.ohmm          00 000 000 000:  MSFL_CHI
 MSFL_OH.ohmm           00 000 000 000:  MSFL_OH
 NPHI_CHI.pu            00 000 000 000:  NPHI_CHI
 NPHI_OH.pu             00 000 000 000:  NPHI_OH
 PE_CHI.b/e             00 000 000 000:  PE_CHI
 PE_OH.NONE             00 000 000 000:  Pe_OH
 RHOB_CHI.g/cc          00 000 000 000:  RHOB_CHI
 RHOB_OH.g/cc           00 000 000 000:  RHOB_OH
 SPHI_CHI.pu            00 000 000 000:  SPHI_CHI
#Other Information
#
#WARRANTY: Halliburton will use its best efforts to furnish customers with 
#accurate information and interpretations that are part of, and incident to, the services 
#provided.  However, Halliburton cannot and does not warrant the accuracy 
#or correctness of such information and interpretations.  Under no circumstances should any 
#such information or interpretation be relied upon as the sole basis for any drilling, 
#completion, production, or financial decision or any procedure involving any risk to the 
#safety of any drilling venture, drilling rig or its crew or any other third party.  The 
#Customer has full responsibility for all drilling, completion and production operation.  
#Halliburton makes no representations or warranties, either expressed or 
#implied, including, but not limited to, the implied warranties of merchantability or fitness 
#for a particular purpose, with respect to the services rendered.  In no event will 
#Halliburton be liable for failure to obtain any particular results or for 
#any damages, including, but not limited to, indirect, special or consequential damages, 
#resulting from the use of any information or interpretation provided by Halliburton.
#
~A    DEPT       CCL    DTC_CHI DTC_OH   GR_CHI   GR_OH   LLD_CHI   LLD_OH   LLS_CHI   LLS_OH   MSFL_CHI  MSFL_OH     NPHI_CHI   NPHI_OH   PE_CHI    PE_OH   RHOB_CHI  RHOB_OH SPHI_CHI 
# ...
    9761.0000    0.0000 66.0253 -999.25  87.4149  -999.25  57.3410   -999.25  51.1939   -999.25  28.1632    -999.25      12.2414 -999.25     3.3444 -999.25     2.5841 -999.25 13.0300
    9761.5000   53.6031 65.5611 -999.25  84.3438  -999.25  50.5119   -999.25  44.2620   -999.25  25.3432    -999.25      12.2581 -999.25     3.2382 -999.25     2.5886 -999.25 12.7000
    9762.0000    0.0000 65.9166 -999.25  95.9307  -999.25  44.9995   -999.25  38.7321   -999.25  22.8673    -999.25      13.1772 -999.25     3.0928 -999.25     2.5741 -999.25 12.9500
    9762.5000    0.0000 66.0374 -999.25  91.3922  -999.25  42.2405   -999.25  36.3325   -999.25  21.7985    -999.25      13.6511 -999.25     3.0493 -999.25     2.5726 -999.25 13.0400
    9763.0000    0.0000 66.7785 -999.25  91.5290  -999.25  41.9369   -999.25  36.4342   -999.25  21.7418    -999.25      14.5635 -999.25     3.0329 -999.25     2.5617 -999.25 13.5600
    9763.5000  -69.2228 67.6260 -999.25  97.1334  -999.25  40.9252   -999.25  35.8391   -999.25  21.0716    -999.25      15.1869 -999.25     2.9874 -999.25     2.5466 -999.25 14.1600
    9764.0000  -23.7784 67.7334 -999.25  93.8835  -999.25  38.5871   -999.25  33.9682   -999.25  19.9072    -999.25      14.9625 -999.25     2.9614 -999.25     2.5467 -999.25 14.2400
    9764.5000  -14.0881 68.4693 -999.25  97.8272  -999.25  36.5603   -999.25  32.5480   -999.25  18.7028    -999.25      15.1267 -999.25     2.9119 -999.25     2.5341 -999.25 14.7600
    9765.0000   17.3485 68.7943 -999.25  91.7930  -999.25  35.7670   -999.25  32.3337   -999.25  18.3047    -999.25      15.0588 -999.25     2.9310 -999.25     2.5338 -999.25 14.9900
    9765.5000    0.0000 69.2874 -999.25  92.2624  -999.25  34.7645   -999.25  31.7309   -999.25  17.7641    -999.25      15.3068 -999.25     2.9203 -999.25     2.5274 -999.25 15.3400
    9766.0000  -20.0357 69.6193 -999.25  94.6909  -999.25  33.9108   -999.25  31.0249   -999.25  17.3485    -999.25      15.6407 -999.25     2.9026 -999.25     2.5219 -999.25 15.5700
    9766.5000    0.0000 69.8080 -999.25  95.4093  -999.25  33.3474   -999.25  30.5436   -999.25  17.1135    -999.25      15.9045 -999.25     2.8971 -999.25     2.5196 -999.25 15.7100
    9767.0000   50.6329 69.7761 -999.25  96.8202  -999.25  32.8293   -999.25  29.9393   -999.25  16.8998    -999.25      15.9942 -999.25     2.8818 -999.25     2.5192 -999.25 15.6800
    9767.5000    0.0000 69.9757 -999.25 102.5750  -999.25  33.6604   -999.25  30.5660   -999.25  17.2491    -999.25      16.3952 -999.25     2.8710 -999.25     2.5131 -999.25 15.8200
    9768.0000    0.0000 70.0256 -999.25  99.5368  -999.25  34.6643   -999.25  31.6020   -999.25  17.7981    -999.25      16.5761 -999.25     2.9087 -999.25     2.5156 -999.25 15.8600
    9768.5000  -43.4211 70.1183 -999.25 100.9579  -999.25  35.3206   -999.25  32.1962   -999.25  18.0953    -999.25      16.7382 -999.25     2.9147 -999.25     2.5137 -999.25 15.9300
    9769.0000    0.0000 70.0958 -999.25 102.4490  -999.25  34.6185   -999.25  31.5030   -999.25  17.7192    -999.25      16.6203 -999.25     2.8925 -999.25     2.5124 -999.25 15.9100
    9769.5000  -33.1203 69.5935 -999.25  95.4389  -999.25  33.4822   -999.25  30.4410   -999.25  17.2773    -999.25      15.9960 -999.25     2.8974 -999.25     2.5227 -999.25 15.5500
    9770.0000    0.0000 69.7171 -999.25 104.8483  -999.25  32.9495   -999.25  29.6675   -999.25  16.8972    -999.25      16.1575 -999.25     2.8389 -999.25     2.5140 -999.25 15.6400
    9770.5000    0.0000 69.2917 -999.25  98.0368  -999.25  32.8531   -999.25  29.5777   -999.25  16.9607    -999.25      15.7353 -999.25     2.8639 -999.25     2.5239 -999.25 15.3400
    9771.0000   17.4499 68.7829 -999.25  91.7602  -999.25  34.1576   -999.25  30.6801   -999.25  17.7127    -999.25      15.4177 -999.25     2.9100 -999.25     2.5347 -999.25 14.9800
    9771.5000    0.0000 68.4696 -999.25  89.3542  -999.25  35.0667   -999.25  31.4010   -999.25  18.2121    -999.25      15.2457 -999.25     2.9329 -999.25     2.5403 -999.25 14.7600
    9772.0000  -13.3846 68.5799 -999.25  91.4891  -999.25  35.9150   -999.25  32.1522   -999.25  18.6023    -999.25      15.4561 -999.25     2.9381 -999.25     2.5377 -999.25 14.8400
    9772.5000    0.0000 69.1427 -999.25  99.1258  -999.25  35.4232   -999.25  31.7473   -999.25  18.2298    -999.25      15.9506 -999.25     2.8997 -999.25     2.5256 -999.25 15.2400
    9773.0000    0.0000 70.0026 -999.25 108.2030  -999.25  35.5130   -999.25  31.9373   -999.25  18.1354    -999.25      16.8494 -999.25     2.8741 -999.25     2.5097 -999.25 15.8400
    9773.5000    0.0000 70.0210 -999.25 102.1885  -999.25  35.0976   -999.25  31.8008   -999.25  18.0355    -999.25      16.8171 -999.25     2.9032 -999.25     2.5143 -999.25 15.8600
    9774.0000    0.0000 70.0472 -999.25  97.5094  -999.25  35.7178   -999.25  32.6009   -999.25  18.3845    -999.25      16.8025 -999.25     2.9419 -999.25     2.5178 -999.25 15.8700
    9774.5000  -19.0844 70.0408 -999.25  93.9955  -999.25  37.0187   -999.25  34.0364   -999.25  18.9950    -999.25      16.6895 -999.25     2.9808 -999.25     2.5204 -999.25 15.8700
    9775.0000  -16.4810 70.1159 -999.25  94.0117  -999.25  37.6562   -999.25  34.7406   -999.25  19.2472    -999.25      16.6756 -999.25     2.9910 -999.25     2.5193 -999.25 15.9200
    9775.5000    0.0000 70.4509 -999.25  99.4470  -999.25  38.9283   -999.25  35.9385   -999.25  19.7357    -999.25      17.0408 -999.25     2.9894 -999.25     2.5117 -999.25 16.1600
    9776.0000   12.9962 70.4504 -999.25  98.1238  -999.25  39.6365   -999.25  36.6610   -999.25  20.0950    -999.25      17.0794 -999.25     3.0086 -999.25     2.5129 -999.25 16.1600
    9776.5000    0.0000 70.0259 -999.25  92.2786  -999.25  39.1657   -999.25  36.1243   -999.25  20.0435    -999.25      16.7858 -999.25     3.0247 -999.25     2.5223 -999.25 15.8600
    9777.0000    0.0000 69.9012 -999.25  93.3600  -999.25  39.3955   -999.25  36.2174   -999.25  20.1365    -999.25      16.6866 -999.25     3.0172 -999.25     2.5226 -999.25 15.7700
    9777.5000    0.0000 69.7422 -999.25  96.9405  -999.25  38.2975   -999.25  34.9289   -999.25  19.5617    -999.25      16.5051 -999.25     2.9733 -999.25     2.5211 -999.25 15.6600
    9778.0000  -81.0670 68.9374 -999.25  90.5419  -999.25  36.9793   -999.25  33.4901   -999.25  19.0221    -999.25      15.5827 -999.25     2.9652 -999.25     2.5341 -999.25 15.0900
    9778.5000    0.0000 68.8755 -999.25  94.8365  -999.25  35.6221   -999.25  32.0208   -999.25  18.3160    -999.25      15.4793 -999.25     2.9181 -999.25     2.5313 -999.25 15.0500
    9779.0000  -13.4917 68.7213 -999.25  97.5309  -999.25  35.6066   -999.25  31.8155   -999.25  18.2680    -999.25      15.3455 -999.25     2.9009 -999.25     2.5311 -999.25 14.9400
    9779.5000  -11.1299 68.5503 -999.25  99.7678  -999.25  37.4956   -999.25  33.4363   -999.25  19.0599    -999.25      15.1209 -999.25     2.9187 -999.25     2.5318 -999.25 14.8200
    9780.0000    0.0000 68.5527 -999.25 101.8029  -999.25  39.3997   -999.25  35.1911   -999.25  19.8476    -999.25      15.0422 -999.25     2.9412 -999.25     2.5308 -999.25 14.8200
    9780.5000   34.9547 67.9390 -999.25  90.7053  -999.25  40.4663   -999.25  36.2481   -999.25  20.5047    -999.25      14.4063 -999.25     3.0045 -999.25     2.5460 -999.25 14.3800
    9781.0000    0.0000 68.2058 -999.25  97.3104  -999.25  43.0166   -999.25  38.6152   -999.25  21.5167    -999.25      14.6266 -999.25     3.0197 -999.25     2.5390 -999.25 14.5700
    9781.5000  -15.7255 68.0999 -999.25  91.3475  -999.25  44.3713   -999.25  40.1204   -999.25  22.1866    -999.25      14.4333 -999.25     3.0657 -999.25     2.5443 -999.25 14.5000
    9782.0000    0.0000 67.7493 -999.25  83.6750  -999.25  45.9441   -999.25  41.7114   -999.25  23.0172    -999.25      14.0648 -999.25     3.1224 -999.25     2.5539 -999.25 14.2500
    9782.5000    0.0000 68.4438 -999.25  96.4864  -999.25  46.4504   -999.25  42.1423   -999.25  23.0767    -999.25      14.8698 -999.25     3.0814 -999.25     2.5371 -999.25 14.7400
