###############################################
##         ENVERUS                           ##
##         ESS - Open Hole                   ##
##         PERMIAN / DELAWARE                ##
##         Nov 02 2023  V4.0                 ##
##         42-109-30915-00-00                ##
###############################################
## Copyright 2017-2023  ENVERUS.  All Rights Reserved. 
## Confidential - Property of ENVERUS, use governed by terms and 
## conditions found within the existing Information Services Subscription Agreement 
## (as may be amended, the “ISSA”) between Customer and ENVERUS. 
## 
~VERSION INFORMATION
# MNEM.UNIT                               DATA : DESCRIPTION OF MNEMONIC
#-----.-----     ----------------------------- : -----------------------------
VERS.                                     2.00 : CWLS LOG ASCII STANDARD - VERSION 2.00
WRAP.                                       NO : MULTIPLE LINES PER DEPTH STEP
VEND.                                  ENVERUS : VENDOR
TYPE.                          ESS - OPEN HOLE : ENVERUS ESSENTIAL CURVES – ACCESSIBLE THROUGH ENVERUS PRISM(TM)
DOC.                                  32305988 : ENVERUS HEADER RAW DOCUMENT ID
#___________________________________________________________________________________________________ 
~WELL INFORMATION 
# YiEbrulvYUtXh1D3opxUtnvhUVpPAvxlEBgV2kjbCTHvWrxGcz1+vOa1jEIuqGtoxi0rQ+ZQV9RU/rHAPCAAKQ== 
# MNEM.UNIT                                              DATA : DESCRIPTION OF MNEMONIC 
#-----.-----                    ----------------------------- : ----------------------------- 
CNTY.                                               CULBERSON : COUNTY 
STATE.                                                  TEXAS : STATE 
CNTRY.                                                    USA : COUNTRY 
API.                                             42-109-30915 : API (10 Digit) 
API_14.                                    42-109-30915-00-00 : API (14 Digits) 
API_14_std.                                 42-109-30915-0000 : API (14 Digits Standard) 
UWI.                                           42109309150000 : UNIQUE WELL ID 
WELL.                             VELMA CASEY ROUNSAVILLE A 1 : WELL NAME
STRT.FT                                                  82.0 : START DEPTH
STOP.FT                                               11225.0 : STOP DEPTH
STEP.FT                                                   0.5 : STEP BETWEEN DEPTHS
NULL.                                                 -999.25 : NULL VALUE
#___________________________________________________________________________________________________ 
~CURVE INFORMATION 
# MNEM.UNIT           : CURVE DESCRIPTION 
#-----.-----          : ----------------------------- 
 DEPT.FT               : MEASURED DEPTH 
 CALI.IN               : CALIPER (CAL - CAL) 
 GR.API                : GAMMA RAY (GR) 
 DT.US/FT              : SONIC DELTA TRANSIT TIME (DT) 
 NPHI.V/V              : NEUTRON POROSITY (NPHI) 
 RHOB.G/CC             : BULK DENSITY (RHOB) 
 #___________________________________________________________________________________________________ 
~A         DEPT           CALI             GR             DT           NPHI           RHOB
# ...
        10950.0          7.515        119.192         58.260        0.15171         2.7840
        10950.5          7.516        109.183         60.125        0.15745         2.7670
        10951.0          7.516        106.822         62.916        0.15941         2.7500
        10951.5          7.517        114.409         65.708        0.15698         2.7331
        10952.0          7.517        121.997         68.292        0.15455         2.7161
        10952.5          7.518        127.143         68.520        0.15211         2.6991
        10953.0          7.518        128.148         68.747        0.14968         2.6821
        10953.5          7.519        126.301         68.975        0.15121         2.6754
        10954.0          7.519        122.330         69.302        0.15354         2.6721
        10954.5          7.520        120.826         69.798        0.15587         2.6688
        10955.0          7.520        119.323         70.294        0.15820         2.6656
        10955.5          7.520        117.820         70.634        0.15912         2.6623
        10956.0          7.521        116.317         69.128        0.15269         2.6602
        10956.5          7.521        112.962         67.621        0.14625         2.6706
        10957.0          7.521        102.399         66.115        0.13982         2.6811
        10957.5          7.521         95.344         66.037        0.13364         2.6915
        10958.0          7.522         97.768         66.632        0.13069         2.7019
        10958.5          7.522        100.191         67.227        0.12773         2.7123
        10959.0          7.522        100.337         66.666        0.12478         2.7228
        10959.5          7.523         95.654         65.887        0.12183         2.6978
        10960.0          7.523         97.544         65.108        0.11888         2.6716
        10960.5          7.523         99.434         64.329        0.11801         2.6454
        10961.0          7.524        101.324         64.390        0.12005         2.6192
        10961.5          7.524        103.214         65.533        0.12209         2.6122
        10962.0          7.524        103.456         66.675        0.12413         2.6102
        10962.5          7.524        102.265         67.817        0.12617         2.6138
        10963.0          7.525        101.073         68.965        0.12821         2.6194
        10963.5          7.525         99.882         68.993        0.13025         2.6250
        10964.0          7.525         98.691         67.928        0.13229         2.6307
        10964.5          7.526         95.490         66.863        0.13433         2.6363
        10965.0          7.526         90.372         65.798        0.13104         2.6419
        10965.5          7.526         89.785         65.070        0.12417         2.6475
        10966.0          7.527         92.125         65.566        0.11779         2.6525
        10966.5          7.527         94.466         66.062        0.12158         2.6466
        10967.0          7.527         96.806         66.558        0.12537         2.6407
        10967.5          7.528         99.147         67.053        0.12916         2.6347
        10968.0          7.528        101.487         67.549        0.13269         2.6288
        10968.5          7.528        103.828         68.045        0.13584         2.6229
        10969.0          7.528        102.983         67.965        0.13900         2.6170
        10969.5          7.529        101.182         67.547        0.14215         2.6111
        10970.0          7.529         99.381         67.129        0.14531         2.6051
        10970.5          7.529        101.880         68.564        0.14846         2.5992
        10971.0          7.530        106.970         70.117        0.15260         2.5933
        10971.5          7.530        144.183         71.671        0.16152         2.5874
        10972.0          7.530        145.541         73.225        0.17045         2.5886
        10972.5          7.531        146.898         74.295        0.17568         2.5926
        10973.0          7.531        148.256         74.774        0.17787         2.5966
        10973.5          7.531        149.614         75.252        0.18006         2.5954
        10974.0          7.532        150.971         75.731        0.18225         2.5912
        10974.5          7.532        150.234         76.210        0.18021         2.5871
        10975.0          7.532        148.302         76.082        0.17777         2.5829
        10975.5          7.532        146.369         75.752        0.17534         2.5788
        10976.0          7.533        144.437         75.421        0.17291         2.5747
        10976.5          7.533        142.504         75.090        0.17048         2.5705
        10977.0          7.533        140.572         74.759        0.16805         2.5664
        10977.5          7.534        138.639         74.429        0.16561         2.5685
        10978.0          7.534        136.707         74.098        0.16582         2.5796
        10978.5          7.534        134.775         73.767        0.16709         2.5907
        10979.0          7.535        132.842         73.437        0.16836         2.6018
        10979.5          7.535        130.910         73.106        0.16963         2.6059
        10980.0          7.535        128.977         73.020        0.17091         2.5959
        10980.5          7.535        127.045         73.323        0.17218         2.5860
        10981.0          7.536        125.112         73.103        0.17345         2.5760
        10981.5          7.536        119.614         72.412        0.17472         2.5660
        10982.0          7.536        113.200         71.721        0.17599         2.5887
        10982.5          7.537        107.966         71.031        0.17727         2.6269
        10983.0          7.537        106.322         70.340        0.17854         2.6651
        10983.5          7.537        104.677         69.649        0.17619         2.6973
        10984.0          7.538        103.033         68.958        0.17315         2.7005
        10984.5          7.538        101.388         67.939        0.17010         2.7037
        10985.0          7.538        102.789         66.516        0.16706         2.6962
        10985.5          7.539        104.743         66.015        0.16382         2.6818
        10986.0          7.539        106.696         67.527        0.16051         2.6673
        10986.5          7.539        108.649         69.039        0.15720         2.6529
        10987.0          7.539        110.602         70.551        0.15389         2.6444
        10987.5          7.540        108.693         71.050        0.15058         2.6428
        10988.0          7.540        106.198         69.528        0.14727         2.6413
        10988.5          7.540        103.702         68.006        0.14378         2.6397
        10989.0          7.541        101.444         66.484        0.13660         2.6381
        10989.5          7.541         99.278         64.962        0.12942         2.6502
        10990.0          7.541         97.113         64.444        0.12224         2.6650
        10990.5          7.542         94.947         67.151        0.11506         2.6798
        10991.0          7.542         92.879         67.262        0.11218         2.6945
        10991.5          7.542         90.816         65.900        0.11456         2.7093
        10992.0          7.543         88.754         64.537        0.11693         2.7241
        10992.5          7.543         86.691         63.876        0.11930         2.7388
        10993.0          7.543         84.629         65.800        0.12167         2.7297
        10993.5          7.543         86.223         67.724        0.12405         2.7112
