~Version Information
 VERS.                  2.0:   CWLS log ASCII Standard -VERSION 2.0
 WRAP.                   NO:   One line per depth step
~Well Information Block
#MNEM.UNIT     VALUE/NAME     DESCRIPTION
#---------     -----------    ---------------------------
 STRT.F              8580.0000: START DEPTH
 STOP.F             14491.0000: STOP DEPTH
 STEP.F                 0.5000: STEP DEPTH
 NULL.               -999.2500: NULL VALUE
 LOC .     1072' FWL & 424' FNL:  LOCATION
 FL2 .     A2085 SEC 12 BLK 113:  LOCATIONLINE2
 FL1 .     1072' FWL & 424' FNL:  LOCATIONLINE1
 CNTY.               CULBERSON:  COUNTY NAME
 FLD .              WOLFCAMP B:  FIELD NAME
 WELL.           DALE STATE 2H:  WELL NAME
 COMP.     CAPITAN ENERGY INC.:  COMPANY
 DMF .                      KB:  DRILL MEAS FROM
 PDAT.                      GL:  PERMANENT DATUM
 DATE.             11-Feb-2020:  DATE
 SVCO.             Halliburton:  SERVICECONAME
 PROV.                      TX:  PROVINCE
 STAT.                      TX:  STATE NAME
 CTRY.                     USA:  COUNTRY NAME
 HIDE.                        :  WELLNAMEOPERAT
 UWI .            42-109-33544:  UNIQUE WELL IDENTIFIER
 API .            42-109-33544:  API NUMBER
 RANG.                     N/A:  RANGE
 TOWN.                     N/A:  TOWNSHIP
 SECT.                     N/A:  SECTION
 SON .               906290231:  JOB NUMBER
 SRVC.             Halliburton:  SERVICE COMPANY
 LMF .                      KB:  LOG MEASURED FROM
 TVDS.ft           3291.000000:  TVDSS CORRECTN
 EGL .ft           3266.000000:  GROUND ELEVATION
 APD .ft             25.000000:  DEPTH ABOVE PD
 EPD .ft           3266.000000:  ELEVATION
 BAP .ft              0.000000:  GL ELEV ONSHORE
 GVFD.g               1.000000:  GRAVITY FIELD
 EKB .ft           3291.000000:  KB ELEVATION
 EDF .ft           3291.000000:  DF ELEVATION
~Parameter Information Block
#MNEM.UNIT       Value        Description
#---------     -----------    ---------------------------
 BARI.                     OFF:  BARITE CORR 
 BRMP.                      No:  BromidePresent 
 CSF5.        Conductor Casing:  Casing Func5 
 CSF6.        Conductor Casing:  Casing Func6 
 DATE.               07-Feb-20:  Run Date 
 DCS .               07-Feb-20:  DateCircEndT 
 DLAB.               07-Feb-20:  LogStartDateT 
 ENGI.                John Doe:  Engineer Name 
 LSRV.             OH WIRELINE:  NameOfService 
 LSTM.ucts  09.26.51 07-Feb-20:  Log Start Time 
 LTYP.                     RAW:  LogDataType 
 LUL .                  ODESSA:  LoggingUnitLoc 
 LUN .                12100315:  LoggingUnitNum 
 SCT1.               07-Feb-20:  StartDateRun1 
 TCS .                   09 26:  Time Ciculation Ended 
 TDCE.ucts  09.26.51 07-Feb-20:  Time Circ End 
 TLAB.                   09 26:  LogStartTimeT 
~Curve Information Block
#MNEM.UNIT                 API CODE     Curve Description
#---------               -----------    ---------------------------
 DEPT.F                 00 000 000 000:  Depth
 CCL .V                 00 000 000 000:  Casing Collar Locator
 NPHI_OH.pu             00 000 000 000:  NPHI_OH
 NPHI_CHI.decp          00 000 000 000:  NPHI_CHI
 GR  .api               00 000 000 000:  Gamma API
 GR_CHI.api             00 000 000 000:  GR_CHI
 RHOB_OH.g/cc           00 000 000 000:  RHOB_OH
 RHOB_CHI.g/cc          00 000 000 000:  RHOB_CHI
 PE_OH.b/e              00 000 000 000:  PE_OH
 PE_CHI.b/e             00 000 000 000:  PE_CHI
 LLS_CHI.ohmm           00 000 000 000:  LLS_CHI
 LLS_OH.ohmm            00 000 000 000:  LLS_OH
 LLD_OH.ohmm            00 000 000 000:  LLD_OH
 LLD_CHI.ohmm           00 000 000 000:  LLD_CHI
 DTC_OH.uspf            00 000 000 000:  DTC_OH
 DTC_CHI.uspf           00 000 000 000:  DTC_CHI
 SPHW_CHI.decp          00 000 000 000:  SPHW_CHI
#Other Information
#
#WARRANTY: Halliburton will use its best efforts to furnish customers with 
#accurate information and interpretations that are part of, and incident to, the services 
#provided.  However, Halliburton cannot and does not warrant the accuracy 
#or correctness of such information and interpretations.  Under no circumstances should any 
#such information or interpretation be relied upon as the sole basis for any drilling, 
#completion, production, or financial decision or any procedure involving any risk to the 
#safety of any drilling venture, drilling rig or its crew or any other third party.  The 
#Customer has full responsibility for all drilling, completion and production operation.  
#Halliburton makes no representations or warranties, either expressed or 
#implied, including, but not limited to, the implied warranties of merchantability or fitness 
#for a particular purpose, with respect to the services rendered.  In no event will 
#Halliburton be liable for failure to obtain any particular results or for 
#any damages, including, but not limited to, indirect, special or consequential damages, 
#resulting from the use of any information or interpretation provided by Halliburton.
#
~A    DEPT       CCL     NPHI_OH  NPHI_CHI    GR      GR_CHI   RHOB_OH  RHOB_CHI   PE_OH   PE_CHI LLS_CHI   LLS_OH     LLD_OH   LLD_CHI   DTC_OH   DTC_CHI SPHW_CHI 
# ...
   14455.0000    0.0000 -999.2500   0.1144 -999.2500 103.2387 -999.2500   2.5889 -999.2500 3.1398  15.4263 -999.2500  -999.2500  18.1465 -999.2500 76.0873 0.2015
   14455.5000    0.0000 -999.2500   0.1147 -999.2500  99.7326 -999.2500   2.5894 -999.2500 3.1196  13.5486 -999.2500  -999.2500  15.9601 -999.2500 75.8695 0.1999
   14456.0000    0.0000 -999.2500   0.1183 -999.2500 104.0043 -999.2500   2.5842 -999.2500 3.1090  13.7316 -999.2500  -999.2500  16.2439 -999.2500 76.2062 0.2023
   14456.5000    0.0000 -999.2500   0.1144 -999.2500  89.8516 -999.2500   2.5923 -999.2500 3.0329   8.9723 -999.2500  -999.2500  10.6514 -999.2500 75.1500 0.1948
   14457.0000    0.0000 -999.2500   0.1154 -999.2500  92.4810 -999.2500   2.5904 -999.2500 3.0457   9.5204 -999.2500  -999.2500  11.2908 -999.2500 75.3768 0.1964
   14457.5000  -36.9489 -999.2500   0.1130 -999.2500  89.4999 -999.2500   2.5938 -999.2500 3.0490   9.2098 -999.2500  -999.2500  10.9006 -999.2500 75.1155 0.1946
   14458.0000    0.0000 -999.2500   0.1149 -999.2500  99.6782 -999.2500   2.5888 -999.2500 3.1065  12.4060 -999.2500  -999.2500  14.6329 -999.2500 75.8469 0.1998
   14458.5000   53.0784 -999.2500   0.1148 -999.2500 104.9067 -999.2500   2.5874 -999.2500 3.1166  13.7441 -999.2500  -999.2500  16.2289 -999.2500 76.1316 0.2018
   14459.0000    0.0000 -999.2500   0.1164 -999.2500 112.2604 -999.2500   2.5835 -999.2500 3.1288  15.6296 -999.2500  -999.2500  18.4831 -999.2500 76.5748 0.2049
   14459.5000    0.0000 -999.2500   0.1122 -999.2500 106.2268 -999.2500   2.5895 -999.2500 3.1070  13.3074 -999.2500  -999.2500  15.7287 -999.2500 76.0554 0.2012
   14460.0000    0.0000 -999.2500   0.1103 -999.2500 106.2003 -999.2500   2.5914 -999.2500 3.1419  14.1073 -999.2500  -999.2500  16.5706 -999.2500 76.0772 0.2014
   14460.5000    0.0000 -999.2500   0.1083 -999.2500 104.1489 -999.2500   2.5940 -999.2500 3.1734  14.3459 -999.2500  -999.2500  16.7243 -999.2500 76.0090 0.2009
   14461.0000  -13.4954 -999.2500   0.1053 -999.2500  95.5557 -999.2500   2.5996 -999.2500 3.1885  13.3017 -999.2500  -999.2500  15.3752 -999.2500 75.4834 0.1972
   14461.5000   12.3964 -999.2500   0.1050 -999.2500  90.5623 -999.2500   2.6010 -999.2500 3.2022  13.4402 -999.2500  -999.2500  15.4544 -999.2500 75.2044 0.1952
   14462.0000    0.0000 -999.2500   0.1086 -999.2500  94.3938 -999.2500   2.5963 -999.2500 3.2344  16.1495 -999.2500  -999.2500  18.5075 -999.2500 75.6262 0.1982
   14462.5000    0.0000 -999.2500   0.1146 -999.2500 103.2603 -999.2500   2.5878 -999.2500 3.2546  19.3202 -999.2500  -999.2500  22.1847 -999.2500 76.4167 0.2038
   14463.0000   21.0249 -999.2500   0.1199 -999.2500 112.5437 -999.2500   2.5800 -999.2500 3.2435  20.4041 -999.2500  -999.2500  23.6223 -999.2500 77.1076 0.2087
   14463.5000  -79.8726 -999.2500   0.1157 -999.2500 103.1899 -999.2500   2.5874 -999.2500 3.1661  14.0195 -999.2500  -999.2500  16.3485 -999.2500 76.3397 0.2033
   14464.0000    0.0000 -999.2500   0.1123 -999.2500  94.6608 -999.2500   2.5929 -999.2500 3.0988  10.6067 -999.2500  -999.2500  12.4644 -999.2500 75.5338 0.1976
   14464.5000    0.0000 -999.2500   0.1093 -999.2500  88.6848 -999.2500   2.5973 -999.2500 3.0644   9.3703 -999.2500  -999.2500  11.0616 -999.2500 74.8801 0.1929
   14465.0000    0.0000 -999.2500   0.1096 -999.2500  94.5050 -999.2500   2.5948 -999.2500 3.1112  11.9536 -999.2500  -999.2500  14.0750 -999.2500 75.2220 0.1953
   14465.5000  -59.0889 -999.2500   0.1117 -999.2500 104.6091 -999.2500   2.5894 -999.2500 3.1641  16.3131 -999.2500  -999.2500  19.1685 -999.2500 75.9037 0.2002
   14466.0000  -20.9007 -999.2500   0.1128 -999.2500 111.3372 -999.2500   2.5864 -999.2500 3.2197  20.4554 -999.2500  -999.2500  23.8815 -999.2500 76.4440 0.2040
   14466.5000  -22.0798 -999.2500   0.1096 -999.2500 104.3628 -999.2500   2.5924 -999.2500 3.1942  16.7659 -999.2500  -999.2500  19.5331 -999.2500 76.0120 0.2009
   14467.0000    0.0000 -999.2500   0.1133 -999.2500 112.9235 -999.2500   2.5868 -999.2500 3.2326  20.3858 -999.2500  -999.2500  23.6524 -999.2500 76.8027 0.2065
   14467.5000    0.0000 -999.2500   0.1093 -999.2500 102.0097 -999.2500   2.5944 -999.2500 3.1940  15.7491 -999.2500  -999.2500  18.2526 -999.2500 76.0492 0.2012
   14468.0000  -38.8611 -999.2500   0.1120 -999.2500 109.0144 -999.2500   2.5892 -999.2500 3.2168  18.7904 -999.2500  -999.2500  21.8205 -999.2500 76.4994 0.2044
   14468.5000  -87.6645 -999.2500   0.1042 -999.2500  94.5446 -999.2500   2.6004 -999.2500 3.1941  15.2837 -999.2500  -999.2500  17.7149 -999.2500 75.2054 0.1952
   14469.0000    0.0000 -999.2500   0.1089 -999.2500 111.6162 -999.2500   2.5896 -999.2500 3.2829  26.2151 -999.2500  -999.2500  30.3357 -999.2500 76.3019 0.2030
   14469.5000    0.0000 -999.2500   0.1064 -999.2500 108.5193 -999.2500   2.5925 -999.2500 3.2932  26.9416 -999.2500  -999.2500  31.1218 -999.2500 75.9727 0.2007
   14470.0000    0.0000 -999.2500   0.1089 -999.2500 112.7123 -999.2500   2.5889 -999.2500 3.3105  29.5943 -999.2500  -999.2500  34.1242 -999.2500 76.3741 0.2035
   14470.5000   15.3969 -999.2500   0.1076 -999.2500 104.0956 -999.2500   2.5934 -999.2500 3.2448  21.7659 -999.2500  -999.2500  25.2453 -999.2500 75.7995 0.1994
   14471.0000   95.9545 -999.2500   0.1055 -999.2500  94.4072 -999.2500   2.5988 -999.2500 3.1720  15.2846 -999.2500  -999.2500  17.8446 -999.2500 75.0945 0.1944
   14471.5000  -27.9158 -999.2500   0.1152 -999.2500 111.5986 -999.2500   2.5841 -999.2500 3.1780  19.2392 -999.2500  -999.2500  22.6493 -999.2500 76.4532 0.2041
   14472.0000    0.0000 -999.2500   0.1139 -999.2500 108.7518 -999.2500   2.5864 -999.2500 3.1356  16.5796 -999.2500  -999.2500  19.6175 -999.2500 76.1549 0.2019
   14472.5000    0.0000 -999.2500   0.1132 -999.2500 108.2226 -999.2500   2.5875 -999.2500 3.1076  14.9445 -999.2500  -999.2500  17.7299 -999.2500 76.0703 0.2013
   14473.0000    0.0000 -999.2500   0.1067 -999.2500  97.6369 -999.2500   2.5975 -999.2500 3.0908  12.0740 -999.2500  -999.2500  14.2750 -999.2500 75.2600 0.1956
   14473.5000   23.0189 -999.2500   0.1105 -999.2500 109.3323 -999.2500   2.5908 -999.2500 3.1419  15.6259 -999.2500  -999.2500  18.4038 -999.2500 76.2565 0.2027
   14474.0000   38.2498 -999.2500   0.1148 -999.2500 121.8625 -999.2500   2.5831 -999.2500 3.2178  22.0674 -999.2500  -999.2500  25.8174 -999.2500 77.2660 0.2098
   14474.5000    0.0000 -999.2500   0.1124 -999.2500 116.3505 -999.2500   2.5872 -999.2500 3.2100  19.8349 -999.2500  -999.2500  23.1443 -999.2500 76.9180 0.2073
   14475.0000    0.0000 -999.2500   0.1069 -999.2500 100.1108 -999.2500   2.5976 -999.2500 3.1498  13.2627 -999.2500  -999.2500  15.4768 -999.2500 75.7650 0.1992
   14475.5000    0.0000 -999.2500   0.1055 -999.2500  90.0833 -999.2500   2.6020 -999.2500 3.0889   9.4870 -999.2500  -999.2500  11.1178 -999.2500 75.0719 0.1943
   14476.0000   12.4597 -999.2500   0.1168 -999.2500 113.2626 -999.2500   2.5838 -999.2500 3.1703  15.8978 -999.2500  -999.2500  18.6174 -999.2500 76.9583 0.2076
   14476.5000  123.5725 -999.2500   0.1129 -999.2500 102.0051 -999.2500   2.5909 -999.2500 3.1399  12.9899 -999.2500  -999.2500  15.2042 -999.2500 76.1145 0.2017
   14477.0000    0.0000 -999.2500   0.1094 -999.2500  92.6562 -999.2500   2.5968 -999.2500 3.1433  12.5105 -999.2500  -999.2500  14.5789 -999.2500 75.3929 0.1966
   14477.5000    0.0000 -999.2500   0.1097 -999.2500  93.5696 -999.2500   2.5958 -999.2500 3.1999  16.1621 -999.2500  -999.2500  18.6776 -999.2500 75.4879 0.1972
   14478.0000   19.5791 -999.2500   0.1173 -999.2500 107.9053 -999.2500   2.5833 -999.2500 3.2747  25.2224 -999.2500  -999.2500  29.0680 -999.2500 76.6470 0.2054
   14478.5000 -113.2618 -999.2500   0.1225 -999.2500 113.9685 -999.2500   2.5757 -999.2500 3.3032  30.1813 -999.2500  -999.2500  34.8247 -999.2500 77.1487 0.2090
   14479.0000    0.0000 -999.2500   0.1264 -999.2500 116.2362 -999.2500   2.5709 -999.2500 3.2842  28.7593 -999.2500  -999.2500  33.4047 -999.2500 77.3345 0.2103
   14479.5000    0.0000 -999.2500   0.1224 -999.2500 104.2216 -999.2500   2.5781 -999.2500 3.2443  21.8272 -999.2500  -999.2500  25.3822 -999.2500 76.4572 0.2041
