~Version Information
 VERS.                  2.0:   CWLS log ASCII Standard -VERSION 2.0
 WRAP.                   NO:   One line per depth step
~Well Information Block
#MNEM.UNIT     VALUE/NAME     DESCRIPTION
#---------     -----------    ---------------------------
 STRT.F              8830.0000: START DEPTH
 STOP.F             14230.0000: STOP DEPTH
 STEP.F                 0.5000: STEP DEPTH
 NULL.                 -999.25: NULL VALUE
 LOC .       API  42-109-33374Lat:  LOCATION
 FL1 .       API  42-109-33374Lat:  LOCATIONLINE1
 DMF .                      KB:  DRILL MEAS FROM
 PDAT.                      GL:  PERMANENT DATUM
 CTRY.                     USA:  COUNTRY NAME
 CNTY.               CULBERSON:  COUNTY NAME
 FLD .     FORD, WEST (WOLFCAMP):  FIELD NAME
 WELL.        MOTHER FEE 28 4H:  WELL NAME
 COMP.          CAPITAN ENERGY:  COMPANY
 DATE.             02-May-2019:  DATE
 SVCO.             Halliburton:  SERVICECONAME
 PROV.                   TEXAS:  PROVINCE
 STAT.                   TEXAS:  STATE NAME
 HIDE.                        :  WELLNAMEOPERAT
 BASI.                 PERMIAN:  BASIN
 UWI .            42-109-33374Lat:  UNIQUE WELL IDENTIFIER
 API .            42-109-33374Lat:  API NUMBER
 RANG.                     N/A:  RANGE
 TOWN.                     N/A:  TOWNSHIP
 SECT.                     N/A:  SECTION
 SON .               905631317:  JOB NUMBER
 SRVC.             Halliburton:  SERVICE COMPANY
 LMF .                      KB:  LOG MEASURED FROM
 BAP .ft                0.0000:  GL ELEV ONSHORE
 GVFD.g                 1.0000:  GRAVITY FIELD
~Curve Information Block
#MNEM.UNIT                 API CODE     Curve Description
#---------               -----------    ---------------------------
 DEPT.F                 00 000 000 000:  Depth
 CCL .V                 00 000 000 000:  Casing Collar Locator
 NPHI_OH.pu             00 000 000 000:  NPHI_OH
 NPHI_CHI.pu            00 000 000 000:  NPHI_CHI
 GR_OH.api              00 000 000 000:  GR_OH
 GR_CHI.api             00 000 000 000:  GR_CHI
 RHOB_OH.g/cc           00 000 000 000:  RHOB_OH
 RHOB_CHI.g/cc          00 000 000 000:  RHOB_CHI
 PE_OH.b/e              00 000 000 000:  PE_OH
 PE_CHI.b/e             00 000 000 000:  PE_CHI
 RT10_OH.ohmm           00 000 000 000:  RT10_OH
 RT10_CHI.ohmm          00 000 000 000:  RT10_CHI
 RT30_OH.ohmm           00 000 000 000:  RT30_OH
 RT30_CHI.ohmm          00 000 000 000:  RT30_CHI
 RT90_OH.ohmm           00 000 000 000:  RT90_OH
 RT90_CHI.ohmm          00 000 000 000:  RT90_CHI
 SPHI_CHI.pu            00 000 000 000:  SPHI_CHI
 DTC_CHI.uspf           00 000 000 000:  DTC_CHI
 DTC_OH.uspf            00 000 000 000:  DTC_OH
 SGF .cu                00 000 000 000:  Formation Sigma
 CRNF.NONE              00 000 000 000:  CM GrsCaptRatio
 RIN .NONE              00 000 000 000:  CM GrsInelRatio
#Other Information
#
#WARRANTY: Halliburton will use its best efforts to furnish customers with 
#accurate information and interpretations that are part of, and incident to, the services 
#provided.  However, Halliburton cannot and does not warrant the accuracy 
#or correctness of such information and interpretations.  Under no circumstances should any 
#such information or interpretation be relied upon as the sole basis for any drilling, 
#completion, production, or financial decision or any procedure involving any risk to the 
#safety of any drilling venture, drilling rig or its crew or any other third party.  The 
#Customer has full responsibility for all drilling, completion and production operation.  
#Halliburton makes no representations or warranties, either expressed or 
#implied, including, but not limited to, the implied warranties of merchantability or fitness 
#for a particular purpose, with respect to the services rendered.  In no event will 
#Halliburton be liable for failure to obtain any particular results or for 
#any damages, including, but not limited to, indirect, special or consequential damages, 
#resulting from the use of any information or interpretation provided by Halliburton.
#
~A    DEPT      CCL   NPHI_OH NPHI_CHI  GR_OH    GR_CHI  RHOB_OH RHOB_CHI  PE_OH  PE_CHI RT10_OH RT10_CHI RT30_OH RT30_CHI RT90_OH  RT90_CHI SPHI_CHI DTC_CHI DTC_OH    SGF    CRNF   RIN   
# ...
   10980.0000 17.4408 -999.25  16.3183  -999.25  96.3618 -999.25   2.5318 -999.25 2.7546 -999.25  22.1709 -999.25  22.7766  -999.25  24.2305  20.9100 77.1645 -999.25 36.9568 1.3071 1.0989
   10980.5000 17.4674 -999.25  16.4025  -999.25  96.1408 -999.25   2.5313 -999.25 2.7574 -999.25  22.2400 -999.25  22.8477  -999.25  24.3061  21.0000 77.2923 -999.25 36.4228 1.2976 1.0974
   10981.0000 17.4730 -999.25  16.6219  -999.25  97.7108 -999.25   2.5288 -999.25 2.7586 -999.25  22.6840 -999.25  23.3038  -999.25  24.7912  21.2700 77.6818 -999.25 36.2795 1.2897 1.0977
   10981.5000 17.4016 -999.25  17.0063  -999.25 100.1050 -999.25   2.5225 -999.25 2.7356 -999.25  23.1413 -999.25  23.7736  -999.25  25.2910  21.7800 78.3971 -999.25 36.5299 1.2758 1.0976
   10982.0000 17.5598 -999.25  17.1563  -999.25 101.6515 -999.25   2.5184 -999.25 2.7110 -999.25  23.3059 -999.25  23.9427  -999.25  25.4709  22.0100 78.7236 -999.25 37.0813 1.2677 1.0981
   10982.5000 17.4253 -999.25  17.3233  -999.25 100.7877 -999.25   2.5136 -999.25 2.6741 -999.25  23.1741 -999.25  23.8072  -999.25  25.3268  22.2600 79.0718 -999.25 37.0970 1.2534 1.0968
   10983.0000 17.4216 -999.25  17.2213  -999.25  98.4623 -999.25   2.5125 -999.25 2.6522 -999.25  22.9595 -999.25  23.5868  -999.25  25.0923  22.1700 78.9554 -999.25 36.6812 1.2423 1.0941
   10983.5000 17.4745 -999.25  17.1104  -999.25  96.3335 -999.25   2.5108 -999.25 2.6359 -999.25  23.1339 -999.25  23.7660  -999.25  25.2830  22.1100 78.8629 -999.25 35.7528 1.2343 1.0922
   10984.0000 17.3801 -999.25  16.9222  -999.25  95.3176 -999.25   2.5125 -999.25 2.6713 -999.25  24.0001 -999.25  24.6558  -999.25  26.2296  21.9300 78.6141 -999.25 34.4366 1.2233 1.0882
   10984.5000 17.4222 -999.25  16.7554  -999.25  94.5523 -999.25   2.5122 -999.25 2.7139 -999.25  25.6941 -999.25  26.3961  -999.25  28.0810  21.8500 78.4923 -999.25 33.0106 1.2060 1.0855
   10985.0000 17.4350 -999.25  16.4081  -999.25  93.8157 -999.25   2.5170 -999.25 2.8162 -999.25  28.1213 -999.25  28.8896  -999.25  30.7336  21.5200 78.0234 -999.25 31.7489 1.1887 1.0800
   10985.5000 17.4940 -999.25  16.0147  -999.25  93.0318 -999.25   2.5235 -999.25 2.9396 -999.25  30.9731 -999.25  31.8193  -999.25  33.8503  21.1200 77.4596 -999.25 30.9386 1.1703 1.0733
   10986.0000 17.4223 -999.25  15.6195  -999.25  92.1943 -999.25   2.5281 -999.25 3.0335 -999.25  33.7551 -999.25  34.6774  -999.25  36.8908  20.7400 76.9322 -999.25 30.4832 1.1606 1.0666
   10986.5000 17.3715 -999.25  14.9991  -999.25  91.0477 -999.25   2.5386 -999.25 3.1583 -999.25  36.1226 -999.25  37.1095  -999.25  39.4782  20.0300 75.9191 -999.25 30.2584 1.1610 1.0618
   10987.0000 17.4517 -999.25  14.5256  -999.25  89.6226 -999.25   2.5449 -999.25 3.2262 -999.25  37.6695 -999.25  38.6987  -999.25  41.1688  19.5000 75.1796 -999.25 29.8313 1.1614 1.0602
   10987.5000 17.4225 -999.25  14.2906  -999.25  88.1101 -999.25   2.5480 -999.25 3.2727 -999.25  38.9409 -999.25  40.0049  -999.25  42.5584  19.2600 74.8303 -999.25 29.5843 1.1734 1.0594
   10988.0000 17.4241 -999.25  14.2398  -999.25  86.5313 -999.25   2.5469 -999.25 3.2860 -999.25  40.1330 -999.25  41.2295  -999.25  43.8612  19.2600 74.8345 -999.25 29.1290 1.1802 1.0604
   10988.5000 17.4466 -999.25  14.5248  -999.25  85.2983 -999.25   2.5384 -999.25 3.2441 -999.25  41.3230 -999.25  42.4521  -999.25  45.1618  19.7200 75.4862 -999.25 28.7233 1.1756 1.0602
   10989.0000 17.4513 -999.25  14.8141  -999.25  84.9629 -999.25   2.5312 -999.25 3.2195 -999.25  42.6577 -999.25  43.8232  -999.25  46.6205  20.1600 76.1132 -999.25 28.4089 1.1712 1.0619
   10989.5000 17.4242 -999.25  15.1868  -999.25  85.4014 -999.25   2.5241 -999.25 3.2038 -999.25  44.0388 -999.25  45.2420  -999.25  48.1298  20.6800 76.8484 -999.25 28.0122 1.1573 1.0629
   10990.0000 17.4524 -999.25  15.1747  -999.25  85.8387 -999.25   2.5236 -999.25 3.2230 -999.25  45.3803 -999.25  46.6202  -999.25  49.5959  20.7200 76.8924 -999.25 27.6408 1.1591 1.0655
   10990.5000 17.3995 -999.25  15.0692  -999.25  85.5201 -999.25   2.5247 -999.25 3.2518 -999.25  46.6858 -999.25  47.9614  -999.25  51.0228  20.6300 76.7652 -999.25 27.4529 1.1627 1.0687
   10991.0000 17.3898 -999.25  14.7766  -999.25  84.6970 -999.25   2.5276 -999.25 3.2789 -999.25  47.7546 -999.25  49.0593  -999.25  52.1908  20.3200 76.3292 -999.25 27.3696 1.1662 1.0709
   10991.5000 17.4285 -999.25  14.5491  -999.25  83.5111 -999.25   2.5340 -999.25 3.3456 -999.25  48.3583 -999.25  49.6796  -999.25  52.8506  19.9900 75.8707 -999.25 27.7193 1.1738 1.0717
   10992.0000 17.4564 -999.25  14.3917  -999.25  82.7207 -999.25   2.5392 -999.25 3.3900 -999.25  48.2268 -999.25  49.5445  -999.25  52.7069  19.7400 75.5153 -999.25 28.3304 1.1698 1.0703
   10992.5000 17.3853 -999.25  14.2729  -999.25  82.6340 -999.25   2.5431 -999.25 3.4023 -999.25  47.1383 -999.25  48.4262  -999.25  51.5173  19.5300 75.2182 -999.25 28.9489 1.1725 1.0694
   10993.0000 17.4225 -999.25  14.3661  -999.25  83.4900 -999.25   2.5441 -999.25 3.3863 -999.25  45.3892 -999.25  46.6293  -999.25  49.6056  19.5600 75.2581 -999.25 29.6247 1.1731 1.0685
   10993.5000 17.3940 -999.25  14.4714  -999.25  85.3550 -999.25   2.5426 -999.25 3.3319 -999.25  43.3031 -999.25  44.4862  -999.25  47.3258  19.6400 75.3712 -999.25 30.3878 1.1762 1.0678
   10994.0000 17.4884 -999.25  14.5326  -999.25  87.8194 -999.25   2.5428 -999.25 3.2885 -999.25  41.1643 -999.25  42.2890  -999.25  44.9883  19.6400 75.3741 -999.25 30.7932 1.1780 1.0666
   10994.5000 17.4493 -999.25  14.6029  -999.25  90.0935 -999.25   2.5437 -999.25 3.2577 -999.25  39.2756 -999.25  40.3487  -999.25  42.9241  19.6400 75.3761 -999.25 30.9762 1.1821 1.0664
   10995.0000 17.4244 -999.25  14.6405  -999.25  91.7126 -999.25   2.5447 -999.25 3.2377 -999.25  37.9861 -999.25  39.0240  -999.25  41.5149  19.6300 75.3538 -999.25 30.9743 1.1871 1.0658
   10995.5000 17.4080 -999.25  14.7110  -999.25  93.1117 -999.25   2.5443 -999.25 3.2206 -999.25  37.3043 -999.25  38.3235  -999.25  40.7697  19.6800 75.4323 -999.25 30.7993 1.1945 1.0663
   10996.0000 17.3687 -999.25  14.9623  -999.25  94.6683 -999.25   2.5399 -999.25 3.1857 -999.25  37.1172 -999.25  38.1313  -999.25  40.5652  20.0000 75.8815 -999.25 30.6747 1.1963 1.0689
   10996.5000 17.4256 -999.25  15.2106  -999.25  96.7252 -999.25   2.5360 -999.25 3.1616 -999.25  37.1864 -999.25  38.2024  -999.25  40.6409  20.3100 76.3226 -999.25 30.7549 1.2008 1.0749
   10997.0000 17.3969 -999.25  15.7022  -999.25  99.0897 -999.25   2.5264 -999.25 3.0941 -999.25  37.2077 -999.25  38.2243  -999.25  40.6642  20.9600 77.2406 -999.25 30.9716 1.2028 1.0849
   10997.5000 17.4320 -999.25  16.1919  -999.25 101.2626 -999.25   2.5146 -999.25 2.9932 -999.25  36.8650 -999.25  37.8723  -999.25  40.2896  21.6400 78.2046 -999.25 31.4699 1.2047 1.0951
   10998.0000 17.3860 -999.25  16.4703  -999.25 102.5044 -999.25   2.5075 -999.25 2.9184 -999.25  36.1438 -999.25  37.1314  -999.25  39.5015  22.0200 78.7427 -999.25 32.0692 1.2087 1.1024
   10998.5000 17.4287 -999.25  16.7343  -999.25 102.2769 -999.25   2.5007 -999.25 2.8371 -999.25  34.9595 -999.25  35.9147  -999.25  38.2071  22.3700 79.2312 -999.25 32.6376 1.2044 1.1050
   10999.0000 17.4039 -999.25  16.6445  -999.25 100.7469 -999.25   2.5031 -999.25 2.8188 -999.25  33.4620 -999.25  34.3763  -999.25  36.5705  22.1900 78.9820 -999.25 33.2316 1.2079 1.1044
   10999.5000 17.4796 -999.25  16.6330  -999.25  99.2447 -999.25   2.5047 -999.25 2.7957 -999.25  31.8800 -999.25  32.7511  -999.25  34.8416  22.1000 78.8510 -999.25 33.9745 1.2108 1.1021
   11000.0000 17.4233 -999.25  16.4879  -999.25  99.0708 -999.25   2.5082 -999.25 2.7755 -999.25  30.3084 -999.25  31.1365  -999.25  33.1239  21.8500 78.4895 -999.25 34.6764 1.2221 1.1001
   11000.5000 17.4938 -999.25  16.4509  -999.25 100.0021 -999.25   2.5117 -999.25 2.7657 -999.25  28.8248 -999.25  29.6124  -999.25  31.5025  21.6900 78.2725 -999.25 35.0895 1.2278 1.0966
   11001.0000 17.3835 -999.25  16.6084  -999.25 101.0712 -999.25   2.5091 -999.25 2.7129 -999.25  27.7130 -999.25  28.4702  -999.25  30.2875  21.8500 78.5010 -999.25 34.8606 1.2218 1.0952
