~VERSION INFORMATION
VERS. 2.0 : CWLS Log ASCII Standard - Version 2.0
WRAP. NO : One line per depth step
#--------------------------------------------------#
#----------------DRILLING INFO, INC.---------------#
#---------------WWW.DRILLINGINFO.COM---------------#
#------------------COPYRIGHT 2015------------------#
#--------------------------------------------------#
#THIS FILE MAY BE USED ONLY IN ACCORDANCE WITH A CURRENT SUBSCRIPTION AGREEMENT BETWEEN
#THE USER AND DRILLING INFO, INC. NO PART OF THIS FILE MAY BE REPRODUCED, USED, COPIED,
#MODIFIED, PROPAGATED, OR DISTRIBUTED EXCEPT IN ACCORDANCE WITH THE SUBSCRIPTION
#AGREEMENT. UNAUTHORIZED USE OR DISTRIBUTION OF ALL OR ANY PART OF THIS FILE MAY VIOLATE
#COPYRIGHT, TRADEMARK, AND/OR OTHER LAWS AND IS SUBJECT TO CIVIL AS WELL AS CRIMINAL
#SANCTIONS.
#--------------------------------------------------#
#THIS FILE IS PROVIDED "AS-IS" AND ALL WARRANTIES ARE EXPRESSLY DISCLAIMED, WHETHER
#EXPRESS, ORAL, IMPLIED, STATUTORY OR OTHERWISE, INCLUDING ANY IMPLIED WARRANTY OF FITNESS
#FOR A PARTICULAR PURPOSE, MERCHANTABILITY, TITLE OR NON-INFRINGEMENT, AND ANY WARRANTIES
#ARISING BY VIRTUE OF CUSTOM OF TRADE OR COURSE OF DEALING.  FURTHER, DRILLING INFO,
#INC. AND ITS LICENSORS DO NOT REPRESENT OR WARRANT THAT THIS FILE WILL MEET USER'S
#REQUIREMENTS OR ARE SUITABLE FOR USER'S NEEDS OR THAT THE DATA OR RESULTS PROVIDED IN
#CONJUNCTION THEREWITH ARE CORRECT, ACCURATE, TIMELY OR RELIABLE. THESE DISCLAIMERS SHALL
#APPLY REGARDLESS OF ANY FAILURE OF ESSENTIAL PURPOSE OF ANY LIMITED REMEDY.  SOME
#JURISDICTIONS DO NOT ALLOW THE EXCLUSION OF CERTAIN WARRANTIES SO SOME OF THE ABOVE
#EXCLUSIONS MAY NOT APPLY. IN NO EVENT SHALL DRILLING INFO, INC. OR ANY OF ITS AFFILIATES
#BE LIABLE UNDER ANY LEGAL THEORY, WHETHER IN TORT (INCLUDING WITHOUT LIMITATION
#NEGLIGENCE), CONTRACT, STRICT LIABILITY, STATUTORY OR OTHERWISE, FOR ANY SPECIAL,
#INCIDENTAL, CONSEQUENTIAL, EXEMPLARY, PUNITIVE OR INDIRECT DAMAGE OF ANY KIND, INCLUDING
#WITHOUT LIMITATION LOSS OF REVENUE, PROFITS, GOODWILL, USE, AND/OR DATA OR THE COST OF
#PROCUREMENT OF SUBSTITUTE GOODS OR SERVICES, EVEN IF APPRISED OF THE POSSIBILITY OF SUCH
#DAMAGES IN ADVANCE.
#--------------------------------------------------#
~WELL INFORMATION
#MNEMONIC     .UNIT              VALUE :DESCRIPTION
#--------------------------------------------------#
STRT       .ft                52.00000 :START DEPTH
STOP       .ft                8797.00000 :STOP DEPTH
STEP       .ft                0.50000 :STEP
NULL       .                -999.25000 :NULL VALUE
COMP       .                 :COMPANY
WELL       .                 :WELL
FLD       .                 :FIELD
LOC       .                 :LOCATION
CNTY       .                 :COUNTY
STAT       .                 :STATE
CTRY       .                 :COUNTRY
SRVC       .                 :SERVICE COMPANY
DATE       .                 :DATE
API       .                42109700290000 :API NUMBER
~CURVE INFORMATION
#MNEMONIC     .UNIT      API CODE :CURVE DESCRIPTION
#--------------------------------------------------#
DEPTH       .ft                      :Measured Depth
DT       .us/ft        UNKNOWN   :DT
GR       .gAPI        UNKNOWN   :GR
ILD       .ohmm        UNKNOWN   :ILD
ILS       .ohmm        UNKNOWN   :ILS
SP       .mV        UNKNOWN   :SP
~A    DEPTH    DT    GR    ILD    ILS    SP
# ...
4166.50000    67.32270    57.12894    754.90162    388.17123    -72.93249
4167.00000    67.31492    61.49168    754.89412    389.01691    -72.61523
4167.50000    67.10130    65.63756    754.88662    389.86260    -78.32355
4168.00000    66.88768    68.67263    754.87913    390.70828    -81.31865
4168.50000    66.67405    71.27214    754.87163    391.55397    -80.29236
4169.00000    66.46043    70.48326    754.86413    388.62269    -79.26607
4169.50000    66.24681    69.69438    754.85664    383.37750    -78.23978
4170.00000    66.72655    66.01994    754.84914    378.13232    -77.21349
4170.50000    67.29281    59.23831    754.84164    372.88714    -76.18720
4171.00000    67.12278    52.76668    754.83415    367.64196    -75.16092
4171.50000    66.28276    54.94951    754.82665    362.39677    -74.13463
4172.00000    65.61524    57.13235    754.81915    357.15159    -74.44522
4172.50000    65.39457    57.79628    754.81166    351.90641    -74.99161
4173.00000    65.17389    57.11762    754.80416    346.66123    -75.53801
4173.50000    65.36385    56.43895    754.79666    341.41604    -76.08440
4174.00000    65.92666    55.94297    754.78917    336.17086    -76.63080
4174.50000    66.48946    55.65270    754.78167    330.92568    -77.10343
4175.00000    67.05227    55.36244    754.77417    325.68050    -76.44799
4175.50000    66.90463    57.19988    754.76668    320.43531    -75.79256
4176.00000    66.50461    59.36953    754.75918    315.19013    -75.13712
4176.50000    64.03999    60.07344    754.75168    309.94495    -74.48168
4177.00000    61.37988    60.36480    754.74419    304.69977    -73.82625
4177.50000    58.71978    59.70842    754.73669    299.45458    -73.17081
4178.00000    56.05967    55.25515    754.72919    294.20940    -71.05537
4178.50000    54.58024    50.80188    754.72170    288.96422    -68.16206
4179.00000    54.99183    41.18150    754.71420    283.71904    -65.17093
4179.50000    55.39860    23.96327    754.70670    278.47385    -61.36345
4180.00000    55.52948    18.31331    754.69921    273.22867    -57.55596
4180.50000    55.66036    17.44813    754.69171    267.98349    -53.74848
4181.00000    55.37660    17.54020    737.81921    262.73831    -51.28883
4181.50000    54.90478    18.49599    719.33863    257.49312    -48.93126
4182.00000    54.43296    19.45178    617.21744    252.24794    -46.57369
4182.50000    55.96073    18.65340    515.09625    247.00276    -44.21612
4183.00000    59.79222    18.69246    410.64253    241.75758    -43.56486
4183.50000    63.69200    21.98338    383.86362    243.20840    -44.84766
4184.00000    65.40641    28.67965    417.47786    245.73289    -46.13045
4184.50000    66.21915    38.08886    458.86445    248.25737    -47.41325
4185.00000    67.03188    47.49806    503.60228    250.78186    -48.69605
4185.50000    67.84461    53.68182    548.34011    253.76406    -47.07171
4186.00000    67.51495    56.77942    593.07795    265.97093    -45.30767
4186.50000    67.04114    59.81513    637.81578    278.17780    -43.54362
4187.00000    66.56732    59.57257    682.55361    290.38468    -41.77958
4187.50000    66.09351    59.33000    727.29144    302.59155    -42.04151
4188.00000    65.61970    59.08743    762.40346    314.79842    -44.48457
4188.50000    65.14588    58.33392    762.00473    327.00529    -46.32257
4189.00000    66.05341    54.64012    761.60600    339.21217    -47.64907
4189.50000    66.15851    50.82562    761.20727    351.41904    -48.97556
4190.00000    66.26362    51.69479    760.80855    363.62591    -50.30206
4190.50000    66.03748    53.45114    760.40982    375.83278    -51.62855
4191.00000    65.67047    55.20749    760.01109    388.03965    -54.59971
4191.50000    65.30345    56.96384    759.61237    400.24653    -60.24069
4192.00000    65.00439    57.70112    759.21364    400.80088    -64.26448
4192.50000    65.83275    55.10651    758.81491    400.79643    -66.07509
4193.00000    66.66112    52.51189    758.41619    400.79198    -67.88571
4193.50000    67.30615    51.78230    758.01746    400.78752    -69.69633
4194.00000    67.17404    51.08973    757.61873    400.78307    -71.50694
4194.50000    67.04193    53.61629    757.22001    394.14980    -73.31756
4195.00000    66.90981    56.94752    756.82128    385.39999    -66.25952
4195.50000    66.77770    60.27875    756.42255    376.65018    -62.94826
4196.00000    66.80691    62.80908    756.02382    367.90037    -66.47293
4196.50000    67.78991    59.57073    755.62510    359.15055    -66.20035
4197.00000    68.32831    56.33237    755.22637    350.40074    -65.92777
4197.50000    68.86671    55.70462    754.82764    341.65093    -65.65519
4198.00000    68.94762    59.25641    754.42892    332.90111    -62.07346
4198.50000    68.15387    62.80820    754.03019    324.15130    -57.92672
4199.00000    67.36012    64.49354    753.63146    315.40149    -53.77997
4199.50000    66.77081    65.06562    753.23274    306.65168    -49.63323
4200.00000    66.99318    62.86683    752.83401    297.90186    -51.78277
4200.50000    67.21555    60.66803    752.43528    289.15205    -61.23982
4201.00000    67.43792    58.46923    752.03656    280.40224    -52.82268
4201.50000    67.66028    57.18948    642.93825    271.65242    -54.11746
4202.00000    67.61059    58.93411    403.37412    262.90261    -57.36200
4202.50000    67.33235    60.67874    377.74041    254.15280    -60.60655
4203.00000    67.05411    62.42336    377.00483    245.40299    -63.85109
4203.50000    66.77587    59.96978    404.81775    236.65317    -67.09564
4204.00000    66.49763    56.96626    432.63066    229.80323    -66.13307
4204.50000    66.53606    53.96274    460.44357    228.35460    -62.82044
4205.00000    66.86886    50.95922    488.25648    226.90597    -63.38441
4205.50000    67.20165    50.56575    516.06939    225.45734    -65.34043
4206.00000    67.53445    50.81600    543.88230    224.00871    -67.29645
4206.50000    67.75624    51.06627    571.69521    222.56008    -68.26416
4207.00000    67.73012    52.37093    599.50812    221.11145    -68.26517
4207.50000    67.70400    53.94113    627.32103    218.19510    -68.26618
4208.00000    67.67788    55.51134    655.13394    215.18368    -68.26718
4208.50000    67.65176    57.08155    599.53355    212.17226    -63.91402
4209.00000    68.06859    57.86998    516.70656    209.16084    -61.01421
4209.50000    68.67688    58.13288    437.06670    206.14943    -63.98915
4210.00000    69.28518    58.39579    421.58590    203.13801    -64.98086
4210.50000    69.64569    58.65869    406.10511    200.12659    -63.50052
4211.00000    69.62709    59.39868    390.62431    197.11517    -62.02017
4211.50000    69.60849    61.20304    375.14352    194.10375    -65.17516
4212.00000    69.67419    63.00739    359.66273    191.09234    -73.18885
4212.50000    70.16077    64.81175    344.18193    188.08092    -74.41324
4213.00000    70.43488    62.94215    328.70114    185.06950    -75.63763
4213.50000    70.18802    60.94731    313.22034    182.05808    -75.75583
4214.00000    69.94115    58.95247    297.73955    179.04667    -75.86590
4214.50000    69.62413    59.70506    284.00614    176.03525    -75.97597
4215.00000    68.58316    60.95680    273.78561    173.02383    -76.08604
4215.50000    67.54218    60.64573    263.56509    170.01241    -76.19611
4216.00000    67.76138    58.73360    253.34456    167.00100    -76.30618
4216.50000    68.17307    55.42066    243.12403    163.98958    -76.41625
4217.00000    68.49860    52.60663    232.90350    161.45372    -76.52632
4217.50000    67.39718    52.60574    222.68298    160.88978    -76.63639
4218.00000    66.29576    52.60484    212.46245    160.32585    -76.85369
4218.50000    65.19433    52.60395    202.24192    159.76191    -77.26440
4219.00000    64.24559    51.77781    192.02139    159.19798    -77.67511
4219.50000    65.05399    48.79910    181.82760    158.63404    -78.08582
4220.00000    66.62090    45.82040    180.64491    158.07011    -78.49653
4220.50000    68.59785    42.84170    179.46221    157.50617    -78.90725
