~Version Information Block
 VERS.                2.00:     CWLS LOG ASCII STANDARD - VERSION 2.000000
 WRAP.                  NO:     One Line Per Depth Step
#
~Well Information Block
#MNEM.UNIT                     Data                         Information
#----------   ------------------------------------------   ----------------
 STRT.F                                        31.0000:     START DEPTH
 STOP.F                                     15936.0000:     STOP DEPTH
 STEP.F                                         0.5000:     STEP
 NULL.                                       -999.2500:     NULL VALUE
 COMP.                             AMERCN QUASAR PETRO:     COMPANY
 WELL.                                    SCOTT UNIT 1:     WELL
 FLD .                                         WILDCAT:     FIELD
 LOC .        Survey  PSL              - Abs  6331     - Blk  45   - Section  19:     LOCATION
 CNTY.                                              TX:     COUNTY
 STAT.                                              TX:     STATE
 CTRY.                        UNITED STATES OF AMERICA:     COUNTRY
 SRVC.                                      GEOGRAPHIX:     SERVICE COMPANY
 DATE.                                                :     DATE
 API .                                  42109313620000:     API NUMBER
 UWI .                                  42109313620000:     UWI NUMBER
 TVD .                                              NO:     TVD flag
 WSTA.                                             LOC:     Well status
#
~Curve Information Block
#MNEM.UNIT       API CODE      Curve Description
#----------    -------------   -------------------
 DEPT.F                    :   Depth in Feet
 LLD .OHMM                 :   LATEROLOG DEEP
 GRS .GAPI                 :   GAMMA RAY FROM SONIC LOG
 CALS.IN                   :   CALIPER FROM SONIC LOG
 MSFL.OHMM                 :   MICRO SPHERICALLY FOCUSED
 LLS .OHMM                 :   LATEROLOG SHALLOW
 DT  .US/F                 :   DELTA TIME
#
~Parameter Information Block
#MNEM.UNIT            Value               Description
#----------    --------------------    -------------------
 RUN .                         ONE:    Run Number
 PDAT.                          GL:    Permanent Datum
 EPD .FT                          :    Elevation Of Perm. Datum
 LMF .               KELLY BUSHING:    Log Measured From
 EKB .FT                          :    Elevation Of Kelly Bushing
 DF .FT                           :    Elevation Of Derrick Floor
 GL .FT                           :    Elevation Of Ground Level
 TD  .FT                          :    Total Depth
 CSGD.FT                          :    Casing Bottom (Driller) 1
 CSGL.FT                          :    Casing Bottom (Logger) 1
 MUD .                            :    Drilling Fluid Type
 MUDV .CP                         :    Drilling Fluid Viscosity
 MUDD .LB/USG                     :    Drilling Fluid Density
 FL .ML/30MIN                     :    Drilling Fluid Loss
 PH.                              :    Drilling Fluid Ph
 MUDS .                           :    Mud Sample Source
 RM .OHMM                         :    Resistivity Of Mud Sample
 RMT .DEGF                        :    Mud Sample Temperature
 RMF .OHMM                        :    Mud Filtrate Resistivity
 RMFT.DEGF                        :    Mud Filtrate Sample Temperature
 RMC .OHMM                        :    Mud Cake Resistivity
 RMCT.DEGF                        :    Mud Cake Sample Temperature
 RMB .OHMM                        :    Mud Resistivity At Bht
 TMAX .DEGF                       :    Bottom Hole Temperature
#
~Other Information Block
<DescLogPlotStart>   NEURALOG PLOT DEFINITION
PLOTDEFVERSION: 3
LASFILE: E:\Nair Innovations\42_TEXAS\109_Culberson\42109313620000_1.las
DEPTHSCALE: 239.999996
RESOLUTION: 200
DEPTHLABELFREQ: 100.000000
HEAVYGRIDFREQ: 50.000000
MEDIUMGRIDFREQ: 50.000000
LIGHTGRIDFREQ: 10.000000
#
#   TRACK 1
#
STARTTRACK: 
 LEFTX: 0.500000 inch
 RIGHTX: 3.000000 inch
 SCALETYPE: Linear
 NUMCHARTDIVISIONS: 10
CURVE: GRS   1.504600   250.000000 (0,0,255)      Solid             2     N    
CURVE: CALS  6.474400   14.873500  (0,131,131)    Solid             2     N    
ENDTRACK: 
#
#   TRACK 2
#
STARTTRACK: 
 LEFTX: 3.500000 inch
 RIGHTX: 6.000000 inch
 SCALETYPE: Log
 NUMCYCLES: 4
 STARTCYCLE: 2
CURVE: LLS   0.200000   2000.000000 (255,0,0)      Solid             4     Y   
BACKUP: 2000.000000 20000000.000000 (255,0,0)      Solid             4    
BACKUP: 0.000020   0.200000   (255,0,0)      Solid             4    
CURVE: MSFL  0.200000   2000.000000 (0,131,131)    Solid             2     N   
ENDTRACK: 
#
#   TRACK 3
#
STARTTRACK: 
 LEFTX: 6.500000 inch
 RIGHTX: 9.000000 inch
 SCALETYPE: Linear
 NUMCHARTDIVISIONS: 10
CURVE: LLD   0.200000   2000.000000 (255,0,255)    Solid             4     N   
CURVE: DT    190.000000 50.000000  (255,0,131)    Solid             2     N    
ENDTRACK: 
<DescLogPlotEnd>
<DepthTrack type='Reference' track='1' Label='0' color='0' hor='0' />
<Reference font='144,0,-900,0,500,0,16777216,Arial' />
~A DEPTH     LLD              GRS              CALS             MSFL             LLS              DT              
# ...
   13191.000 27.98870000      150.41820000     7.03780000       28.33040000      26.72630000      75.64530000     
   13191.500 26.49080000      153.35490000     7.03700000       26.06640000      25.29470000      76.55760000     
   13192.000 24.73030000      160.02060000     7.03630000       25.12850000      23.93970000      76.92280000     
   13192.500 23.73130000      166.77880000     7.03550000       26.29780000      21.72650000      76.73870000     
   13193.000 23.08830000      167.97440000     7.03470000       26.54760000      21.44360000      76.55900000     
   13193.500 22.77410000      166.96860000     7.03400000       23.42460000      21.60230000      76.34840000     
   13194.000 23.24850000      157.42400000     7.04940000       20.67850000      23.60130000      74.04790000     
   13194.500 25.32570000      144.61910000     7.03230000       25.97100000      26.07250000      71.74000000     
   13195.000 26.72510000      137.08530000     7.03160000       23.77180000      28.36500000      70.54250000     
   13195.500 27.62260000      133.69310000     7.03090000       28.42900000      27.89130000      71.63430000     
   13196.000 22.68710000      137.45450000     7.03010000       34.94770000      25.81770000      74.00860000     
   13196.500 21.63660000      141.59240000     7.02940000       12.79140000      21.33260000      73.82660000     
   13197.000 20.81190000      143.09490000     7.02870000       10.40400000      19.19960000      72.55050000     
   13197.500 20.41030000      112.67690000     7.02790000       13.14670000      20.28360000      69.61530000     
   13198.000 21.27260000      101.05230000     7.02720000       20.99100000      21.42870000      64.62630000     
   13198.500 22.17110000      82.43440000      7.02640000       32.67030000      21.13480000      61.15360000     
   13199.000 22.47990000      69.83720000      7.02570000       30.56980000      19.19450000      60.98790000     
   13199.500 22.48140000      65.51510000      7.02490000       20.36210000      19.19320000      59.83130000     
   13200.000 22.48290000      66.26450000      7.02420000       17.07160000      20.84210000      57.17300000     
   13200.500 23.47760000      66.26080000      7.02360000       25.31750000      24.09110000      57.05200000     
   13201.000 25.35030000      67.01020000      7.02300000       27.11110000      29.54020000      57.09490000     
   13201.500 28.97820000      68.13600000      7.02240000       18.74420000      31.47440000      58.16790000     
   13202.000 30.98750000      72.70370000      7.05950000       17.89820000      31.22650000      60.51860000     
   13202.500 31.73060000      79.04800000      7.08170000       114.08500000     30.17770000      64.53120000     
   13203.000 30.94100000      78.90760000      7.08100000       52.76810000      29.30050000      64.71400000     
   13203.500 27.70000000      78.82130000      7.08040000       33.04110000      25.51200000      64.89690000     
   13204.000 19.32640000      80.69640000      7.07980000       19.30460000      18.64070000      65.62680000     
   13204.500 18.96250000      85.69310000      7.07920000       14.87580000      18.95680000      66.44790000     
   13205.000 20.67140000      88.06480000      7.07840000       18.38880000      20.10820000      66.72190000     
   13205.500 22.44840000      87.30740000      7.07790000       19.86280000      23.61470000      66.70470000     
   13206.000 24.71620000      80.90310000      7.07730000       18.40660000      26.41920000      65.52560000     
   13206.500 26.47390000      71.48680000      7.07670000       22.81380000      25.73880000      63.77220000     
   13207.000 23.38560000      72.23620000      7.04590000       26.52170000      23.11730000      63.62340000     
   13207.500 22.12970000      79.00960000      7.01510000       23.43090000      22.44610000      63.91950000     
   13208.000 23.09160000      86.91260000      7.01450000       18.54150000      25.52970000      64.82110000     
   13208.500 27.75730000      89.54450000      7.01390000       17.41870000      29.28600000      64.82120000     
   13209.000 31.39430000      87.10020000      7.01330000       34.92870000      25.87270000      64.26280000     
   13209.500 32.52050000      82.44230000      7.01270000       34.45110000      24.82250000      63.75620000     
   13210.000 31.51740000      75.97280000      7.01210000       17.30810000      24.81750000      63.44380000     
   13210.500 32.51180000      70.31540000      7.01150000       20.41730000      25.50420000      62.71480000     
   13211.000 37.64200000      67.44630000      7.01090000       17.13870000      27.81000000      61.43870000     
   13211.500 42.48860000      66.93150000      7.01030000       12.27390000      32.20560000      60.70960000     
   13212.000 42.79900000      66.92770000      7.00970000       16.99230000      30.58560000      61.25720000     
   13212.500 41.78080000      67.48950000      7.03930000       51.26100000      25.51160000      63.44610000     
   13213.000 22.40200000      67.67320000      7.06890000       71.27670000      20.33530000      67.65870000     
   13213.500 12.91420000      66.91570000      7.09840000       24.07070000      10.50790000      68.91810000     
   13214.000 8.08570000       63.90000000      7.12810000       7.37560000       5.31360000       68.23170000     
   13214.500 5.34920000       59.37830000      7.18790000       4.77880000       5.53730000       65.33850000     
   13215.000 6.22300000       54.85660000      7.18730000       3.44420000       7.39090000       61.52610000     
   13215.500 7.75550000       52.59390000      7.12630000       4.49060000       13.52300000      58.57200000     
   13216.000 9.79360000       51.08420000      7.06530000       5.59710000       14.68320000      57.94720000     
   13216.500 16.16760000      51.83350000      7.03440000       55.21490000      14.67980000      59.68540000     
   13217.000 16.99190000      54.91780000      7.03380000       127.41350000     12.44490000      62.40450000     
   13217.500 14.49030000      59.58300000      7.06350000       14.67240000      9.32250000       66.18630000     
   13218.000 6.55540000       64.11240000      7.06280000       6.15480000       5.37820000       67.28090000     
   13218.500 6.13220000       66.20920000      7.07260000       5.75340000       6.82160000       68.19320000     
   13219.000 8.42430000       66.49900000      7.09200000       10.87270000      9.31690000       68.92310000     
   13219.500 9.44800000       64.35510000      7.09120000       8.27610000       8.23990000       69.10600000     
   13220.000 8.51220000       62.80000000      7.09060000       5.56100000       6.94020000       68.28570000     
   13220.500 6.93690000       62.34560000      7.08990000       4.56590000       6.69470000       66.37130000     
   13221.000 7.12960000       63.09490000      7.08930000       4.42920000       7.30170000       65.25400000     
   13221.500 8.18090000       64.71510000      7.11900000       4.79900000       9.21050000       64.73080000     
   13222.000 10.92200000      69.11080000      7.11840000       6.97640000       11.64260000      64.98430000     
   13222.500 12.70620000      72.87220000      7.11780000       11.77160000      12.76310000      65.94360000     
   13223.000 13.24020000      75.12760000      7.11720000       15.66190000      11.91580000      66.91480000     
   13223.500 8.28990000       75.87730000      7.08640000       6.88100000       7.46320000       67.75650000     
   13224.000 7.32280000       74.36720000      7.08580000       7.47350000       8.44440000       67.88340000     
   13224.500 8.32280000       73.23410000      7.08520000       8.69550000       8.67830000       67.46250000     
   13225.000 8.63600000       72.85390000      7.08460000       5.83310000       7.66660000       66.54930000     
   13225.500 8.14640000       73.64870000      7.05380000       4.72040000       7.77120000       65.09930000     
