###############################################
##         ENVERUS                           ##
##         ESS - Open Hole                   ##
##         PERMIAN / DELAWARE                ##
##         Nov 02 2023  V4.0                 ##
##         42-109-32346-90-00                ##
###############################################
## Copyright 2017-2023  ENVERUS.  All Rights Reserved. 
## Confidential - Property of ENVERUS, use governed by terms and 
## conditions found within the existing Information Services Subscription Agreement 
## (as may be amended, the “ISSA”) between Customer and ENVERUS. 
## 
~VERSION INFORMATION
# MNEM.UNIT                               DATA : DESCRIPTION OF MNEMONIC
#-----.-----     ----------------------------- : -----------------------------
VERS.                                     2.00 : CWLS LOG ASCII STANDARD - VERSION 2.00
WRAP.                                       NO : MULTIPLE LINES PER DEPTH STEP
VEND.                                  ENVERUS : VENDOR
TYPE.                          ESS - OPEN HOLE : ENVERUS ESSENTIAL CURVES – ACCESSIBLE THROUGH ENVERUS PRISM(TM)
DOC.                                  51092887 : ENVERUS HEADER RAW DOCUMENT ID
#___________________________________________________________________________________________________ 
~WELL INFORMATION 
# XhrHiXkIrwGIJmPLTIo0+WseqdI1VWn+o0JF90EYfb9BJ/ikjsIPmHpj3yVLlwnYQ/npclNvflN3Ll99f4ZCqQ== 
# MNEM.UNIT                                              DATA : DESCRIPTION OF MNEMONIC 
#-----.-----                    ----------------------------- : ----------------------------- 
CNTY.                                               CULBERSON : COUNTY 
STATE.                                                  TEXAS : STATE 
CNTRY.                                                    USA : COUNTRY 
API.                                             42-109-32346 : API (10 Digit) 
API_14.                                    42-109-32346-90-00 : API (14 Digits) 
API_14_std.                                 42-109-32346-9000 : API (14 Digits Standard) 
UWI.                                           42109323469000 : UNIQUE WELL ID 
WELL.                                                  DRD_55 : WELL NAME
STRT.FT                                                 334.5 : START DEPTH
STOP.FT                                                4950.0 : STOP DEPTH
STEP.FT                                                   0.5 : STEP BETWEEN DEPTHS
NULL.                                                 -999.25 : NULL VALUE
PREV_APII.                                     42109323460000 : WELL IDENTIFIER
#___________________________________________________________________________________________________ 
~PARAMETER INFORMATION 
# MNEM.UNIT                                              DATA : DESCRIPTION OF MNEMONIC 
#-----.-----                    ----------------------------- : -----------------------------
#___________________________________________________________________________________________________ 
~CURVE INFORMATION 
# MNEM.UNIT           : CURVE DESCRIPTION 
#-----.-----          : ----------------------------- 
 DEPT.FT               : MEASURED DEPTH 
 CALI.IN               : CALIPER (CAL - CALIPER) 
 GR.API                : GAMMA RAY (GAMMA RAY) 
 DT.US/FT              : SONIC DELTA TRANSIT TIME (SONIC) 
 #___________________________________________________________________________________________________ 
~A         DEPT           CALI             GR             DT
# ...
         3700.5          8.339         66.043         67.260
         3701.0          8.339         71.706         67.183
         3701.5          8.359         70.239         66.615
         3702.0          8.359         60.441         66.479
         3702.5          8.378         57.396         64.983
         3703.0          8.418         53.205         64.140
         3703.5          8.437         51.819         63.732
         3704.0          8.456         48.343         64.208
         3704.5          8.476         48.211         65.133
         3705.0          8.476         51.592         65.666
         3705.5          8.476         53.084         66.652
         3706.0          8.476         52.827         67.310
         3706.5          8.476         52.744         67.439
         3707.0          8.476         51.564         65.324
         3707.5          8.476         50.877         63.797
         3708.0          8.487         51.729         62.897
         3708.5          8.495         52.047         61.953
         3709.0          8.509         51.329         63.327
         3709.5          8.515         51.964         65.338
         3710.0          8.534         58.120         66.739
         3710.5          8.534         59.228         67.325
         3711.0          8.554         59.085         68.358
         3711.5          8.573         59.064         68.630
         3712.0          8.612         59.063         68.571
         3712.5          8.651         60.491         68.246
         3713.0          8.690         63.480         68.053
         3713.5          8.713         63.518         68.231
         3714.0          8.729         61.598         68.409
         3714.5          8.729         61.348         68.703
         3715.0          8.710         58.487         68.939
         3715.5          8.690         58.878         69.096
         3716.0          8.690         63.733         69.096
         3716.5          8.690         64.717         68.640
         3717.0          8.690         62.415         69.069
         3717.5          8.671         58.800         69.271
         3718.0          8.658         58.406         69.307
         3718.5          8.632         59.196         69.384
         3719.0          8.632         58.223         68.420
         3719.5          8.612         53.487         68.231
         3720.0          8.593         50.715         68.965
         3720.5          8.593         49.731         69.527
         3721.0          8.573         49.708         68.871
         3721.5          8.573         51.356         68.281
         3722.0          8.573         54.776         68.222
         3722.5          8.573         54.767         68.110
         3723.0          8.573         52.827         68.438
         3723.5          8.593         54.110         68.513
         3724.0          8.593         54.436         68.630
         3724.5          8.593         52.817         68.429
         3725.0          8.593         51.955         67.743
         3725.5          8.565         54.836         67.323
         3726.0          8.486         56.229         67.432
         3726.5          8.427         56.923         67.858
         3727.0          8.398         58.589         68.163
         3727.5          8.378         58.165         68.105
         3728.0          8.378         55.850         68.047
         3728.5          8.378         54.037         67.888
         3729.0          8.378         51.117         67.872
         3729.5          8.378         51.232         68.095
         3730.0          8.378         52.764         68.331
         3730.5          8.378         52.827         68.682
         3731.0          8.359         57.274         68.486
         3731.5          8.339         61.707         67.605
         3732.0          8.339         61.867         65.790
         3732.5          8.339         58.883         64.365
         3733.0          8.320         49.664         63.067
         3733.5          8.300         45.418         64.094
         3734.0          8.281         63.419         66.719
         3734.5          8.281         68.940         67.817
         3735.0          8.272        117.650         68.955
         3735.5          8.262        124.595         69.660
         3736.0          8.294        119.200         69.534
         3736.5          8.331        120.897         69.528
         3737.0          8.340        121.910         72.211
         3737.5          8.345        105.059         70.429
         3738.0          8.372         86.566         69.239
         3738.5          8.417         79.581         67.617
         3739.0          8.437         71.108         64.525
         3739.5          8.437         73.516         62.330
         3740.0          8.437         64.046         60.880
         3740.5          8.437         61.264         60.583
         3741.0          8.397         58.288         61.998
         3741.5          8.359         65.204         64.685
         3742.0          8.339         73.219         66.013
         3742.5          8.339         76.926         66.122
         3743.0          8.339         96.673         66.311
         3743.5          8.339        106.982         66.664
         3744.0          8.339        116.244         66.045
         3744.5          8.339        113.157         64.804
         3745.0          8.331         83.177         64.306
         3745.5          8.281         72.225         64.734
         3746.0          8.281        103.737         67.204
         3746.5          8.269        113.698         70.536
         3747.0          8.222        139.243         70.597
         3747.5          8.242        121.120         68.264
         3748.0          8.242         92.593         64.272
         3748.5          8.242         63.211         61.043
         3749.0          8.242         31.998         59.255
         3749.5          8.242         28.725         59.316
         3750.0          8.261         30.011         59.709
         3750.5          8.261         30.801         60.709
         3751.0          8.281         31.981         62.219
         3751.5          8.281         32.532         62.151
         3752.0          8.300         31.189         61.934
         3752.5          8.304         31.825         62.904
         3753.0          8.320         35.916         63.849
         3753.5          8.339         46.999         69.348
         3754.0          8.359         68.686         71.800
         3754.5          8.359         76.403         72.087
         3755.0          8.378         72.461         70.587
         3755.5          8.389         52.413         65.957
         3756.0          8.398         38.673         62.731
         3756.5          8.398         35.880         61.586
         3757.0          8.398         33.918         62.886
         3757.5          8.437         36.541         64.763
         3758.0          8.456         42.107         65.027
         3758.5          8.456         43.273         64.356
         3759.0          8.474         38.879         63.193
         3759.5          8.476         35.488         62.912
         3760.0          8.476         34.893         63.790
         3760.5          8.476         34.883         64.085
         3761.0          8.495         34.678         64.257
         3761.5          8.495         34.083         64.373
         3762.0          8.495         33.959         64.747
         3762.5          8.495         34.554         65.278
         3763.0          8.495         35.088         65.346
         3763.5          8.515         34.503         64.954
         3764.0          8.515         35.761         64.689
         3764.5          8.524         36.842         64.894
         3765.0          8.534         36.452         65.306
         3765.5          8.534         38.165         65.081
         3766.0          8.534         41.690         64.781
