###############################################
##         ENVERUS                           ##
##         ESS - Open Hole                   ##
##         PERMIAN / DELAWARE                ##
##         Nov 02 2023  V4.0                 ##
##         42-109-00406-00-00                ##
###############################################
## Copyright 2017-2023  ENVERUS.  All Rights Reserved. 
## Confidential - Property of ENVERUS, use governed by terms and 
## conditions found within the existing Information Services Subscription Agreement 
## (as may be amended, the “ISSA”) between Customer and ENVERUS. 
## 
~VERSION INFORMATION
# MNEM.UNIT                               DATA : DESCRIPTION OF MNEMONIC
#-----.-----     ----------------------------- : -----------------------------
VERS.                                     2.00 : CWLS LOG ASCII STANDARD - VERSION 2.00
WRAP.                                       NO : MULTIPLE LINES PER DEPTH STEP
VEND.                                  ENVERUS : VENDOR
TYPE.                          ESS - OPEN HOLE : ENVERUS ESSENTIAL CURVES – ACCESSIBLE THROUGH ENVERUS PRISM(TM)
DOC.                                  31976272 : ENVERUS HEADER RAW DOCUMENT ID
#___________________________________________________________________________________________________ 
~WELL INFORMATION 
# f03iSNYnaQ7mQXX2RIaOYtiytuBBABKYYIB1smJtyZkBcGMChrfvYQpeE0DESEj4BN+caz3q2IoGlEPFhwFUwg== 
# MNEM.UNIT                                              DATA : DESCRIPTION OF MNEMONIC 
#-----.-----                    ----------------------------- : ----------------------------- 
CNTY.                                               CULBERSON : COUNTY 
STATE.                                                  TEXAS : STATE 
CNTRY.                                                    USA : COUNTRY 
API.                                             42-109-00406 : API (10 Digit) 
API_14.                                    42-109-00406-00-00 : API (14 Digits) 
API_14_std.                                 42-109-00406-0000 : API (14 Digits Standard) 
UWI.                                           42109004060000 : UNIQUE WELL ID 
WELL.                                                  DRD_55 : WELL NAME
STRT.FT                                                 100.5 : START DEPTH
STOP.FT                                               12629.5 : STOP DEPTH
STEP.FT                                                   0.5 : STEP BETWEEN DEPTHS
NULL.                                                 -999.25 : NULL VALUE
#___________________________________________________________________________________________________ 
~PARAMETER INFORMATION 
# MNEM.UNIT                                              DATA : DESCRIPTION OF MNEMONIC 
#-----.-----                    ----------------------------- : -----------------------------
#___________________________________________________________________________________________________ 
~CURVE INFORMATION 
# MNEM.UNIT           : CURVE DESCRIPTION 
#-----.-----          : ----------------------------- 
 DEPT.FT               : MEASURED DEPTH 
 GR__A.API             : GAMMA RAY (GAMMA RAY) 
 DT__A.US/FT           : SONIC DELTA TRANSIT TIME (SONIC) 
 #___________________________________________________________________________________________________ 
~A         DEPT          GR__A          DT__A
# ...
         5929.5         51.725         73.589
         5930.0         50.697         76.122
         5930.5         51.467         78.969
         5931.0         53.366         79.304
         5931.5         55.700         78.245
         5932.0         57.371         79.381
         5932.5         58.203         79.775
         5933.0         57.145         77.969
         5933.5         56.548         76.934
         5934.0         57.781         76.445
         5934.5         61.505         78.281
         5935.0         63.970         78.404
         5935.5         64.325         77.426
         5936.0         62.899         75.471
         5936.5         59.079         71.539
         5937.0         55.441         69.036
         5937.5         46.726         63.353
         5938.0         40.095         59.094
         5938.5         32.536         56.761
         5939.0         24.200         59.064
         5939.5         19.679         64.767
         5940.0         22.855         67.288
         5940.5         27.691         71.385
         5941.0         40.976         75.828
         5941.5         55.242         80.040
         5942.0         60.122         79.518
         5942.5         60.209         76.884
         5943.0         55.979         73.882
         5943.5         53.565         72.912
         5944.0         49.314         72.217
         5944.5         47.417         73.264
         5945.0         48.277         74.077
         5945.5         53.432         75.413
         5946.0         62.811         76.692
         5946.5         64.590         76.646
         5947.0         63.557         75.641
         5947.5         56.924         73.656
         5948.0         51.865         70.689
         5948.5         49.160         70.419
         5949.0         45.141         70.419
         5949.5         40.807         69.637
         5950.0         37.630         69.762
         5950.5         38.598         70.769
         5951.0         40.192         71.741
         5951.5         42.942         71.719
         5952.0         44.736         71.084
         5952.5         43.844         69.143
         5953.0         42.607         66.158
         5953.5         39.796         64.924
         5954.0         36.502         63.907
         5954.5         35.322         64.714
         5955.0         34.662         66.033
         5955.5         35.578         68.579
         5956.0         37.208         69.797
         5956.5         40.247         71.000
         5957.0         43.667         70.733
         5957.5         44.716         69.823
         5958.0         44.549         68.262
         5958.5         43.335         65.181
         5959.0         40.877         65.020
         5959.5         36.950         65.150
         5960.0         34.062         65.381
         5960.5         32.863         69.270
         5961.0         32.820         68.949
         5961.5         34.949         68.741
         5962.0         37.575         69.147
         5962.5         39.051         69.847
         5963.0         40.246         71.719
         5963.5         42.041         74.789
         5964.0         45.647         76.669
         5964.5         50.088         78.348
         5965.0         61.906         80.021
         5965.5         70.962         80.257
         5966.0         73.358         78.213
         5966.5         66.720         73.701
         5967.0         55.167         68.486
         5967.5         46.148         65.207
         5968.0         40.085         64.526
         5968.5         35.071         64.790
         5969.0         31.526         64.666
         5969.5         29.208         65.113
         5970.0         31.405         66.709
         5970.5         34.619         67.130
         5971.0         37.927         64.934
         5971.5         40.367         62.968
         5972.0         40.012         61.685
         5972.5         37.329         60.119
         5973.0         31.141         58.777
         5973.5         27.499         58.064
         5974.0         26.310         59.029
         5974.5         26.557         61.078
         5975.0         28.207         62.990
         5975.5         30.753         66.350
         5976.0         32.781         68.903
         5976.5         36.148         70.908
         5977.0         43.515         72.613
         5977.5         49.247         71.061
         5978.0         50.503         68.843
         5978.5         48.003         67.652
         5979.0         44.407         66.738
         5979.5         41.517         66.022
         5980.0         38.002         65.081
         5980.5         36.361         65.457
         5981.0         36.310         67.470
         5981.5         36.887         68.492
         5982.0         39.432         68.802
         5982.5         40.953         69.437
         5983.0         42.475         68.644
         5983.5         43.623         67.527
         5984.0         45.536         65.729
         5984.5         42.323         63.621
         5985.0         37.825         62.016
         5985.5         34.301         61.810
         5986.0         31.002         63.270
         5986.5         30.506         65.330
         5987.0         33.120         66.781
         5987.5         36.842         66.394
         5988.0         42.166         65.857
         5988.5         45.249         64.769
         5989.0         46.512         65.481
         5989.5         47.164         66.740
         5990.0         41.937         64.506
         5990.5         41.667         64.295
         5991.0         43.908         64.492
         5991.5         47.709         64.664
         5992.0         46.678         60.908
         5992.5         41.213         57.477
         5993.0         27.527         55.845
         5993.5         20.620         55.260
         5994.0         18.570         53.769
         5994.5         16.072         52.563
         5995.0         13.014         52.791
         5995.5         10.946         54.532
         5996.0         11.816         56.979
         5996.5         16.216         60.672
         5997.0         23.515         63.324
         5997.5         34.621         65.627
         5998.0         41.251         67.822
         5998.5         45.607         69.582
         5999.0         46.131         70.348
         5999.5         45.548         70.654
         6000.0         45.392         73.243
         6000.5         46.206         74.329
         6001.0         49.745         75.225
         6001.5         55.091         74.773
         6002.0         57.920         72.599
         6002.5         57.815         70.417
         6003.0         50.420         68.214
         6003.5         46.300         67.531
         6004.0         40.426         66.015
         6004.5         37.332         66.170
         6005.0         36.951         66.504
         6005.5         38.715         67.827
         6006.0         41.659         70.125
         6006.5         44.376         71.540
         6007.0         48.605         73.486
         6007.5         53.999         73.790
         6008.0         58.878         72.796
         6008.5         60.110         72.101
         6009.0         58.310         71.122
         6009.5         55.197         70.270
         6010.0         50.050         69.428
         6010.5         47.474         69.581
         6011.0         45.945         70.072
         6011.5         46.566         68.835
         6012.0         48.592         66.598
         6012.5         43.942         66.007
         6013.0         39.471         66.214
         6013.5         37.621         66.467
         6014.0         38.419         67.210
         6014.5         41.074         70.626
         6015.0         47.649         72.587
         6015.5         53.956         73.556
         6016.0         55.748         72.740
