~VERSION INFORMATION
VERS. 2.0 : CWLS Log ASCII Standard - version 2.0
WRAP.  NO : One line per depth step
#--------------------------------------------------#
#----------------DRILLING INFO, INC.---------------#
#---------------WWW.DRILLINGINFO.COM---------------#
#------------------COPYRIGHT 2015------------------#
#--------------------------------------------------#
#THIS FILE MAY BE USED ONLY IN ACCORDANCE WITH A CURRENT SUBSCRIPTION AGREEMENT BETWEEN
#THE USER AND DRILLING INFO, INC. NO PART OF THIS FILE MAY BE REPRODUCED, USED, COPIED,
#MODIFIED, PROPAGATED, OR DISTRIBUTED EXCEPT IN ACCORDANCE WITH THE SUBSCRIPTION
#AGREEMENT. UNAUTHORIZED USE OR DISTRIBUTION OF ALL OR ANY PART OF THIS FILE MAY VIOLATE
#COPYRIGHT, TRADEMARK, AND/OR OTHER LAWS AND IS SUBJECT TO CIVIL AS WELL AS CRIMINAL
#SANCTIONS.
#--------------------------------------------------#
#THIS FILE IS PROVIDED "AS-IS" AND ALL WARRANTIES ARE EXPRESSLY DISCLAIMED, WHETHER
#EXPRESS, ORAL, IMPLIED, STATUTORY OR OTHERWISE, INCLUDING ANY IMPLIED WARRANTY OF FITNESS
#FOR A PARTICULAR PURPOSE, MERCHANTABILITY, TITLE OR NON-INFRINGEMENT, AND ANY WARRANTIES
#ARISING BY VIRTUE OF CUSTOM OF TRADE OR COURSE OF DEALING.  FURTHER, DRILLING INFO,
#INC. AND ITS LICENSORS DO NOT REPRESENT OR WARRANT THAT THIS FILE WILL MEET USER'S
#REQUIREMENTS OR ARE SUITABLE FOR USER'S NEEDS OR THAT THE DATA OR RESULTS PROVIDED IN
#CONJUNCTION THEREWITH ARE CORRECT, ACCURATE, TIMELY OR RELIABLE. THESE DISCLAIMERS SHALL
#APPLY REGARDLESS OF ANY FAILURE OF ESSENTIAL PURPOSE OF ANY LIMITED REMEDY.  SOME
#JURISDICTIONS DO NOT ALLOW THE EXCLUSION OF CERTAIN WARRANTIES SO SOME OF THE ABOVE
#EXCLUSIONS MAY NOT APPLY. IN NO EVENT SHALL DRILLING INFO, INC. OR ANY OF ITS AFFILIATES
#BE LIABLE UNDER ANY LEGAL THEORY, WHETHER IN TORT (INCLUDING WITHOUT LIMITATION
#NEGLIGENCE), CONTRACT, STRICT LIABILITY, STATUTORY OR OTHERWISE, FOR ANY SPECIAL,
#INCIDENTAL, CONSEQUENTIAL, EXEMPLARY, PUNITIVE OR INDIRECT DAMAGE OF ANY KIND, INCLUDING
#WITHOUT LIMITATION LOSS OF REVENUE, PROFITS, GOODWILL, USE, AND/OR DATA OR THE COST OF
#PROCUREMENT OF SUBSTITUTE GOODS OR SERVICES, EVEN IF APPRISED OF THE POSSIBILITY OF SUCH
#DAMAGES IN ADVANCE.
#--------------------------------------------------#
~WELL INFORMATION
#MNEMONIC     .UNIT              VALUE :DESCRIPTION
#--------------------------------------------------#
STRT       .FT                4 :START DEPTH
STOP       .FT                10042 :STOP DEPTH
STEP       .FT                   0.500 :STEP
NULL       .                  -999.250 :NULL
API        .                421093139500 :API NUMBER
COMP       .         MOBIL OIL CORPORATION :COMPANY
WELL       .        MADERA-BROMAN  1 :WELL
DATE       .                27-Jun-1979 :LOG DATE
~CURVE INFORMATION
#MNEMONIC     .UNIT      API CODE :CURVE DESCRIPTION
#--------------------------------------------------#
DEPTH       .FT                      :Measured Depth
DT.US/FT        UNKNOWN   :DT
GR.API        UNKNOWN   :GR
CAL.INCH        UNKNOWN   :CAL
~A    DEPTH    DT    GR    CAL
# ...
 9191     50.368   16.546   6.48
 9191.5     50.366   15.444   6.48
 9192     50.779   16.53   6.479
 9192.5     51.191   18.687   6.479
 9193     51.604   20.845   6.479
 9193.5     52.017   22.311   6.478
 9194     52.429   20.666   6.478
 9194.5     52.842   19.02   6.478
 9195     53.214   20.381   6.477
 9195.5     52.646   22.509   6.477
 9196     52.077   24.636   6.476
 9196.5     51.508   26.763   6.476
 9197     50.939   28.891   6.476
 9197.5     50.906   29.117   6.475
 9198     50.968   27.847   6.475
 9198.5     50.941   26.578   6.475
 9199     50.36   25.308   6.474
 9199.5     49.778   24.039   6.474
 9200     49.765   22.769   6.474
 9200.5     50.005   24.029   6.473
 9201     50.245   26.89   6.473
 9201.5     50.485   29.751   6.472
 9202     50.317   32.062   6.472
 9202.5     49.942   30.943   6.472
 9203     49.567   29.825   6.471
 9203.5     49.295   29.399   6.471
 9204     49.42   32.417   6.471
 9204.5     49.544   35.435   6.47
 9205     49.631   37.351   6.47
 9205.5     49.529   36.334   6.469
 9206     49.427   36.511   6.469
 9206.5     49.324   37.926   6.469
 9207     49.222   38.87   6.468
 9207.5     49.119   37.182   6.468
 9208     49.017   35.495   6.468
 9208.5     48.915   33.808   6.467
 9209     48.812   32.121   6.467
 9209.5     48.99   30.434   6.466
 9210     49.329   28.747   6.466
 9210.5     49.668   27.06   6.466
 9211     49.796   25.373   6.465
 9211.5     49.414   24.187   6.465
 9212     49.139   24.931   6.464
 9212.5     49.256   25.675   6.464
 9213     49.372   26.419   6.464
 9213.5     49.489   27.164   6.463
 9214     49.606   27.908   6.463
 9214.5     49.723   28.652   6.463
 9215     49.469   28.333   6.462
 9215.5     49.127   27.652   6.462
 9216     48.785   26.972   6.461
 9216.5     48.443   26.498   6.461
 9217     48.101   26.906   6.461
 9217.5     47.759   27.313   6.46
 9218     47.844   27.72   6.46
 9218.5     47.956   28.128   6.459
 9219     48.067   28.535   6.459
 9219.5     48.179   29.748   6.459
 9220     48.29   32.796   6.458
 9220.5     48.402   35.844   6.458
 9221     46.696   38.893   6.457
 9221.5     46.687   41.559   6.457
 9222     46.678   43.104   6.457
 9222.5     46.669   44.648   6.456
 9223     46.661   46.193   6.456
 9223.5     46.554   47.737   6.455
 9224     46.401   49.282   6.455
 9224.5     46.249   50.826   6.455
 9225     46.097   50.678   6.454
 9225.5     45.944   50.167   6.454
 9226     45.905   49.655   6.453
 9226.5     46.29   49.143   6.453
 9227     46.674   51.458   6.453
 9227.5     47.059   55.109   6.452
 9228     47.443   58.76   6.452
 9228.5     47.827   59.318   6.451
 9229     47.898   59.061   6.451
 9229.5     47.698   58.804   6.451
 9230     47.497   58.422   6.45
 9230.5     47.297   57.657   6.45
 9231     47.096   56.892   6.449
 9231.5     46.896   56.127   6.449
 9232     47.097   55.362   6.449
 9232.5     47.464   54.597   6.448
 9233     47.831   54.997   6.448
 9233.5     48.198   57.923   6.447
 9234     48.391   60.849   6.447
 9234.5     48.281   63.774   6.447
 9235     48.17   66.7   6.446
 9235.5     48.059   69.626   6.446
 9236     48.091   72.552   6.445
 9236.5     48.216   63.175   6.445
 9237     48.34   52.925   6.445
 9237.5     48.465   42.676   6.444
 9238     48.59   32.427   6.444
 9238.5     48.714   25.365   6.446
 9239     48.839   21.226   6.45
 9239.5     48.854   25.173   6.453
 9240     48.764   32.588   6.457
 9240.5     48.674   40.004   6.461
 9241     48.584   47.42   6.464
 9241.5     48.495   44.92   6.468
 9242     48.405   39.262   6.471
 9242.5     48.319   33.604   6.475
 9243     48.349   28.162   6.479
 9243.5     48.378   25.159   6.482
 9244     48.408   22.157   6.486
 9244.5     48.438   19.155   6.489
 9245     48.467   16.153   6.493
 9245.5     48.604   14.014   6.497
 9246     49.039   14.353   6.5
 9246.5     49.475   15.101   6.504
 9247     49.911   16.275   6.507
 9247.5     50.347   17.449   6.511
 9248     53.8   18.623   6.515
 9248.5     52.422   19.177   6.518
 9249     51.045   18.768   6.522
 9249.5     49.668   18.358   6.525
 9250     48.29   19.243   6.529
 9250.5     48.349   21.838   6.533
 9251     48.956   24.433   6.536
 9251.5     49.563   27.028   6.54
 9252     50.169   25.499   6.543
 9252.5     50.776   23.752   6.547
 9253     51.383   22.004   6.551
 9253.5     51.39   20.257   6.554
 9254     50.621   18.51   6.558
 9254.5     49.853   16.763   6.561
 9255     49.084   15.015   6.565
 9255.5     48.316   14.398   6.569
 9256     48.187   19.033   6.572
 9256.5     48.161   23.667   6.576
 9257     48.134   26.334   6.579
 9257.5     47.758   24.761   6.583
 9258     47.296   23.188   6.583
 9258.5     46.834   21.615   6.584
 9259     46.371   20.043   6.585
 9259.5     46.795   18.47   6.586
 9260     47.713   20.757   6.587
 9260.5     48.632   23.277   6.588
 9261     49.551   25.797   6.589
 9261.5     49.602   28.317   6.59
 9262     49.313   28.766   6.59
 9262.5     49.024   28.934   6.591
 9263     48.735   29.102   6.588
 9263.5     48.446   29.27   6.581
 9264     48.158   29.438   6.575
 9264.5     47.869   29.186   6.569
 9265     47.58   28.619   6.563
 9265.5     47.291   28.052   6.557
 9266     47.002   27.485   6.551
 9266.5     47.112   26.918   6.545
 9267     47.361   24.259   6.539
 9267.5     47.611   14.735   6.533
 9268     47.861   15.605   6.527
 9268.5     47.823   16.824   6.52
 9269     47.664   18.044   6.514
 9269.5     47.506   19.264   6.508
 9270     47.347   19.433   6.502
 9270.5     47.188   16.926   6.496
 9271     47.029   14.418   6.49
 9271.5     46.871   15.061   6.484
 9272     46.712   16.152   6.478
 9272.5     46.553   17.242   6.474
 9273     46.395   18.332   6.471
 9273.5     46.236   18.958   6.468
 9274     46.077   17.568   6.466
 9274.5     45.919   16.177   6.463
 9275     45.76   14.786   6.46
 9275.5     45.601   13.395   6.458
 9276     45.601   13.501   6.455
 9276.5     45.602   15.746   6.452
 9277     45.739   16.048   6.449
 9277.5     46.236   15.386   6.447
 9278     46.734   14.724   6.444
 9278.5     47.231   14.061   6.441
 9279     47.728   13.399   6.439
 9279.5     48.226   12.737   6.436
 9280     48.723   10.818   6.433
 9280.5     48.855   8.437   6.43
 9281     48.757   7.123   6.428
 9281.5     48.66   8.033   6.425
 9282     48.599   8.943   6.422
 9282.5     48.681   9.854   6.419
 9283     48.763   10.764   6.417
 9283.5     48.845   11.603   6.414
 9284     48.927   10.804   6.411
 9284.5     49.009   10.005   6.409
 9285     49.091   9.205   6.406
 9285.5     49.173   8.406   6.403
 9286     49.255   8.761   6.4
 9286.5     49.337   9.27   6.398
 9287     49.419   9.78   6.395
 9287.5     49.501   10.289   6.392
 9288     49.583   10.799   6.4
 9288.5     49.285   11.308   6.419
 9289     48.212   11.818   6.437
 9289.5     47.14   11.909   6.456
 9290     46.225   11.907   6.474
 9290.5     46.364   11.904   6.493
 9291     46.503   11.902   6.511
 9291.5     46.642   11.9   6.53
 9292     46.781   11.897   6.548
 9292.5     46.92   11.895   6.567
 9293     46.952   11.893   6.571
 9293.5     46.809   11.89   6.573
 9294     46.826   11.888   6.575
 9294.5     47.163   12.392   6.577
 9295     47.5   13.049   6.579
 9295.5     47.837   13.705   6.581
 9296     48.173   14.361   6.583
 9296.5     48.221   15.89   6.586
 9297     48.26   17.883   6.588
 9297.5     48.299   19.875   6.59
 9298     48.338   21.868   6.592
 9298.5     48.377   21.962   6.594
 9299     48.416   20.646   6.596
 9299.5     48.455   19.331   6.598
 9300     48.494   18.016   6.6
 9300.5     48.533   16.701   6.603
 9301     48.484   15.386   6.605
 9301.5     47.841   15.052   6.607
 9302     47.198   15.356   6.609
 9302.5     46.555   15.66   6.611
 9303     46.161   15.263   6.613
 9303.5     46.373   14.501   6.615
 9304     46.585   13.738   6.617
 9304.5     46.797   12.975   6.62
 9305     46.743   12.212   6.62
 9305.5     46.667   13.216   6.619
 9306     46.591   14.242   6.618
