###############################################
##         ENVERUS                           ##
##         ESS - Open Hole                   ##
##         PERMIAN / DELAWARE                ##
##         Nov 03 2023  V4.0                 ##
##         42-109-32572-90-00                ##
###############################################
## Copyright 2017-2023  ENVERUS.  All Rights Reserved. 
## Confidential - Property of ENVERUS, use governed by terms and 
## conditions found within the existing Information Services Subscription Agreement 
## (as may be amended, the “ISSA”) between Customer and ENVERUS. 
## 
~VERSION INFORMATION
# MNEM.UNIT                               DATA : DESCRIPTION OF MNEMONIC
#-----.-----     ----------------------------- : -----------------------------
VERS.                                     2.00 : CWLS LOG ASCII STANDARD - VERSION 2.00
WRAP.                                       NO : MULTIPLE LINES PER DEPTH STEP
VEND.                                  ENVERUS : VENDOR
TYPE.                          ESS - OPEN HOLE : ENVERUS ESSENTIAL CURVES – ACCESSIBLE THROUGH ENVERUS PRISM(TM)
DOC.                                  51093467 : ENVERUS HEADER RAW DOCUMENT ID
#___________________________________________________________________________________________________ 
~WELL INFORMATION 
# 8gl1O6v4swiPFL4GH+dnL3Th7drW/gNnufiOMC39xBbatiyIUGjWQRxOO2UkOAKZqu0QrDKM70MxnzzovQmAYg== 
# MNEM.UNIT                                              DATA : DESCRIPTION OF MNEMONIC 
#-----.-----                    ----------------------------- : ----------------------------- 
CNTY.                                               CULBERSON : COUNTY 
STATE.                                                  TEXAS : STATE 
CNTRY.                                                    USA : COUNTRY 
API.                                             42-109-32572 : API (10 Digit) 
API_14.                                    42-109-32572-90-00 : API (14 Digits) 
API_14_std.                                 42-109-32572-9000 : API (14 Digits Standard) 
UWI.                                           42109325729000 : UNIQUE WELL ID 
WELL.                               42109325720000_PREV_API14 : WELL NAME
STRT.FT                                                2248.5 : START DEPTH
STOP.FT                                               10757.5 : STOP DEPTH
STEP.FT                                                   0.5 : STEP BETWEEN DEPTHS
NULL.                                                 -999.25 : NULL VALUE
PREV_APII.                                     42109325720000 : WELL IDENTIFIER
#___________________________________________________________________________________________________ 
~PARAMETER INFORMATION 
# MNEM.UNIT                                              DATA : DESCRIPTION OF MNEMONIC 
#-----.-----                    ----------------------------- : ----------------------------- 
EKB.FT                                                   3340 : ELEVATION ABOVE MSL
#___________________________________________________________________________________________________ 
~CURVE INFORMATION 
# MNEM.UNIT           : CURVE DESCRIPTION 
#-----.-----          : ----------------------------- 
 DEPT.FT               : MEASURED DEPTH 
 CALI.IN               : CALIPER (CAL - CALIPER) 
 GR.API                : GAMMA RAY (GAMMA RAY) 
 DT.US/FT              : SONIC DELTA TRANSIT TIME (SONIC) 
 #___________________________________________________________________________________________________ 
~A         DEPT           CALI             GR             DT
# ...
         3898.5         10.051         70.847         75.973
         3899.0         10.005         62.033         69.262
         3899.5          9.926         53.126         66.803
         3900.0          9.894         51.007         67.564
         3900.5          9.855         53.156         71.951
         3901.0          9.855         63.948         73.636
         3901.5          9.836         70.089         74.523
         3902.0          9.836         69.765         75.000
         3902.5          9.836         68.689         74.859
         3903.0          9.836         73.147         74.958
         3903.5          9.836         79.333         75.625
         3904.0          9.836         78.669         75.305
         3904.5          9.836         73.954         73.791
         3905.0          9.836         75.128         73.516
         3905.5          9.836         78.419         72.680
         3906.0          9.836         76.068         71.698
         3906.5          9.836         67.263         72.478
         3907.0          9.836         65.084         74.430
         3907.5          9.836         65.159         73.936
         3908.0          9.836         66.980         73.441
         3908.5          9.836         74.107         71.684
         3909.0          9.816         71.842         71.465
         3909.5          9.816         67.074         70.812
         3910.0          9.816         66.536         69.985
         3910.5          9.792         66.489         65.968
         3911.0          9.714         65.707         63.781
         3911.5          9.635         67.351         64.930
         3912.0          9.601         71.277         65.116
         3912.5          9.557         82.920         64.479
         3913.0          9.483         87.343         65.073
         3913.5          9.464         81.676         65.898
         3914.0          9.464         78.730         66.110
         3914.5          9.464         95.073         69.655
         3915.0          9.468        131.259         71.283
         3915.5          9.483        159.728         71.582
         3916.0          9.483        163.035         71.302
         3916.5          9.483        164.649         71.010
         3917.0          9.503        166.357         70.339
         3917.5          9.503        151.457         69.272
         3918.0          9.503        140.868         68.646
         3918.5          9.523        122.986         71.136
         3919.0          9.522        145.825         72.411
         3919.5          9.542        224.207         74.378
         3920.0          9.555        248.364         74.328
         3920.5          9.600        224.670         70.389
         3921.0          9.600        165.833         67.531
         3921.5          9.603        115.917         64.770
         3922.0          9.605        102.148         63.853
         3922.5          9.607         75.317         63.503
         3923.0          9.609         77.636         66.299
         3923.5          9.611         78.885         67.955
         3924.0          9.613         79.716         68.066
         3924.5          9.616         87.656         68.834
         3925.0          9.618         97.508         68.706
         3925.5          9.620        106.840         69.307
         3926.0          9.622        113.264         69.536
         3926.5          9.600        146.731         69.730
         3927.0          9.581        137.148         70.410
         3927.5          9.555        111.386         69.173
         3928.0          9.601        104.381         68.942
         3928.5          9.601        103.508         67.888
         3929.0          9.601        101.499         68.013
         3929.5          9.601         94.395         68.370
         3930.0          9.601         93.738         69.065
         3930.5          9.601         93.525         69.031
         3931.0          9.601         90.080         68.620
         3931.5          9.601         98.424         70.352
         3932.0          9.601        118.528         69.969
         3932.5          9.620        139.933         69.707
         3933.0          9.620        141.097         69.383
         3933.5          9.640        151.066         67.481
         3934.0          9.659        162.425         67.890
         3934.5          9.699        208.883         72.160
         3935.0          9.816        265.922         73.893
         3935.5          9.874        300.326         73.961
         3936.0          9.913        300.161         71.232
         3936.5         10.110        246.499         63.669
         3937.0         10.110        178.954         60.167
         3937.5         10.090        111.409         61.070
         3938.0         10.167         56.749         62.966
         3938.5         10.265         65.470         70.247
         3939.0         10.363         71.421         73.015
         3939.5         10.442         78.330         73.947
         3940.0         10.501         76.335         73.867
         3940.5         10.578         71.331         70.771
         3941.0         10.599         64.970         65.595
         3941.5         10.675         55.495         59.834
         3942.0         10.677         51.095         59.623
         3942.5         10.793         49.629         63.549
         3943.0         10.912         52.807         71.124
         3943.5         11.061         58.536         77.979
         3944.0         11.184         61.708         79.310
         3944.5         11.357         65.793         80.950
         3945.0         11.457         67.686         81.056
         3945.5         11.555         65.567         79.486
         3946.0         11.653         63.040         78.504
         3946.5         11.751         71.938         77.902
         3947.0         11.812         83.951         79.582
         3947.5         12.005         85.157         81.336
         3948.0         12.122         83.984         81.367
         3948.5         12.220         72.987         81.592
         3949.0         12.298         68.723         83.725
         3949.5         12.414         66.979         85.064
         3950.0         12.494         66.928         87.043
         3950.5         12.557         66.768         89.091
         3951.0         12.557         62.072         88.820
         3951.5         12.557         62.410         89.143
         3952.0         12.557         64.227         88.504
         3952.5         12.557         64.971         85.539
         3953.0         12.557         66.691         83.471
         3953.5         12.562         70.369         82.353
         3954.0         12.570         76.115         81.533
         3954.5         12.578         72.962         77.530
         3955.0         12.580         62.129         78.892
         3955.5         12.580         58.168         74.720
         3956.0         12.580         61.205         75.259
         3956.5         12.580         64.089         78.234
         3957.0         12.554         61.302         80.411
         3957.5         12.512         56.291         79.108
         3958.0         12.479         55.721         78.160
         3958.5         12.265         57.090         75.932
         3959.0         11.733         52.786         72.060
         3959.5         11.514         51.076         75.129
         3960.0         11.382         51.999         73.708
         3960.5         11.407         58.064         71.034
         3961.0         11.401         65.072         71.615
         3961.5         11.421         67.064         72.144
         3962.0         11.513         66.596         74.345
         3962.5         11.663         65.160         78.163
         3963.0         11.826         65.465         77.852
         3963.5         11.943         66.012         77.595
         3964.0         12.041         66.536         78.635
