~Version Information
 VERS.                  2.0:   CWLS log ASCII Standard -VERSION 2.0
 WRAP.                   NO:   One line per depth step
~Well Information Block
#MNEM.UNIT     VALUE/NAME     DESCRIPTION
#---------     -----------    ---------------------------
 STRT.F              8830.0000: START DEPTH
 STOP.F             14230.0000: STOP DEPTH
 STEP.F                 0.5000: STEP DEPTH
 NULL.                 -999.25: NULL VALUE
 LOC .       API  42-109-33374Lat:  LOCATION
 FL1 .       API  42-109-33374Lat:  LOCATIONLINE1
 DMF .                      KB:  DRILL MEAS FROM
 PDAT.                      GL:  PERMANENT DATUM
 CTRY.                     USA:  COUNTRY NAME
 CNTY.               CULBERSON:  COUNTY NAME
 FLD .     FORD, WEST (WOLFCAMP):  FIELD NAME
 WELL.        MOTHER FEE 28 4H:  WELL NAME
 COMP.          CAPITAN ENERGY:  COMPANY
 DATE.             02-May-2019:  DATE
 SVCO.             Halliburton:  SERVICECONAME
 PROV.                   TEXAS:  PROVINCE
 STAT.                   TEXAS:  STATE NAME
 HIDE.                        :  WELLNAMEOPERAT
 BASI.                 PERMIAN:  BASIN
 UWI .            42-109-33374Lat:  UNIQUE WELL IDENTIFIER
 API .            42-109-33374Lat:  API NUMBER
 RANG.                     N/A:  RANGE
 TOWN.                     N/A:  TOWNSHIP
 SECT.                     N/A:  SECTION
 SON .               905631317:  JOB NUMBER
 SRVC.             Halliburton:  SERVICE COMPANY
 LMF .                      KB:  LOG MEASURED FROM
 BAP .ft                0.0000:  GL ELEV ONSHORE
 GVFD.g                 1.0000:  GRAVITY FIELD
~Curve Information Block
#MNEM.UNIT                 API CODE     Curve Description
#---------               -----------    ---------------------------
 DEPT.F                 00 000 000 000:  Depth
 CCL .V                 00 000 000 000:  Casing Collar Locator
 NPHI_OH.pu             00 000 000 000:  NPHI_OH
 NPHI_CHI.pu            00 000 000 000:  NPHI_CHI
 GR_OH.api              00 000 000 000:  GR_OH
 GR_CHI.api             00 000 000 000:  GR_CHI
 RHOB_OH.g/cc           00 000 000 000:  RHOB_OH
 RHOB_CHI.g/cc          00 000 000 000:  RHOB_CHI
 PE_OH.b/e              00 000 000 000:  PE_OH
 PE_CHI.b/e             00 000 000 000:  PE_CHI
 RT10_OH.ohmm           00 000 000 000:  RT10_OH
 RT10_CHI.ohmm          00 000 000 000:  RT10_CHI
 RT30_OH.ohmm           00 000 000 000:  RT30_OH
 RT30_CHI.ohmm          00 000 000 000:  RT30_CHI
 RT90_OH.ohmm           00 000 000 000:  RT90_OH
 RT90_CHI.ohmm          00 000 000 000:  RT90_CHI
 SPHI_CHI.pu            00 000 000 000:  SPHI_CHI
 DTC_CHI.uspf           00 000 000 000:  DTC_CHI
 DTC_OH.uspf            00 000 000 000:  DTC_OH
 SGF .cu                00 000 000 000:  Formation Sigma
 CRNF.NONE              00 000 000 000:  CM GrsCaptRatio
 RIN .NONE              00 000 000 000:  CM GrsInelRatio
#Other Information
#
#WARRANTY: Halliburton will use its best efforts to furnish customers with 
#accurate information and interpretations that are part of, and incident to, the services 
#provided.  However, Halliburton cannot and does not warrant the accuracy 
#or correctness of such information and interpretations.  Under no circumstances should any 
#such information or interpretation be relied upon as the sole basis for any drilling, 
#completion, production, or financial decision or any procedure involving any risk to the 
#safety of any drilling venture, drilling rig or its crew or any other third party.  The 
#Customer has full responsibility for all drilling, completion and production operation.  
#Halliburton makes no representations or warranties, either expressed or 
#implied, including, but not limited to, the implied warranties of merchantability or fitness 
#for a particular purpose, with respect to the services rendered.  In no event will 
#Halliburton be liable for failure to obtain any particular results or for 
#any damages, including, but not limited to, indirect, special or consequential damages, 
#resulting from the use of any information or interpretation provided by Halliburton.
#
~A    DEPT      CCL   NPHI_OH NPHI_CHI  GR_OH    GR_CHI  RHOB_OH RHOB_CHI  PE_OH  PE_CHI RT10_OH RT10_CHI RT30_OH RT30_CHI RT90_OH  RT90_CHI SPHI_CHI DTC_CHI DTC_OH    SGF    CRNF   RIN   
# ...
   11689.5000 17.4548 -999.25  14.7500  -999.25 101.1797 -999.25   2.5119 -999.25 3.0095 -999.25  46.9514 -999.25  48.2342  -999.25  51.3130  20.6000 76.7259 -999.25 28.3242 1.0981 1.0719
   11690.0000 17.4036 -999.25  14.7753  -999.25 101.9707 -999.25   2.5152 -999.25 3.0472 -999.25  46.4187 -999.25  47.6870  -999.25  50.7308  20.5500 76.6524 -999.25 28.5897 1.0978 1.0687
   11690.5000 17.4182 -999.25  14.8854  -999.25 102.6449 -999.25   2.5143 -999.25 3.0330 -999.25  45.6724 -999.25  46.9203  -999.25  49.9152  20.6500 76.8016 -999.25 28.8740 1.0953 1.0677
   11691.0000 17.4233 -999.25  15.0042  -999.25 103.1275 -999.25   2.5142 -999.25 3.0305 -999.25  44.8888 -999.25  46.1153  -999.25  49.0588  20.7500 76.9376 -999.25 28.7386 1.0987 1.0676
   11691.5000 17.4547 -999.25  14.9621  -999.25 102.8469 -999.25   2.5155 -999.25 3.0304 -999.25  44.3215 -999.25  45.5325  -999.25  48.4388  20.6700 76.8254 -999.25 28.6864 1.1033 1.0681
   11692.0000 17.4006 -999.25  14.8016  -999.25 102.0767 -999.25   2.5188 -999.25 3.0505 -999.25  44.1700 -999.25  45.3768  -999.25  48.2732  20.4500 76.5142 -999.25 28.5747 1.1089 1.0685
   11692.5000 17.4186 -999.25  14.8509  -999.25 101.7373 -999.25   2.5184 -999.25 3.0528 -999.25  44.1610 -999.25  45.3676  -999.25  48.2634  20.5000 76.5903 -999.25 28.6420 1.1146 1.0688
   11693.0000 17.4332 -999.25  14.9407  -999.25 102.6008 -999.25   2.5181 -999.25 3.0577 -999.25  44.1105 -999.25  45.3157  -999.25  48.2082  20.5900 76.7192 -999.25 28.9630 1.1205 1.0683
   11693.5000 17.4400 -999.25  15.0321  -999.25 104.1543 -999.25   2.5188 -999.25 3.0674 -999.25  43.7578 -999.25  44.9534  -999.25  47.8228  20.6600 76.8130 -999.25 29.2524 1.1284 1.0675
   11694.0000 17.3931 -999.25  15.2077  -999.25 105.7408 -999.25   2.5169 -999.25 3.0493 -999.25  43.1953 -999.25  44.3755  -999.25  47.2080  20.8500 77.0820 -999.25 29.3825 1.1273 1.0697
   11694.5000 17.4196 -999.25  15.3616  -999.25 107.2440 -999.25   2.5156 -999.25 3.0419 -999.25  42.8653 -999.25  44.0365  -999.25  46.8474  21.0100 77.3114 -999.25 28.9343 1.1280 1.0730
   11695.0000 17.4059 -999.25  15.6508  -999.25 108.2001 -999.25   2.5102 -999.25 3.0123 -999.25  43.1349 -999.25  44.3135  -999.25  47.1420  21.4000 77.8555 -999.25 28.0625 1.1265 1.0789
   11695.5000 17.4315 -999.25  15.8303  -999.25 108.7366 -999.25   2.5045 -999.25 2.9908 -999.25  44.4627 -999.25  45.6775  -999.25  48.5931  21.7100 78.2957 -999.25 27.0117 1.1282 1.0831
   11696.0000 17.4059 -999.25  15.7781  -999.25 109.1944 -999.25   2.5056 -999.25 3.0435 -999.25  46.6786 -999.25  47.9540  -999.25  51.0148  21.6900 78.2690 -999.25 26.4014 1.1344 1.0864
   11696.5000 17.4331 -999.25  15.8733  -999.25 110.5628 -999.25   2.5035 -999.25 3.0784 -999.25  49.3115 -999.25  50.6588  -999.25  53.8923  21.8800 78.5336 -999.25 26.3231 1.1347 1.0888
   11697.0000 17.3843 -999.25  15.8923  -999.25 112.4009 -999.25   2.5027 -999.25 3.1047 -999.25  51.3123 -999.25  52.7143  -999.25  56.0791  21.9500 78.6409 -999.25 26.6135 1.1410 1.0902
   11697.5000 17.7069 -999.25  16.2548  -999.25 113.5241 -999.25   2.4946 -999.25 3.0584 -999.25  52.0580 -999.25  53.4803  -999.25  56.8940  22.4600 79.3650 -999.25 26.9953 1.1318 1.0905
   11698.0000 17.4206 -999.25  16.3532  -999.25 113.2777 -999.25   2.4923 -999.25 3.0362 -999.25  51.7398 -999.25  53.1535  -999.25  56.5463  22.6000 79.5495 -999.25 27.2847 1.1264 1.0870
   11698.5000 17.4187 -999.25  16.4285  -999.25 112.1829 -999.25   2.4916 -999.25 3.0233 -999.25  50.9254 -999.25  52.3168  -999.25  55.6562  22.6600 79.6434 -999.25 27.2559 1.1132 1.0811
   11699.0000 17.6480 -999.25  16.2027  -999.25 110.7928 -999.25   2.4942 -999.25 3.0194 -999.25  50.2403 -999.25  51.6130  -999.25  54.9075  22.3900 79.2550 -999.25 27.3364 1.1080 1.0766
   11699.5000 17.4543 -999.25  15.9406  -999.25 109.0844 -999.25   2.4991 -999.25 3.0482 -999.25  49.9361 -999.25  51.3005  -999.25  54.5750  22.0400 78.7601 -999.25 27.1533 1.1082 1.0748
   11700.0000 17.4175 -999.25  15.6199  -999.25 107.6734 -999.25   2.5031 -999.25 3.0619 -999.25  49.9476 -999.25  51.3123  -999.25  54.5875  21.6600 78.2271 -999.25 26.8911 1.1088 1.0734
   11700.5000 17.4336 -999.25  15.4056  -999.25 106.7894 -999.25   2.5075 -999.25 3.1007 -999.25  50.3694 -999.25  51.7457  -999.25  55.0486  21.3800 77.8342 -999.25 26.7371 1.1102 1.0740
   11701.0000 17.4485 -999.25  15.3740  -999.25 106.5617 -999.25   2.5084 -999.25 3.1230 -999.25  51.0780 -999.25  52.4736  -999.25  55.8230  21.3500 77.7861 -999.25 26.4814 1.1039 1.0722
   11701.5000 17.3501 -999.25  15.1534  -999.25 106.2238 -999.25   2.5141 -999.25 3.1824 -999.25  51.8126 -999.25  53.2283  -999.25  56.6258  21.0500 77.3578 -999.25 26.4184 1.1048 1.0707
   11702.0000 17.4184 -999.25  15.2214  -999.25 105.0269 -999.25   2.5130 -999.25 3.1922 -999.25  52.4874 -999.25  53.9215  -999.25  57.3633  21.1400 77.4948 -999.25 26.4514 1.1051 1.0714
   11702.5000 17.4267 -999.25  14.8616  -999.25 102.8267 -999.25   2.5205 -999.25 3.2536 -999.25  52.8451 -999.25  54.2890  -999.25  57.7542  20.6700 76.8216 -999.25 26.4949 1.1220 1.0709
   11703.0000 17.4466 -999.25  14.6203  -999.25 100.6080 -999.25   2.5252 -999.25 3.2898 -999.25  52.8819 -999.25  54.3267  -999.25  57.7944  20.3500 76.3698 -999.25 26.5623 1.1397 1.0706
   11703.5000 17.4775 -999.25  14.4561  -999.25  99.1088 -999.25   2.5292 -999.25 3.3209 -999.25  52.7049 -999.25  54.1449  -999.25  57.6010  20.1100 76.0345 -999.25 26.7590 1.1519 1.0698
   11704.0000 17.4187 -999.25  14.6805  -999.25  98.5540 -999.25   2.5281 -999.25 3.3281 -999.25  52.3195 -999.25  53.7490  -999.25  57.1798  20.3300 76.3491 -999.25 26.8550 1.1502 1.0703
   11704.5000 17.4030 -999.25  15.1885  -999.25  98.5454 -999.25   2.5191 -999.25 3.2645 -999.25  51.7677 -999.25  53.1822  -999.25  56.5768  20.9700 77.2521 -999.25 27.1349 1.1378 1.0731
   11705.0000 17.4684 -999.25  15.6952  -999.25  98.3799 -999.25   2.5077 -999.25 3.1719 -999.25  51.1315 -999.25  52.5285  -999.25  55.8814  21.6500 78.2144 -999.25 27.4086 1.1200 1.0770
   11705.5000 17.3988 -999.25  15.9602  -999.25  98.0033 -999.25   2.4995 -999.25 3.0852 -999.25  50.1976 -999.25  51.5691  -999.25  54.8608  22.0400 78.7651 -999.25 27.7133 1.1087 1.0796
   11706.0000 17.3996 -999.25  15.8917  -999.25  97.5449 -999.25   2.4984 -999.25 3.0452 -999.25  49.1851 -999.25  50.5289  -999.25  53.7542  21.9800 78.6757 -999.25 28.0068 1.1014 1.0770
   11706.5000 17.4290 -999.25  15.2179  -999.25  97.1454 -999.25   2.5135 -999.25 3.1350 -999.25  48.2402 -999.25  49.5583  -999.25  52.7216  21.0300 77.3384 -999.25 28.0444 1.0966 1.0692
   11707.0000 17.4555 -999.25  14.6066  -999.25  97.0343 -999.25   2.5266 -999.25 3.2108 -999.25  47.5229 -999.25  48.8213  -999.25  51.9375  20.1900 76.1464 -999.25 27.9651 1.0907 1.0603
   11707.5000 17.3898 -999.25  14.1809  -999.25  96.9233 -999.25   2.5372 -999.25 3.2890 -999.25  47.3186 -999.25  48.6114  -999.25  51.7143  19.5800 75.2856 -999.25 27.5832 1.0812 1.0515
   11708.0000 17.4245 -999.25  13.9406  -999.25  96.5050 -999.25   2.5410 -999.25 3.3160 -999.25  47.6633 -999.25  48.9656  -999.25  52.0910  19.2900 74.8710 -999.25 27.3422 1.0783 1.0477
   11708.5000 17.4361 -999.25  13.8208  -999.25  95.4355 -999.25   2.5415 -999.25 3.3245 -999.25  48.3974 -999.25  49.7198  -999.25  52.8934  19.1800 74.7178 -999.25 27.1465 1.0856 1.0477
   11709.0000 17.4125 -999.25  13.6759  -999.25  94.2348 -999.25   2.5414 -999.25 3.3202 -999.25  49.1007 -999.25  50.4423  -999.25  53.6620  19.0600 74.5449 -999.25 27.2511 1.0992 1.0514
   11709.5000 17.4745 -999.25  13.7864  -999.25  93.4545 -999.25   2.5362 -999.25 3.2757 -999.25  49.5576 -999.25  50.9116  -999.25  54.1613  19.2700 74.8456 -999.25 27.3752 1.1073 1.0560
   11710.0000 17.4121 -999.25  14.0450  -999.25  94.1168 -999.25   2.5313 -999.25 3.2462 -999.25  49.5936 -999.25  50.9486  -999.25  54.2007  19.6100 75.3259 -999.25 27.4506 1.1124 1.0577
   11710.5000 17.4208 -999.25  14.2813  -999.25  96.7257 -999.25   2.5283 -999.25 3.2282 -999.25  49.3805 -999.25  50.7296  -999.25  53.9677  19.8900 75.7226 -999.25 27.4686 1.1095 1.0571
