# Exported from Transform Software 5.2.0 on 17-Oct-2019 by user kathryn.gehrke
# DI Transform - A Product of Drillinginfo, Inc. - www.drillinginfo.com
#
~VERSION INFORMATION
 VERS.        2.0 : LAS ASCII STANDARD - VERSION 2.0
 WRAP.         NO : ONE LINE PER DEPTH STEP

~WELL INFORMATION
#MNEM.UNIT       DATA TYPE       INFORMATION
#---------       ---------       -----------
 STRT.ft                 100 : Start Depth
 STOP.ft               10126 : Stop Depth
 STEP.ft                 0.5 : Step Length
 NULL.               -999.25 : Null Value
 COMP.                       : Company
 WELL.  42109329790000_API14 : Well Name
 FLD.                        : Field Name
 LOC.                        : Well Location
 CNTY.                       : County
 STAT.                       : State or Province
 CTRY.                       : Country
 SRVC.                       : Service Company
 DATE.                       : Date
 API.         42109329790000 : Well Identifier

~CURVE INFORMATION
#MNEM.UNIT       API CODE       CURVE DESCRIPTION
#---------       --------       -----------------
 DEPT.ft        : <Measured Depth>
 DT.us/ft       : Sonic
 GR.gAPI        : Gamma Ray

~PARAMETER INFORMATION
#MNEM.UNIT       VALUE       DESCRIPTION
#---------       -----       -----------
 EKB.ft      3282 : Elevation above MSL

~A      DEPT          DT          GR
         100     -999.25     -999.25
       100.5    267.7871     32.7731
         101    267.7871     32.8567
       101.5    267.7871      34.369
         102    267.7871     34.2007
       102.5    267.7871     34.4538
         103    267.7871     34.7045
       103.5    267.7871     37.0572
         104    267.7871      37.901
       104.5    267.7871      37.229
         105    267.7871     36.1345
       105.5    267.7871     36.3051
         106    267.7871     34.1219
       106.5    267.7871     32.7731
         107    267.7871     34.1984
       107.5    267.7871     36.1309
         108    267.7871     37.8151
       108.5    267.7871     36.4746
         109    267.7871     35.8025
       109.5    267.7871     35.8779
         110    267.7871     34.8786
       110.5    267.7871     32.5259
         111    267.7871     32.3529
       111.5    267.7871     32.3529
         112    267.7871     32.9355
       112.5    267.7871     34.4479
         113    267.7871     36.8006
       113.5    267.7871     36.9748
         114    267.7871     37.3044
       114.5    267.7871     36.5546
         115    267.7871     35.3012
       115.5    267.7871     33.4563
         116    267.7871     31.9328
       116.5    267.7871     32.3529
         117    267.7871     31.7727
       117.5    267.7871     30.2603
         118    267.7871     29.4118
       118.5    267.7871     29.9073
         119    267.7871     30.6723
       119.5    267.7871     31.3308
         120    267.7871     34.8599
       120.5    267.7871     35.5366
         121    267.7871     35.7143
       121.5    267.7871     35.7143
         122    267.7871      36.817
       122.5    267.7871     34.2648
         123    267.7871     32.7731
       123.5    267.7871     32.2799
         124    267.7871     31.0253
       124.5    267.7871     27.9947
         125    267.7871     28.5597
       125.5    267.7871     31.3326
         126    267.7871     31.5126
       126.5    267.7871     31.5126
         127    269.1148     32.1975
       127.5    270.5916     28.8202
         128    270.5882      27.072
       128.5    270.5882     26.3999
         129    270.5882     26.8908
       129.5    270.5882     26.2046
         130    268.9263      27.717
       130.5    267.7871     27.7311
         131    267.7871     28.5714
       131.5    267.7871     28.1513
         132    267.7871     28.7245
       132.5    267.7871     28.9916
         133    267.7871     29.6484
       133.5    267.7871     29.8319
         134    267.7871     30.9924
       134.5    267.7871     31.5126
         135    267.7871     31.9163
       135.5    267.7871      30.857
         136    267.7871     31.5797
       136.5    267.7871     31.1936
         137    267.7871     32.0835
       137.5    267.7871     31.5302
         138    267.7871     31.7469
       138.5    267.7871     30.6723
         139    267.2269     30.6723
       139.5    267.2269     30.8218
         140    267.2269     31.9328
       140.5    267.2269     33.0062
         141    267.7871     33.1933
       141.5    267.7871     32.0363
         142    267.7871     29.1892
       142.5    267.7871     26.5005
         143    267.7871     24.1378
       143.5    267.7871     22.6891
         144    267.7871     21.9534
       144.5    267.7871     20.4411
         145    267.7871      20.279
       145.5    267.7871     21.0084
         146    267.7871     22.7515
       146.5    267.7871     23.9496
         147    267.7871     24.9359
       147.5    267.7871     26.0504
         148    267.7871     25.4007
       148.5    267.7871     23.2274
         149    267.7871     23.4224
       149.5    267.7871     23.3846
         150    267.7871     21.8722
       150.5    267.7871      21.657
         151    267.7871     23.1092
       151.5    267.7871     21.9569
         152    267.7871     20.5882
       152.5    267.7871     21.4039
         153    267.7871     20.7812
       153.5    267.7871     18.8486
         154    267.7871     18.4874
       154.5    267.7871     17.9247
         155    267.7871     17.6471
       155.5    267.7871     17.0328
         156    267.7871     18.5451
       156.5    267.7871     19.3277
         157    267.7871     18.7662
       157.5    267.7871     18.9076
         158    267.7871     19.3277
       158.5    267.7871      18.851
         159    267.7871     19.6362
       159.5    267.7871     20.7284
         160    267.7871     21.8487
       160.5    267.7871     22.4926
         161    267.7871      24.005
       161.5    267.7871     24.7911
         162    267.7871     21.8487
       162.5    267.7871     22.2396
         163    267.7871     22.6891
       163.5    267.7871     20.0596
         164    267.7871     18.9076
       164.5    267.7871     19.4655
         165    267.7871     19.3582
       165.5    267.7871     19.9693
         166    267.7871     21.7182
       166.5    267.7871     23.1092
         167    267.7871     23.1092
       167.5    267.7871     22.3006
         168    267.7871     22.2689
       168.5    267.7871     22.6891
         169    268.1921     22.9928
       169.5    269.0882     23.1092
         170    271.1047     23.1092
       170.5    271.1485     21.7303
         171    271.1485     20.1174
       171.5    271.1485     19.0252
         172    270.5882      19.462
       172.5    269.5132     19.3277
         173    268.3473     19.9657
       173.5    268.3473     21.8983
         174    268.3473     23.1092
       174.5    268.3473     23.9496
         175    268.3473     24.3345
       175.5    268.3473     24.3697
         176    268.3473     23.9979
       176.5    268.3473     23.9496
         177    268.3473     22.9773
       177.5    268.3473     22.2325
         178    268.3473     21.2131
       178.5    268.3473     19.2805
         179    268.3473     18.4874
       179.5    268.3473     19.3277
         180    268.3473     20.1305
       180.5    268.0616     21.0084
         181    267.7871     22.3149
       181.5    267.7871     22.6891
         182    267.7871     22.3985
       182.5    267.7871     21.8875
         183    267.7871     22.0619
       183.5    267.7871     22.2689
         184    267.7871     22.6891
       184.5    267.7871     23.1092
         185    267.7871     23.4895
       185.5    267.7871     23.9496
         186    267.7871     24.3697
       186.5    267.7871     23.2339
         187    267.7871     23.1092
       187.5    267.7871     23.1092
         188    267.7871     22.0581
       188.5    267.7871     21.0509
         189    267.7871     21.3028
       189.5    267.7871     20.8823
         190    267.7871     21.0084
       190.5    267.7871     21.4286
         191    267.7871     20.6296
       191.5    267.7871     22.2885
         192    267.7871     24.0745
       192.5    267.7871     24.3697
         193    267.7871     24.9984
       193.5    267.7871     26.0906
         194    267.7871     26.4706
       194.5    267.7871      26.767
         195    267.7871     26.4706
       195.5    267.7871     26.4706
         196    267.7871     26.0114
       196.5    267.7871     25.6303
         197    267.7871     25.6303
       197.5    267.7871     24.8357
         198    267.7871     23.9496
       198.5    267.7871     24.3697
         199    267.7871     23.2397
       199.5    267.7871     22.6891
         200    267.7871     23.1092
       200.5    267.7871     23.3245
         201    267.7871     22.2689
       201.5    267.7871     22.1372
         202    267.7871     22.2689
       202.5    267.7871     21.8487
         203    267.7871     21.2122
       203.5    267.7871     21.3931
         204    267.7871     20.3009
       204.5    267.7871     19.4467
         205    267.7871     19.7479
       205.5    267.7871     19.9505
         206    267.7871     22.1102
       206.5    267.7871     23.9586
         207    267.7871     25.3279
       207.5    267.7871       27.21
         208    267.7871     29.4118
