###############################################
##         ENVERUS                           ##
##         ESS - Open Hole                   ##
##         PERMIAN / DELAWARE                ##
##         Nov 02 2023  V4.0                 ##
##         42-109-10429-00-00                ##
###############################################
## Copyright 2017-2023  ENVERUS.  All Rights Reserved. 
## Confidential - Property of ENVERUS, use governed by terms and 
## conditions found within the existing Information Services Subscription Agreement 
## (as may be amended, the “ISSA”) between Customer and ENVERUS. 
## 
~VERSION INFORMATION
# MNEM.UNIT                               DATA : DESCRIPTION OF MNEMONIC
#-----.-----     ----------------------------- : -----------------------------
VERS.                                     2.00 : CWLS LOG ASCII STANDARD - VERSION 2.00
WRAP.                                       NO : MULTIPLE LINES PER DEPTH STEP
VEND.                                  ENVERUS : VENDOR
TYPE.                          ESS - OPEN HOLE : ENVERUS ESSENTIAL CURVES – ACCESSIBLE THROUGH ENVERUS PRISM(TM)
DOC.                                  32032754 : ENVERUS HEADER RAW DOCUMENT ID
#___________________________________________________________________________________________________ 
~WELL INFORMATION 
# hXqYWT5FmhW7UEcPXxReyvN++rqgSwBrBdup88XCyeQNQmx1Fo1vv7xYmZNr9HC+TZh0ltY2ePdKOSE9Z1hlZw== 
# MNEM.UNIT                                              DATA : DESCRIPTION OF MNEMONIC 
#-----.-----                    ----------------------------- : ----------------------------- 
CNTY.                                               CULBERSON : COUNTY 
STATE.                                                  TEXAS : STATE 
CNTRY.                                                    USA : COUNTRY 
API.                                             42-109-10429 : API (10 Digit) 
API_14.                                    42-109-10429-00-00 : API (14 Digits) 
API_14_std.                                 42-109-10429-0000 : API (14 Digits Standard) 
UWI.                                           42109104290000 : UNIQUE WELL ID 
WELL.                                          ROUNSAVILLE  1 : WELL NAME
STRT.FT                                                     0 : START DEPTH
STOP.FT                                                8409.0 : STOP DEPTH
STEP.FT                                                   0.5 : STEP BETWEEN DEPTHS
NULL.                                                 -999.25 : NULL VALUE
COMP.                                     EOG RESOURCES  INC. : COMPANY
#___________________________________________________________________________________________________ 
~CURVE INFORMATION 
# MNEM.UNIT           : CURVE DESCRIPTION 
#-----.-----          : ----------------------------- 
 DEPT.FT               : MEASURED DEPTH 
 CALI.IN               : CALIPER (CAL - CAL) 
 GR.API                : GAMMA RAY (GR) 
 SP.MV                 : SPONTANEOUS POTENTIAL (SP) 
 DT.US/FT              : SONIC DELTA TRANSIT TIME (DT) 
 RESD.OHMM             : DEEP INDUCTION RESISTIVITY (ILD - ILD) 
 #___________________________________________________________________________________________________ 
~A         DEPT           CALI             GR             SP             DT           RESD
# ...
         1980.0         13.039         45.671         22.898         63.335       1638.582
         1980.5         13.051         45.461         22.866         62.652       1645.984
         1981.0         13.063         46.151         22.718         62.640       1653.387
         1981.5         13.075         46.861         22.570         62.686       1660.301
         1982.0         13.087         47.571         22.558         62.731       1661.065
         1982.5         13.099         48.139         23.214         62.735       1661.828
         1983.0         13.110         48.078         23.870         62.724       1662.592
         1983.5         13.122         48.017         24.526         62.714       1663.355
         1984.0         13.126         47.957         25.182         62.703       1664.119
         1984.5         13.127         49.466         25.837         64.211       1664.883
         1985.0         13.129         52.163         26.023         64.793       1665.646
         1985.5         13.131         52.686         25.944         64.696       1666.410
         1986.0         13.132         50.112         25.434         64.412       1665.590
         1986.5         13.134         47.538         24.721         63.691       1663.271
         1987.0         13.136         44.964         24.007         63.188       1660.953
         1987.5         13.137         42.390         23.293         63.465       1658.634
         1988.0         13.139         41.261         23.630         63.742       1656.316
         1988.5         13.140         41.713         24.083         64.019       1653.997
         1989.0         13.142         42.165         24.536         64.296       1635.758
         1989.5         13.144         42.205         24.990         63.885       1529.512
         1990.0         13.145         41.175         25.443         63.447       1423.266
         1990.5         13.145         40.145         25.896         63.346       1317.020
         1991.0         13.140         39.192         26.216         63.380       1210.774
         1991.5         13.121         40.340         26.324         63.414       1180.059
         1992.0         13.102         41.358         26.432         63.448       1258.621
         1992.5         13.083         39.760         26.540         63.481       1337.183
         1993.0         13.063         38.162         26.205         63.515       1415.745
         1993.5         13.044         36.565         25.852         61.779       1494.307
         1994.0         13.025         33.843         25.498         59.989       1572.869
         1994.5         13.005         30.816         25.141         58.199       1593.440
         1995.0         12.986         27.789         24.771         57.237       1605.262
         1995.5         12.967         28.942         24.401         56.945       1617.084
         1996.0         12.947         30.929         24.031         59.400       1625.514
         1996.5         12.928         35.655         23.832         61.856       1629.824
         1997.0         12.913         40.382         23.752         64.312       1634.134
         1997.5         12.909         45.108         23.750         65.919       1638.444
         1998.0         12.905         49.278         23.795         64.836       1642.754
         1998.5         12.901         46.006         23.840         61.508       1647.064
         1999.0         12.898         43.807         23.884         60.523       1651.374
         1999.5         12.894         43.117         23.929         60.524       1655.684
         2000.0         12.890         42.002         23.973         63.079       1659.995
         2000.5         12.886         40.600         24.018         64.065       1664.305
         2001.0         12.883         39.198         24.062         62.881       1668.615
         2001.5         12.879         37.795         24.107         61.451       1672.925
         2002.0         12.875         37.699         24.149         61.162       1677.235
         2002.5         12.871         38.264         24.176         61.487       1681.545
         2003.0         12.868         38.829         24.204         61.811       1685.855
         2003.5         12.864         40.611         24.231         62.002       1690.165
         2004.0         12.860         42.797         24.259         62.032       1694.475
         2004.5         12.855         46.695         24.286         62.063       1691.726
         2005.0         12.850         50.592         24.313         62.690       1687.522
         2005.5         12.844         54.489         24.341         64.850       1683.318
         2006.0         12.838         58.387         24.368         67.009       1679.115
         2006.5         12.832         61.062         24.411         67.010       1674.911
         2007.0         12.812         60.943         24.527         66.497       1670.707
         2007.5         12.788         57.060         24.644         65.547       1666.503
         2008.0         12.764         49.343         24.761         64.597       1662.299
         2008.5         12.774         49.038         24.877         63.647       1658.095
         2009.0         12.806         48.840         24.803         63.992       1653.891
         2009.5         12.839         48.643         24.476         64.651       1649.687
         2010.0         12.871         45.160         24.148         63.642       1645.483
         2010.5         12.903         40.681         23.821         62.633       1641.279
         2011.0         12.903         36.202         23.494         61.657       1637.075
         2011.5         12.903         33.512         23.155         61.287       1632.872
         2012.0         12.902         33.280         22.797         61.355       1628.668
         2012.5         12.895         36.650         22.439         62.051       1624.464
         2013.0         12.877         42.329         22.676         61.865       1620.260
         2013.5         12.859         42.871         23.366         61.679       1616.056
         2014.0         12.841         42.773         24.057         61.681       1611.852
         2014.5         12.823         40.975         24.575         61.741       1607.648
         2015.0         12.805         38.677         24.721         61.801       1603.444
         2015.5         12.787         37.357         24.867         61.861       1599.240
         2016.0         12.788         36.037         25.013         61.921       1574.299
         2016.5         12.840         34.011         25.159         61.981       1507.492
         2017.0         12.891         30.909         25.305         62.041       1440.685
         2017.5         12.943         27.807         25.422         62.101       1373.879
         2018.0         12.994         27.527         25.315         62.161       1307.072
         2018.5         12.987         30.162         25.208         62.570       1261.372
         2019.0         12.976         34.458         25.101         62.982       1359.776
         2019.5         12.965         38.754         24.994         63.395       1458.180
         2020.0         12.954         42.677         24.887         63.807       1556.583
         2020.5         12.942         45.323         24.843         64.219       1654.987
         2021.0         12.931         47.969         25.015         64.632       1721.094
         2021.5         12.920         50.671         25.186         64.815       1718.989
         2022.0         12.909         53.960         25.357         64.842       1716.884
         2022.5         12.897         57.249         25.529         64.869       1714.779
         2023.0         12.891         59.895         25.700         64.896       1712.674
         2023.5         12.888         62.498         25.872         65.703       1710.569
