###############################################
##         ENVERUS                           ##
##         ESS - Open Hole                   ##
##         PERMIAN / DELAWARE                ##
##         Nov 02 2023  V4.0                 ##
##         42-109-00406-00-00                ##
###############################################
## Copyright 2017-2023  ENVERUS.  All Rights Reserved. 
## Confidential - Property of ENVERUS, use governed by terms and 
## conditions found within the existing Information Services Subscription Agreement 
## (as may be amended, the “ISSA”) between Customer and ENVERUS. 
## 
~VERSION INFORMATION
# MNEM.UNIT                               DATA : DESCRIPTION OF MNEMONIC
#-----.-----     ----------------------------- : -----------------------------
VERS.                                     2.00 : CWLS LOG ASCII STANDARD - VERSION 2.00
WRAP.                                       NO : MULTIPLE LINES PER DEPTH STEP
VEND.                                  ENVERUS : VENDOR
TYPE.                          ESS - OPEN HOLE : ENVERUS ESSENTIAL CURVES – ACCESSIBLE THROUGH ENVERUS PRISM(TM)
DOC.                                  31976272 : ENVERUS HEADER RAW DOCUMENT ID
#___________________________________________________________________________________________________ 
~WELL INFORMATION 
# f03iSNYnaQ7mQXX2RIaOYtiytuBBABKYYIB1smJtyZkBcGMChrfvYQpeE0DESEj4BN+caz3q2IoGlEPFhwFUwg== 
# MNEM.UNIT                                              DATA : DESCRIPTION OF MNEMONIC 
#-----.-----                    ----------------------------- : ----------------------------- 
CNTY.                                               CULBERSON : COUNTY 
STATE.                                                  TEXAS : STATE 
CNTRY.                                                    USA : COUNTRY 
API.                                             42-109-00406 : API (10 Digit) 
API_14.                                    42-109-00406-00-00 : API (14 Digits) 
API_14_std.                                 42-109-00406-0000 : API (14 Digits Standard) 
UWI.                                           42109004060000 : UNIQUE WELL ID 
WELL.                                                  DRD_55 : WELL NAME
STRT.FT                                                 100.5 : START DEPTH
STOP.FT                                               12629.5 : STOP DEPTH
STEP.FT                                                   0.5 : STEP BETWEEN DEPTHS
NULL.                                                 -999.25 : NULL VALUE
#___________________________________________________________________________________________________ 
~PARAMETER INFORMATION 
# MNEM.UNIT                                              DATA : DESCRIPTION OF MNEMONIC 
#-----.-----                    ----------------------------- : -----------------------------
#___________________________________________________________________________________________________ 
~CURVE INFORMATION 
# MNEM.UNIT           : CURVE DESCRIPTION 
#-----.-----          : ----------------------------- 
 DEPT.FT               : MEASURED DEPTH 
 GR__A.API             : GAMMA RAY (GAMMA RAY) 
 DT__A.US/FT           : SONIC DELTA TRANSIT TIME (SONIC) 
 #___________________________________________________________________________________________________ 
~A         DEPT          GR__A          DT__A
# ...
         3406.5         76.145         61.518
         3407.0         77.548         60.182
         3407.5         70.015         59.402
         3408.0         64.098         59.143
         3408.5         54.833         58.799
         3409.0         46.041         58.431
         3409.5         32.564         60.011
         3410.0         20.284         61.904
         3410.5         17.629         62.934
         3411.0         16.972         63.619
         3411.5         21.919         63.917
         3412.0         28.025         62.387
         3412.5         35.171         61.010
         3413.0         39.392         60.368
         3413.5         43.320         60.232
         3414.0         48.569         60.561
         3414.5         53.373         60.624
         3415.0         58.996         61.141
         3415.5         65.170         61.755
         3416.0         68.920         61.809
         3416.5         69.109         60.842
         3417.0         64.219         60.223
         3417.5         51.164         59.809
         3418.0         39.788         59.490
         3418.5         36.190         59.288
         3419.0         34.728         58.874
         3419.5         34.127         58.016
         3420.0         31.754         57.183
         3420.5         26.753         56.654
         3421.0         21.981         56.210
         3421.5         19.657         55.967
         3422.0         19.048         55.853
         3422.5         18.912         55.916
         3423.0         18.892         56.427
         3423.5         19.343         57.371
         3424.0         20.643         58.504
         3424.5         22.937         59.386
         3425.0         25.601         60.021
         3425.5         29.366         60.886
         3426.0         34.456         61.954
         3426.5         38.817         62.551
         3427.0         42.462         62.934
         3427.5         46.989         63.681
         3428.0         51.798         64.479
         3428.5         57.339         64.878
         3429.0         63.368         65.080
         3429.5         66.905         65.665
         3430.0         63.253         66.676
         3430.5         50.269         67.592
         3431.0         34.368         68.547
         3431.5         25.374         69.331
         3432.0         20.720         70.017
         3432.5         19.190         70.587
         3433.0         18.785         69.439
         3433.5         21.710         68.354
         3434.0         26.977         66.922
         3434.5         33.006         65.791
         3435.0         37.069         64.977
         3435.5         40.136         63.824
         3436.0         41.913         62.964
         3436.5         33.513         62.661
         3437.0         29.055         62.510
         3437.5         26.886         63.050
         3438.0         28.483         63.440
         3438.5         31.395         64.047
         3439.0         38.188         64.606
         3439.5         43.256         65.256
         3440.0         45.888         66.074
         3440.5         46.801         66.733
         3441.0         41.835         67.630
         3441.5         34.630         68.617
         3442.0         28.010         69.414
         3442.5         24.758         70.114
         3443.0         24.020         70.491
         3443.5         23.717         70.755
         3444.0         23.166         71.042
         3444.5         21.998         71.266
         3445.0         20.853         71.293
         3445.5         20.094         71.048
         3446.0         19.397         70.603
         3446.5         19.758         69.737
         3447.0         22.308         68.666
         3447.5         27.720         67.334
         3448.0         33.907         65.858
         3448.5         38.535         64.911
         3449.0         43.418         64.391
         3449.5         46.662         63.968
         3450.0         43.286         64.397
         3450.5         36.594         65.261
         3451.0         29.482         65.774
         3451.5         24.738         66.027
         3452.0         22.779         66.528
         3452.5         23.736         67.774
         3453.0         27.110         68.929
         3453.5         31.915         68.483
         3454.0         36.637         67.841
         3454.5         42.776         67.167
         3455.0         51.316         66.196
         3455.5         57.089         64.672
         3456.0         53.023         63.312
         3456.5         46.798         62.884
         3457.0         38.647         62.690
         3457.5         33.034         62.506
         3458.0         31.365         62.376
         3458.5         35.235         62.143
         3459.0         38.936         63.032
         3459.5         41.146         63.202
         3460.0         42.246         63.325
         3460.5         43.008         63.568
         3461.0         43.437         63.770
         3461.5         42.830         62.250
         3462.0         42.144         61.039
         3462.5         40.167         60.057
         3463.0         36.459         59.088
         3463.5         32.208         58.283
         3464.0         28.066         58.085
         3464.5         24.924         59.179
         3465.0         24.286         59.870
         3465.5         26.930         60.424
         3466.0         29.747         61.208
         3466.5         32.142         61.839
         3467.0         34.567         62.129
         3467.5         38.580         62.409
         3468.0         42.191         62.834
         3468.5         46.021         63.326
         3469.0         51.759         63.250
         3469.5         62.521         62.576
         3470.0         78.559         62.354
         3470.5         85.932         62.245
         3471.0         83.166         62.140
         3471.5         79.117         61.895
         3472.0         75.673         62.020
         3472.5         72.489         62.334
         3473.0         70.068         62.365
         3473.5         67.833         62.493
         3474.0         64.700         62.739
         3474.5         62.045         62.603
         3475.0         60.007         62.174
         3475.5         58.309         61.782
         3476.0         58.970         62.141
         3476.5         60.749         62.622
         3477.0         61.713         62.400
         3477.5         60.866         62.119
         3478.0         61.486         61.935
         3478.5         65.093         61.751
         3479.0         69.271         61.521
         3479.5         68.846         61.322
         3480.0         67.381         61.523
         3480.5         64.183         61.781
         3481.0         59.663         62.026
         3481.5         56.494         62.427
         3482.0         54.921         62.803
         3482.5         52.346         62.087
         3483.0         44.946         61.117
         3483.5         36.349         60.022
         3484.0         32.280         59.381
         3484.5         29.948         59.832
         3485.0         28.583         60.021
         3485.5         31.641         60.337
         3486.0         35.576         61.012
         3486.5         39.336         61.663
         3487.0         45.349         61.959
         3487.5         56.998         62.137
         3488.0         65.015         62.267
         3488.5         68.399         62.469
         3489.0         70.809         62.766
         3489.5         69.979         62.831
         3490.0         62.671         62.007
         3490.5         57.931         60.965
         3491.0         53.839         60.456
         3491.5         48.269         60.256
         3492.0         41.864         60.185
         3492.5         38.414         60.441
         3493.0         38.534         60.699
