###############################################
##         ENVERUS                           ##
##         ESS - Open Hole                   ##
##         PERMIAN / DELAWARE                ##
##         Nov 02 2023  V4.0                 ##
##         42-109-31550-00-00                ##
###############################################
## Copyright 2017-2023  ENVERUS.  All Rights Reserved. 
## Confidential - Property of ENVERUS, use governed by terms and 
## conditions found within the existing Information Services Subscription Agreement 
## (as may be amended, the “ISSA”) between Customer and ENVERUS. 
## 
~VERSION INFORMATION
# MNEM.UNIT                               DATA : DESCRIPTION OF MNEMONIC
#-----.-----     ----------------------------- : -----------------------------
VERS.                                     2.00 : CWLS LOG ASCII STANDARD - VERSION 2.00
WRAP.                                       NO : MULTIPLE LINES PER DEPTH STEP
VEND.                                  ENVERUS : VENDOR
TYPE.                          ESS - OPEN HOLE : ENVERUS ESSENTIAL CURVES – ACCESSIBLE THROUGH ENVERUS PRISM(TM)
DOC.                                  22584426 : ENVERUS HEADER RAW DOCUMENT ID
#___________________________________________________________________________________________________ 
~WELL INFORMATION 
# ASdzl/zqz3tyMoI2i40d5lqA861uk+/GXWRvioHJ4uiq1sQ7a4yIDDt4z64Puw3+ifUTTkKIB4eyCaXtXAsvCw== 
# MNEM.UNIT                                              DATA : DESCRIPTION OF MNEMONIC 
#-----.-----                    ----------------------------- : ----------------------------- 
CNTY.                                               CULBERSON : COUNTY 
STATE.                                                  TEXAS : STATE 
CNTRY.                                                    USA : COUNTRY 
API.                                             42-109-31550 : API (10 Digit) 
API_14.                                    42-109-31550-00-00 : API (14 Digits) 
API_14_std.                                 42-109-31550-0000 : API (14 Digits Standard) 
UWI.                                           42109315500000 : UNIQUE WELL ID 
WELL.                                       UNIVERSITY_6-46-1 : WELL NAME
STRT.FT                                                 249.5 : START DEPTH
STOP.FT                                               10300.0 : STOP DEPTH
STEP.FT                                                   0.5 : STEP BETWEEN DEPTHS
NULL.                                                 -999.25 : NULL VALUE
COMP.                                    MONSANTO OIL COMPANY : COMPANY 
FLD.                                                  WILDCAT : FIELD 
DATE.                                              10/31/2016 : DATE 
TVD.                                                       NO : TVD FLAG 
WSTA.                                                     LOC : WELL STATUS
#___________________________________________________________________________________________________ 
~PARAMETER INFORMATION 
# MNEM.UNIT                                              DATA : DESCRIPTION OF MNEMONIC 
#-----.-----                    ----------------------------- : ----------------------------- 
RUN.                                                      ONE : RUN NUMBER 
PDAT.                                                      GL : PERMANENT DATUM 
LMF.                                            KELLY BUSHING : LOG MEASURED FROM
#___________________________________________________________________________________________________ 
~CURVE INFORMATION 
# MNEM.UNIT           : CURVE DESCRIPTION 
#-----.-----          : ----------------------------- 
 DEPT.FT               : MEASURED DEPTH 
 DT.US/FT              : SONIC DELTA TRANSIT TIME (DELTA-T) 
 RESS_LL.OHMM          : SHALLOW LATEROLOG (LLS - LATERO-LOG SHALLOW (RESISTIVITY)) 
 RESD_LL.OHMM          : DEEP LATEROLOG (LLD - LATERO-LOG DEEP (RESISTIVITY)) 
 #___________________________________________________________________________________________________ 
~A         DEPT             DT        RESS_LL        RESD_LL
# ...
         2625.5         66.871       123.8767       133.3240
         2626.0         67.282       122.7354       131.5135
         2626.5         67.597       120.4840       129.7449
         2627.0         67.476       119.3739       129.7449
         2627.5         67.051       119.3739       129.7449
         2628.0         66.920       125.0288       134.8312
         2628.5         66.991       127.3650       142.4247
         2629.0         67.593       132.1693       142.2605
         2629.5         68.565       130.9515       143.6519
         2630.0         69.570       127.3650       139.7176
         2630.5         69.206       123.8767       134.6389
         2631.0         68.005       135.8910       134.5676
         2631.5         67.352       141.0169       146.4584
         2632.0         67.664       145.5203       157.7075
         2632.5         68.616       149.0705       147.0747
         2633.0         70.301       133.3984       128.5334
         2633.5         71.625       122.7354       117.7881
         2634.0         71.696       118.2740       122.7354
         2634.5         71.083       121.6045       128.5494
         2635.0         69.699       130.9515       147.6970
         2635.5         67.834       147.6970       176.0977
         2636.0         66.455       177.7243       206.1082
         2636.5         65.065       206.1082       228.2004
         2637.0         64.025       243.4765       257.3817
         2637.5         63.369       284.9698       290.2947
         2638.0         63.328       274.6113       309.7275
         2638.5         63.906       312.6078       321.4106
         2639.0         64.267       346.1154       365.8824
         2639.5         64.212       365.8824       424.2904
         2640.0         63.851       376.1853       412.6700
         2640.5         63.558       372.7192       390.3752
         2641.0         63.079       321.4106       298.4691
         2641.5         63.079       277.1651       248.0261
         2642.0         63.060       230.9032       213.8827
         2642.5         62.417       213.8827       202.3276
         2643.0         60.975       224.0145       221.9505
         2643.5         59.823       232.4408       234.6075
         2644.0         59.778       252.5343       261.5255
         2644.5         61.077       277.4880       292.5476
         2645.0         62.049       324.3996       325.8542
         2645.5         62.066       401.3678       433.9557
         2646.0         61.415       478.5469       593.1859
         2646.5         60.210       570.8698       705.9415
         2647.0         59.168       609.5182       667.8026
         2647.5         58.626       602.8768       631.7242
         2648.0         59.395       571.0457       608.7614
         2648.5         61.093       538.7817       586.6333
         2649.0         62.357       504.9064       554.9401
         2649.5         63.688       506.7645       529.8410
         2650.0         63.406       474.9268       515.3298
         2650.5         62.899       464.6707       515.3298
         2651.0         61.274       448.5220       515.3298
         2651.5         59.408       444.3894       515.3298
         2652.0         59.047       478.5469       520.1222
         2652.5         59.779       500.1935       529.8410
         2653.0         60.683       530.4558       560.1008
         2653.5         61.040       549.0675       608.7614
         2654.0         61.579       609.2465       655.8468
         2654.5         61.847       643.6644       703.9700
         2655.0         61.815       691.8008       780.3180
         2655.5         62.116       746.2585       872.6552
         2656.0         62.839       803.6188       915.2718
         2656.5         63.111       774.5296       923.8100
         2657.0         62.839       746.2585       923.8203
         2657.5         62.177       705.9415       774.5875
         2658.0         61.515       643.5284       680.6500
         2658.5         60.986       564.3788       582.1515
         2659.0         60.933       478.5469       464.4614
         2659.5         61.656       397.6697       412.6700
         2660.0         62.923       365.8824       365.8824
         2660.5         63.996       402.0557       424.7770
         2661.0         63.718       461.1520       525.5275
         2661.5         62.625       539.7415       639.2860
         2662.0         61.615       594.9271       774.4078
         2662.5         60.191       631.3312       826.2480
         2663.0         60.792       656.6552       857.4145
         2663.5         62.959       637.5989       852.3543
         2664.0         63.801       575.8727       809.1591
         2664.5         63.621       503.8583       706.6606
         2665.0         62.477       432.2185       606.9327
         2665.5         61.575       379.6837       518.6858
         2666.0         61.564       349.3342       454.7651
         2666.5         62.458       317.9582       410.4746
         2667.0         63.779       319.1434       369.7570
         2667.5         64.922       268.1550       315.5150
         2668.0         65.667       217.8793       234.0688
         2668.5         66.088       176.9130       176.2603
         2669.0         66.690       141.0169       132.7290
         2669.5         67.894        93.8397        97.3794
         2670.0         69.447        78.3856        73.0065
         2670.5         71.088        70.4310        62.4457
         2671.0         71.633        67.8708        71.0859
         2671.5         71.333        77.8683        81.2956
         2672.0         70.722       102.0963       114.3411
         2672.5         69.579       151.4452       196.7863
         2673.0         67.593       255.0926       492.0223
         2673.5         64.343       437.4051       643.5284
         2674.0         61.048       565.3095       811.0921
         2674.5         61.033       560.1008       719.1325
         2675.0         61.274       492.0223       655.5531
         2675.5         61.876       416.5076       549.8269
         2676.0         61.755       343.5132       452.7902
         2676.5         61.454       295.7607       358.0945
         2677.0         60.853       266.6908       311.7376
         2677.5         60.491       266.8077       327.4163
         2678.0         60.311       282.9782       338.7115
         2678.5         59.829       329.5255       392.4858
         2679.0         59.228       390.3752       472.1770
         2679.5         58.806       412.6700       519.8696
         2680.0         58.675       412.6700       504.2339
         2680.5         58.626       383.2146       487.4888
         2681.0         58.746       362.5112       461.7144
         2681.5         58.927       349.3342       453.2067
         2682.0         59.408       349.3342       447.6150
         2682.5         61.153       321.1649       446.7285
         2683.0         63.380       321.9913       375.8383
         2683.5         66.088       215.8718       284.9698
         2684.0         68.134       151.8560       211.9120
         2684.5         71.384       132.1693       147.6970
         2685.0         72.768       109.8319       129.7449
         2685.5         72.588       106.8238       119.3739
         2686.0         72.949       110.8533       123.8767
         2686.5         72.949       118.2740       126.1915
         2687.0         72.708       118.2740       129.1079
         2687.5         72.227       108.8199       129.7449
         2688.0         71.384       101.0526       115.0195
         2688.5         70.963        94.1840       101.8838
         2689.0         70.843        90.4746       102.9175
         2689.5         70.662       112.9247       104.6521
         2690.0         70.060       111.8842       164.6566
         2690.5         69.355       151.8560       202.3276
         2691.0         68.556       160.6760       197.5345
