~VERSION INFORMATION
VERS. 2.0 : CWLS Log ASCII Standard - Version 2.0
WRAP. NO : One line per depth step
#--------------------------------------------------#
#----------------DRILLING INFO, INC.---------------#
#---------------WWW.DRILLINGINFO.COM---------------#
#------------------COPYRIGHT 2015------------------#
#--------------------------------------------------#
#THIS FILE MAY BE USED ONLY IN ACCORDANCE WITH A CURRENT SUBSCRIPTION AGREEMENT BETWEEN
#THE USER AND DRILLING INFO, INC. NO PART OF THIS FILE MAY BE REPRODUCED, USED, COPIED,
#MODIFIED, PROPAGATED, OR DISTRIBUTED EXCEPT IN ACCORDANCE WITH THE SUBSCRIPTION
#AGREEMENT. UNAUTHORIZED USE OR DISTRIBUTION OF ALL OR ANY PART OF THIS FILE MAY VIOLATE
#COPYRIGHT, TRADEMARK, AND/OR OTHER LAWS AND IS SUBJECT TO CIVIL AS WELL AS CRIMINAL
#SANCTIONS.
#--------------------------------------------------#
#THIS FILE IS PROVIDED "AS-IS" AND ALL WARRANTIES ARE EXPRESSLY DISCLAIMED, WHETHER
#EXPRESS, ORAL, IMPLIED, STATUTORY OR OTHERWISE, INCLUDING ANY IMPLIED WARRANTY OF FITNESS
#FOR A PARTICULAR PURPOSE, MERCHANTABILITY, TITLE OR NON-INFRINGEMENT, AND ANY WARRANTIES
#ARISING BY VIRTUE OF CUSTOM OF TRADE OR COURSE OF DEALING.  FURTHER, DRILLING INFO,
#INC. AND ITS LICENSORS DO NOT REPRESENT OR WARRANT THAT THIS FILE WILL MEET USER'S
#REQUIREMENTS OR ARE SUITABLE FOR USER'S NEEDS OR THAT THE DATA OR RESULTS PROVIDED IN
#CONJUNCTION THEREWITH ARE CORRECT, ACCURATE, TIMELY OR RELIABLE. THESE DISCLAIMERS SHALL
#APPLY REGARDLESS OF ANY FAILURE OF ESSENTIAL PURPOSE OF ANY LIMITED REMEDY.  SOME
#JURISDICTIONS DO NOT ALLOW THE EXCLUSION OF CERTAIN WARRANTIES SO SOME OF THE ABOVE
#EXCLUSIONS MAY NOT APPLY. IN NO EVENT SHALL DRILLING INFO, INC. OR ANY OF ITS AFFILIATES
#BE LIABLE UNDER ANY LEGAL THEORY, WHETHER IN TORT (INCLUDING WITHOUT LIMITATION
#NEGLIGENCE), CONTRACT, STRICT LIABILITY, STATUTORY OR OTHERWISE, FOR ANY SPECIAL,
#INCIDENTAL, CONSEQUENTIAL, EXEMPLARY, PUNITIVE OR INDIRECT DAMAGE OF ANY KIND, INCLUDING
#WITHOUT LIMITATION LOSS OF REVENUE, PROFITS, GOODWILL, USE, AND/OR DATA OR THE COST OF
#PROCUREMENT OF SUBSTITUTE GOODS OR SERVICES, EVEN IF APPRISED OF THE POSSIBILITY OF SUCH
#DAMAGES IN ADVANCE.
#--------------------------------------------------#
~WELL INFORMATION
#MNEMONIC     .UNIT              VALUE :DESCRIPTION
#--------------------------------------------------#
STRT       .ft                25.00000 :START DEPTH
STOP       .ft                17086.00000 :STOP DEPTH
STEP       .ft                0.50000 :STEP
NULL       .                -999.25000 :NULL VALUE
COMP       .                 :COMPANY
WELL       .                 :WELL
FLD       .                 :FIELD
LOC       .                 :LOCATION
CNTY       .                 :COUNTY
STAT       .                 :STATE
CTRY       .                 :COUNTRY
SRVC       .                 :SERVICE COMPANY
DATE       .                 :DATE
API       .                42109309270000 :API NUMBER
~CURVE INFORMATION
#MNEMONIC     .UNIT      API CODE :CURVE DESCRIPTION
#--------------------------------------------------#
DEPTH       .ft                      :Measured Depth
CAL       .in        UNKNOWN   :CAL
DT       .us/ft        UNKNOWN   :DT
GR       .gAPI        UNKNOWN   :GR
~A    DEPTH    CAL    DT    GR
# ...
2406.50000    -999.25000    51.27277    25.30930
2407.00000    -999.25000    51.23728    26.13789
2407.50000    -999.25000    51.20178    26.96648
2408.00000    -999.25000    51.16629    27.31515
2408.50000    -999.25000    51.13080    25.76774
2409.00000    -999.25000    51.09531    24.22033
2409.50000    -999.25000    51.05981    22.67293
2410.00000    -999.25000    51.02432    21.12552
2410.50000    -999.25000    51.07901    19.57812
2411.00000    -999.25000    51.15244    19.59286
2411.50000    -999.25000    51.22587    20.28226
2412.00000    -999.25000    51.29930    20.97166
2412.50000    -999.25000    51.37274    21.66106
2413.00000    -999.25000    51.44617    22.31948
2413.50000    -999.25000    51.45742    22.08866
2414.00000    -999.25000    51.32172    21.85783
2414.50000    -999.25000    51.18601    21.62701
2415.00000    -999.25000    51.05031    21.39619
2415.50000    -999.25000    50.91461    21.16537
2416.00000    -999.25000    50.77890    20.93455
2416.50000    -999.25000    50.64320    21.95202
2417.00000    -999.25000    50.50749    23.02850
2417.50000    -999.25000    50.37179    24.10499
2418.00000    -999.25000    50.25029    25.18148
2418.50000    -999.25000    50.19239    25.14182
2419.00000    -999.25000    50.13450    25.07914
2419.50000    -999.25000    50.07660    25.01645
2420.00000    -999.25000    50.01870    24.95377
2420.50000    -999.25000    49.96081    24.89109
2421.00000    -999.25000    49.87513    24.82840
2421.50000    -999.25000    49.70718    24.76572
2422.00000    -999.25000    49.53923    24.70304
2422.50000    -999.25000    49.37129    24.64035
2423.00000    -999.25000    49.20334    24.57767
2423.50000    -999.25000    49.03540    24.48687
2424.00000    -999.25000    48.86745    24.28492
2424.50000    -999.25000    48.83177    24.08297
2425.00000    -999.25000    49.11087    23.88101
2425.50000    -999.25000    49.35740    23.67906
2426.00000    -999.25000    49.24767    23.47711
2426.50000    -999.25000    49.13794    23.27515
2427.00000    -999.25000    49.02820    23.07320
2427.50000    -999.25000    48.97762    22.87125
2428.00000    -999.25000    49.04765    22.66930
2428.50000    -999.25000    49.11767    22.46734
2429.00000    -999.25000    49.18770    22.26539
2429.50000    -999.25000    49.25773    22.08646
2430.00000    -999.25000    49.28982    22.34317
2430.50000    -999.25000    49.27266    22.59988
2431.00000    -999.25000    49.25550    22.85658
2431.50000    -999.25000    49.23835    23.11329
2432.00000    -999.25000    49.22119    23.37000
2432.50000    -999.25000    49.20403    23.62671
2433.00000    -999.25000    49.18688    23.88341
2433.50000    -999.25000    49.16972    24.14012
2434.00000    -999.25000    49.18530    24.39683
2434.50000    -999.25000    49.27002    24.65354
2435.00000    -999.25000    49.29588    24.91025
2435.50000    -999.25000    49.29574    25.16695
2436.00000    -999.25000    49.29561    25.42366
2436.50000    -999.25000    49.28709    25.68037
2437.00000    -999.25000    49.27845    25.93708
2437.50000    -999.25000    49.26981    25.94007
2438.00000    -999.25000    49.26118    25.78790
2438.50000    -999.25000    49.25254    25.63573
2439.00000    -999.25000    49.24390    25.48356
2439.50000    -999.25000    49.23526    25.33139
2440.00000    -999.25000    49.22662    25.17922
2440.50000    -999.25000    49.21798    25.02705
2441.00000    -999.25000    49.20934    24.87488
2441.50000    -999.25000    49.20071    24.72271
2442.00000    -999.25000    49.19207    24.57053
2442.50000    -999.25000    49.18343    24.41836
2443.00000    -999.25000    49.17479    24.38701
2443.50000    -999.25000    49.16615    24.98124
2444.00000    -999.25000    49.15751    25.57546
2444.50000    -999.25000    49.15534    26.16968
2445.00000    -999.25000    49.15522    26.76391
2445.50000    -999.25000    49.15510    27.35813
2446.00000    -999.25000    49.15498    27.76427
2446.50000    -999.25000    49.15485    27.12293
2447.00000    -999.25000    49.15473    26.48159
2447.50000    -999.25000    49.15461    25.84025
2448.00000    -999.25000    49.15449    25.19891
2448.50000    -999.25000    49.15437    24.55757
2449.00000    -999.25000    49.15425    23.91623
2449.50000    -999.25000    49.15413    23.27489
2450.00000    -999.25000    49.15401    22.63355
2450.50000    -999.25000    49.15389    22.72910
2451.00000    -999.25000    49.15377    24.35385
2451.50000    -999.25000    49.15365    25.19758
2452.00000    -999.25000    49.15353    24.60243
2452.50000    -999.25000    49.15341    24.00728
2453.00000    -999.25000    49.15329    23.41214
2453.50000    -999.25000    49.15317    22.81699
2454.00000    -999.25000    49.15305    24.35501
2454.50000    -999.25000    49.15293    27.33018
2455.00000    -999.25000    49.17377    30.30536
2455.50000    -999.25000    49.20533    31.29741
2456.00000    -999.25000    49.23689    28.89376
2456.50000    -999.25000    49.26844    26.49012
2457.00000    -999.25000    49.30000    24.08647
2457.50000    -999.25000    49.33156    21.68283
2458.00000    -999.25000    49.36311    20.96814
2458.50000    -999.25000    49.39467    21.98246
2459.00000    -999.25000    49.42623    22.99678
2459.50000    -999.25000    49.45778    24.01110
2460.00000    -999.25000    49.48934    25.02541
2460.50000    -999.25000    49.44269    26.03973
2461.00000    -999.25000    49.37905    25.66045
2461.50000    -999.25000    49.31541    23.98504
2462.00000    -999.25000    49.25509    22.30963
2462.50000    -999.25000    49.19707    23.05052
2463.00000    -999.25000    49.13905    24.53637
2463.50000    -999.25000    49.08103    25.76263
2464.00000    -999.25000    49.02301    25.18238
2464.50000    -999.25000    48.96499    24.60212
2465.00000    -999.25000    48.97574    24.02186
2465.50000    -999.25000    49.02158    23.44160
2466.00000    -999.25000    49.06741    22.86134
2466.50000    -999.25000    49.11325    22.31347
2467.00000    -999.25000    49.15909    22.90220
2467.50000    -999.25000    49.20493    23.49093
2468.00000    -999.25000    49.25076    24.07965
2468.50000    -999.25000    49.29660    24.66838
2469.00000    -999.25000    49.34244    25.25711
2469.50000    -999.25000    49.38827    25.84583
2470.00000    -999.25000    49.43411    26.25091
2470.50000    -999.25000    49.47995    26.31208
2471.00000    -999.25000    49.47069    26.37325
2471.50000    -999.25000    49.44029    26.43442
2472.00000    -999.25000    49.40989    26.49559
2472.50000    -999.25000    49.37949    26.55676
2473.00000    -999.25000    49.34910    26.52305
2473.50000    -999.25000    49.31870    26.26307
2474.00000    -999.25000    49.28830    26.00309
2474.50000    -999.25000    49.25790    25.74310
2475.00000    -999.25000    49.22751    25.48312
2475.50000    -999.25000    49.19711    25.22314
2476.00000    -999.25000    49.16671    24.96316
2476.50000    -999.25000    49.12523    24.96257
2477.00000    -999.25000    49.06640    25.17668
2477.50000    -999.25000    49.00757    25.39080
2478.00000    -999.25000    48.94874    25.26932
2478.50000    -999.25000    48.88991    23.72305
2479.00000    -999.25000    48.83108    23.69983
2479.50000    -999.25000    48.77225    24.02729
2480.00000    -999.25000    48.76177    24.35475
2480.50000    -999.25000    48.82855    24.68221
2481.00000    -999.25000    48.89533    25.00967
2481.50000    -999.25000    48.96210    25.33713
2482.00000    -999.25000    49.02888    25.66459
2482.50000    -999.25000    49.09566    25.99205
2483.00000    -999.25000    49.16243    26.31951
2483.50000    -999.25000    49.22921    26.64697
2484.00000    -999.25000    49.29599    26.97443
2484.50000    -999.25000    49.35115    27.30188
2485.00000    -999.25000    49.34074    28.03087
2485.50000    -999.25000    49.33033    28.88803
2486.00000    -999.25000    49.31993    29.74519
2486.50000    -999.25000    49.30952    29.87938
2487.00000    -999.25000    49.29911    29.05471
2487.50000    -999.25000    49.28871    28.23004
2488.00000    -999.25000    49.27830    27.40536
