#   WellGreen Tech Inc.   Digitizing Services
#   www.wellgreentech.com
#   email: sales@wellgreentech.com
#
~Version Information Block
 VERS.                2.00:     CWLS LOG ASCII STANDARD - VERSION 2.000000
 WRAP.                  NO:     One Line Per Depth Step
#
~Well Information Block
#MNEM.UNIT                     Data                         Information
#----------   ------------------------------------------   ----------------
 STRT.FT                                      400.0000:     START DEPTH
 STOP.FT                                    10100.0000:     STOP DEPTH
 STEP.FT                                        0.5000:     STEP
 NULL.                                       -999.2500:     NULL VALUE
 COMP.                       ENRON OIL AND GAS COMPANY:     COMPANY
 WELL.                                   TXL "1" NO. 1:     WELL
 FLD .                                         WILDCAT:     FIELD
 LOC .                                              63:     LOCATION
 CNTY.                                       CULBERSON:     COUNTY
 STAT.                                           TEXAS:     STATE
 CTRY.                                             USA:     COUNTRY
 SRVC.                                    SCHLUMBERGER:     SERVICE COMPANY
 DATE.                                      06/28/1989:     DATE
 API .               42109320330000:    API NUMBER
 UWI .               42109320330000:    UWI NUMBER
 TVD .                                              NO:     TVD flag
 MATRIX .G/CC                  :    Matrix Density
#
~Curve Information Block
#MNEM.UNIT       API CODE      Curve Description
#----------    -------------   -------------------
 DEPT.FT                   :   Depth in Feet
 GR  .API      35 310 01 01:   Gamma Ray
 CALI.INCHES   70 280 01 01:   Caliper
 DT  .US/FT    60 520 08 01:   Delta T
 SPHI.V/V      61 890 01 01:   Sonic Porosity
#
~Parameter Information Block
#MNEM.UNIT            Value               Description
#----------    --------------------    -------------------
 RUN .                         ONE:    Run Number
 PDAT.                          GL:    Permanent Datum
 EPD .FT                 3890.3000:    Elevation Of Perm. Datum
 LMF .               KELLY BUSHING:    Log Measured From
 EKB .FT                 3905.1000:    Elevation Of Kelly Bushing
 DF .FT                  3904.1000:    Elevation Of Derrick Floor
 GL .FT                  3890.3000:    Elevation Of Ground Level
 TD .FT                  10100.0000:    Total Depth
 BHT .DEGF               193.00 :  Bottom Hole Temperature
 BLI .FT               10100.0000:   Bottom Log Interval
 CSGSIZE.IN              9.6250:   Casing Size
 BITSIZE.IN               8.750 :  BitSize
 CSGD.FT                      405:    Casing Bottom (Driller) 1
 CSGL.FT                      405:    Casing Bottom (Logger) 1
 MUD .                      SW GEL:    Drilling Fluid Type
 MUDV .CP                  34.0000:    Drilling Fluid Viscosity
 MUDD .LB/USG               9.1000:    Drilling Fluid Density
 FL .ML/30MIN               8.0000:    Drilling Fluid Loss
 PH.                       10.0000:    Drilling Fluid Ph
 MUDS .                  CIRC TANK:    Mud Sample Source
 RM .OHMM                   0.1720:    Resistivity Of Mud Sample
 RMT .DEGF                 75.0000:    Mud Sample Temperature
 RMF .OHMM                  0.1720:    Mud Filtrate Resistivity
 RMFT.DEGF                 75.0000:    Mud Filtrate Sample Temperature
 RMB .OHMM                  0.0710:    Mud Resistivity At Bht
 TMAX .DEGF               193.0000:    Bottom Hole Temperature
#
~Other Information Block
<DescLogPlotStart>   NEURALOG PLOT DEFINITION
PLOTDEFVERSION: 3
LASFILE: D:\nds\projects\20MAY19H\las\42109320330000_BEG_RAS_RS0022815370.las
DEPTHSCALE: 240.000000
RESOLUTION: 400
DEPTHLABELFREQ: 100.000000
HEAVYGRIDFREQ: 100.000000
MEDIUMGRIDFREQ: 50.000000
LIGHTGRIDFREQ: 10.000000
#
#   TRACK 1
#
STARTTRACK: 
 LEFTX: 0.500000 inch
 RIGHTX: 3.000000 inch
 SCALETYPE: Linear
 NUMCHARTDIVISIONS: 10
CURVE: GR    0.000000   125.000000 (0,0,255)      Solid             2     Y    
BACKUP: 125.000000 250.000000 (0,0,255)      Solid             2    
ENDTRACK: 
#
#   TRACK 2
#
STARTTRACK: 
 LEFTX: 0.500000 inch
 RIGHTX: 3.000000 inch
 SCALETYPE: Linear
 NUMCHARTDIVISIONS: 10
CURVE: CALI  6.000000   16.000000  (0,131,131)    Solid             2     N    
ENDTRACK: 
#
#   TRACK 3
#
STARTTRACK: 
 LEFTX: 3.500000 inch
 RIGHTX: 8.500000 inch
 SCALETYPE: Linear
 NUMCHARTDIVISIONS: 10
CURVE: DT    100.000000 40.000000  (255,0,255)    Solid             2     Y    
BACKUP: 160.000000 100.000000 (255,0,255)    Solid             2    
CURVE: SPHI  0.300000   -0.100000  (255,0,0)      Dot               2     Y    
BACKUP: 0.700000   0.300000   (255,0,0)      Dot               2    
BACKUP: -0.100000  -0.500000  (255,0,0)      Dot               2    
ENDTRACK: 
<DescLogPlotEnd>
~A DEPTH     GR               CALI             DT               SPHI            
# ...
    1687.000 68.82            12.81            62.86            0.15            
    1687.500 81.37            12.81            63.86            0.16            
    1688.000 95.93            12.81            65.55            0.17            
    1688.500 110.70           12.80            67.20            0.18            
    1689.000 127.36           12.80            68.18            0.19            
    1689.500 129.15           12.80            68.16            0.19            
    1690.000 131.10           12.80            67.14            0.18            
    1690.500 129.87           12.80            66.87            0.18            
    1691.000 127.15           12.80            66.75            0.18            
    1691.500 118.63           12.82            66.35            0.18            
    1692.000 113.12           12.84            65.84            0.17            
    1692.500 108.63           12.87            65.34            0.17            
    1693.000 108.78           12.89            64.74            0.17            
    1693.500 111.05           12.91            65.48            0.17            
    1694.000 115.09           12.94            66.56            0.18            
    1694.500 119.12           12.93            67.28            0.18            
    1695.000 120.23           12.92            67.31            0.18            
    1695.500 109.92           12.91            67.01            0.18            
    1696.000 96.30            12.89            66.20            0.18            
    1696.500 81.09            12.91            65.06            0.17            
    1697.000 70.62            12.92            64.15            0.16            
    1697.500 65.86            12.93            63.64            0.16            
    1698.000 62.58            12.94            63.34            0.16            
    1698.500 60.77            12.91            63.79            0.16            
    1699.000 61.24            12.87            64.78            0.17            
    1699.500 61.90            12.83            65.71            0.17            
    1700.000 62.55            12.81            66.24            0.18            
    1700.500 63.21            12.82            66.26            0.18            
    1701.000 65.95            12.83            66.22            0.18            
    1701.500 69.31            12.85            66.18            0.18            
    1702.000 72.03            12.86            65.99            0.17            
    1702.500 72.32            12.88            65.32            0.17            
    1703.000 70.61            12.89            64.35            0.16            
    1703.500 68.85            12.91            63.61            0.16            
    1704.000 69.46            12.92            63.13            0.16            
    1704.500 73.74            12.94            63.95            0.16            
    1705.000 81.67            12.92            64.86            0.17            
    1705.500 90.05            12.89            65.49            0.17            
    1706.000 98.32            12.87            65.78            0.17            
    1706.500 96.11            12.87            65.74            0.17            
    1707.000 91.41            12.88            65.43            0.17            
    1707.500 87.33            12.90            65.13            0.17            
    1708.000 85.00            12.91            65.13            0.17            
    1708.500 85.72            12.89            65.41            0.17            
    1709.000 88.25            12.87            65.61            0.17            
    1709.500 93.18            12.84            65.76            0.17            
    1710.000 99.34            12.81            66.20            0.18            
    1710.500 102.16           12.82            66.69            0.18            
    1711.000 96.08            12.83            66.89            0.18            
    1711.500 86.95            12.84            66.76            0.18            
    1712.000 77.83            12.85            66.40            0.18            
    1712.500 70.81            12.86            65.94            0.17            
    1713.000 70.71            12.86            65.94            0.17            
    1713.500 70.17            12.87            66.06            0.18            
    1714.000 66.66            12.88            65.88            0.17            
    1714.500 61.95            12.88            65.60            0.17            
    1715.000 57.24            12.88            65.32            0.17            
    1715.500 54.04            12.87            65.36            0.17            
    1716.000 56.21            12.87            65.68            0.17            
    1716.500 61.19            12.86            66.16            0.18            
    1717.000 67.33            12.87            66.65            0.18            
    1717.500 73.06            12.88            67.07            0.18            
    1718.000 75.26            12.88            66.88            0.18            
    1718.500 73.41            12.89            66.43            0.18            
    1719.000 70.33            12.89            66.00            0.17            
    1719.500 68.31            12.90            66.00            0.17            
    1720.000 67.99            12.90            66.33            0.18            
    1720.500 67.52            12.88            66.64            0.18            
    1721.000 64.84            12.87            66.63            0.18            
    1721.500 62.14            12.85            66.26            0.18            
    1722.000 61.57            12.84            65.88            0.17            
    1722.500 65.30            12.83            65.76            0.17            
    1723.000 68.71            12.81            65.80            0.17            
    1723.500 71.60            12.80            65.74            0.17            
    1724.000 68.08            12.80            64.95            0.17            
    1724.500 61.67            12.81            63.55            0.16            
    1725.000 55.66            12.83            61.98            0.15            
    1725.500 55.66            12.84            61.66            0.14            
    1726.000 62.56            12.84            62.94            0.15            
    1726.500 68.10            12.84            64.44            0.16            
    1727.000 70.36            12.84            65.68            0.18            
    1727.500 72.55            12.84            66.09            0.18            
    1728.000 74.73            12.84            66.11            0.18            
    1728.500 79.15            12.84            66.21            0.18            
    1729.000 83.82            12.84            66.61            0.18            
    1729.500 89.24            12.85            67.02            0.18            
    1730.000 95.82            12.87            67.43            0.18            
    1730.500 96.91            12.88            67.58            0.18            
    1731.000 94.34            12.90            67.56            0.19            
    1731.500 89.01            12.92            67.22            0.18            
    1732.000 83.70            12.93            66.88            0.18            
    1732.500 78.82            12.95            66.95            0.18            
    1733.000 76.92            12.97            67.83            0.19            
    1733.500 77.63            12.98            68.72            0.19            
    1734.000 77.76            12.97            69.34            0.20            
    1734.500 75.01            12.97            69.08            0.20            
    1735.000 72.27            12.96            68.46            0.19            
    1735.500 69.53            12.95            67.86            0.19            
    1736.000 66.79            12.94            67.56            0.18            
