# Exported from Transform Software 5.2.0 on 17-Oct-2019 by user kathryn.gehrke
# DI Transform - A Product of Drillinginfo, Inc. - www.drillinginfo.com
#
~VERSION INFORMATION
 VERS.        2.0 : LAS ASCII STANDARD - VERSION 2.0
 WRAP.         NO : ONE LINE PER DEPTH STEP

~WELL INFORMATION
#MNEM.UNIT       DATA TYPE       INFORMATION
#---------       ---------       -----------
 STRT.ft                 100 : Start Depth
 STOP.ft               10126 : Stop Depth
 STEP.ft                 0.5 : Step Length
 NULL.               -999.25 : Null Value
 COMP.                       : Company
 WELL.  42109329790000_API14 : Well Name
 FLD.                        : Field Name
 LOC.                        : Well Location
 CNTY.                       : County
 STAT.                       : State or Province
 CTRY.                       : Country
 SRVC.                       : Service Company
 DATE.                       : Date
 API.         42109329790000 : Well Identifier

~CURVE INFORMATION
#MNEM.UNIT       API CODE       CURVE DESCRIPTION
#---------       --------       -----------------
 DEPT.ft        : <Measured Depth>
 DT.us/ft       : Sonic
 GR.gAPI        : Gamma Ray

~PARAMETER INFORMATION
#MNEM.UNIT       VALUE       DESCRIPTION
#---------       -----       -----------
 EKB.ft      3282 : Elevation above MSL

~A      DEPT          DT          GR
# ...
      6718.5    264.4258     31.9328
        6719    264.4258     33.8298
      6719.5    264.4258      38.241
        6720    264.4258     41.6017
      6720.5    264.4258     46.4375
        6721    264.4258     51.7258
      6721.5    264.6516     52.2669
        6722    266.6681     49.7877
      6722.5    267.2269     46.0899
        6723    267.2269     41.8052
      6723.5    267.2269     39.1593
        6724    267.4512     40.0423
      6724.5    269.4342     43.4872
        6725     266.331      48.948
      6725.5    264.4258      54.537
        6726    264.4258     55.8824
      6726.5    264.4258     54.7914
        6727    264.4258     50.2157
      6727.5    264.4258     41.9395
        6728    263.8655     36.6001
      6728.5    263.8655     33.5754
        6729    263.8655     31.7669
      6729.5    263.8655     33.1884
        6730    263.8655     37.2176
      6730.5    263.8655       41.84
        6731    263.8655     46.9202
      6731.5    263.8296     49.7445
        6732    263.8655          50
      6732.5    263.8655     51.5088
        6733    264.4258     52.1008
      6733.5    264.4258     52.8528
        6734    264.4258     54.3652
      6734.5    264.4258     55.0372
        6735    264.4258     56.8337
      6735.5    264.4258     59.1649
        6736    264.4258     57.2771
      6736.5    264.4258     56.4649
        6737    264.4258     59.0217
      6737.5    264.4258     58.1729
        6738    264.4258     54.5442
      6738.5    264.4258      54.111
        6739    264.4258     55.6234
      6739.5    264.4258     54.2159
        6740    264.4258     54.4811
      6740.5    264.4258     55.3093
        6741    264.4258     50.5775
      6741.5    264.4258     44.6881
        6742    264.4258     40.1426
      6742.5    264.4258     36.1558
        6743    264.4258     34.5667
      6743.5    264.4258      37.419
        6744    264.4258     41.9425
      6744.5    264.4258      47.866
        6745    264.4258     53.6118
      6745.5    264.4258     57.8842
        6746    264.4258     59.5697
      6746.5    264.4258     60.5042
        6747    264.4258     61.5387
      6747.5    264.4258     60.5003
        6748    264.4258     57.0699
      6748.5    264.4258     55.3952
        6749    264.4258     51.1866
      6749.5    264.4258     46.4522
        6750    264.4258     45.6182
      6750.5    264.4258     47.4124
        6751    264.4258     49.9034
      6751.5    264.4258     52.4891
        6752    263.8829      55.029
      6752.5    263.8655     56.8709
        6753    263.8655     60.2605
      6753.5    263.8655       63.46
        6754    263.8655     64.1316
      6754.5    263.8655     62.0031
        6755    263.8655     57.5714
      6755.5    263.8655     50.9482
        6756    264.4258     47.0588
      6756.5    265.1629      47.632
        6757    264.4258     48.7395
      6757.5    264.4258      48.976
        6758    264.4258     49.5116
      6758.5    264.4258     47.4691
        6759    264.4258        44.1
      6759.5    264.4258     43.2773
        6760    263.8655     42.2016
      6760.5    263.8655     41.1765
        6761    263.8655     41.1765
      6761.5    263.8655     42.2427
        6762    263.8655        44.1
      6762.5    263.8655     45.6123
        6763    263.8655     47.1247
      6763.5    263.8655     46.7411
        6764    263.8655     43.3239
      6764.5    263.8655     39.1322
        6765    265.8569     35.9014
      6765.5    266.7529     34.3891
        6766    267.2269     33.1933
      6766.5    267.2269     33.6134
        6767    267.2269     34.8539
      6767.5    268.9656     36.1345
        6768    268.6534     36.6182
      6768.5    265.6859     36.2392
        6769    264.4258     33.6029
      6769.5    264.4258      31.954
        6770    264.4258     30.8618
      6770.5    264.4258     29.8319
        6771    264.4258     30.9865
      6771.5    263.8655     31.7868
        6772    263.8655     31.1148
      6772.5    263.8655     31.0924
        6773    263.8655     30.6111
      6773.5    263.8655      30.145
        6774    263.8655      30.817
      6774.5    263.8655     30.6958
        6775    263.8655     29.6036
      6775.5    263.8655     27.8212
        6776    264.4278     25.1624
      6776.5    263.8655      23.104
        6777    263.8655     21.4533
      6777.5    263.8655     20.7813
        6778    263.8655     21.4874
      6778.5    263.8655     25.4025
        6779    263.8655     31.3131
      6779.5    263.8655     38.7231
        6780    263.8655     46.6369
      6780.5    263.8655     52.6075
        6781    263.8655     52.7423
      6781.5    263.8655     51.4017
        6782    263.8655     50.6709
      6782.5    263.8655     48.5147
        6783    263.8655     48.3758
      6783.5    263.8655     51.3452
        6784    263.8655     55.5322
      6784.5    263.8655     57.9549
        6785    263.8655     55.5199
      6785.5    263.8655     50.9398
        6786    263.8655     47.3413
      6786.5    263.8655     42.0221
        6787    263.8655     37.8445
      6787.5    263.8655     38.9891
        6788    263.8655     42.1522
      6788.5    263.8655     43.8116
        6789    263.8655     43.9729
      6789.5    263.8655     45.4087
        6790    263.8655     43.8964
      6790.5    263.8655     40.5974
        6791    264.4258     38.2353
      6791.5    264.4258     37.2637
        6792    264.4258     33.4669
      6792.5    264.4258     30.8723
        6793    264.4258       29.36
      6793.5    264.4258     26.9137
        6794    264.2453     23.8889
      6794.5    263.8655     20.8642
        6795    263.8655     18.6886
      6795.5    263.8655     18.1179
        6796    263.8655     18.7899
      6796.5    263.8655     21.8311
        6797    263.8655     29.7691
      6797.5    263.8655     37.6357
        6798    263.8655      42.746
      6798.5    263.8655     44.8391
        6799    263.8655     44.4048
      6799.5    263.8655     43.6975
        6800    263.8655     44.1176
      6800.5    263.8655     44.5861
        6801    263.8655     46.7588
      6801.5    263.8655     53.2585
        6802    263.8655     57.9285
      6802.5    263.8655      58.188
        6803    263.8655     55.9511
      6803.5    263.8655     51.8625
        6804    263.8655     48.4269
      6804.5    263.8655     42.5122
        6805    263.8655     43.1785
      6805.5    265.0472     46.9406
        6806    267.0637     49.0373
      6806.5    267.7871     50.1942
        6807    267.7871      52.883
      6807.5    267.7871      51.151
        6808    267.8468     49.1149
      6808.5    267.3916     48.0227
        6809    265.3751     46.9305
      6809.5    263.8655     46.2185
        6810    263.8655     45.9007
      6810.5    263.8655     43.2337
        6811    263.8655     42.1415
      6811.5    263.8655     41.7238
        6812    263.8655     44.0559
      6812.5    263.8655      46.115
        6813    263.8655     50.6939
      6813.5    263.8655     51.6807
        6814    263.8655     50.7355
      6814.5    263.8655     45.7364
        6815    263.8655     41.0733
      6815.5    263.8655     36.9336
        6816    263.8655     36.4276
      6816.5    263.8655     37.5198
        6817    263.8655     39.4305
      6817.5    263.8655     42.5377
        6818    263.8655     44.5779
      6818.5    263.8655     44.5378
        6819    264.4258     45.8108
      6819.5    264.4258     51.7791
        6820    264.4258     53.5743
      6820.5    264.4258     52.1008
        6821    264.4258     52.9412
      6821.5    264.4258     54.3241
        6822    264.4258     54.6677
      6822.5    264.4258     54.0905
        6823    264.4258     58.4788
      6823.5    264.4258      60.084
        6824    264.4258     58.1002
      6824.5    263.8655     53.7125
        6825    263.8655     49.7084
      6825.5    263.8655     43.8527
        6826    263.8655     42.1486
      6826.5    263.8655      40.216
