~Version Information Block
 VERS.                2.00:     CWLS LOG ASCII STANDARD - VERSION 2.000000
 WRAP.                  NO:     One Line Per Depth Step
#
~Well Information Block
#MNEM.UNIT                     Data                         Information
#----------   ------------------------------------------   ----------------
 STRT.FT                                     4210.0000:     START DEPTH
 STOP.FT                                    10370.0000:     STOP DEPTH
 STEP.FT                                        0.5000:     STEP
 NULL.                                       -999.2500:     NULL VALUE
 COMP.                       CHESAPEAKE OPERATING INC.:     COMPANY
 WELL.                         UNIVERSITY_LANDS_4627-1:     WELL
 FLD .                                         WILDCAT:     FIELD
 LOC .   1200' FNL & 1995' FEL|Section: 27, Block: 46, Abstract: 2860|University Lands Survey:     LOCATION
 SEC .                                              27:     SECTION
 CNTY.                                       CULBERSON:     COUNTY
 STAT.                                           TEXAS:     STATE
 CTRY.                                             USA:     COUNTRY
 SRVC.                                    SCHLUMBERGER:     SERVICE COMPANY
 DATE.                                      11/15/2016:     DATE
 API .                                  42109322870000:     API NUMBER
 UWI .                                  42109322870000:     UWI NUMBER
 TVD .                                              NO:     TVD flag
 WSTA.                                             LOC:     Well status
#
~Curve Information Block
#MNEM.UNIT       API CODE      Curve Description
#----------    -------------   -------------------
 DEPT.FT                   :   Depth in Feet
 RM_HRLT.OHMM                 :   HRLTB Mud Resistivity
 RXOZ.OHMM                 :   Stan Res MicroCFL Resistivity
 RLA5.OHMM                 :   HRLTB Resistivity 5
 RLA4.OHMM                 :   HRLTB Resistivity 4
 RLA3.OHMM                 :   HRLTB Resistivity 3
 DTCO.US/F                 :   Delta-T Compressional
 DTSM.US/F                 :   Delta-T Shear Measurement
 SPHI.V/V                  :   Sonic Porosity [47.6]
 HSGR.GAPI                 :   HNGS Spectroscopy Gamma Ray
 HCGR.GAPI                 :   HNGS Computed Gamma Ray
 HCAL.IN                   :   HILT Caliper
 DPHI.V/V                  :   Density Porosity
 PEFZ.                     :   Std. Res. Formation PE
 HDRA.G/C3                 :   Density Correction
 RHOB.G/C3                 :   Std. Res. Formation Density
 APLC.V/V                  :   APS Near/Array Corrected Limestone Porosity
 PXND.V/V                  :   Crossplot Porosity For Neutron-Density
#
~Parameter Information Block
#MNEM.UNIT            Value               Description
#----------    --------------------    -------------------
 DATE.                 07-Jun-2007:    Date As Month-Day-Year
 RUN .                         ONE:    Run Number
 PDAT.                         UNK:    Permanent Datum
 EPD .FT                -9999.5000:    Elevation Of Perm. Datum
 LMF .                          KB:    Log Measured From
 FAPD.FT                   40.0000:    Feet Above Perm. Datum
 EKB .FT                 4323.0000:    Elevation Of Kelly Bushing
 TD  .FT                10370.0000:    Total Depth
 DFT .                   Fresh Mud:    Drilling Fluid Type
 DFD .LB/G                  8.6000:    Drilling Fluid Density
 RMS .OHMM                  0.4210:    Resistivity Of Mud Sample
 MST .DEGF                 97.0000:    Mud Sample Temperature
 RMF .OHMM                  0.4210:    Mud Filtrate Resistivity
 MFST.DEGF                 97.0000:    Mud Filtrate Sample Temperature
 MFSS.                        CALC:    Mud Filtrate Sample Source
 MCSS.                        CALC:    Mud Cake Sample Source
 RMB .OHMM                  0.2280:    Mud Resistivity At Bht
 BHT .DEGF                185.0000:    Bottom Hole Temperature
 MRT .DEGF                185.0000:    Maximum Recorded Temperature
 WSTA.                         LOC:    
 LATB.FT                    0.0000:    
 LONB.FT                    0.0000:    
#
~Other Information Block
<DescLogPlotStart>   NEURALOG PLOT DEFINITION
PLOTDEFVERSION: 3
LASFILE: E:\nds\projects\Texas Standard Oil LLC\pdf\42109322870000 D\42-109-322
DEPTHSCALE: 240.000000
RESOLUTION: 196
DEPTHLABELFREQ: 100.000000
HEAVYGRIDFREQ: 100.000000
MEDIUMGRIDFREQ: 50.000000
LIGHTGRIDFREQ: 10.000000
#
#   TRACK 1
#
STARTTRACK: 
 LEFTX: 0.500000 inch
 RIGHTX: 3.000000 inch
 SCALETYPE: Linear
 NUMCHARTDIVISIONS: 10
CURVE: RXOZ  0.200000   2000.000000 (0,0,255)      Solid             2     Y   
BACKUP: 2000.000000 20000000.000000 (0,0,255)      Solid             2    
CURVE: RLA5  0.200000   2000.000000 (0,131,131)    Dot               2     Y   
BACKUP: 2000.000000 20000000.000000 (0,131,131)    Dot               2    
CURVE: RLA4  0.200000   2000.000000 (255,0,255)    Short_Dash        2     Y   
BACKUP: 2000.000000 20000000.000000 (255,0,255)    Short_Dash        2    
CURVE: RLA3  0.200000   2000.000000 (255,0,0)      Medium_Dash       2     Y   
BACKUP: 2000.000000 20000000.000000 (255,0,0)      Medium_Dash       2    
CURVE: DTCO  240.000000 40.000000  (0,0,255)      Solid             2     N    
CURVE: DTSM  240.000000 40.000000  (0,131,131)    Dot               2     Y    
BACKUP: 440.000000 240.000000 (0,131,131)    Dot               2    
CURVE: SPHI  0.300000   -0.100000  (255,0,255)    Short_Dash        2     Y    
BACKUP: 0.700000   0.300000   (255,0,255)    Short_Dash        2    
CURVE: HSGR  0.000000   150.000000 (0,0,255)      Solid             2     Y    
BACKUP: 150.000000 300.000000 (0,0,255)      Solid             2    
CURVE: HCGR  0.000000   150.000000 (0,131,131)    Dot               2     N    
CURVE: HCAL  6.000000   16.000000  (255,0,255)    Short_Dash        2     Y    
BACKUP: -4.000000  6.000000   (255,0,255)    Short_Dash        2    
BACKUP: 16.000000  26.000000  (255,0,255)    Short_Dash        2    
ENDTRACK: 
#
#   TRACK 2
#
STARTTRACK: 
 LEFTX: 3.500000 inch
 RIGHTX: 8.500000 inch
 SCALETYPE: Linear
 NUMCHARTDIVISIONS: 10
CURVE: RM_HRLT 0.020000   200.000000 (255,131,0)    Solid             2     N  
CURVE: DPHI  0.300000   -0.100000  (255,0,0)      Solid             2     Y    
BACKUP: 0.700000   0.300000   (255,0,0)      Solid             2    
BACKUP: -0.100000  -0.500000  (255,0,0)      Solid             2    
CURVE: APLC  0.300000   -0.100000  (255,131,0)    Dot               2     Y    
BACKUP: 0.700000   0.300000   (255,131,0)    Dot               2    
BACKUP: 1.100000   0.700000   (255,131,0)    Dot               2    
CURVE: PXND  0.300000   -0.100000  (255,255,0)    Short_Dash        2     Y    
BACKUP: 0.700000   0.300000   (255,255,0)    Short_Dash        2    
ENDTRACK: 
#
#   TRACK 3
#
STARTTRACK: 
 LEFTX: 0.500000 inch
 RIGHTX: 5.500000 inch
 SCALETYPE: Linear
 NUMCHARTDIVISIONS: 10
ENDTRACK: 
#
#   TRACK 4
#
STARTTRACK: 
 LEFTX: 3.500000 inch
 RIGHTX: 6.000000 inch
 SCALETYPE: Linear
 NUMCHARTDIVISIONS: 10
CURVE: PEFZ  0.000000   10.000000  (0,0,255)      Solid             2     N    
ENDTRACK: 
#
#   TRACK 5
#
STARTTRACK: 
 LEFTX: 3.500000 inch
 RIGHTX: 4.750000 inch
 SCALETYPE: Linear
 NUMCHARTDIVISIONS: 10
CURVE: HDRA  -0.050000  0.200000   (0,131,131)    Solid             2     N    
ENDTRACK: 
#
#   TRACK 6
#
STARTTRACK: 
 LEFTX: 3.500000 inch
 RIGHTX: 8.500000 inch
 SCALETYPE: Linear
 NUMCHARTDIVISIONS: 10
CURVE: RHOB  2.000000   3.000000   (255,0,255)    Solid             2     Y    
BACKUP: 1.000000   2.000000   (255,0,255)    Solid             2    
ENDTRACK: 
<DescLogPlotEnd>
~A DEPTH     RM_HRLT             RXOZ             RLA5             RLA4             RLA3             DTCO             DTSM             SPHI             HSGR             HCGR             HCAL             DPHI             PEFZ             HDRA             RHOB             APLC             PXND            
# ...
    8719.000 0.81295653       5.25332714       114.06474797     106.12302563     109.91776318     50.10794897      92.45098039      0.02224308       78.90446181      60.62984082      10.23066813      0.36993144       2.93866610       0.08447817       2.08774510       0.12298775       0.26404715      
    8719.500 0.86610837       8.33252938       104.22554339     96.09805961      102.14212436     49.91167812      91.66666667      0.02032309       75.67800974      57.72165671      10.27033438      0.30058766       2.79828172       0.03665313       2.21826716       0.08419608       0.19071382      
    8720.000 0.89802686       6.92443634       157.17037814     104.69670935     97.08959203      52.95387635      92.05882353      0.03474570       70.18285039      53.90261255      10.19513804      0.30058766       2.95615842       0.02216182       2.35013480       0.04540441       0.13626937      
    8720.500 0.86610837       37.42786339      351.58302372     276.00353239     282.18048217     53.44455348      93.24406865      0.04543670       62.61107814      49.76799366      10.12282280      0.08233105       3.04646725       0.00349568       2.48200245       0.02052941       0.08182493      
    8721.000 0.86610837       73.84429851      1039.90756151    1097.74407681    1095.47646371    52.85574092      94.37716095      0.04308145       55.90142860      44.22603682      10.14568886      0.05889014       3.15671160       0.00062430       2.62598039       0.00674848       0.04351670      
    8721.500 0.90618861       187.33825462     950.20532289     924.83503982     933.67293374     52.65947007      95.14282050      0.04151129       52.13643421      41.45732088      10.14439755      0.05089728       3.10371020       -0.00137567      2.61952353       0.00713868       0.02632613      
    8722.000 0.90618861       171.17849058     666.34643382     567.43918080     572.46455983     53.83709519      96.64109223      0.05210991       52.83513183      41.86822685      10.14398508      0.05601572       3.02398081       -0.00370373      2.61241373       0.00707082       0.02907662      
    8722.500 0.90700603       132.96973904     422.49803329     396.09364111     396.09364111     55.79980373      99.11764706      0.06190987       56.31196110      42.70847509      10.16577631      0.06262583       2.95631113       -0.00496359      2.60530392       0.02544567       0.04125737      
    8723.000 0.91079673       91.03496976      267.88556083     266.32862732     266.32862732     56.78115800      102.45098039     0.06856536       64.64259639      46.40931210      10.18538269      0.07290341       2.96213343       -0.00554770      2.59901843       0.04759041       0.05933202      
    8723.500 0.91465203       64.61518603      113.04040830     113.04040830     113.04040830     56.78115800      105.74509804     0.07090715       74.89448705      55.00681445      10.23240900      0.07348262       3.09802909       -0.00373157      2.58777688       0.06958170       0.07426326      
    8724.000 0.91851781       59.04149174      91.03496976      91.03496976      91.03496976      57.17369971      110.09803922     0.07369275       90.53031497      64.76902919      10.31937451      0.04157066       3.20239565       0.00157600       2.65433431       0.08882353       0.07897839      
    8724.500 0.92273532       55.93079024      70.71505381      70.97664169      70.71505381      57.76251227      111.66666667     0.07566241       102.16119072     80.56607454      10.26229675      0.03218737       3.25798200       0.00762598       2.64427880       0.09274510       0.08408644      
    8725.000 0.92273532       41.71812727      58.51127935      55.79132528      55.93079024      57.36997056      111.41456583     0.07460255       107.45836174     84.09395359      10.25589272      0.07414300       3.15943139       0.01213825       2.65216134       0.09664358       0.09410609      
    8725.500 0.92273532       22.89791355      61.76549985      57.65212618      57.46509628      56.97742885      110.99215686     0.07252208       108.24132551     83.14327553      10.29982955      0.11253673       2.93290141       0.05026854       2.52187515       0.11143905       0.10412574      
    8726.000 0.90660632       19.64239952      78.09206032      72.35944330      87.80865833      57.17369971      110.88235294     0.07291462       102.38845011     81.29813298      10.43666520      0.11723800       2.68130909       0.20809461       2.66361407       0.12603754       0.11709234      
    8726.500 0.89876834       24.61148015      74.51345430      75.32445016      80.96135945      59.30576123      112.63320904     0.09695540       101.49902339     79.25109529      10.58795270      0.02128501       2.45989501       0.20320225       2.66085045       0.12835762       0.11277014      
    8727.000 0.88276482       20.00000000      46.49812926      51.56932015      52.03662650      64.04740813      116.31223416     0.11978620       101.00423952     78.13509625      11.46593153      -0.06884427      2.47245408       0.20498326       2.83201392       0.11360376       0.08447937      
    8727.500 0.85837770       13.44776082      139.10458823     139.10458823     136.61739486     71.35199125      121.58276354     0.15512129       99.32417909      76.40286485      11.49706071      0.01498531       2.60146317       0.20473985       2.83159989       0.09237596       0.07937132      
    8728.000 0.83501595       7.54945155       91.91170827      87.80865833      121.49979334     72.33421549      126.52434858     0.17905233       92.85262887      70.88186326      10.25658160      0.01186092       2.97530039       0.19672801       2.54676564       0.10321731       0.13084479      
    8728.500 0.86610837       4.59663879       65.59174086      74.64801135      83.93608386      72.70813352      126.56862745     0.18086359       85.21526185      64.52325182      10.24657805      0.31155730       3.12113609       0.18058201       2.30073203       0.13509201       0.21045255      
    8729.000 0.89802686       2.58051153       61.40394327      66.38772436      74.64801135      72.69941462      122.84313725     0.18086359       81.49215122      62.62795760      10.95465970      0.36366308       3.13432732       0.16339284       2.07794118       0.17549020       0.28841558      
    8729.500 1.04733826       2.69956906       40.15339819      40.42153090      54.93074638      71.11664165      123.43137255     0.16712463       82.87027281      63.61948620      12.31877238      0.37384917       3.09904612       0.07019094       2.20195861       0.14399698       0.26923604      
    8730.000 1.04733826       3.42857952       56.45333919      56.21179722      49.29498825      67.39468985      115.99264706     0.13395486       85.10734307      65.69686256      12.19053791      0.30058766       3.05283298       0.03357155       2.31554466       0.10113122       0.22570939      
    8730.500 0.98270442       8.50923641       88.32061800      88.53189029      80.96135945      64.04317959      111.47058824     0.11766438       86.67860337      67.01840313      12.21730024      0.30015357       3.03819334       0.03465188       2.42913072       0.06176471       0.16527732      
    8731.000 0.87780852       21.49670108      113.04040830     113.20266722     128.25724460     62.86555447      109.11764706     0.11020608       87.49617375      68.11705533      12.31448914      0.11189317       3.10053204       0.09703517       2.54271678       0.06332353       0.10499924      
    8731.500 0.73109533       36.93477694      82.58416707      85.27090565      102.36198818     62.47301276      108.13725490     0.10785083       88.51297489      68.93234933      10.24411151      0.05787938       3.17857208       0.20628295       2.61872549       0.07231373       0.08094303      
    8732.000 0.76306654       23.95435878      66.98931083      72.65492509      76.69577241      61.68746169      106.79643815     0.10658028       88.43788338      68.97243360      10.21804545      0.03468128       3.21364076       0.20482765       2.65715686       0.08729902       0.08055010      
