###############################################
##         ENVERUS                           ##
##         ESS - Open Hole                   ##
##         PERMIAN / DELAWARE                ##
##         Nov 02 2023  V4.0                 ##
##         42-109-31448-00-00                ##
###############################################
## Copyright 2017-2023  ENVERUS.  All Rights Reserved. 
## Confidential - Property of ENVERUS, use governed by terms and 
## conditions found within the existing Information Services Subscription Agreement 
## (as may be amended, the “ISSA”) between Customer and ENVERUS. 
## 
~VERSION INFORMATION
# MNEM.UNIT                               DATA : DESCRIPTION OF MNEMONIC
#-----.-----     ----------------------------- : -----------------------------
VERS.                                     2.00 : CWLS LOG ASCII STANDARD - VERSION 2.00
WRAP.                                       NO : MULTIPLE LINES PER DEPTH STEP
VEND.                                  ENVERUS : VENDOR
TYPE.                          ESS - OPEN HOLE : ENVERUS ESSENTIAL CURVES – ACCESSIBLE THROUGH ENVERUS PRISM(TM)
DOC.                                  31981796 : ENVERUS HEADER RAW DOCUMENT ID
#___________________________________________________________________________________________________ 
~WELL INFORMATION 
# ZFHslD71edIju97HcKZ52TF5U8X6gSJhIkoGhJkY8ckYnZzQD/y6zifgDis2Hn4asra90GxYkgpqCQaJUi2DCw== 
# MNEM.UNIT                                              DATA : DESCRIPTION OF MNEMONIC 
#-----.-----                    ----------------------------- : ----------------------------- 
CNTY.                                               CULBERSON : COUNTY 
STATE.                                                  TEXAS : STATE 
CNTRY.                                                    USA : COUNTRY 
API.                                             42-109-31448 : API (10 Digit) 
API_14.                                    42-109-31448-00-00 : API (14 Digits) 
API_14_std.                                 42-109-31448-0000 : API (14 Digits Standard) 
UWI.                                           42109314480000 : UNIQUE WELL ID 
WELL.                                               TRIKEN  1 : WELL NAME
STRT.FT                                                   4.0 : START DEPTH
STOP.FT                                               13097.0 : STOP DEPTH
STEP.FT                                                   0.5 : STEP BETWEEN DEPTHS
NULL.                                                 -999.25 : NULL VALUE
COMP.                                             MARALO  LLC : COMPANY 
DATE.                                             04-NOV-1984 : LOG DATE
#___________________________________________________________________________________________________ 
~CURVE INFORMATION 
# MNEM.UNIT           : CURVE DESCRIPTION 
#-----.-----          : ----------------------------- 
 DEPT.FT               : MEASURED DEPTH 
 CALI.IN               : CALIPER (CAL - CAL) 
 GR.API                : GAMMA RAY (GR) 
 DT.US/FT              : SONIC DELTA TRANSIT TIME (DT) 
 #___________________________________________________________________________________________________ 
~A         DEPT           CALI             GR             DT
# ...
        11356.0         10.227        110.727         71.842
        11356.5         10.227        115.683         72.598
        11357.0         10.227        120.638         73.354
        11357.5         10.227        125.594         74.110
        11358.0         10.227        124.801         74.437
        11358.5         10.227        123.893         74.581
        11359.0         10.227        122.985         74.725
        11359.5         10.227        116.876         74.869
        11360.0         10.227        110.451         75.672
        11360.5         10.227        104.027         77.136
        11361.0         10.227         97.603         76.449
        11361.5         10.227         91.179         74.033
        11362.0         10.218         87.445         71.617
        11362.5         10.209         83.951         69.529
        11363.0         10.199         80.457         68.518
        11363.5         10.190         76.964         67.508
        11364.0         10.180         73.470         66.497
        11364.5         10.171         75.229         65.486
        11365.0         10.161         78.883         65.089
        11365.5         10.152         82.537         64.943
        11366.0         10.142         86.191         64.798
        11366.5         10.133         75.309         64.694
        11367.0         10.123         79.057         64.833
        11367.5         10.114         82.805         64.972
        11368.0         10.104         86.553         65.111
        11368.5         10.095         89.439         65.249
        11369.0         10.085         85.931         65.388
        11369.5         10.076         82.424         65.070
        11370.0         10.066         78.917         64.369
        11370.5         10.057         79.224         63.668
        11371.0         10.047         84.906         63.729
        11371.5         10.038         90.587         64.321
        11372.0         10.028         95.211         64.912
        11372.5         10.019         94.279         65.503
        11373.0         10.009         93.346         66.095
        11373.5          9.999         92.414         66.686
        11374.0          9.990         90.011         67.217
        11374.5          9.980         84.981         67.678
        11375.0          9.971         79.951         67.797
        11375.5          9.961         74.921         67.400
        11376.0          9.952         69.891         67.003
        11376.5          9.942         72.557         66.605
        11377.0          9.933         75.404         66.206
        11377.5          9.923         78.251         65.770
        11378.0          9.914         81.099         65.335
        11378.5          9.904         83.946         64.899
        11379.0          9.895         85.701         64.463
        11379.5          9.885         86.118         64.612
        11380.0          9.876         86.535         65.013
        11380.5          9.866         86.952         65.414
        11381.0          9.857         87.370         65.630
        11381.5          9.847         87.787         65.301
        11382.0          9.850         88.204         64.971
        11382.5          9.855         88.621         64.856
        11383.0          9.861         89.038         65.104
        11383.5          9.866         86.486         65.352
        11384.0          9.872         83.856         65.600
        11384.5          9.877         81.225         65.848
        11385.0          9.883         78.594         66.097
        11385.5          9.889         74.986         66.269
        11386.0          9.894         70.342         65.808
        11386.5          9.900         67.310         65.348
        11387.0          9.905         68.375         64.888
        11387.5          9.911         69.440         64.428
        11388.0          9.916         70.506         63.968
        11388.5          9.919         71.571         63.749
        11389.0          9.907         72.636         64.108
        11389.5          9.895         73.701         64.467
        11390.0          9.883         74.766         64.826
        11390.5          9.871         71.354         65.185
        11391.0          9.860         63.952         65.544
        11391.5          9.848         56.550         65.092
        11392.0          9.836         56.306         64.390
        11392.5          9.824         59.777         63.418
        11393.0          9.813         63.249         62.227
        11393.5          9.801         66.720         61.036
        11394.0          9.789         69.655         60.894
        11394.5          9.777         72.352         61.761
        11395.0          9.766         75.050         62.629
        11395.5          9.754         77.747         63.497
        11396.0          9.742         74.634         64.364
        11396.5          9.730         69.627         65.102
        11397.0          9.718         71.034         65.033
        11397.5          9.724         77.606         64.964
        11398.0          9.731         83.593         64.894
        11398.5          9.738         84.305         64.825
        11399.0          9.746         85.017         64.792
        11399.5          9.753         85.729         64.936
        11400.0          9.760         85.290         65.080
        11400.5          9.767         81.135         65.224
        11401.0          9.774         76.981         65.367
        11401.5          9.781         72.827         64.949
        11402.0          9.788         69.212         64.512
        11402.5          9.796         68.020         64.076
        11403.0          9.803         67.332         63.639
        11403.5          9.810         66.643         63.567
        11404.0          9.817         65.955         63.718
        11404.5          9.824         65.955         63.869
        11405.0          9.831         68.396         64.019
        11405.5          9.839         70.838         64.170
        11406.0          9.846         73.279         64.321
        11406.5          9.853         75.720         64.273
        11407.0          9.860         78.162         63.798
        11407.5          9.867         80.603         63.437
        11408.0          9.874         83.152         63.790
        11408.5          9.881         85.709         64.144
        11409.0          9.889         88.266         64.497
        11409.5          9.894         90.822         64.850
        11410.0          9.891         93.379         65.199
        11410.5          9.887         95.935         65.548
        11411.0          9.884         98.492         65.897
        11411.5          9.881         86.537         66.246
        11412.0          9.877         72.234         66.595
        11412.5          9.874         60.032         66.944
        11413.0          9.871         63.104         66.877
        11413.5          9.867         66.176         62.453
        11414.0          9.864         69.248         61.756
        11414.5          9.861         72.848         61.059
        11415.0          9.857         78.556         61.839
        11415.5          9.854         84.264         65.321
        11416.0          9.851         89.972         65.743
        11416.5          9.848         87.974         66.166
        11417.0          9.844         85.671         66.588
        11417.5          9.845         83.369         67.010
        11418.0          9.848         82.253         67.379
        11418.5          9.851         85.807         67.490
        11419.0          9.854         89.361         67.602
        11419.5          9.857         92.915         67.713
        11420.0          9.859         96.469         67.824
        11420.5          9.862         97.650         67.936
        11421.0          9.865         95.864         68.047
        11421.5          9.868         94.079         68.010
