~VERSION INFORMATION
VERS. 2.0 : CWLS Log ASCII Standard - version 2.0
WRAP.  NO : One line per depth step
#--------------------------------------------------#
#----------------DRILLING INFO, INC.---------------#
#---------------WWW.DRILLINGINFO.COM---------------#
#------------------COPYRIGHT 2015------------------#
#--------------------------------------------------#
#THIS FILE MAY BE USED ONLY IN ACCORDANCE WITH A CURRENT SUBSCRIPTION AGREEMENT BETWEEN
#THE USER AND DRILLING INFO, INC. NO PART OF THIS FILE MAY BE REPRODUCED, USED, COPIED,
#MODIFIED, PROPAGATED, OR DISTRIBUTED EXCEPT IN ACCORDANCE WITH THE SUBSCRIPTION
#AGREEMENT. UNAUTHORIZED USE OR DISTRIBUTION OF ALL OR ANY PART OF THIS FILE MAY VIOLATE
#COPYRIGHT, TRADEMARK, AND/OR OTHER LAWS AND IS SUBJECT TO CIVIL AS WELL AS CRIMINAL
#SANCTIONS.
#--------------------------------------------------#
#THIS FILE IS PROVIDED "AS-IS" AND ALL WARRANTIES ARE EXPRESSLY DISCLAIMED, WHETHER
#EXPRESS, ORAL, IMPLIED, STATUTORY OR OTHERWISE, INCLUDING ANY IMPLIED WARRANTY OF FITNESS
#FOR A PARTICULAR PURPOSE, MERCHANTABILITY, TITLE OR NON-INFRINGEMENT, AND ANY WARRANTIES
#ARISING BY VIRTUE OF CUSTOM OF TRADE OR COURSE OF DEALING.  FURTHER, DRILLING INFO,
#INC. AND ITS LICENSORS DO NOT REPRESENT OR WARRANT THAT THIS FILE WILL MEET USER'S
#REQUIREMENTS OR ARE SUITABLE FOR USER'S NEEDS OR THAT THE DATA OR RESULTS PROVIDED IN
#CONJUNCTION THEREWITH ARE CORRECT, ACCURATE, TIMELY OR RELIABLE. THESE DISCLAIMERS SHALL
#APPLY REGARDLESS OF ANY FAILURE OF ESSENTIAL PURPOSE OF ANY LIMITED REMEDY.  SOME
#JURISDICTIONS DO NOT ALLOW THE EXCLUSION OF CERTAIN WARRANTIES SO SOME OF THE ABOVE
#EXCLUSIONS MAY NOT APPLY. IN NO EVENT SHALL DRILLING INFO, INC. OR ANY OF ITS AFFILIATES
#BE LIABLE UNDER ANY LEGAL THEORY, WHETHER IN TORT (INCLUDING WITHOUT LIMITATION
#NEGLIGENCE), CONTRACT, STRICT LIABILITY, STATUTORY OR OTHERWISE, FOR ANY SPECIAL,
#INCIDENTAL, CONSEQUENTIAL, EXEMPLARY, PUNITIVE OR INDIRECT DAMAGE OF ANY KIND, INCLUDING
#WITHOUT LIMITATION LOSS OF REVENUE, PROFITS, GOODWILL, USE, AND/OR DATA OR THE COST OF
#PROCUREMENT OF SUBSTITUTE GOODS OR SERVICES, EVEN IF APPRISED OF THE POSSIBILITY OF SUCH
#DAMAGES IN ADVANCE.
#--------------------------------------------------#
~WELL INFORMATION
#MNEMONIC     .UNIT              VALUE :DESCRIPTION
#--------------------------------------------------#
STRT       .FT                35 :START DEPTH
STOP       .FT                15948 :STOP DEPTH
STEP       .FT                   0.500 :STEP
NULL       .                  -999.250 :NULL
API        .                421093136200 :API NUMBER
COMP       .         ARRINGTON DAVID H. OIL & GAS INC :COMPANY
WELL       .        SCOTT UNIT  1 :WELL
DATE       .                17-Jun-1991 :LOG DATE
~CURVE INFORMATION
#MNEMONIC     .UNIT      API CODE :CURVE DESCRIPTION
#--------------------------------------------------#
DEPTH       .FT                      :Measured Depth
CAL.INCH        UNKNOWN   :CAL
DT.US/FT        UNKNOWN   :DT
GR.API        UNKNOWN   :GR
~A    DEPTH    CAL    DT    GR
# ...
 3772.5     14.003   74.257   33.313
 3773     14.003   75.824   30.563
 3773.5     14.059   77.884   29.898
 3774     14.115   79.03   31.779
 3774.5     14.171   80.175   31.649
 3775     14.228   80.932   32.128
 3775.5     14.284   80.959   33.831
 3776     14.34   80.987   35.558
 3776.5     14.369   80.781   37.671
 3777     14.374   80.426   35.077
 3777.5     14.38   80.157   32.39
 3778     14.385   80.406   30.308
 3778.5     14.391   80.655   29.701
 3779     14.396   80.903   29.944
 3779.5     14.401   80.852   32.645
 3780     14.355   80.637   33.77
 3780.5     14.304   79.929   33.691
 3781     14.253   78.895   33.896
 3781.5     14.202   78.301   37.82
 3782     14.151   78.927   40.678
 3782.5     14.142   79.585   40.83
 3783     14.149   80.211   39.946
 3783.5     14.157   80.707   38.576
 3784     14.165   80.809   37.205
 3784.5     14.173   80.428   35.914
 3785     14.181   80.047   36.101
 3785.5     14.188   80.084   38.919
 3786     14.203   80.274   41.688
 3786.5     14.218   80.514   42.572
 3787     14.233   80.914   38.03
 3787.5     14.248   81.315   32.954
 3788     14.263   81.715   28.972
 3788.5     14.278   82.393   28.869
 3789     14.293   83.369   31.324
 3789.5     14.308   83.994   33.386
 3790     14.323   83.264   35.449
 3790.5     14.211   81.3   37.665
 3791     14.143   79.899   38.991
 3791.5     14.143   79.657   39.218
 3792     14.144   80.008   38.387
 3792.5     14.144   80.497   36.814
 3793     14.145   81.01   35.24
 3793.5     14.145   81.951   33.331
 3794     14.145   82.893   30.995
 3794.5     14.146   82.803   29.208
 3795     14.146   82.422   29.254
 3795.5     14.147   82.06   29.301
 3796     14.147   81.978   29.347
 3796.5     14.147   81.816   29.393
 3797     14.129   80.698   30.414
 3797.5     14.102   78.832   35.179
 3798     14.075   75.7   41.229
 3798.5     14.048   75.437   46.35
 3799     14.021   76.59   47.544
 3799.5     13.995   78.938   45.091
 3800     13.986   81.286   38.989
 3800.5     13.992   83.242   33.328
 3801     13.999   81.597   30.588
 3801.5     14.005   79.928   28.947
 3802     14.011   78.245   27.852
 3802.5     14.018   77.758   28.499
 3803     14.033   78.589   29.617
 3803.5     14.049   79.42   29.999
 3804     14.066   80.251   30.323
 3804.5     14.082   79.207   30.647
 3805     14.099   78.052   31.049
 3805.5     14.115   76.897   33.521
 3806     14.132   78.127   36.124
 3806.5     14.148   81.54   38.605
 3807     14.165   84.99   37.145
 3807.5     14.181   86.206   34.81
 3808     14.193   87.325   32.521
 3808.5     14.198   87.732   30.196
 3809     14.204   88.015   29.552
 3809.5     14.21   88.085   30.319
 3810     14.216   87.892   29.886
 3810.5     14.222   85.72   27.4
 3811     14.205   82.604   27.039
 3811.5     14.145   79.836   27.244
 3812     14.085   77.966   27.448
 3812.5     14.025   78.064   25.576
 3813     13.965   78.552   26.428
 3813.5     13.905   79.048   27.769
 3814     13.897   79.64   29.11
 3814.5     13.903   80.233   29.774
 3815     13.908   80.838   30.194
 3815.5     13.914   81.443   32.441
 3816     13.919   82.042   34.328
 3816.5     13.924   82.539   34.998
 3817     13.93   82.852   31.541
 3817.5     13.935   82.734   28.021
 3818     13.94   82.617   24.964
 3818.5     13.946   82.16   23.074
 3819     13.951   81.507   25.367
 3819.5     13.956   80.968   28.271
 3820     13.962   80.429   29.381
 3820.5     13.957   80.022   28.186
 3821     13.923   79.824   28.2
 3821.5     13.89   79.625   29.379
 3822     13.856   79.44   30.966
 3822.5     13.822   79.322   29.32
 3823     13.812   79.205   27.625
 3823.5     13.806   79.179   27.63
 3824     13.8   79.272   29.963
 3824.5     13.794   79.365   31.677
 3825     13.789   79.457   31.493
 3825.5     13.783   79.57   31.308
 3826     13.777   79.76   31.56
 3826.5     13.771   79.95   33.071
 3827     13.753   80.14   34.582
 3827.5     13.733   80.33   35.121
 3828     13.712   80.378   35.133
 3828.5     13.691   79.926   34.257
 3829     13.67   79.474   33.85
 3829.5     13.649   78.418   34.331
 3830     13.583   76.851   35.508
 3830.5     13.469   74.526   40.089
 3831     13.382   73.195   46.961
 3831.5     13.306   72.475   56.157
 3832     13.229   72.114   64.233
 3832.5     13.175   72.453   69.24
 3833     13.186   73.051   72.012
 3833.5     13.197   73.65   68.977
 3834     13.209   74.248   61.505
 3834.5     13.22   74.846   48.691
 3835     13.231   74.821   44.605
 3835.5     13.242   74.449   41.673
 3836     13.253   74.076   37.912
 3836.5     13.265   74.112   35.051
 3837     13.276   74.684   35.245
 3837.5     13.287   75.257   35.418
 3838     13.294   75.829   35.203
 3838.5     13.294   76.105   34.988
 3839     13.295   75.967   34.773
 3839.5     13.295   76.642   34.557
 3840     13.296   77.697   34.916
 3840.5     13.296   78.752   36.129
 3841     13.297   79.19   36.498
 3841.5     13.288   79.348   36.122
 3842     13.257   79.186   34.712
 3842.5     13.226   78.785   33.302
 3843     13.195   78.049   31.892
 3843.5     13.164   77.314   30.734
 3844     13.133   76.524   30.739
 3844.5     13.102   75.714   34.531
 3845     13.085   74.903   37.885
 3845.5     13.091   74.357   39.106
 3846     13.098   74.492   38.221
 3846.5     13.105   74.627   35.607
 3847     13.112   74.763   34.31
 3847.5     13.113   74.592   33.713
 3848     13.085   74.341   34.549
 3848.5     13.056   73.361   34.881
 3849     13.028   71.82   34.225
 3849.5     12.999   70.547   33.569
 3850     12.971   70.909   32.913
 3850.5     12.97   71.581   32.199
 3851     12.97   72.738   31.21
 3851.5     12.97   73.895   29.246
 3852     12.971   74.906   30.54
 3852.5     12.943   74.583   31.978
 3853     12.891   73.122   31.366
 3853.5     12.838   70.859   30.218
 3854     12.786   68.301   29.836
 3854.5     12.733   67.784   33.614
 3855     12.719   68.449   41.111
 3855.5     12.715   69.12   47.088
 3856     12.71   68.909   53.042
 3856.5     12.706   68.686   57.985
 3857     12.702   68.463   59.571
 3857.5     12.698   68.734   62.086
 3858     12.693   69.156   67.474
 3858.5     12.689   69.195   74.551
 3859     12.685   68.845   76.702
 3859.5     12.681   67.633   70.576
 3860     12.672   66.402   59.226
 3860.5     12.607   65.129   53.731
 3861     12.542   63.855   51.552
 3861.5     12.477   64.735   52.664
 3862     12.412   66.781   60.7
 3862.5     12.348   70.356   73.746
 3863     12.322   73.092   90.766
 3863.5     12.315   74.047   110.435
 3864     12.308   71.812   122.758
 3864.5     12.301   70.401   119.626
 3865     12.299   70.718   97.548
 3865.5     12.31   71.006   89.459
 3866     12.321   71.288   92.68
 3866.5     12.332   71.826   93.727
 3867     12.342   72.551   86.939
 3867.5     12.353   73.215   78.492
 3868     12.364   72.985   69.693
 3868.5     12.375   71.854   69.698
 3869     12.386   69.454   71.838
 3869.5     12.397   70.295   75.108
 3870     12.408   70.602   86.562
 3870.5     12.419   70.601   90.458
 3871     12.43   70.6   90.174
 3871.5     12.441   69.527   85.431
 3872     12.452   66.865   79.99
 3872.5     12.463   65.779   74.443
 3873     12.47   66.321   69.679
 3873.5     12.471   66.863   69.95
 3874     12.471   67.405   72.819
 3874.5     12.471   67.097   69.942
 3875     12.472   66.287   63.534
 3875.5     12.472   65.312   59.139
 3876     12.473   64.471   56.176
 3876.5     12.473   63.742   55.666
 3877     12.474   63.233   55.615
 3877.5     12.474   62.883   55.565
 3878     12.474   62.534   55.319
 3878.5     12.475   62.576   53.31
 3879     12.475   62.867   51.301
 3879.5     12.476   63.157   51.199
 3880     12.476   64.159   58.801
 3880.5     12.478   65.603   69.89
 3881     12.48   66.121   71.771
 3881.5     12.483   65.977   73.652
 3882     12.485   65.968   76.165
 3882.5     12.488   66.205   78.927
 3883     12.49   66.443   81.688
 3883.5     12.493   67.441   91.156
 3884     12.495   69.793   117.977
 3884.5     12.493   72.146   131.423
