###############################################
##         ENVERUS                           ##
##         ESS - Open Hole                   ##
##         PERMIAN / DELAWARE                ##
##         Nov 02 2023  V4.0                 ##
##         42-109-31391-00-00                ##
###############################################
## Copyright 2017-2023  ENVERUS.  All Rights Reserved. 
## Confidential - Property of ENVERUS, use governed by terms and 
## conditions found within the existing Information Services Subscription Agreement 
## (as may be amended, the “ISSA”) between Customer and ENVERUS. 
## 
~VERSION INFORMATION
# MNEM.UNIT                               DATA : DESCRIPTION OF MNEMONIC
#-----.-----     ----------------------------- : -----------------------------
VERS.                                     2.00 : CWLS LOG ASCII STANDARD - VERSION 2.00
WRAP.                                       NO : MULTIPLE LINES PER DEPTH STEP
VEND.                                  ENVERUS : VENDOR
TYPE.                          ESS - OPEN HOLE : ENVERUS ESSENTIAL CURVES – ACCESSIBLE THROUGH ENVERUS PRISM(TM)
DOC.                                  31999167 : ENVERUS HEADER RAW DOCUMENT ID
#___________________________________________________________________________________________________ 
~WELL INFORMATION 
# BOC9FSWoKCUsCFcWObZ1iTDYvHtSUwfaSl9bEava01AYiR20s/sWwY1hBaxvFz+VJj0aOQNxXrzxY9t5EPBGbg== 
# MNEM.UNIT                                              DATA : DESCRIPTION OF MNEMONIC 
#-----.-----                    ----------------------------- : ----------------------------- 
CNTY.                                               CULBERSON : COUNTY 
STATE.                                                  TEXAS : STATE 
CNTRY.                                                    USA : COUNTRY 
API.                                             42-109-31391 : API (10 Digit) 
API_14.                                    42-109-31391-00-00 : API (14 Digits) 
API_14_std.                                 42-109-31391-0000 : API (14 Digits Standard) 
UWI.                                           42109313910000 : UNIQUE WELL ID 
WELL.                                            TRES ALAS  1 : WELL NAME
STRT.FT                                                     0 : START DEPTH
STOP.FT                                               15494.0 : STOP DEPTH
STEP.FT                                                   0.5 : STEP BETWEEN DEPTHS
NULL.                                                 -999.25 : NULL VALUE
COMP.                           AMERICAN QUASAR PETROLEUM CO. : COMPANY
#___________________________________________________________________________________________________ 
~CURVE INFORMATION 
# MNEM.UNIT           : CURVE DESCRIPTION 
#-----.-----          : ----------------------------- 
 DEPT.FT               : MEASURED DEPTH 
 CALI.IN               : CALIPER (CAL - CAL) 
 GR.API                : GAMMA RAY (GR) 
 DT.US/FT              : SONIC DELTA TRANSIT TIME (DT) 
 #___________________________________________________________________________________________________ 
~A         DEPT           CALI             GR             DT
# ...
        14586.0         12.321         69.787         84.050
        14586.5         12.977         68.667         83.989
        14587.0         13.336         67.546         83.928
        14587.5         13.228         66.426         84.263
        14588.0         12.967         71.344         84.761
        14588.5         12.705         76.340         85.259
        14589.0         12.531         77.558         85.757
        14589.5         12.169         77.295         87.126
        14590.0         11.702         77.033         88.210
        14590.5         11.478         66.197         87.161
        14591.0         11.260         64.206         85.494
        14591.5         11.042         62.348         86.486
        14592.0         11.115         64.348         88.243
        14592.5         11.258         65.338         85.696
        14593.0         11.401         64.277         84.049
        14593.5         11.544         63.216         85.274
        14594.0         11.687         63.770         86.500
        14594.5         11.830         66.011         87.725
        14595.0         11.761         68.253         86.430
        14595.5         11.687         70.494         86.294
        14596.0         11.613         72.735         86.197
        14596.5          9.524         74.977         85.604
        14597.0          8.941         76.316         84.599
        14597.5          8.474         74.880         88.423
        14598.0          8.804         73.444         88.449
        14598.5          9.232         72.008         88.474
        14599.0          9.895         72.267         83.604
        14599.5         10.559         72.862         78.238
        14600.0          9.866         72.487         79.403
        14600.5          9.132         69.617         83.087
        14601.0          9.212         68.294         84.903
        14601.5          9.499         68.131         85.440
        14602.0         10.402         68.639         85.976
        14602.5         11.453         70.721         79.535
        14603.0         11.234         72.804         73.705
        14603.5         11.016         74.886         70.614
        14604.0         10.891         76.968         67.523
        14604.5         11.335         75.317         70.637
        14605.0         11.723         72.475         67.886
        14605.5         11.777         71.945         64.959
        14606.0         11.830         72.114         68.399
        14606.5         10.964         76.166         71.839
        14607.0          9.940         79.662         75.188
        14607.5          8.996         80.689         77.932
        14608.0          8.173         81.715         80.676
        14608.5          8.178         82.741         83.146
        14609.0          8.183         80.169         78.234
        14609.5          8.189         77.428         73.321
        14610.0          8.194         74.687         75.703
        14610.5          8.199         71.946         81.659
        14611.0          8.205         70.824         77.901
        14611.5          8.209         70.428         73.707
        14612.0          8.207         70.033         70.186
        14612.5          8.204         75.637         66.668
        14613.0          8.201         82.304         64.966
        14613.5          8.199         85.504         64.305
        14614.0          8.196         85.715         63.107
        14614.5          8.193         82.900         60.478
        14615.0          8.209         80.627         69.116
        14615.5          8.224         80.993         81.308
        14616.0          8.240         81.359         86.826
        14616.5          8.256         81.632         85.238
        14617.0          8.272         80.012         83.649
        14617.5          8.288         78.392         82.061
        14618.0          8.325         76.680         75.414
        14618.5          8.513         74.872         73.076
        14619.0          8.701         73.064         73.925
        14619.5          8.869         72.339         72.496
        14620.0          8.988         73.524         75.277
        14620.5          9.108         74.710         77.540
        14621.0          9.306         75.896         72.847
        14621.5          9.595         77.081         68.154
        14622.0          9.767         77.719         68.637
        14622.5          9.175         76.726         71.953
        14623.0          8.583         75.732         72.088
        14623.5          8.164         72.598         71.249
        14624.0          8.167         71.002         69.683
        14624.5          8.170         70.673         68.470
        14625.0          8.173         70.344         71.233
        14625.5          8.176         70.015         74.731
        14626.0          8.180         69.686         76.877
        14626.5          8.183         69.357         77.495
        14627.0          8.186         71.500         72.195
        14627.5          8.189         73.999         63.997
        14628.0          8.192         77.278         55.240
        14628.5          8.195         81.069         58.740
        14629.0          8.199         84.860         62.963
        14629.5          8.202         88.651         67.186
        14630.0          8.205         86.147         68.802
        14630.5          8.208         83.200         70.002
        14631.0          8.211         80.253         69.269
        14631.5          8.214         79.092         67.019
        14632.0          8.218         79.700         64.769
        14632.5          8.221         80.308         65.114
        14633.0          8.368         82.908         68.512
        14633.5          8.522         88.777         84.481
        14634.0          8.676         91.082         82.959
        14634.5          8.614         93.247         81.436
        14635.0          8.543         91.711         78.251
        14635.5          8.471         88.529         73.136
        14636.0          8.400         85.347         76.217
        14636.5          8.329         82.165         80.130
        14637.0          8.257         81.076         81.960
        14637.5          8.186         82.819         74.250
        14638.0          8.287         84.562         72.335
        14638.5          8.435         86.305         70.752
        14639.0          8.584         85.717         71.651
        14639.5          8.732         84.290         79.356
        14640.0          8.622         82.863         79.911
        14640.5          8.499         81.268         77.461
        14641.0          8.695         75.638         74.318
        14641.5          8.976         75.201         74.734
        14642.0          9.404         75.337         79.516
        14642.5          9.839         76.056         78.885
        14643.0          9.745         83.596         78.255
        14643.5          9.342         80.944         77.325
        14644.0          9.125         78.360         76.113
        14644.5         10.206         75.841         76.510
        14645.0         11.259         73.322         77.073
        14645.5         12.082         76.683         77.636
        14646.0         12.392         80.563         78.199
        14646.5         12.155         76.587         78.762
        14647.0          9.049         73.465         80.839
        14647.5          8.581         72.899         83.921
        14648.0          8.357         73.463         75.400
        14648.5          8.158         77.220         75.452
        14649.0          8.154         80.977         78.375
        14649.5          8.150         83.780         81.760
        14650.0          8.147         80.864         85.695
        14650.5          8.143         77.066         83.827
        14651.0          8.262         72.925         81.532
        14651.5          8.415         71.076         79.237
