###############################################
##         ENVERUS                           ##
##         ESS - Open Hole                   ##
##         PERMIAN / DELAWARE                ##
##         Nov 02 2023  V4.0                 ##
##         42-109-30915-00-00                ##
###############################################
## Copyright 2017-2023  ENVERUS.  All Rights Reserved. 
## Confidential - Property of ENVERUS, use governed by terms and 
## conditions found within the existing Information Services Subscription Agreement 
## (as may be amended, the “ISSA”) between Customer and ENVERUS. 
## 
~VERSION INFORMATION
# MNEM.UNIT                               DATA : DESCRIPTION OF MNEMONIC
#-----.-----     ----------------------------- : -----------------------------
VERS.                                     2.00 : CWLS LOG ASCII STANDARD - VERSION 2.00
WRAP.                                       NO : MULTIPLE LINES PER DEPTH STEP
VEND.                                  ENVERUS : VENDOR
TYPE.                          ESS - OPEN HOLE : ENVERUS ESSENTIAL CURVES – ACCESSIBLE THROUGH ENVERUS PRISM(TM)
DOC.                                  32305988 : ENVERUS HEADER RAW DOCUMENT ID
#___________________________________________________________________________________________________ 
~WELL INFORMATION 
# YiEbrulvYUtXh1D3opxUtnvhUVpPAvxlEBgV2kjbCTHvWrxGcz1+vOa1jEIuqGtoxi0rQ+ZQV9RU/rHAPCAAKQ== 
# MNEM.UNIT                                              DATA : DESCRIPTION OF MNEMONIC 
#-----.-----                    ----------------------------- : ----------------------------- 
CNTY.                                               CULBERSON : COUNTY 
STATE.                                                  TEXAS : STATE 
CNTRY.                                                    USA : COUNTRY 
API.                                             42-109-30915 : API (10 Digit) 
API_14.                                    42-109-30915-00-00 : API (14 Digits) 
API_14_std.                                 42-109-30915-0000 : API (14 Digits Standard) 
UWI.                                           42109309150000 : UNIQUE WELL ID 
WELL.                             VELMA CASEY ROUNSAVILLE A 1 : WELL NAME
STRT.FT                                                  82.0 : START DEPTH
STOP.FT                                               11225.0 : STOP DEPTH
STEP.FT                                                   0.5 : STEP BETWEEN DEPTHS
NULL.                                                 -999.25 : NULL VALUE
#___________________________________________________________________________________________________ 
~CURVE INFORMATION 
# MNEM.UNIT           : CURVE DESCRIPTION 
#-----.-----          : ----------------------------- 
 DEPT.FT               : MEASURED DEPTH 
 CALI.IN               : CALIPER (CAL - CAL) 
 GR.API                : GAMMA RAY (GR) 
 DT.US/FT              : SONIC DELTA TRANSIT TIME (DT) 
 NPHI.V/V              : NEUTRON POROSITY (NPHI) 
 RHOB.G/CC             : BULK DENSITY (RHOB) 
 #___________________________________________________________________________________________________ 
~A         DEPT           CALI             GR             DT           NPHI           RHOB
# ...
        10070.0          7.582         88.317         63.918        0.16737         2.6170
        10070.5          7.582         85.994         64.884        0.15563         2.6284
        10071.0          7.582         83.375         66.308        0.14390         2.6398
        10071.5          7.582         80.757         67.733        0.13216         2.6511
        10072.0          7.582         78.138         68.061        0.12043         2.6260
        10072.5          7.582         75.520         68.172        0.12217         2.5983
        10073.0          7.582         74.211         68.283        0.12603         2.5705
        10073.5          7.582         77.398         68.394        0.12990         2.5427
        10074.0          7.582         80.586         68.505        0.13377         2.5200
        10074.5          7.582         83.062         68.673        0.11972         2.5341
        10075.0          7.582         80.980         68.953        0.11414         2.5481
        10075.5          7.582         78.898         69.233        0.11640         2.5423
        10076.0          7.582         76.815         69.513        0.11867         2.5231
        10076.5          7.582         74.733         69.380        0.12094         2.5215
        10077.0          7.582         76.561         67.271        0.12321         2.5388
        10077.5          7.582         79.992         65.161        0.12547         2.5560
        10078.0          7.582         83.423         63.051        0.12554         2.5733
        10078.5          7.582         86.832         61.120        0.12241         2.5906
        10079.0          7.582         85.445         60.973        0.11929         2.6079
        10079.5          7.582         84.059         60.825        0.11371         2.6065
        10080.0          7.582         82.672         62.838        0.10772         2.5822
        10080.5          7.582         81.285         65.288        0.10172         2.5580
        10081.0          7.582         79.899         66.976        0.09572         2.5337
        10081.5          7.582         79.499         65.645        0.08972         2.5165
        10082.0          7.582         79.137         64.314        0.09604         2.5286
        10082.5          7.582         78.775         65.249        0.10512         2.5407
        10083.0          7.582         78.414         67.379        0.11420         2.5528
        10083.5          7.582         78.052         69.508        0.12328         2.5610
        10084.0          7.582         77.690         71.638        0.12502         2.5458
        10084.5          7.582         77.328         73.720        0.11851         2.5307
        10085.0          7.582         76.967         71.652        0.11200         2.5155
        10085.5          7.582         76.605         69.583        0.10548         2.5003
        10086.0          7.582         76.243         67.514        0.09897         2.5336
        10086.5          7.582         75.881         66.514        0.09780         2.5697
        10087.0          7.582         75.520         67.668        0.10265         2.5558
        10087.5          7.582         75.158         68.821        0.10640         2.5408
        10088.0          7.582         76.199         69.974        0.11016         2.5258
        10088.5          7.582         77.627         71.128        0.11391         2.5108
        10089.0          7.582         79.056         71.261        0.11767         2.4958
        10089.5          7.582         80.691         70.229        0.12142         2.4894
        10090.0          7.582         82.428         68.494        0.12588         2.5163
        10090.5          7.582         84.165         66.515        0.13088         2.5433
        10091.0          7.582         85.902         64.537        0.13588         2.5702
        10091.5          7.582         87.639         63.445        0.13661         2.5972
        10092.0          7.582         89.376         63.404        0.13014         2.6242
        10092.5          7.582         89.052         63.363        0.12367         2.6382
        10093.0          7.582         86.214         64.399        0.11721         2.6126
        10093.5          7.582         83.375         65.831        0.11138         2.5869
        10094.0          7.582         80.537         67.264        0.10675         2.5613
        10094.5          7.582         78.992         68.696        0.10212         2.5356
        10095.0          7.582         78.162         68.845        0.09748         2.5100
        10095.5          7.582         77.332         68.620        0.09285         2.4973
        10096.0          7.582         76.502         68.396        0.09038         2.5052
        10096.5          7.582         75.672         68.171        0.09357         2.5131
        10097.0          7.582         74.842         67.946        0.09675         2.5209
        10097.5          7.582         74.012         67.737        0.09994         2.5288
        10098.0          7.582         73.181         67.531        0.10313         2.5367
        10098.5          7.582         72.351         67.326        0.10631         2.5446
        10099.0          7.582         72.514         67.120        0.10950         2.5357
        10099.5          7.582         72.866         67.193        0.11269         2.5218
        10100.0          7.582         73.217         67.348        0.11351         2.5078
        10100.5          7.582         73.569         67.504        0.11030         2.5063
        10101.0          7.582         73.920         67.879        0.10710         2.5122
        10101.5          7.582         74.272         68.431        0.10390         2.5181
        10102.0          7.582         74.623         68.983        0.10069         2.5240
        10102.5          7.582         74.975         69.080        0.09924         2.5300
        10103.0          7.582         75.993         69.014        0.10271         2.5359
        10103.5          7.582         77.287         68.948        0.10619         2.5418
        10104.0          7.582         78.582         68.882        0.10966         2.5477
        10104.5          7.582         79.876         68.816        0.11313         2.5537
        10105.0          7.582         81.170         68.750        0.11660         2.5596
        10105.5          7.582         82.464         67.327        0.11604         2.5708
        10106.0          7.582         83.758         65.638        0.11071         2.5895
        10106.5          7.582         85.052         63.949        0.10538         2.6081
        10107.0          7.582         87.282         62.260        0.10004         2.6268
        10107.5          7.582         85.105         60.572        0.09006         2.6455
        10108.0          7.582         82.929         58.883        0.07965         2.6642
        10108.5          7.582         82.874         58.573        0.06925         2.6829
        10109.0          7.582         85.333         59.248        0.05884         2.6880
        10109.5          7.582         87.793         58.837        0.06410         2.6712
        10110.0          7.582         87.464         57.942        0.06992         2.6543
        10110.5          7.582         82.140         57.046        0.07573         2.6445
        10111.0          7.582         76.816         56.150        0.08155         2.6587
        10111.5          7.582         81.881         55.995        0.08737         2.6729
        10112.0          7.582         89.665         57.235        0.09725         2.6871
        10112.5          7.582         97.448         58.475        0.10954         2.7014
        10113.0          7.582        105.232         59.716        0.12182         2.7062
        10113.5          7.582        105.316         60.956        0.13411         2.7066
