###############################################
##         ENVERUS                           ##
##         EPlus - Open Hole                 ##
##         PERMIAN / DELAWARE                ##
##         Copyright ©                       ##
##         Enverus Version - V4.0            ##
##         Nov 20 2023                       ##
##         42-109-32440-00-00                ##
###############################################
## Copyright 2017-2023  ENVERUS.  All Rights Reserved. 
## Confidential - Property of ENVERUS, use governed by terms and 
## conditions found within the existing Information Services Subscription Agreement 
## (as may be amended, the “ISSA”) between Customer and ENVERUS. 
## 
#___________________________________________________________________________________________________
~VERSION INFORMATION
# MNEM.UNIT                               DATA : DESCRIPTION OF MNEMONIC
#-----.-----     ----------------------------- : -----------------------------
VERS.                                     2.00 : CWLS LOG ASCII STANDARD - VERSION 2.00
WRAP.                                       NO : MULTIPLE LINES PER DEPTH STEP
VEND.                                  ENVERUS : VENDOR
ENV_TYPE.                    EPLUS - OPEN HOLE : Enverus Essential Plus Curves – Accessible through Enverus Core(TM)
ENV_VERS.                                 V4.0 : EPlus - Open Hole Version number 
ENV_DOC.                              32926368 : ENVERUS Header Document id
ENV_REF.                               PERMIAN : ENVERUS BASIN OR PLAY APPLIED REFERENCE LIMITS 
#___________________________________________________________________________________________________ 
~WELL INFORMATION 
# uyaQ8P8kQDJ9DXFS5hR1PxmExEOYaAUkY5f3/tnOS+scoPAUWgXA1zCIHGRbWCuSuUcwDzaESCjqjWQ81XhadA== 
# MNEM.UNIT                                              DATA : DESCRIPTION OF MNEMONIC 
#-----.-----                    ----------------------------- : ----------------------------- 
CNTY.                                               CULBERSON : COUNTY 
STATE.                                                  TEXAS : STATE 
CNTRY.                                                    USA : COUNTRY 
API.                                             42-109-32440 : API (10 Digit) 
API_14.                                    42-109-32440-00-00 : API (14 Digits) 
API_14_std.                                 42-109-32440-0000 : API (14 Digits Standard) 
UWI.                                           42109324400000 : UNIQUE WELL ID
STRT.FT                                                2304.5 : START DEPTH
STOP.FT                                                9339.5 : STOP DEPTH
STEP.FT                                                   0.5 : STEP DEPTH
NULL.                                               -999.2500 : NULL VALUE
WELL.                                    RIVA RIDGE 10 FEE 1H : WELL NAME 
GR_ELEV.                                                 3479 : GROUND ELEVATION 
SLAT.                                                 31.8636 : SURFACE LATITUDE 
SLONG.                                              -104.1464 : SURFACE LONGITUDE
#___________________________________________________________________________________________________ 
~CURVE INFORMATION 
# MNEM.UNIT           : CURVE DESCRIPTION 
#-----.-----          : ----------------------------- 
DEPT.FT               : MEASURED DEPTH 
CALI_E.IN             : ENVERUS CALIPER - CLEANED BLENDED AND LUMPED 
CALI_F.               : ENVERUS CALIPER - OUTLIER INDICATOR - 0=(IN BOUNDS) 1=(OUT OF BOUNDS) 2=(REPEATING) 
CALI_S.               : ENVERUS CALIPER - SOURCE INDICATOR 
CALI_U.               : ENVERUS CALIPER - OPTION INDICATOR - 0=(NO OPTION) 1=(OTHER OPTIONS) 
DT_E.US/FT            : ENVERUS SONIC TRAVEL TIME - CLEANED BLENDED AND LUMPED 
DT_F.                 : ENVERUS SONIC TRAVEL TIME - OUTLIER INDICATOR - 0=(IN BOUNDS) 1=(OUT OF BOUNDS) 2=(REPEATING) 
DT_S.                 : ENVERUS SONIC TRAVEL TIME - SOURCE INDICATOR 
DT_U.                 : ENVERUS SONIC TRAVEL TIME - OPTION INDICATOR - 0=(NO OPTION) 1=(OTHER OPTIONS)
#___________________________________________________________________________________________________ 
~A         DEPT         CALI_E         CALI_F         CALI_S         CALI_U           DT_E           DT_F           DT_S           DT_U
# ...
        9296.00       -999.250        -999.25        -999.25        -999.25       82.03900           0.00           0.00           0.00
        9296.50       -999.250        -999.25        -999.25        -999.25       85.28300           0.00           0.00           0.00
        9297.00       -999.250        -999.25        -999.25        -999.25       83.96300           0.00           0.00           0.00
        9297.50       -999.250        -999.25        -999.25        -999.25       85.26300           0.00           0.00           0.00
        9298.00       -999.250        -999.25        -999.25        -999.25       86.46400           0.00           0.00           0.00
        9298.50       -999.250        -999.25        -999.25        -999.25       84.48600           0.00           0.00           0.00
        9299.00       -999.250        -999.25        -999.25        -999.25       81.00900           0.00           0.00           0.00
        9299.50       -999.250        -999.25        -999.25        -999.25       77.74500           0.00           0.00           0.00
        9300.00       -999.250        -999.25        -999.25        -999.25       74.07100           0.00           0.00           0.00
        9300.50       -999.250        -999.25        -999.25        -999.25       70.39700           0.00           0.00           0.00
        9301.00       -999.250        -999.25        -999.25        -999.25       63.86700           0.00           0.00           0.00
        9301.50       -999.250        -999.25        -999.25        -999.25       65.13000           0.00           0.00           0.00
        9302.00       -999.250        -999.25        -999.25        -999.25       69.40100           0.00           0.00           0.00
        9302.50       -999.250        -999.25        -999.25        -999.25       73.67100           0.00           0.00           0.00
        9303.00       -999.250        -999.25        -999.25        -999.25       77.94100           0.00           0.00           0.00
        9303.50       -999.250        -999.25        -999.25        -999.25       79.84300           0.00           0.00           0.00
        9304.00       -999.250        -999.25        -999.25        -999.25       73.08700           0.00           0.00           0.00
        9304.50       -999.250        -999.25        -999.25        -999.25       70.12700           0.00           0.00           0.00
        9305.00       -999.250        -999.25        -999.25        -999.25       68.50200           0.00           0.00           0.00
        9305.50       -999.250        -999.25        -999.25        -999.25       67.60500           0.00           0.00           0.00
        9306.00       -999.250        -999.25        -999.25        -999.25       74.47100           0.00           0.00           0.00
        9306.50       -999.250        -999.25        -999.25        -999.25       79.73700           0.00           0.00           0.00
        9307.00       -999.250        -999.25        -999.25        -999.25       81.16300           0.00           0.00           0.00
        9307.50       -999.250        -999.25        -999.25        -999.25       82.46800           0.00           0.00           0.00
        9308.00       -999.250        -999.25        -999.25        -999.25       78.58500           0.00           0.00           0.00
        9308.50       -999.250        -999.25        -999.25        -999.25       73.95400           0.00           0.00           0.00
        9309.00       -999.250        -999.25        -999.25        -999.25       73.46800           0.00           0.00           0.00
        9309.50       -999.250        -999.25        -999.25        -999.25       73.58900           0.00           0.00           0.00
        9310.00       -999.250        -999.25        -999.25        -999.25       76.02100           0.00           0.00           0.00
        9310.50       -999.250        -999.25        -999.25        -999.25       80.36200           0.00           0.00           0.00
        9311.00       -999.250        -999.25        -999.25        -999.25       76.68100           0.00           0.00           0.00
        9311.50       -999.250        -999.25        -999.25        -999.25       72.56600           0.00           0.00           0.00
        9312.00       -999.250        -999.25        -999.25        -999.25       71.92800           0.00           0.00           0.00
        9312.50       -999.250        -999.25        -999.25        -999.25       69.55300           0.00           0.00           0.00
        9313.00       -999.250        -999.25        -999.25        -999.25       65.28300           0.00           0.00           0.00
        9313.50       -999.250        -999.25        -999.25        -999.25       66.84400           0.00           0.00           0.00
        9314.00       -999.250        -999.25        -999.25        -999.25       74.57800           0.00           0.00           0.00
        9314.50       -999.250        -999.25        -999.25        -999.25       77.36700           0.00           0.00           0.00
        9315.00       -999.250        -999.25        -999.25        -999.25       80.11000           0.00           0.00           0.00
        9315.50       -999.250        -999.25        -999.25        -999.25       84.29700           0.00           0.00           0.00
        9316.00       -999.250        -999.25        -999.25        -999.25       84.83700           0.00           0.00           0.00
        9316.50       -999.250        -999.25        -999.25        -999.25       84.29700           0.00           0.00           0.00
        9317.00       -999.250        -999.25        -999.25        -999.25       84.04600           0.00           0.00           0.00
        9317.50       -999.250        -999.25        -999.25        -999.25       83.75000           0.00           0.00           0.00
        9318.00       -999.250        -999.25        -999.25        -999.25       80.16800           0.00           0.00           0.00
        9318.50       -999.250        -999.25        -999.25        -999.25       67.91400           0.00           0.00           0.00
        9319.00       -999.250        -999.25        -999.25        -999.25       59.69100           0.00           0.00           0.00
        9319.50       -999.250        -999.25        -999.25        -999.25       58.84200           0.00           0.00           0.00
        9320.00       -999.250        -999.25        -999.25        -999.25       59.88500           0.00           0.00           0.00
        9320.50       -999.250        -999.25        -999.25        -999.25       70.42700           0.00           0.00           0.00
        9321.00       -999.250        -999.25        -999.25        -999.25       84.21900           0.00           0.00           0.00
        9321.50       -999.250        -999.25        -999.25        -999.25       85.16600           0.00           0.00           0.00
        9322.00       -999.250        -999.25        -999.25        -999.25       82.70200           0.00           0.00           0.00
        9322.50       -999.250        -999.25        -999.25        -999.25       80.23900           0.00           0.00           0.00
        9323.00       -999.250        -999.25        -999.25        -999.25       78.24400           0.00           0.00           0.00
        9323.50       -999.250        -999.25        -999.25        -999.25       78.19900           0.00           0.00           0.00
        9324.00       -999.250        -999.25        -999.25        -999.25       86.30900           0.00           0.00           0.00
        9324.50       -999.250        -999.25        -999.25        -999.25       91.97400           0.00           0.00           0.00
        9325.00       -999.250        -999.25        -999.25        -999.25       95.66600           0.00           0.00           0.00
