###############################################
##         ENVERUS                           ##
##         ESS - Open Hole                   ##
##         PERMIAN / DELAWARE                ##
##         Nov 02 2023  V4.0                 ##
##         42-109-10429-00-00                ##
###############################################
## Copyright 2017-2023  ENVERUS.  All Rights Reserved. 
## Confidential - Property of ENVERUS, use governed by terms and 
## conditions found within the existing Information Services Subscription Agreement 
## (as may be amended, the “ISSA”) between Customer and ENVERUS. 
## 
~VERSION INFORMATION
# MNEM.UNIT                               DATA : DESCRIPTION OF MNEMONIC
#-----.-----     ----------------------------- : -----------------------------
VERS.                                     2.00 : CWLS LOG ASCII STANDARD - VERSION 2.00
WRAP.                                       NO : MULTIPLE LINES PER DEPTH STEP
VEND.                                  ENVERUS : VENDOR
TYPE.                          ESS - OPEN HOLE : ENVERUS ESSENTIAL CURVES – ACCESSIBLE THROUGH ENVERUS PRISM(TM)
DOC.                                  32032754 : ENVERUS HEADER RAW DOCUMENT ID
#___________________________________________________________________________________________________ 
~WELL INFORMATION 
# hXqYWT5FmhW7UEcPXxReyvN++rqgSwBrBdup88XCyeQNQmx1Fo1vv7xYmZNr9HC+TZh0ltY2ePdKOSE9Z1hlZw== 
# MNEM.UNIT                                              DATA : DESCRIPTION OF MNEMONIC 
#-----.-----                    ----------------------------- : ----------------------------- 
CNTY.                                               CULBERSON : COUNTY 
STATE.                                                  TEXAS : STATE 
CNTRY.                                                    USA : COUNTRY 
API.                                             42-109-10429 : API (10 Digit) 
API_14.                                    42-109-10429-00-00 : API (14 Digits) 
API_14_std.                                 42-109-10429-0000 : API (14 Digits Standard) 
UWI.                                           42109104290000 : UNIQUE WELL ID 
WELL.                                          ROUNSAVILLE  1 : WELL NAME
STRT.FT                                                     0 : START DEPTH
STOP.FT                                                8409.0 : STOP DEPTH
STEP.FT                                                   0.5 : STEP BETWEEN DEPTHS
NULL.                                                 -999.25 : NULL VALUE
COMP.                                     EOG RESOURCES  INC. : COMPANY
#___________________________________________________________________________________________________ 
~CURVE INFORMATION 
# MNEM.UNIT           : CURVE DESCRIPTION 
#-----.-----          : ----------------------------- 
 DEPT.FT               : MEASURED DEPTH 
 CALI.IN               : CALIPER (CAL - CAL) 
 GR.API                : GAMMA RAY (GR) 
 SP.MV                 : SPONTANEOUS POTENTIAL (SP) 
 DT.US/FT              : SONIC DELTA TRANSIT TIME (DT) 
 RESD.OHMM             : DEEP INDUCTION RESISTIVITY (ILD - ILD) 
 #___________________________________________________________________________________________________ 
~A         DEPT           CALI             GR             SP             DT           RESD
# ...
         6248.0          9.310         63.435        -23.329         58.812        321.141
         6248.5          9.315         63.993        -23.487         58.166        242.019
         6249.0          9.320         64.287        -23.644         58.612        162.897
         6249.5          9.325         63.687        -23.801         59.208        242.477
         6250.0          9.330         63.087        -23.958         59.803        302.353
         6250.5          9.335         62.663        -24.116         60.399        285.968
         6251.0          9.339         64.876        -24.273         59.973        252.322
         6251.5          9.344         67.089        -24.430         59.029        216.655
         6252.0          9.344         64.639        -24.587         58.134        185.500
         6252.5          9.339         60.478        -24.744         57.239        208.455
         6253.0          9.333         57.906        -24.902         56.549        231.410
         6253.5          9.328         55.637        -25.077         56.846        211.446
         6254.0          9.322         53.368        -25.501         58.249        188.495
         6254.5          9.317         52.457        -25.925         59.278        165.543
         6255.0          9.311         53.846        -26.348         58.779        195.062
         6255.5          9.306         53.780        -26.772         57.423        228.519
         6256.0          9.300         50.754        -27.196         55.555        606.430
         6256.5          9.295         45.016        -27.620         54.076        819.493
         6257.0          9.289         39.490        -28.044         54.557        259.181
         6257.5          9.284         40.530        -28.468         55.038        400.159
         6258.0          9.278         42.937        -28.892         55.670        541.138
         6258.5          9.273         46.913        -28.761         56.403        682.116
         6259.0          9.267         49.469        -28.426         57.135        823.094
         6259.5          9.262         50.046        -28.091         57.861        964.073
         6260.0          9.256         50.831        -27.755         58.523        693.966
         6260.5          9.251         54.807        -27.420         59.185        384.537
         6261.0          9.282         58.733        -27.187         59.847        212.646
         6261.5          9.318         58.992        -27.187         60.535        159.094
         6262.0          9.355         59.251        -27.188         62.542        146.077
         6262.5          9.391         61.731        -27.188         64.550        164.584
         6263.0          9.373         64.418        -27.189         63.941        183.090
         6263.5          9.347         66.599        -27.189         61.126        352.515
         6264.0          9.321         66.178        -27.190         58.676        479.652
         6264.5          9.295         60.640        -27.190         58.166        374.628
         6265.0          9.270         59.655        -27.191         57.656        301.187
         6265.5          9.244         60.516        -27.192         56.981        262.650
         6266.0          9.218         61.661        -27.192         55.933        228.908
         6266.5          9.202         62.798        -27.193         55.709        238.223
         6267.0          9.205         61.264        -27.193         56.558        268.573
         6267.5          9.208         60.886        -27.194         57.407        298.924
         6268.0          9.210         62.169        -27.194         58.009        307.413
         6268.5          9.213         63.451        -27.195         57.930        298.552
         6269.0          9.215         64.606        -27.196         57.280        289.692
         6269.5          9.218         60.498        -27.196         56.522        291.357
         6270.0          9.220         56.389        -27.197         56.492        293.223
         6270.5          9.223         52.531        -27.310         57.992        294.573
         6271.0          9.225         53.347        -27.551         58.160        273.094
         6271.5          9.228         54.163        -27.792         58.220        287.180
         6272.0          9.230         54.979        -28.033         57.324        348.683
         6272.5          9.232         55.328        -28.274         56.428        410.185
         6273.0          9.235         54.954        -28.515         55.532        395.204
         6273.5          9.237         54.580        -28.756         54.734        351.162
         6274.0          9.240         52.709        -28.997         54.452        307.120
         6274.5          9.242         49.302        -29.089         55.360        293.745
         6275.0          9.244         48.039        -29.162         57.159        283.081
         6275.5          9.247         50.896        -29.235         58.958        279.673
         6276.0          9.249         53.754        -29.309         59.519        290.251
         6276.5          9.251         56.611        -29.382         59.828        300.828
         6277.0          9.254         56.200        -29.456         58.521        307.223
         6277.5          9.256         54.595        -29.529         56.893        296.576
         6278.0          9.258         52.758        -29.602         55.490        285.930
         6278.5          9.261         51.215        -29.786         55.090        237.146
         6279.0          9.263         50.530        -30.065         55.614        234.057
         6279.5          9.265         49.845        -30.343         57.400        230.968
         6280.0          9.268         49.964        -30.622         59.363        227.879
         6280.5          9.270         54.778        -30.901         60.738        217.232
         6281.0          9.272         62.804        -31.179         61.478        197.215
         6281.5          9.275         67.814        -31.458         60.871        177.198
         6282.0          9.275         68.714        -31.737         59.954        157.182
         6282.5          9.275         65.104        -32.016         59.641        146.453
         6283.0          9.275         62.873        -31.860         59.729        164.184
         6283.5          9.267         65.075        -31.590         58.098        181.914
         6284.0          9.255         67.277        -31.320         56.217        542.024
         6284.5          9.242         65.460        -31.050         54.337        514.984
         6285.0          9.230         60.543        -30.780         54.116        429.024
         6285.5          9.217         55.627        -30.580         54.368        471.557
         6286.0          9.204         50.806        -30.730         54.868        529.726
         6286.5          9.192         48.970        -30.879         55.369        625.740
         6287.0          9.179         48.712        -31.029         55.870        721.755
         6287.5          9.167         49.671        -31.179         56.398        817.769
         6288.0          9.154         51.476        -31.328         56.973        905.243
         6288.5          9.155         53.282        -31.478         57.548        584.789
         6289.0          9.157         53.392        -31.627         58.123        425.363
         6289.5          9.159         52.027        -31.780         58.698        329.078
         6290.0          9.160         51.156        -32.332         59.272        284.300
         6290.5          9.162         53.133        -32.884         59.847        272.487
         6291.0          9.164         55.110        -33.436         59.489        276.858
         6291.5          9.166         55.227        -33.989         58.453        292.813
