###############################################
##         ENVERUS                           ##
##         ESS - Open Hole                   ##
##         PERMIAN / DELAWARE                ##
##         Nov 03 2023  V4.0                 ##
##         42-109-32620-90-00                ##
###############################################
## Copyright 2017-2023  ENVERUS.  All Rights Reserved. 
## Confidential - Property of ENVERUS, use governed by terms and 
## conditions found within the existing Information Services Subscription Agreement 
## (as may be amended, the “ISSA”) between Customer and ENVERUS. 
## 
~VERSION INFORMATION
# MNEM.UNIT                               DATA : DESCRIPTION OF MNEMONIC
#-----.-----     ----------------------------- : -----------------------------
VERS.                                     2.00 : CWLS LOG ASCII STANDARD - VERSION 2.00
WRAP.                                       NO : MULTIPLE LINES PER DEPTH STEP
VEND.                                  ENVERUS : VENDOR
TYPE.                          ESS - OPEN HOLE : ENVERUS ESSENTIAL CURVES – ACCESSIBLE THROUGH ENVERUS PRISM(TM)
DOC.                                  51092896 : ENVERUS HEADER RAW DOCUMENT ID
#___________________________________________________________________________________________________ 
~WELL INFORMATION 
# mS4wxE9S4ErBCd3MEwtzWWb7vaBLyBp2a6hoNdhJ+t1pinRta8/5SsS3wr5CrR4pTncMCKeAGTUU45xlgh6yRQ== 
# MNEM.UNIT                                              DATA : DESCRIPTION OF MNEMONIC 
#-----.-----                    ----------------------------- : ----------------------------- 
CNTY.                                               CULBERSON : COUNTY 
STATE.                                                  TEXAS : STATE 
CNTRY.                                                    USA : COUNTRY 
API.                                             42-109-32620 : API (10 Digit) 
API_14.                                    42-109-32620-90-00 : API (14 Digits) 
API_14_std.                                 42-109-32620-9000 : API (14 Digits Standard) 
UWI.                                           42109326209000 : UNIQUE WELL ID 
WELL.                               42109326200000_PREV_API14 : WELL NAME
STRT.FT                                                2338.5 : START DEPTH
STOP.FT                                               10866.0 : STOP DEPTH
STEP.FT                                                   0.5 : STEP BETWEEN DEPTHS
NULL.                                                 -999.25 : NULL VALUE
PREV_APII.                                     42109326200000 : WELL IDENTIFIER
#___________________________________________________________________________________________________ 
~PARAMETER INFORMATION 
# MNEM.UNIT                                              DATA : DESCRIPTION OF MNEMONIC 
#-----.-----                    ----------------------------- : ----------------------------- 
EKB.FT                                                   3330 : ELEVATION ABOVE MSL
#___________________________________________________________________________________________________ 
~CURVE INFORMATION 
# MNEM.UNIT           : CURVE DESCRIPTION 
#-----.-----          : ----------------------------- 
 DEPT.FT               : MEASURED DEPTH 
 CALI.IN               : CALIPER (CAL - CALIPER) 
 GR.API                : GAMMA RAY (GAMMA RAY) 
 DT.US/FT              : SONIC DELTA TRANSIT TIME (PRESSURE WAVE SONIC) 
 #___________________________________________________________________________________________________ 
~A         DEPT           CALI             GR             DT
# ...
         8542.5          9.234         93.602         80.020
         8543.0          9.234         88.021         80.154
         8543.5          9.254         84.994         76.915
         8544.0          9.254         81.723         71.578
         8544.5          9.227         64.826         64.471
         8545.0          9.214         52.462         63.466
         8545.5          9.214         57.150         66.115
         8546.0          9.224         72.806         71.264
         8546.5          9.234         98.362         79.193
         8547.0          9.234        103.723         78.548
         8547.5          9.234         88.190         70.711
         8548.0          9.234         61.931         68.903
         8548.5          9.234         59.413         69.481
         8549.0          9.234         80.686         77.478
         8549.5          9.234        101.218         84.629
         8550.0          9.234        117.236         83.574
         8550.5          9.234        117.564         81.757
         8551.0          9.234        109.073         76.848
         8551.5          9.234         91.584         72.736
         8552.0          9.210         77.125         69.318
         8552.5          9.194         71.503         71.010
         8553.0          9.194         75.433         71.156
         8553.5          9.194         78.645         70.841
         8554.0          9.194         80.158         70.489
         8554.5          9.214         84.118         72.241
         8555.0          9.214         93.679         78.383
         8555.5          9.234        110.154         80.268
         8556.0          9.234        111.976         81.978
         8556.5          9.234        105.557         75.880
         8557.0          9.199         79.087         67.768
         8557.5          9.194         56.506         63.738
         8558.0          9.214         52.064         63.762
         8558.5          9.214         70.727         69.603
         8559.0          9.195         97.269         80.039
         8559.5          9.194        112.377         83.439
         8560.0          9.194        111.103         80.257
         8560.5          9.154         88.785         71.170
         8561.0          9.154         74.772         69.573
         8561.5          9.194         77.605         72.110
         8562.0          9.214         80.013         73.769
         8562.5          9.207         74.009         73.640
         8563.0          9.154         68.584         69.402
         8563.5          9.154         70.527         71.295
         8564.0          9.174         77.819         75.026
         8564.5          9.174        102.510         78.747
         8565.0          9.194        108.340         74.915
         8565.5          9.214         93.098         70.024
         8566.0          9.234         80.347         68.344
         8566.5          9.234         85.422         71.616
         8567.0          9.234        105.894         77.894
         8567.5          9.254        113.432         78.870
         8568.0          9.254        106.672         75.630
         8568.5          9.214         81.197         70.023
         8569.0          9.214         61.170         65.864
         8569.5          9.214         54.895         62.699
         8570.0          9.214         52.543         63.060
         8570.5          9.214         57.040         66.657
         8571.0          9.234         75.208         71.488
         8571.5          9.254         90.502         80.730
         8572.0          9.254         93.413         82.638
         8572.5          9.254         87.875         78.945
         8573.0          9.254         70.070         73.610
         8573.5          9.222         45.880         62.390
         8574.0          9.214         36.126         58.606
         8574.5          9.214         34.601         60.395
         8575.0          9.214         38.216         62.391
         8575.5          9.214         41.118         62.916
         8576.0          9.214         41.086         62.698
         8576.5          9.214         47.411         63.563
         8577.0          9.234         62.747         66.590
         8577.5          9.234         79.650         70.996
         8578.0          9.254         79.444         72.404
         8578.5          9.254         72.770         71.266
         8579.0          9.254         70.659         68.894
         8579.5          9.254         73.937         72.028
         8580.0          9.274         80.248         73.646
         8580.5          9.274         97.713         77.330
         8581.0          9.293        111.015         81.416
         8581.5          9.293        111.923         78.333
         8582.0          9.293         95.728         74.442
         8582.5          9.254         68.793         65.139
         8583.0          9.254         54.797         59.505
         8583.5          9.254         52.566         60.574
         8584.0          9.254         60.033         62.724
         8584.5          9.274         82.147         71.350
         8585.0          9.274         98.956         78.291
         8585.5          9.274        109.680         77.728
         8586.0          9.274        104.936         75.256
         8586.5          9.274         81.901         72.406
         8587.0          9.274         71.644         72.441
         8587.5          9.274         80.533         74.586
         8588.0          9.274         90.062         78.797
         8588.5          9.274         95.672         77.228
         8589.0          9.274         97.862         75.097
         8589.5          9.274         89.555         69.037
         8590.0          9.254         79.763         65.770
         8590.5          9.254         57.258         64.679
         8591.0          9.254         57.986         64.586
         8591.5          9.254         64.750         67.222
         8592.0          9.254         67.999         70.840
         8592.5          9.254         75.127         70.500
         8593.0          9.254         78.190         70.588
         8593.5          9.254         78.044         71.324
         8594.0          9.234         80.568         71.912
         8594.5          9.234         81.836         72.051
         8595.0          9.234         78.110         72.881
         8595.5          9.234         78.048         72.285
         8596.0          9.234         83.480         72.209
         8596.5          9.234        100.566         77.263
         8597.0          9.234        109.924         75.847
         8597.5          9.234         97.806         72.975
         8598.0          9.214         85.785         70.553
         8598.5          9.214         74.596         68.653
         8599.0          9.214         78.004         68.532
         8599.5          9.214         77.498         68.679
         8600.0          9.214         72.346         68.032
         8600.5          9.202         68.436         66.326
         8601.0          9.174         63.128         65.490
         8601.5          9.174         53.411         65.354
         8602.0          9.154         51.497         63.510
         8602.5          9.154         51.660         63.195
         8603.0          9.154         46.155         61.034
         8603.5          9.154         39.640         57.620
         8604.0          9.154         38.209         59.314
         8604.5          9.134         48.035         59.866
         8605.0          9.134         58.228         62.915
         8605.5          9.134         54.956         63.207
         8606.0          9.134         48.096         60.972
         8606.5          9.134         45.638         58.902
         8607.0          9.154         43.880         55.655
         8607.5          9.154         39.303         55.767
         8608.0          9.174         35.521         55.852
