###############################################
##         ENVERUS                           ##
##         ESS - Open Hole                   ##
##         PERMIAN / DELAWARE                ##
##         Nov 03 2023  V4.0                 ##
##         42-109-32620-90-00                ##
###############################################
## Copyright 2017-2023  ENVERUS.  All Rights Reserved. 
## Confidential - Property of ENVERUS, use governed by terms and 
## conditions found within the existing Information Services Subscription Agreement 
## (as may be amended, the “ISSA”) between Customer and ENVERUS. 
## 
~VERSION INFORMATION
# MNEM.UNIT                               DATA : DESCRIPTION OF MNEMONIC
#-----.-----     ----------------------------- : -----------------------------
VERS.                                     2.00 : CWLS LOG ASCII STANDARD - VERSION 2.00
WRAP.                                       NO : MULTIPLE LINES PER DEPTH STEP
VEND.                                  ENVERUS : VENDOR
TYPE.                          ESS - OPEN HOLE : ENVERUS ESSENTIAL CURVES – ACCESSIBLE THROUGH ENVERUS PRISM(TM)
DOC.                                  51092952 : ENVERUS HEADER RAW DOCUMENT ID
#___________________________________________________________________________________________________ 
~WELL INFORMATION 
# LYPeWtxrle9FodilXqet+3VuPRh8A73lGXm1Q3+VPjdIM+tEhu367IfA47DlYFnVF+yDwY76OrXOyADpoj01xA== 
# MNEM.UNIT                                              DATA : DESCRIPTION OF MNEMONIC 
#-----.-----                    ----------------------------- : ----------------------------- 
CNTY.                                               CULBERSON : COUNTY 
STATE.                                                  TEXAS : STATE 
CNTRY.                                                    USA : COUNTRY 
API.                                             42-109-32620 : API (10 Digit) 
API_14.                                    42-109-32620-90-00 : API (14 Digits) 
API_14_std.                                 42-109-32620-9000 : API (14 Digits Standard) 
UWI.                                           42109326209000 : UNIQUE WELL ID 
WELL.                               42109326200000_PREV_API14 : WELL NAME
STRT.FT                                                2339.0 : START DEPTH
STOP.FT                                               10866.0 : STOP DEPTH
STEP.FT                                                   0.5 : STEP BETWEEN DEPTHS
NULL.                                                 -999.25 : NULL VALUE
PREV_APII.                                     42109326200000 : WELL IDENTIFIER
#___________________________________________________________________________________________________ 
~PARAMETER INFORMATION 
# MNEM.UNIT                                              DATA : DESCRIPTION OF MNEMONIC 
#-----.-----                    ----------------------------- : ----------------------------- 
EKB.FT                                                   3330 : ELEVATION ABOVE MSL
#___________________________________________________________________________________________________ 
~CURVE INFORMATION 
# MNEM.UNIT           : CURVE DESCRIPTION 
#-----.-----          : ----------------------------- 
 DEPT.FT               : MEASURED DEPTH 
 GR__A.API             : GAMMA RAY (GAMMA RAY) 
 DT__A.US/FT           : SONIC DELTA TRANSIT TIME (SONIC) 
 #___________________________________________________________________________________________________ 
~A         DEPT          GR__A          DT__A
# ...
         9125.0        202.470         85.438
         9125.5        194.050         81.181
         9126.0        192.814         79.627
         9126.5        188.943         92.708
         9127.0        169.326         93.859
         9127.5        167.634         95.138
         9128.0        180.993         89.183
         9128.5        203.076         74.643
         9129.0        197.928         81.228
         9129.5        183.094         86.357
         9130.0        173.250         82.956
         9130.5        190.914         73.157
         9131.0        216.602         71.730
         9131.5        166.557         86.128
         9132.0        131.389         99.837
         9132.5         86.811        143.174
         9133.0         68.755        150.907
         9133.5         57.810        153.431
         9134.0         59.478        155.437
         9134.5         73.114        143.317
         9135.0        104.384        104.748
         9135.5        154.557         90.951
         9136.0        179.449         88.748
         9136.5        176.447         98.397
         9137.0        195.002         97.029
         9137.5        263.646         82.449
         9138.0        273.384         74.200
         9138.5        248.454         71.942
         9139.0        221.780         82.084
         9139.5        202.859         87.021
         9140.0        203.084         82.931
         9140.5        239.068         63.847
         9141.0        295.777         50.361
         9141.5        315.684         41.515
         9142.0        308.073         48.436
         9142.5        279.294         56.464
         9143.0        239.760         69.052
         9143.5        198.760         89.709
         9144.0        173.494        102.616
         9144.5        122.302        119.871
         9145.0        101.630        128.661
         9145.5         95.785        115.770
         9146.0        120.292        100.699
         9146.5        174.257         75.360
         9147.0        207.740         69.047
         9147.5        222.441         67.803
         9148.0        213.365         68.918
         9148.5        185.883         71.519
         9149.0        181.867         71.615
         9149.5        181.532         71.942
         9150.0        174.576         73.157
         9150.5        156.960         74.570
         9151.0        150.220         78.033
         9151.5        151.210         79.267
         9152.0        154.982         78.453
         9152.5        157.671         77.049
         9153.0        160.891         73.011
         9153.5        162.445         71.403
         9154.0        158.445         81.798
         9154.5        144.697        103.951
         9155.0        133.139        110.933
         9155.5        137.482        104.786
         9156.0        148.142         98.767
         9156.5        151.887        101.037
         9157.0        126.896        116.775
         9157.5         94.378        123.291
         9158.0         85.084        120.253
         9158.5         91.409        112.140
         9159.0        101.524        105.121
         9159.5        109.469        101.458
         9160.0        113.692         99.258
         9160.5        127.482         94.071
         9161.0        144.829         89.794
         9161.5        161.969         81.087
         9162.0        168.676         71.405
         9162.5        169.614         71.276
         9163.0        161.171         76.041
         9163.5        141.448         84.130
         9164.0        128.250         88.679
         9164.5        128.304         84.353
         9165.0        142.037         79.133
         9165.5        155.665         75.503
         9166.0        159.329         75.025
         9166.5        155.289         76.028
         9167.0        160.152         75.152
         9167.5        161.823         73.895
         9168.0        155.799         71.954
         9168.5        148.108         73.943
         9169.0        148.184         78.074
         9169.5        153.920         78.178
         9170.0        159.646         77.049
         9170.5        170.568         72.443
         9171.0        177.259         72.025
         9171.5        181.085         73.243
         9172.0        181.238         74.851
         9172.5        171.753         75.188
         9173.0        168.211         74.249
         9173.5        183.043         71.614
         9174.0        208.183         70.884
         9174.5        215.462         77.611
         9175.0        203.444         75.386
         9175.5        223.892         72.680
         9176.0        261.858         61.178
         9176.5        332.275         43.686
         9177.0        328.443         55.918
         9177.5        297.243         61.357
         9178.0        275.924         63.692
         9178.5        245.337         68.104
         9179.0        237.777         72.400
         9179.5        229.324         73.213
         9180.0        213.077         75.238
         9180.5        196.448         80.581
         9181.0        182.575         90.527
         9181.5        162.244        109.178
         9182.0        144.981        118.506
         9182.5        123.807        116.879
         9183.0        137.728        111.067
         9183.5        187.166         88.481
         9184.0        210.443         78.868
         9184.5        237.240         77.676
         9185.0        238.723         74.401
         9185.5        250.024         71.287
         9186.0        265.679         69.849
         9186.5        301.975         55.172
         9187.0        335.540         44.530
         9187.5        367.502         36.655
         9188.0        371.735         37.888
         9188.5        338.761         56.031
         9189.0        293.078         67.942
         9189.5        272.223         71.089
         9190.0        270.314         69.112
         9190.5        270.828         65.620
         9191.0        256.605         64.218
         9191.5        221.901         66.284
         9192.0        204.806         74.554
         9192.5        174.350         82.053
         9193.0        162.100         86.760
         9193.5        154.755         89.954
         9194.0        151.149         88.032
         9194.5        152.514         84.936
         9195.0        165.009         82.200
         9195.5        169.510         85.380
         9196.0        159.288         86.219
         9196.5        158.832         84.925
         9197.0        181.196         78.657
         9197.5        194.394         70.618
         9198.0        195.210         70.211
         9198.5        200.343         70.612
         9199.0        213.875         71.757
         9199.5        224.828         72.618
         9200.0        231.138         71.766
         9200.5        229.836         70.621
         9201.0        225.733         70.684
         9201.5        223.221         71.848
         9202.0        212.796         77.008
         9202.5        183.453         93.317
         9203.0        157.189         94.049
         9203.5        179.687         87.924
         9204.0        213.051         77.084
         9204.5        229.790         66.049
         9205.0        229.463         67.706
         9205.5        240.022         70.369
         9206.0        250.897         72.635
         9206.5        235.625         70.721
         9207.0        221.956         68.801
         9207.5        234.876         66.501
         9208.0        254.068         56.282
         9208.5        268.636         45.921
         9209.0        236.529         64.041
         9209.5        196.026         78.385
         9210.0        179.025         83.523
         9210.5        161.594         91.717
         9211.0        136.954        101.189
         9211.5        132.752         97.509
