~VERSION INFORMATION
VERS. 2.0 : CWLS Log ASCII Standard - version 2.0
WRAP.  NO : One line per depth step
#--------------------------------------------------#
#----------------DRILLING INFO, INC.---------------#
#---------------WWW.DRILLINGINFO.COM---------------#
#------------------COPYRIGHT 2015------------------#
#--------------------------------------------------#
#THIS FILE MAY BE USED ONLY IN ACCORDANCE WITH A CURRENT SUBSCRIPTION AGREEMENT BETWEEN
#THE USER AND DRILLING INFO, INC. NO PART OF THIS FILE MAY BE REPRODUCED, USED, COPIED,
#MODIFIED, PROPAGATED, OR DISTRIBUTED EXCEPT IN ACCORDANCE WITH THE SUBSCRIPTION
#AGREEMENT. UNAUTHORIZED USE OR DISTRIBUTION OF ALL OR ANY PART OF THIS FILE MAY VIOLATE
#COPYRIGHT, TRADEMARK, AND/OR OTHER LAWS AND IS SUBJECT TO CIVIL AS WELL AS CRIMINAL
#SANCTIONS.
#--------------------------------------------------#
#THIS FILE IS PROVIDED "AS-IS" AND ALL WARRANTIES ARE EXPRESSLY DISCLAIMED, WHETHER
#EXPRESS, ORAL, IMPLIED, STATUTORY OR OTHERWISE, INCLUDING ANY IMPLIED WARRANTY OF FITNESS
#FOR A PARTICULAR PURPOSE, MERCHANTABILITY, TITLE OR NON-INFRINGEMENT, AND ANY WARRANTIES
#ARISING BY VIRTUE OF CUSTOM OF TRADE OR COURSE OF DEALING.  FURTHER, DRILLING INFO,
#INC. AND ITS LICENSORS DO NOT REPRESENT OR WARRANT THAT THIS FILE WILL MEET USER'S
#REQUIREMENTS OR ARE SUITABLE FOR USER'S NEEDS OR THAT THE DATA OR RESULTS PROVIDED IN
#CONJUNCTION THEREWITH ARE CORRECT, ACCURATE, TIMELY OR RELIABLE. THESE DISCLAIMERS SHALL
#APPLY REGARDLESS OF ANY FAILURE OF ESSENTIAL PURPOSE OF ANY LIMITED REMEDY.  SOME
#JURISDICTIONS DO NOT ALLOW THE EXCLUSION OF CERTAIN WARRANTIES SO SOME OF THE ABOVE
#EXCLUSIONS MAY NOT APPLY. IN NO EVENT SHALL DRILLING INFO, INC. OR ANY OF ITS AFFILIATES
#BE LIABLE UNDER ANY LEGAL THEORY, WHETHER IN TORT (INCLUDING WITHOUT LIMITATION
#NEGLIGENCE), CONTRACT, STRICT LIABILITY, STATUTORY OR OTHERWISE, FOR ANY SPECIAL,
#INCIDENTAL, CONSEQUENTIAL, EXEMPLARY, PUNITIVE OR INDIRECT DAMAGE OF ANY KIND, INCLUDING
#WITHOUT LIMITATION LOSS OF REVENUE, PROFITS, GOODWILL, USE, AND/OR DATA OR THE COST OF
#PROCUREMENT OF SUBSTITUTE GOODS OR SERVICES, EVEN IF APPRISED OF THE POSSIBILITY OF SUCH
#DAMAGES IN ADVANCE.
#--------------------------------------------------#
~WELL INFORMATION
#MNEMONIC     .UNIT              VALUE :DESCRIPTION
#--------------------------------------------------#
STRT       .FT                35 :START DEPTH
STOP       .FT                15948 :STOP DEPTH
STEP       .FT                   0.500 :STEP
NULL       .                  -999.250 :NULL
API        .                421093136200 :API NUMBER
COMP       .         ARRINGTON DAVID H. OIL & GAS INC :COMPANY
WELL       .        SCOTT UNIT  1 :WELL
DATE       .                17-Jun-1991 :LOG DATE
~CURVE INFORMATION
#MNEMONIC     .UNIT      API CODE :CURVE DESCRIPTION
#--------------------------------------------------#
DEPTH       .FT                      :Measured Depth
CAL.INCH        UNKNOWN   :CAL
DT.US/FT        UNKNOWN   :DT
GR.API        UNKNOWN   :GR
~A    DEPTH    CAL    DT    GR
# ...
 9382.5     10.099   71.5   57.377
 9383     10.131   71.733   59.587
 9383.5     10.149   71.773   59.44
 9384     10.167   72.485   58.356
 9384.5     10.185   75.08   59.949
 9385     10.196   75.08   67.083
 9385.5     10.208   75.08   72.805
 9386     10.219   75.118   77.662
 9386.5     10.23   75.209   80.493
 9387     10.242   75.646   78.182
 9387.5     10.253   76.669   74.577
 9388     10.265   77.692   70.972
 9388.5     10.276   78.714   68.261
 9389     10.288   78.555   67.084
 9389.5     10.299   77.329   68.242
 9390     10.268   76.104   69.411
 9390.5     10.217   74.947   71.417
 9391     10.167   75.407   74.19
 9391.5     10.152   76.368   81.275
 9392     10.152   75.555   92.765
 9392.5     10.152   74.742   99.551
 9393     10.152   73.929   94.57
 9393.5     10.152   72.343   77.221
 9394     10.123   70.172   69.54
 9394.5     10.07   68.012   64.497
 9395     10.061   66.3   60.971
 9395.5     10.076   66.87   53.773
 9396     10.09   68.948   47.1
 9396.5     10.095   71.026   50.188
 9397     10.065   72.259   55.827
 9397.5     10.034   72.167   61.466
 9398     10.004   70.355   59.643
 9398.5     9.973   68.974   57.205
 9399     9.943   70.184   57.027
 9399.5     9.912   72.89   58.155
 9400     9.903   77.77   60.948
 9400.5     9.906   78.512   79.175
 9401     9.909   78.179   84.236
 9401.5     9.912   75.491   89.296
 9402     9.915   72.746   88.343
 9402.5     9.918   70.84   77.284
 9403     9.92   71.521   68.401
 9403.5     9.923   72.611   64.713
 9404     9.926   75.505   72.438
 9404.5     9.929   76.3   81.73
 9405     9.932   76.031   86.373
 9405.5     9.935   73.742   88.211
 9406     9.938   67.461   77.209
 9406.5     9.941   63.021   60.956
 9407     9.944   64.245   45.885
 9407.5     9.947   68.287   40.996
 9408     9.95   72.258   44.776
 9408.5     9.953   76.229   61.239
 9409     9.963   80.127   72.963
 9409.5     9.972   81.345   81.343
 9410     9.981   81.345   83.719
 9410.5     9.991   77.261   80.203
 9411     10   74.771   76.686
 9411.5     10.009   73.738   73.169
 9412     10.019   71.839   69.466
 9412.5     10.028   69.773   65.75
 9413     10.037   67.083   61.343
 9413.5     10.047   63.928   55.401
 9414     10.046   60.773   49.026
 9414.5     10.023   62.027   42.144
 9415     9.999   65.272   43.268
 9415.5     9.975   69.088   51.467
 9416     9.952   72.903   59.71
 9416.5     9.944   77.439   82.588
 9417     9.935   76.463   89.123
 9417.5     9.927   74.629   85.453
 9418     9.927   71.865   77.355
 9418.5     9.975   73.906   71.701
 9419     10.023   75.948   76.093
 9419.5     10.072   77.989   81.338
 9420     10.12   76.316   87.343
 9420.5     10.144   73.327   88.35
 9421     10.107   70.358   79.673
 9421.5     10.07   68.018   70.878
 9422     10.033   67.014   64.381
 9422.5     10.006   67.014   63.301
 9423     10.016   67.014   64.305
 9423.5     10.027   67.15   61.956
 9424     10.037   67.575   57.374
 9424.5     9.993   68.001   53.174
 9425     9.946   67.98   53.796
 9425.5     9.906   67.75   55.851
 9426     9.931   67.978   56.495
 9426.5     9.955   68.456   56.675
 9427     9.979   68.934   57.984
 9427.5     10.004   68.946   60.811
 9428     10.028   68.769   64.018
 9428.5     10.053   68.592   65.181
 9429     10.052   68.415   64.093
 9429.5     9.963   68.237   63.004
 9430     9.928   68.06   64.219
 9430.5     9.998   67.868   64.785
 9431     10.067   67.901   63.781
 9431.5     10.137   68.221   62.776
 9432     10.125   68.449   62.521
 9432.5     10.084   67.841   65.341
 9433     10.042   67.234   67.511
 9433.5     10.001   66.401   67.954
 9434     9.959   61.587   67.047
 9434.5     9.898   57.124   55.532
 9435     9.833   54.589   42.619
 9435.5     9.815   51.701   30.263
 9436     9.835   48.897   20.642
 9436.5     9.857   49.137   14.059
 9437     9.942   49.377   12.281
 9437.5     10.026   49.617   13.615
 9438     10.111   50.411   16.526
 9438.5     10.165   53.395   22.804
 9439     10.135   58.19   29.252
 9439.5     10.105   62.984   38.898
 9440     10.075   61.811   48.523
 9440.5     10.074   58.171   64.628
 9441     10.124   54.53   61.075
 9441.5     10.173   50.889   54.248
 9442     10.146   59.295   47.421
 9442.5     10.118   64.826   54.876
 9443     10.09   69.601   69.609
 9443.5     10.063   73.071   96.821
 9444     10.05   75.586   100.575
 9444.5     10.122   76.191   94.795
 9445     10.193   76.796   89.016
 9445.5     10.231   77.349   86.044
 9446     10.203   77.622   85.642
 9446.5     10.174   77.866   80.773
 9447     10.145   77.866   75.79
 9447.5     10.122   77.866   71.44
 9448     10.118   78.154   68.734
 9448.5     10.114   78.745   69.646
 9449     10.11   78.735   70.558
 9449.5     10.106   77.923   71.47
 9450     10.101   77.11   71.52
 9450.5     10.097   76.298   71.211
 9451     10.093   76.768   72.31
 9451.5     10.103   77.278   74.028
 9452     10.133   77.924   75.81
 9452.5     10.163   80.357   76.385
 9453     10.137   79.818   73.557
 9453.5     10.077   79.278   70.138
 9454     10.016   77.456   68.67
 9454.5     9.957   75.33   69.156
 9455     10.024   74.155   68.191
 9455.5     10.09   74.823   66.851
 9456     10.156   75.555   65.51
 9456.5     10.161   76.271   66.43
 9457     10.142   76.241   68.312
 9457.5     10.123   76.212   70.194
 9458     10.103   76.183   71.626
 9458.5     10.084   75.494   71.924
 9459     10.065   74.655   72.222
 9459.5     10.065   73.815   72.52
 9460     10.078   73.888   72.474
 9460.5     10.09   75.613   69.387
 9461     10.102   77.149   66.618
 9461.5     10.114   78.54   64.854
 9462     10.128   79.932   64.991
 9462.5     10.152   81.323   68.55
 9463     10.176   80.996   71.363
 9463.5     10.2   82.072   71.466
 9464     10.223   82.251   72.119
 9464.5     10.203   81.95   74.956
 9465     10.179   81.649   77.793
 9465.5     10.176   81.348   78.923
 9466     10.176   81.81   79.369
 9466.5     10.176   83.814   74.828
 9467     10.176   83.426   73.351
 9467.5     10.146   83.039   74.244
 9468     10.114   82.184   74.676
 9468.5     10.082   76.69   70.356
 9469     10.05   75.14   65.935
 9469.5     10.048   75.247   61.226
 9470     10.057   75.537   61.442
 9470.5     10.066   76.487   62.939
 9471     10.075   77.112   65.165
 9471.5     10.083   75.878   67.391
 9472     10.092   74.643   68.773
 9472.5     10.101   73.955   69.19
 9473     10.109   73.679   68.263
 9473.5     10.095   73.705   67.59
 9474     10.081   73.992   67.495
 9474.5     10.067   74.28   67.61
 9475     10.122   74.738   69.056
 9475.5     10.261   75.305   70.246
 9476     10.275   75.872   70.716
 9476.5     10.272   73.647   68.759
 9477     10.269   71.328   62.754
 9477.5     10.266   70.278   56.715
 9478     10.263   70.954   53.716
 9478.5     10.248   72.203   57.92
 9479     10.197   76.153   65.641
 9479.5     10.145   77.218   70.813
 9480     10.094   77.254   73.707
 9480.5     10.043   77.289   75.014
 9481     9.991   77.145   74.23
 9481.5     9.94   76.984   71.694
 9482     9.889   76.816   69.159
 9482.5     9.872   74.554   68.757
 9483     9.868   72.61   69.545
 9483.5     9.864   71.687   70.323
 9484     9.859   72.355   69.602
 9484.5     9.855   73.023   68.88
 9485     9.851   73.511   70.999
 9485.5     9.847   73.35   72.079
 9486     9.842   73.189   70.197
 9486.5     9.866   74.131   68.455
 9487     9.893   75.206   68.617
 9487.5     9.92   76.282   71.552
 9488     9.94   75.9   72.473
 9488.5     9.922   75.415   68.396
 9489     9.903   75.493   63.469
 9489.5     9.884   75.918   62.886
 9490     9.907   76.344   64.382
 9490.5     9.963   76.195   67.914
 9491     10.02   76.034   71.445
 9491.5     10.044   75.873   74.312
 9492     10.044   75.712   76.437
 9492.5     10.063   76.226   75.341
 9493     10.146   76.654   74.573
 9493.5     10.229   76.15   74.241
 9494     10.244   75.647   72.06
 9494.5     10.158   75.212   66.786
 9495     10.071   74.835   62.993
 9495.5     9.985   73.766   64.433
