# Exported from Transform Software 5.2.0 on 27-Jun-2019 by user brian.umlang
# DI Transform - A Product of Drillinginfo, Inc. - www.drillinginfo.com
#
~VERSION INFORMATION
 VERS.        2.0 : LAS ASCII STANDARD - VERSION 2.0
 WRAP.         NO : ONE LINE PER DEPTH STEP

~WELL INFORMATION
#MNEM.UNIT       DATA TYPE       INFORMATION
#---------       ---------       -----------
 STRT.ft                   0 : Start Depth
 STOP.ft               12430 : Stop Depth
 STEP.ft                 0.5 : Step Length
 NULL.               -999.25 : Null Value
 COMP.                       : Company
 WELL.  42109313590000_API14 : Well Name
 FLD.                        : Field Name
 LOC.                        : Well Location
 CNTY.                       : County
 STAT.                       : State or Province
 CTRY.                       : Country
 SRVC.                       : Service Company
 DATE.                       : Date
 API.         42109313590000 : Well Identifier

~CURVE INFORMATION
#MNEM.UNIT       API CODE       CURVE DESCRIPTION
#---------       --------       -----------------
 DEPT.ft          : <Measured Depth>
 CAL.in           : Caliper
 DPHI.%           : Density Porosity
 DT.us/ft         : Sonic
 GR.gAPI          : Gamma Ray
 ILD.ohmm         : Deep Resistivity
 ILM.ohmm         : Medium Resistivity
 ILS.ohmm         : Shallow Resistivity
 NPHI.%           : Neutron Porosity
 RHOB.g/cm3       : Density
 SP.mV            : Spontaneous Potential

~PARAMETER INFORMATION
#MNEM.UNIT       VALUE       DESCRIPTION
#---------       -----       -----------
 EKB.ft      3771 : Elevation above MSL

~A      DEPT         CAL        DPHI          DT          GR         ILD         ILM         ILS        NPHI        RHOB          SP
# ...
     10156.5     10.1865      4.6131     65.7833     86.8056     -999.25     -999.25     -999.25     13.7859      2.6217     -999.25
       10157     10.1855      4.2696     64.8098     88.2937     -999.25     -999.25     -999.25     13.0228      2.6334     -999.25
     10157.5     10.1468      4.2215     64.4689     87.7585     -999.25     -999.25     -999.25     12.9993      2.6214     -999.25
       10158     10.1468      4.4617      64.833     85.7979     -999.25     -999.25     -999.25     13.3232      2.6513     -999.25
     10158.5     10.1344      5.1855     64.9518     83.0853     -999.25     -999.25     -999.25     16.0626      2.6533     -999.25
       10159     10.1468      6.3991     65.3908      86.281     -999.25     -999.25     -999.25     16.6197      2.6555     -999.25
     10159.5     10.1468      6.8484     64.8914      86.281     -999.25     -999.25     -999.25      16.225      2.6583     -999.25
       10160     10.1468       6.876     63.7575      86.281     -999.25     -999.25     -999.25     14.7336      2.6346     -999.25
     10160.5      10.127      6.8406     63.1713      86.281     -999.25     -999.25     -999.25     12.6478      2.6233     -999.25
       10161      10.127      7.0431     64.2484     80.1956     -999.25     -999.25     -999.25      9.5408      2.6144     -999.25
     10161.5      10.127      7.1655     66.0045     68.4319     -999.25     -999.25     -999.25      9.6226      2.5975     -999.25
       10162     10.1244      7.2377     67.5354      66.284     -999.25     -999.25     -999.25      9.3753      2.5815     -999.25
     10162.5     10.1118       7.128     67.8821     69.0521     -999.25     -999.25     -999.25      9.3834      2.5804     -999.25
       10163      10.127      6.6229     65.4164     75.5064     -999.25     -999.25     -999.25      9.7027      2.5808     -999.25
     10163.5      10.127      6.3151     62.4039     81.1012     -999.25     -999.25     -999.25      9.2595       2.591     -999.25
       10164      10.127      6.2426     60.0428     79.8314     -999.25     -999.25     -999.25      9.0462      2.5885     -999.25
     10164.5      10.127      6.1083     59.7777     79.4483     -999.25     -999.25     -999.25     10.5623      2.5725     -999.25
       10165      10.127      5.4698     62.1454     82.4779     -999.25     -999.25     -999.25     12.3588      2.6159     -999.25
     10165.5      10.127      5.7222     63.1292     85.8135     -999.25     -999.25     -999.25     11.8361      2.6191     -999.25
       10166      10.127      6.1732     63.0355     82.8504     -999.25     -999.25     -999.25     11.1123      2.6254     -999.25
     10166.5     10.1468      7.2091     62.7255     71.5292     -999.25     -999.25     -999.25      7.8695      2.6273     -999.25
       10167      10.127      7.4116     63.1269     65.6045     -999.25     -999.25     -999.25      4.7869      2.6149     -999.25
     10167.5      10.127      7.5223     63.9994     60.0979     -999.25     -999.25     -999.25      4.6952      2.6037     -999.25
       10168     10.1468      7.5055     64.8898     55.3564     -999.25     -999.25     -999.25      4.2556      2.6344     -999.25
     10168.5     10.1468       7.443      63.879     57.5397     -999.25     -999.25     -999.25      4.5304      2.6352     -999.25
       10169     10.1468      7.2735     61.3402     66.4945     -999.25     -999.25     -999.25      5.0501      2.6407     -999.25
     10169.5      10.127      6.8981     59.3923     75.3339     -999.25     -999.25     -999.25      5.8869      2.6414     -999.25
       10170      10.127      6.6787     57.7355     81.8034     -999.25     -999.25     -999.25      9.2633      2.6386     -999.25
     10170.5     10.1468      6.4534     56.3347     97.1938     -999.25     -999.25     -999.25      13.667      2.6398     -999.25
       10171     10.1468      6.5257     58.2785      90.226     -999.25     -999.25     -999.25      13.749      2.6414     -999.25
     10171.5     10.1468      5.9458     59.9145     87.4776     -999.25     -999.25     -999.25     13.8652      2.6384     -999.25
       10172     10.1468      5.0985      61.399     83.7936     -999.25     -999.25     -999.25     13.8369      2.6122     -999.25
     10172.5     10.1468      4.8818     63.6596     84.0774     -999.25     -999.25     -999.25     13.0198      2.6064     -999.25
       10173     10.1369      5.4213     65.8792     84.2007     -999.25     -999.25     -999.25     11.8127      2.6072     -999.25
     10173.5      10.127      5.5798      68.185     82.6863     -999.25     -999.25     -999.25     10.0189      2.6066     -999.25
       10174      10.127      5.6535     71.2842      76.207     -999.25     -999.25     -999.25      7.7972      2.6066     -999.25
     10174.5      10.127      5.5902     77.1543     73.4127     -999.25     -999.25     -999.25       6.404      2.6175     -999.25
       10175      10.127      5.6564     76.4115     64.0626     -999.25     -999.25     -999.25      6.2141      2.6434     -999.25
     10175.5      10.127      5.6591      74.928     56.2996     -999.25     -999.25     -999.25      6.0539      2.6287     -999.25
       10176     10.1468      5.5739     73.3667     55.0228     -999.25     -999.25     -999.25      6.0951      2.6307     -999.25
     10176.5     10.1468      5.4111     71.8795     57.1362     -999.25     -999.25     -999.25      7.5324      2.6314     -999.25
       10177     10.1468      5.5149     67.3066      65.341     -999.25     -999.25     -999.25      9.3928      2.6314     -999.25
     10177.5      10.127      5.7174     63.9359     68.7004     -999.25     -999.25     -999.25     11.9391      2.6324     -999.25
       10178     10.1427      5.7384     59.2968     72.4994     -999.25     -999.25     -999.25     12.2941      2.6465     -999.25
     10178.5      10.127      5.2577     55.3307     78.5118     -999.25     -999.25     -999.25     12.3984      2.6075     -999.25
       10179      10.127      4.7158     56.8031     76.5861     -999.25     -999.25     -999.25      11.574       2.596     -999.25
     10179.5      10.127       4.668     58.6029     74.4048     -999.25     -999.25     -999.25     10.7372      2.6009     -999.25
       10180      10.127      4.6705     61.1081     74.4367     -999.25     -999.25     -999.25     10.5145      2.6348     -999.25
     10180.5      10.127      5.4656     62.7255      78.125     -999.25     -999.25     -999.25     10.5002      2.6424     -999.25
       10181      10.127      6.2141     62.5232     76.8288     -999.25     -999.25     -999.25     10.6541      2.6424     -999.25
     10181.5      10.127      6.2141      61.446     73.1647     -999.25     -999.25     -999.25     10.1915      2.6479     -999.25
       10182      10.127      6.2141     60.6373      73.303     -999.25     -999.25     -999.25      9.2691      2.6198     -999.25
     10182.5      10.127      6.2141     60.0802     68.6508     -999.25     -999.25     -999.25      7.6809      2.5914     -999.25
       10183     10.1071      6.2402     60.7041     64.8953     -999.25     -999.25     -999.25      7.6809      2.6105     -999.25
     10183.5     10.1071      6.2234     62.3559     64.2361     -999.25     -999.25     -999.25       8.658      2.6084     -999.25
       10184     10.1257       6.266     61.8553     69.6894     -999.25     -999.25     -999.25     11.1533      2.5684     -999.25
     10184.5     10.1071      6.3726     59.0052     76.1362     -999.25     -999.25     -999.25     13.8256      2.5674     -999.25
       10185     10.1071      6.2898     57.6754     79.6573     -999.25     -999.25     -999.25     13.8256       2.621     -999.25
     10185.5      10.127       6.024     57.6076     83.6791     -999.25     -999.25     -999.25     14.0238      2.6122     -999.25
       10186     10.1209      5.6806     59.1165     86.2127     -999.25     -999.25     -999.25     13.8531      2.6105     -999.25
     10186.5     10.1071      5.6987     61.3718     89.0377     -999.25     -999.25     -999.25      13.577      2.6144     -999.25
