~VERSION INFORMATION
VERS. 2.0 : CWLS Log ASCII Standard - version 2.0
WRAP.  NO : One line per depth step
#--------------------------------------------------#
#----------------DRILLING INFO, INC.---------------#
#---------------WWW.DRILLINGINFO.COM---------------#
#------------------COPYRIGHT 2015------------------#
#--------------------------------------------------#
#THIS FILE MAY BE USED ONLY IN ACCORDANCE WITH A CURRENT SUBSCRIPTION AGREEMENT BETWEEN
#THE USER AND DRILLING INFO, INC. NO PART OF THIS FILE MAY BE REPRODUCED, USED, COPIED,
#MODIFIED, PROPAGATED, OR DISTRIBUTED EXCEPT IN ACCORDANCE WITH THE SUBSCRIPTION
#AGREEMENT. UNAUTHORIZED USE OR DISTRIBUTION OF ALL OR ANY PART OF THIS FILE MAY VIOLATE
#COPYRIGHT, TRADEMARK, AND/OR OTHER LAWS AND IS SUBJECT TO CIVIL AS WELL AS CRIMINAL
#SANCTIONS.
#--------------------------------------------------#
#THIS FILE IS PROVIDED "AS-IS" AND ALL WARRANTIES ARE EXPRESSLY DISCLAIMED, WHETHER
#EXPRESS, ORAL, IMPLIED, STATUTORY OR OTHERWISE, INCLUDING ANY IMPLIED WARRANTY OF FITNESS
#FOR A PARTICULAR PURPOSE, MERCHANTABILITY, TITLE OR NON-INFRINGEMENT, AND ANY WARRANTIES
#ARISING BY VIRTUE OF CUSTOM OF TRADE OR COURSE OF DEALING.  FURTHER, DRILLING INFO,
#INC. AND ITS LICENSORS DO NOT REPRESENT OR WARRANT THAT THIS FILE WILL MEET USER'S
#REQUIREMENTS OR ARE SUITABLE FOR USER'S NEEDS OR THAT THE DATA OR RESULTS PROVIDED IN
#CONJUNCTION THEREWITH ARE CORRECT, ACCURATE, TIMELY OR RELIABLE. THESE DISCLAIMERS SHALL
#APPLY REGARDLESS OF ANY FAILURE OF ESSENTIAL PURPOSE OF ANY LIMITED REMEDY.  SOME
#JURISDICTIONS DO NOT ALLOW THE EXCLUSION OF CERTAIN WARRANTIES SO SOME OF THE ABOVE
#EXCLUSIONS MAY NOT APPLY. IN NO EVENT SHALL DRILLING INFO, INC. OR ANY OF ITS AFFILIATES
#BE LIABLE UNDER ANY LEGAL THEORY, WHETHER IN TORT (INCLUDING WITHOUT LIMITATION
#NEGLIGENCE), CONTRACT, STRICT LIABILITY, STATUTORY OR OTHERWISE, FOR ANY SPECIAL,
#INCIDENTAL, CONSEQUENTIAL, EXEMPLARY, PUNITIVE OR INDIRECT DAMAGE OF ANY KIND, INCLUDING
#WITHOUT LIMITATION LOSS OF REVENUE, PROFITS, GOODWILL, USE, AND/OR DATA OR THE COST OF
#PROCUREMENT OF SUBSTITUTE GOODS OR SERVICES, EVEN IF APPRISED OF THE POSSIBILITY OF SUCH
#DAMAGES IN ADVANCE.
#--------------------------------------------------#
~WELL INFORMATION
#MNEMONIC     .UNIT              VALUE :DESCRIPTION
#--------------------------------------------------#
STRT       .FT                4 :START DEPTH
STOP       .FT                10042 :STOP DEPTH
STEP       .FT                   0.500 :STEP
NULL       .                  -999.250 :NULL
API        .                421093139500 :API NUMBER
COMP       .         MOBIL OIL CORPORATION :COMPANY
WELL       .        MADERA-BROMAN  1 :WELL
DATE       .                27-Jun-1979 :LOG DATE
~CURVE INFORMATION
#MNEMONIC     .UNIT      API CODE :CURVE DESCRIPTION
#--------------------------------------------------#
DEPTH       .FT                      :Measured Depth
DT.US/FT        UNKNOWN   :DT
GR.API        UNKNOWN   :GR
CAL.INCH        UNKNOWN   :CAL
~A    DEPTH    DT    GR    CAL
# ...
 2501     55.681   43.631   13.082
 2501.5     55.706   42.402   13.082
 2502     55.73   41.173   13.082
 2502.5     55.754   39.943   13.082
 2503     62.173   38.714   13.083
 2503.5     61.73   38.593   13.083
 2504     61.287   38.868   13.083
 2504.5     60.845   39.143   13.083
 2505     60.533   39.418   13.083
 2505.5     60.573   39.693   13.084
 2506     60.614   39.968   13.084
 2506.5     60.95   40.242   13.084
 2507     61.332   41.232   13.084
 2507.5     61.714   42.76   13.084
 2508     62.261   44.288   13.084
 2508.5     62.957   45.815   13.084
 2509     63.654   47.343   13.084
 2509.5     64.351   47.339   13.083
 2510     65.047   43.368   13.083
 2510.5     65.415   40.323   13.083
 2511     65.044   37.914   13.083
 2511.5     64.673   38.428   13.083
 2512     64.301   38.941   13.082
 2512.5     64.343   38.206   13.082
 2513     64.447   35.873   13.082
 2513.5     64.479   33.539   13.082
 2514     62.792   31.206   13.082
 2514.5     61.104   28.872   13.082
 2515     58.02   27.002   13.081
 2515.5     54.368   28.312   13.081
 2516     53.02   29.622   13.081
 2516.5     52.395   30.933   13.081
 2517     51.77   32.243   13.081
 2517.5     51.145   34.714   13.08
 2518     51.681   37.423   13.08
 2518.5     52.78   40.133   13.08
 2519     54.796   40.328   13.08
 2519.5     56.987   39.525   13.08
 2520     59.178   41.44   13.079
 2520.5     61.228   43.355   13.079
 2521     61.533   44.531   13.079
 2521.5     61.838   44.404   13.079
 2522     62.143   44.278   13.079
 2522.5     62.448   44.151   13.078
 2523     62.753   44.024   13.078
 2523.5     63.126   46.465   13.078
 2524     63.673   49.175   13.078
 2524.5     64.219   51.884   13.078
 2525     64.766   50.764   13.078
 2525.5     66.466   48.606   13.077
 2526     68.342   46.448   13.077
 2526.5     69.293   45.256   13.077
 2527     68.104   46.784   13.077
 2527.5     66.915   48.311   13.077
 2528     65.726   49.839   13.076
 2528.5     64.537   51.366   13.076
 2529     67.333   52.894   13.076
 2529.5     67.088   51.341   13.076
 2530     66.779   49.503   13.076
 2530.5     66.47   47.665   13.075
 2531     66.162   45.826   13.075
 2531.5     65.342   43.988   13.075
 2532     63.64   42.15   13.075
 2532.5     61.763   40.312   13.075
 2533     59.596   38.474   13.074
 2533.5     58.944   37.056   13.074
 2534     58.697   37.569   13.074
 2534.5     58.451   38.083   13.074
 2535     58.204   38.596   13.074
 2535.5     57.957   39.109   13.073
 2536     57.711   38.056   13.073
 2536.5     57.464   37.493   13.073
 2537     59.067   37.442   13.073
 2537.5     60.463   37.392   13.073
 2538     59.841   37.341   13.073
 2538.5     59.22   37.29   13.073
 2539     58.598   37.282   13.073
 2539.5     58.504   37.796   13.073
 2540     58.892   38.309   13.073
 2540.5     59.279   38.823   13.073
 2541     59.667   37.966   13.074
 2541.5     60.507   36.738   13.074
 2542     62.222   35.51   13.074
 2542.5     63.937   34.811   13.074
 2543     65.652   35.118   13.074
 2543.5     66.593   35.424   13.074
 2544     65.971   35.73   13.074
 2544.5     65.349   36.037   13.074
 2545     64.727   36.343   13.075
 2545.5     65.632   36.65   13.075
 2546     67.482   36.956   13.075
 2546.5     69.333   37.655   13.075
 2547     71.012   43.013   13.075
 2547.5     67.766   48.371   13.075
 2548     64.521   53.729   13.075
 2548.5     61.949   59.087   13.075
 2549     62.979   62.737   13.076
 2549.5     64.008   58.988   13.076
 2550     65.038   55.24   13.076
 2550.5     66.068   51.492   13.076
 2551     67.097   47.696   13.076
 2551.5     68.127   43.853   13.076
 2552     68.089   40.01   13.076
 2552.5     65.935   39.965   13.077
 2553     63.782   45.064   13.077
 2553.5     61.629   50.163   13.077
 2554     60.324   55.261   13.077
 2554.5     59.513   60.36   13.077
 2555     62.092   62.03   13.077
 2555.5     64.671   60.365   13.077
 2556     66.918   58.699   13.077
 2556.5     69.075   57.033   13.078
 2557     70.828   56.657   13.078
 2557.5     68.848   57.876   13.078
 2558     66.868   59.096   13.078
 2558.5     64.889   59.778   13.078
 2559     65.74   58.471   13.078
 2559.5     67.011   55.478   13.078
 2560     68.168   50.722   13.078
 2560.5     67.099   49.245   13.079
 2561     66.03   50.02   13.079
 2561.5     64.961   49.837   13.079
 2562     63.892   48.294   13.079
 2562.5     63.79   46.751   13.079
 2563     64.863   45.209   13.079
 2563.5     65.936   47.138   13.079
 2564     66.503   49.277   13.079
 2564.5     65.525   51.416   13.08
 2565     64.546   52.613   13.08
 2565.5     63.615   53.548   13.08
 2566     64.071   54.404   13.08
 2566.5     64.526   54.187   13.08
 2567     64.982   53.971   13.08
 2567.5     65.438   53.755   13.08
 2568     65.894   54.515   13.08
 2568.5     67.51   60.561   13.081
 2569     69.163   63.59   13.081
 2569.5     69.655   65.393   13.081
 2570     70.12   66.91   13.081
 2570.5     70.691   63.441   13.081
 2571     71.396   59.973   13.081
 2571.5     72.1   56.504   13.081
 2572     72.805   54.812   13.082
 2572.5     71.827   55.804   13.082
 2573     70.772   56.796   13.082
 2573.5     69.717   57.789   13.082
 2574     69.19   58.781   13.082
 2574.5     69.406   59.773   13.082
 2575     69.622   58.863   13.082
 2575.5     69.838   55.481   13.082
 2576     69.191   52.1   13.083
 2576.5     66.696   48.718   13.083
 2577     63.766   45.337   13.083
 2577.5     59.418   41.955   13.083
 2578     58.3   41.252   13.083
 2578.5     57.182   45.5   13.083
 2579     57.08   49.749   13.083
 2579.5     58.753   53.998   13.083
 2580     60.426   58.247   13.084
 2580.5     62.384   57.693   13.084
 2581     64.386   56.228   13.085
 2581.5     65.881   57.214   13.093
 2582     65.781   60.363   13.1
 2582.5     65.888   63.513   13.107
 2583     66.556   66.662   13.115
 2583.5     67.224   66.343   13.122
 2584     67.892   61.126   13.129
 2584.5     68.56   55.909   13.137
 2585     62.943   50.691   13.144
 2585.5     61.839   45.474   13.151
 2586     60.735   42.144   13.159
 2586.5     59.631   43.605   13.166
 2587     60.24   45.067   13.173
 2587.5     62.598   46.528   13.181
 2588     64.454   47.99   13.188
 2588.5     64.919   50.485   13.195
 2589     65.384   54.186   13.203
 2589.5     66.291   57.888   13.201
 2590     67.364   60.892   13.178
 2590.5     68.419   62.919   13.156
 2591     69.454   64.945   13.133
 2591.5     70.489   66.971   13.11
 2592     71.523   68.997   13.108
 2592.5     72.558   70.146   13.11
 2593     73.592   65.432   13.112
 2593.5     74.627   60.719   13.114
 2594     72.585   56.006   13.116
 2594.5     68.477   51.293   13.117
 2595     66.781   46.502   13.119
 2595.5     65.969   41.678   13.121
 2596     64.077   36.854   13.123
 2596.5     61.311   32.03   13.125
 2597     58.197   27.206   13.127
 2597.5     55.114   26.364   13.129
 2598     55.827   28.017   13.131
 2598.5     56.54   33.084   13.132
 2599     57.253   38.15   13.134
 2599.5     58.121   42.704   13.136
 2600     60.278   40.595   13.138
 2600.5     61.317   38.486   13.14
 2601     61.192   37.237   13.142
 2601.5     61.066   41.706   13.144
 2602     61.579   46.174   13.146
 2602.5     63.297   50.642   13.147
 2603     65.014   55.111   13.149
 2603.5     66.731   58.65   13.151
 2604     68.449   56.814   13.153
 2604.5     69.3   54.978   13.155
 2605     68.22   53.143   13.157
 2605.5     67.14   51.307   13.159
 2606     66.06   49.472   13.161
 2606.5     64.981   49.425   13.162
 2607     63.901   53.331   13.164
 2607.5     64.905   57.236   13.166
 2608     66.96   61.142   13.168
 2608.5     69.015   65.048   13.17
 2609     71.069   68.953   13.172
 2609.5     73.124   71.397   13.174
 2610     72.001   69.431   13.173
 2610.5     70.448   67.465   13.171
 2611     68.896   65.5   13.169
 2611.5     68.147   63.534   13.167
 2612     68.126   61.568   13.165
 2612.5     68.136   59.603   13.163
 2613     68.336   58.408   13.161
