~Version Information
 VERS.                  2.0:   CWLS log ASCII Standard -VERSION 2.0
 WRAP.                   NO:   One line per depth step
~Well Information Block
#MNEM.UNIT       Data Type    Information
#---------     -----------    ---------------------------
 STRT.F              3503.5000:
 STOP.F             12186.0000:
 STEP.F                 0.5000:
 NULL.               -999.2500:
 UWI .            42-109-32278:  API WELLHOLE NUMBER
 COMP.     SAMSON LONE STAR LP:  COMPANY NAME
 COUN.               CULBERSON:  COUNTY
 DAT2.                   02000:  LOGGING DATE 2
 DAT3.                   02000:  LOGGING DATE 3
 DAT4.                   02000:  LOGGING DATE 4
 DATE.                   02000:  LOGGING DATE
 DMF .           KELLY BUSHING:  DRILLING MEASURED
 LOC .    1521' FWL AND 2040' FSL:  FIELD LOCATION
 FL1 .    1521' FWL AND 2040' FSL:  FIELD LOCATION LINE 1
 FL2 .        SEC. 14, BLK. 46:  FIELD LOCATION LINE 2
 FLD .                 WILDCAT:  FIELD NAME
 HDAT.                   02000:  DATUM
 LMF .                    K.B.:  LOG MEASURED FROM
 OS1 .                    XRMI:  OTHER SERVICES LINE 1
 OS2 .               LSS / FWS:  OTHER SERVICES LINE 2
 OS3 .                 SDL/DSN:  OTHER SERVICES LINE 3
 OS4 .                DLL/MGRD:  OTHER SERVICES LINE 4
 PDAT.            GROUND LEVEL:  PERMANENT DATUM
 R1  .    TOOLSTRING: RWCH/D4TS/NGRT/LFS_D2/XRMI/CENT:  REMARKS LINE 1
 R2  .    LOGGING INTERVALS AS PER CUSTOMER REQUEST.:  REMARKS LINE 2
 RDT2.                   02000:  CASING DATE 2
 RDT3.                   02000:  CASING DATE 3
 RDT4.                   02000:  CASING DATE 4
 RDT5.                   02000:  CASING DATE 5
 SON .                 4992511:  SERVICE/TICKET ORDER NUMBER
 PROV.                   TEXAS:  STATE
 WELL.    UNIVERSITY LANDS 46-14 No. 2:  WELL NAME
~Parameter Information Block
#MNEM.UNIT       Value        Description
#---------     -----------    ---------------------------
~Curve Information Block
#MNEM.UNIT                 API CODE     Curve Description
#---------               -----------    ---------------------------
 DEPT.F                 00 000 000 000:  
 LLD .ohmm              00 000 000 000:  LLD                                    
 LLS .ohmm              00 000 000 000:  LLS                                    
 NPHI.decp              00 000 000 000:  Neutron Porosity                       
 GR  .api               00 000 000 000:  Gamma API                              
 MGRD.ohmm              00 000 000 000:  MCGRD                                  
 DRHO.g/cc              00 000 000 000:  DensityCorr                            
 DPHI.decp              00 000 000 000:  DensityPorosity                        
 PE  .b/e               00 000 000 000:  Pe                                     
 RHOB.g/cc              00 000 000 000:  Density                                
 XPHI.decp              00 000 000 000:  CrossplotPhi                           
 CALI.in                00 000 000 000:  Caliper                                
 DTC .                  00 000 000 000:  DELTA-T COMPRESSIONAL - FWS
 GR2 .GAPI              00 000 000 000:  NATURAL GAMMA - FWS
 SPHI.DECP              00 000 000 000:  SONIC POROSITY MTX=47.6 (DTC)
~A  DEPT        LLD        LLS        NPHI       GR         MGRD       DRHO       DPHI       PE         RHOB       XPHI       CALI       DTC        GR2        SPHI   
# ...
11539.5000    12.8639     8.4316     0.7803    81.0685     0.5636     0.0281     0.9309     1.9605     1.1181     0.9162    15.2962    91.3341    73.0553     0.3093 
11540.0000    13.6029     9.0217     0.8057    86.9175     0.7076     0.0282     0.9353     1.9348     1.1106     0.9232    15.8916    98.4710    74.6319     0.3598 
11540.5000    13.9421     9.2838     0.8059    86.7219     0.6395     0.0279     0.9218     1.9260     1.1336     0.9108    14.4031   106.9725    75.3412     0.4199 
11541.0000    13.4071     9.0588     0.7987    74.0283     0.5230     0.0260     0.8718     1.9493     1.2193     0.8649    13.9298   113.9794    73.1018     0.4694 
11541.5000    11.6150     8.1500     0.9880    54.8279     0.4229     0.0227     0.8451     1.9453     1.2649     0.8727    14.0595   115.3977    66.9214     0.4795 
11542.0000     9.1605     6.7201     0.9144    45.7255     0.2068     0.0181     0.8974     1.8750     1.1754     0.9034    15.4641   116.8161    58.3087     0.4895 
11542.5000     7.0003     5.2196     0.9036    44.8721     0.1528     0.0126     0.9533     1.7956     1.0799     0.9262    16.2275   116.4510    49.1595     0.4869 
11543.0000     5.4846     4.0920     0.9650    46.9877     0.1454     0.0081     0.9658     1.7922     1.0585     0.9696    16.4412   114.8431    43.9644     0.4756 
11543.5000     4.7011     3.4931     0.8568    49.9922     0.1465     0.0056     0.9662     1.8571     1.0578     0.9575    16.5252   113.1556    48.0088     0.4636 
11544.0000     4.7282     3.5275     0.9092    52.5523     0.1480     0.0039     0.9679     1.9071     1.0548     0.9649    17.8611   108.5420    51.2633     0.4310 
11544.5000     5.7654     4.3629     0.9263    60.5525     0.1525     0.0039     0.9698     1.8809     1.0516     0.9686    18.9298   100.0592    59.1258     0.3710 
11545.0000     7.9695     5.9206     0.6507    80.3396     0.2263     0.0090     0.9567     1.8350     1.0741     0.9280    13.6397    90.5989    70.5603     0.3041 
11545.5000    11.0021     7.7142     0.5854    94.6866     0.8275     0.0205     0.8591     1.9002     1.2409     0.8270    12.2275    81.1386    81.6374     0.2372 
11546.0000    13.3058     8.9133     0.5653    94.3310     0.8857     0.0360     0.7351     2.0595     1.4529     0.7091    12.1664    71.6162    86.8223     0.1698 
11546.5000    13.8820     9.3114     0.6267    90.5087     0.8332     0.0487     0.7555     2.1572     1.4181     0.7372    12.4183    66.7619    83.7993     0.1355 
11547.0000    13.6726     9.1592     0.6790    82.4552     0.4783     0.0583     0.8477     2.1382     1.2604     0.8273    12.4718    67.4573    78.0806     0.1404 
11547.5000    13.5314     9.0259     0.7039    71.3616     0.3033     0.0661     0.8822     2.0752     1.2015     0.8622    12.4947    70.9342    73.9295     0.1650 
11548.0000    13.1157     8.8170     0.6803    68.9793     0.2033     0.0681     0.8808     2.0185     1.2038     0.8639    12.9221    75.3656    73.9227     0.1964 
11548.5000    12.1153     8.1906     0.7403    74.8639     0.2124     0.0690     0.8518     1.9798     1.2534     0.8391    13.2656    78.8625    74.2977     0.2211 
11549.0000    12.3641     8.3037     0.7027    73.6905     0.2293     0.0715     0.8290     1.9707     1.2923     0.8136    14.0137    80.7147    73.2514     0.2342 
11549.5000    13.2685     9.2333     0.6384    69.9927     0.5700     0.0699     0.8238     2.0458     1.3013     0.8001    13.0443    78.0310    71.6994     0.2152 
11550.0000    14.6102    10.2886     0.6688    74.9883     0.8327     0.0709     0.7575     2.3181     1.4147     0.7460    13.0061    75.0619    71.4438     0.1942 
11550.5000    15.4546    11.1439     0.7480    78.8818     0.7983     0.0740     0.6908     2.5952     1.5287     0.7088    13.0672    71.6796    72.9717     0.1703 
11551.0000    14.5865    10.6064     0.7287    75.3795     0.5417     0.0688     0.7002     2.5474     1.5126     0.7116    13.1053    70.0360    74.8383     0.1587 
11551.5000    14.0952    10.1802     0.7053    76.2506     0.5888     0.0616     0.7250     2.3160     1.4702     0.7261    13.1893    69.7778    76.5306     0.1568 
11552.0000    13.9275     9.9544     0.6578    76.3395     0.4659     0.0574     0.7650     2.1348     1.4019     0.7506    14.9450    78.6032    77.0285     0.2193 
11552.5000    13.8691     9.8429     0.7024    72.0016     0.2760     0.0528     0.8365     2.0214     1.2796     0.7841    13.9985    84.1698    79.0036     0.2586 
11553.0000    13.8978     9.9043     0.6413    73.3883     0.2518     0.0481     0.8824     1.9974     1.2012     0.8553    13.2580    84.5652    79.6077     0.2614 
11553.5000    13.6558     9.8426     0.5731    76.0550     0.3594     0.0450     0.8490     2.0956     1.2582     0.8424    12.9527    84.1200    77.4447     0.2583 
11554.0000    13.1705     9.6783     0.6179    76.8195     0.7034     0.0434     0.7996     2.2267     1.3427     0.7751    12.7389    83.4574    75.2523     0.2536 
11554.5000    12.4295     9.1969     0.7322    77.6551     0.6797     0.0420     0.8295     2.1981     1.2916     0.8183    13.5328    84.5433    72.1443     0.2613 
11555.0000    11.9683     8.7297     0.7309    78.5973     0.4172     0.0428     0.8746     2.1583     1.2145     0.8584    14.2580    86.9946    71.4437     0.2786 
11555.5000    12.1551     8.9499     0.6564    80.1085     1.0242     0.0488     0.8560     2.3846     1.2462     0.8322    14.2580    90.0507    73.8562     0.3002 
11556.0000    12.8549     9.5751     0.6753    75.1128     1.1099     0.0573     0.8153     2.7079     1.3158     0.7975    14.3573    89.7636    77.1282     0.2982 
11556.5000    13.8907    10.6728     0.6200    70.2771     0.8942     0.0664     0.7710     2.8966     1.3916     0.7497    14.7542    89.8083    75.5752     0.2985 
11557.0000    14.0510    10.8011     0.5618    69.6193     0.3261     0.0752     0.6851     2.9611     1.5384     0.6651    11.7695    91.6674    72.1883     0.3117 
11557.5000    13.4802    10.5568     0.6206    65.2992     0.3195     0.0718     0.6543     2.8852     1.5912     0.6524    12.9832    93.4601    68.2567     0.3243 
11558.0000    12.7077     9.8220     0.7771    68.5527     0.2687     0.0554     0.7266     2.7466     1.4675     0.7419    11.7847    93.9750    67.3154     0.3280 
11558.5000    12.3395     9.3807     0.7379    76.6595     0.2968     0.0428     0.7890     2.6511     1.3608     0.7738    12.3649    92.1968    63.5629     0.3154 
11559.0000    12.1860     9.2160     0.6660    77.6017     0.3970     0.0394     0.8277     2.4542     1.2947     0.8073    12.4641    92.0650    60.3975     0.3145 
11559.5000    12.0189     9.1345     0.6759    75.2195     0.3319     0.0433     0.8412     2.2167     1.2716     0.8209    12.7542    97.0778    59.5496     0.3499 
11560.0000    11.4661     8.8523     0.6951    75.8061     0.2340     0.0482     0.8319     2.1579     1.2874     0.8151    12.7618   106.3466    63.9652     0.4155 
11560.5000    11.0676     8.6578     0.6839    73.1572     0.4617     0.0491     0.8316     2.1969     1.2880     0.8137    12.7847   104.0666    69.8823     0.3993 
11561.0000    11.6592     9.1584     0.6602    75.6461     0.9214     0.0499     0.8308     2.2135     1.2894     0.8093    13.9069   102.1769    71.9643     0.3860 
11561.5000    12.4149     9.9917     0.7752    89.2998     1.0739     0.0521     0.8173     2.2450     1.3125     0.8144    15.4565    87.9507    75.3727     0.2854 
11562.0000    13.1860    10.6813     0.7132    92.3754     0.6759     0.0549     0.7817     2.2898     1.3733     0.7741    12.4031    80.4642    76.7572     0.2324 
11562.5000    13.3579    10.9194     0.6867    82.3663     0.3112     0.0564     0.7788     2.2269     1.3783     0.7672    12.3802    78.2974    75.5529     0.2171 
11563.0000    12.8818    10.5116     0.7485    72.5527     0.1669     0.0562     0.8365     2.0726     1.2796     0.7949    14.3344    76.2062    73.6363     0.2023 
11563.5000    12.4079    10.1950     0.7647    72.9794     0.1672     0.0563     0.8766     2.0077     1.2110     0.8646    14.7618    81.0763    76.8822     0.2367 
