#   WellGreen Tech Inc.   Digitizing Services
#   www.wellgreentech.com
#   email: sales@wellgreentech.com
#
~Version Information Block
 VERS.                2.00:     CWLS LOG ASCII STANDARD - VERSION 2.000000
 WRAP.                  NO:     One Line Per Depth Step
#
~Well Information Block
#MNEM.UNIT                     Data                         Information
#----------   ------------------------------------------   ----------------
 STRT.FT                                      400.0000:     START DEPTH
 STOP.FT                                    10100.0000:     STOP DEPTH
 STEP.FT                                        0.5000:     STEP
 NULL.                                       -999.2500:     NULL VALUE
 COMP.                       ENRON OIL AND GAS COMPANY:     COMPANY
 WELL.                                   TXL "1" NO. 1:     WELL
 FLD .                                         WILDCAT:     FIELD
 LOC .                                              63:     LOCATION
 CNTY.                                       CULBERSON:     COUNTY
 STAT.                                           TEXAS:     STATE
 CTRY.                                             USA:     COUNTRY
 SRVC.                                    SCHLUMBERGER:     SERVICE COMPANY
 DATE.                                      06/28/1989:     DATE
 API .               42109320330000:    API NUMBER
 UWI .               42109320330000:    UWI NUMBER
 TVD .                                              NO:     TVD flag
 MATRIX .G/CC                  :    Matrix Density
#
~Curve Information Block
#MNEM.UNIT       API CODE      Curve Description
#----------    -------------   -------------------
 DEPT.FT                   :   Depth in Feet
 GR  .API      35 310 01 01:   Gamma Ray
 CALI.INCHES   70 280 01 01:   Caliper
 DT  .US/FT    60 520 08 01:   Delta T
 SPHI.V/V      61 890 01 01:   Sonic Porosity
#
~Parameter Information Block
#MNEM.UNIT            Value               Description
#----------    --------------------    -------------------
 RUN .                         ONE:    Run Number
 PDAT.                          GL:    Permanent Datum
 EPD .FT                 3890.3000:    Elevation Of Perm. Datum
 LMF .               KELLY BUSHING:    Log Measured From
 EKB .FT                 3905.1000:    Elevation Of Kelly Bushing
 DF .FT                  3904.1000:    Elevation Of Derrick Floor
 GL .FT                  3890.3000:    Elevation Of Ground Level
 TD .FT                  10100.0000:    Total Depth
 BHT .DEGF               193.00 :  Bottom Hole Temperature
 BLI .FT               10100.0000:   Bottom Log Interval
 CSGSIZE.IN              9.6250:   Casing Size
 BITSIZE.IN               8.750 :  BitSize
 CSGD.FT                      405:    Casing Bottom (Driller) 1
 CSGL.FT                      405:    Casing Bottom (Logger) 1
 MUD .                      SW GEL:    Drilling Fluid Type
 MUDV .CP                  34.0000:    Drilling Fluid Viscosity
 MUDD .LB/USG               9.1000:    Drilling Fluid Density
 FL .ML/30MIN               8.0000:    Drilling Fluid Loss
 PH.                       10.0000:    Drilling Fluid Ph
 MUDS .                  CIRC TANK:    Mud Sample Source
 RM .OHMM                   0.1720:    Resistivity Of Mud Sample
 RMT .DEGF                 75.0000:    Mud Sample Temperature
 RMF .OHMM                  0.1720:    Mud Filtrate Resistivity
 RMFT.DEGF                 75.0000:    Mud Filtrate Sample Temperature
 RMB .OHMM                  0.0710:    Mud Resistivity At Bht
 TMAX .DEGF               193.0000:    Bottom Hole Temperature
#
~Other Information Block
<DescLogPlotStart>   NEURALOG PLOT DEFINITION
PLOTDEFVERSION: 3
LASFILE: D:\nds\projects\20MAY19H\las\42109320330000_BEG_RAS_RS0022815370.las
DEPTHSCALE: 240.000000
RESOLUTION: 400
DEPTHLABELFREQ: 100.000000
HEAVYGRIDFREQ: 100.000000
MEDIUMGRIDFREQ: 50.000000
LIGHTGRIDFREQ: 10.000000
#
#   TRACK 1
#
STARTTRACK: 
 LEFTX: 0.500000 inch
 RIGHTX: 3.000000 inch
 SCALETYPE: Linear
 NUMCHARTDIVISIONS: 10
CURVE: GR    0.000000   125.000000 (0,0,255)      Solid             2     Y    
BACKUP: 125.000000 250.000000 (0,0,255)      Solid             2    
ENDTRACK: 
#
#   TRACK 2
#
STARTTRACK: 
 LEFTX: 0.500000 inch
 RIGHTX: 3.000000 inch
 SCALETYPE: Linear
 NUMCHARTDIVISIONS: 10
CURVE: CALI  6.000000   16.000000  (0,131,131)    Solid             2     N    
ENDTRACK: 
#
#   TRACK 3
#
STARTTRACK: 
 LEFTX: 3.500000 inch
 RIGHTX: 8.500000 inch
 SCALETYPE: Linear
 NUMCHARTDIVISIONS: 10
CURVE: DT    100.000000 40.000000  (255,0,255)    Solid             2     Y    
BACKUP: 160.000000 100.000000 (255,0,255)    Solid             2    
CURVE: SPHI  0.300000   -0.100000  (255,0,0)      Dot               2     Y    
BACKUP: 0.700000   0.300000   (255,0,0)      Dot               2    
BACKUP: -0.100000  -0.500000  (255,0,0)      Dot               2    
ENDTRACK: 
<DescLogPlotEnd>
~A DEPTH     GR               CALI             DT               SPHI            
# ...
   10052.500 12.15            8.95             46.06            -0.02           
   10053.000 12.15            8.95             46.18            -0.02           
   10053.500 12.15            8.95             46.45            -0.02           
   10054.000 12.15            8.95             46.36            -0.02           
   10054.500 12.15            8.95             46.25            -0.02           
   10055.000 12.15            8.95             46.12            -0.02           
   10055.500 12.15            8.96             46.01            -0.02           
   10056.000 12.15            8.95             46.11            -0.02           
   10056.500 12.15            8.95             46.44            -0.02           
   10057.000 12.15            8.95             46.78            -0.01           
   10057.500 12.15            8.96             46.98            -0.01           
   10058.000 12.15            8.96             46.24            -0.02           
   10058.500 12.15            8.98             45.43            -0.03           
   10059.000 12.15            9.00             45.27            -0.03           
   10059.500 12.15            9.02             45.54            -0.03           
   10060.000 12.15            9.03             45.94            -0.02           
   10060.500 12.15            9.03             46.34            -0.01           
   10061.000 12.15            9.03             46.63            -0.01           
   10061.500 12.15            9.05             46.30            -0.02           
   10062.000 12.14            9.09             46.02            -0.02           
   10062.500 12.14            9.13             45.99            -0.02           
   10063.000 12.14            9.16             46.26            -0.02           
   10063.500 12.13            9.09             46.54            -0.01           
   10064.000 12.13            9.03             46.81            -0.01           
   10064.500 12.13            8.97             47.08            -0.01           
   10065.000 12.12            8.95             47.10            -0.00           
   10065.500 12.12            8.97             47.10            -0.01           
   10066.000 12.12            9.00             47.06            -0.01           
   10066.500 12.11            9.03             46.60            -0.01           
   10067.000 12.11            9.05             46.14            -0.02           
   10067.500 12.11            9.06             46.30            -0.02           
   10068.000 12.11            9.06             46.69            -0.01           
   10068.500 12.10            9.06             47.17            -0.00           
   10069.000 12.10            9.03             47.21            -0.00           
   10069.500 12.10            8.99             47.24            -0.00           
   10070.000 12.09            8.96             47.55            -0.00           
   10070.500 12.09            8.94             47.78            0.00            
   10071.000 12.09            8.94             47.56            0.00            
   10071.500 12.08            8.97             47.24            -0.00           
   10072.000 12.08            8.99             46.80            -0.01           
   10072.500 12.08            9.01             46.35            -0.02           
   10073.000 12.07            8.96             46.45            -0.01           
   10073.500 12.07            8.93             46.77            -0.01           
   10074.000 12.07            8.93             46.72            -0.01           
   10074.500 12.06            8.93             46.67            -0.01           
   10075.000 12.06            8.94             46.87            -0.01           
   10075.500 12.06            8.96             46.82            -0.01           
   10076.000 12.06            8.98             46.46            -0.02           
   10076.500 12.05            8.99             46.72            -0.01           
   10077.000 12.05            9.01             47.16            -0.00           
   10077.500 12.05            9.02             46.96            -0.01           
   10078.000 12.04            9.00             46.46            -0.01           
   10078.500 12.04            8.96             46.34            -0.02           
   10079.000 12.04            8.93             46.59            -0.01           
   10079.500 12.03            8.96             46.65            -0.01           
   10080.000 12.03            8.98             46.69            -0.01           
   10080.500 12.03            8.96             47.15            -0.01           
   10081.000 12.02            8.94             47.48            -0.00           
   10081.500 12.02            8.92             47.60            0.00            
   10082.000 12.02            8.93             47.54            -0.00           
   10082.500 12.01            8.94             47.34            -0.00           
   10083.000 12.01            8.95             47.14            -0.01           
   10083.500 12.01            8.96             46.94            -0.01           
   10084.000 12.01            8.96             46.90            -0.01           
   10084.500 12.00            8.96             46.92            -0.01           
   10085.000 12.00            8.95             46.80            -0.01           
   10085.500 12.00            8.94             46.68            -0.01           
   10086.000 11.99            8.90             46.57            -0.01           
   10086.500 11.99            8.87             46.57            -0.01           
   10087.000 11.99            8.83             46.63            -0.01           
   10087.500 11.98            8.81             46.67            -0.01           
   10088.000 11.98            8.79             46.58            -0.01           
   10088.500 11.98            8.79             46.48            -0.01           
   10089.000 11.97            8.82             46.47            -0.01           
   10089.500 11.97            8.94             46.52            -0.01           
   10090.000 11.97            9.08             46.57            -0.01           
   10090.500 11.97            9.21             46.62            -0.01           
   10091.000 11.96            9.22             46.51            -0.01           
   10091.500 11.96            9.17             46.40            -0.02           
   10092.000 11.96            9.11             46.36            -0.02           
   10092.500 11.95            9.06             46.44            -0.02           
   10093.000 11.95            9.05             46.59            -0.01           
   10093.500 11.95            9.05             46.62            -0.01           
   10094.000 11.94            9.05             46.57            -0.01           
   10094.500 11.94            9.05             46.51            -0.01           
   10095.000 11.94            9.04             46.46            -0.01           
   10095.500 11.93            9.04             46.49            -0.01           
   10096.000 11.93            9.04             46.58            -0.01           
   10096.500 11.93            9.04             46.54            -0.01           
   10097.000 11.92            9.03             46.49            -0.01           
   10097.500 11.92            9.03             46.44            -0.01           
   10098.000 11.92            9.03             46.41            -0.01           
   10098.500 11.92            9.03             46.41            -0.01           
   10099.000 11.91            9.03             46.41            -0.01           
   10099.500 11.91            9.03             46.41            -0.01           
   10100.000 11.91            9.03             46.41            -0.01           
