#--------------------------------------------------#
#----------------DRILLING INFO, INC.---------------#
#---------------WWW.DRILLINGINFO.COM---------------#
#------------------COPYRIGHT 2018------------------#
#--------------------------------------------------#
#THIS FILE MAY BE USED ONLY IN ACCORDANCE WITH A CURRENT SUBSCRIPTION AGREEMENT BETWEEN
#THE USER AND DRILLING INFO, INC. NO PART OF THIS FILE MAY BE REPRODUCED, USED, COPIED,
#MODIFIED, PROPAGATED, OR DISTRIBUTED EXCEPT IN ACCORDANCE WITH THE SUBSCRIPTION
#AGREEMENT. UNAUTHORIZED USE OR DISTRIBUTION OF ALL OR ANY PART OF THIS FILE MAY VIOLATE
#COPYRIGHT, TRADEMARK, AND/OR OTHER LAWS AND IS SUBJECT TO CIVIL AS WELL AS CRIMINAL
#SANCTIONS.
#--------------------------------------------------#
#THIS FILE IS PROVIDED "AS-IS" AND ALL WARRANTIES ARE EXPRESSLY DISCLAIMED, WHETHER
#EXPRESS, ORAL, IMPLIED, STATUTORY OR OTHERWISE, INCLUDING ANY IMPLIED WARRANTY OF FITNESS
#FOR A PARTICULAR PURPOSE, MERCHANTABILITY, TITLE OR NON-INFRINGEMENT, AND ANY WARRANTIES
#ARISING BY VIRTUE OF CUSTOM OF TRADE OR COURSE OF DEALING.  FURTHER, DRILLING INFO,
#INC. AND ITS LICENSORS DO NOT REPRESENT OR WARRANT THAT THIS FILE WILL MEET USER'S
#REQUIREMENTS OR ARE SUITABLE FOR USER'S NEEDS OR THAT THE DATA OR RESULTS PROVIDED IN
#CONJUNCTION THEREWITH ARE CORRECT, ACCURATE, TIMELY OR RELIABLE. THESE DISCLAIMERS SHALL
#APPLY REGARDLESS OF ANY FAILURE OF ESSENTIAL PURPOSE OF ANY LIMITED REMEDY.  SOME
#JURISDICTIONS DO NOT ALLOW THE EXCLUSION OF CERTAIN WARRANTIES SO SOME OF THE ABOVE
#EXCLUSIONS MAY NOT APPLY. IN NO EVENT SHALL DRILLING INFO, INC. OR ANY OF ITS AFFILIATES
#BE LIABLE UNDER ANY LEGAL THEORY, WHETHER IN TORT (INCLUDING WITHOUT LIMITATION
#NEGLIGENCE), CONTRACT, STRICT LIABILITY, STATUTORY OR OTHERWISE, FOR ANY SPECIAL,
#INCIDENTAL, CONSEQUENTIAL, EXEMPLARY, PUNITIVE OR INDIRECT DAMAGE OF ANY KIND, INCLUDING
#WITHOUT LIMITATION LOSS OF REVENUE, PROFITS, GOODWILL, USE, AND/OR DATA OR THE COST OF
#PROCUREMENT OF SUBSTITUTE GOODS OR SERVICES, EVEN IF APPRISED OF THE POSSIBILITY OF SUCH
#DAMAGES IN ADVANCE.
#--------------------------------------------------#
# Exported from DI Transform
# DI Transform - A Product of Drillinginfo, Inc. - www.drillinginfo.com
#--------------------------------------------------#
#
~VERSION INFORMATION
 VERS.        2.0 : LAS ASCII STANDARD - VERSION 2.0
 WRAP.         NO : ONE LINE PER DEPTH STEP

~WELL INFORMATION
#MNEM.UNIT       DATA TYPE       INFORMATION
#---------       ---------       -----------
 STRT.ft          9043 : Start Depth
 STOP.ft         16870 : Stop Depth
 STEP.ft           0.5 : Step Length
 NULL.         -999.25 : Null Value
 COMP.                 : Company
 WELL.          DRD_55 : Well Name
 FLD.                  : Field Name
 LOC.                  : Well Location
 CNTY.                 : County
 STAT.                 : State or Province
 CTRY.                 : Country
 SRVC.                 : Service Company
 DATE.                 : Date
 API.   42109326310000 : Well Identifier

~CURVE INFORMATION
#MNEM.UNIT       API CODE       CURVE DESCRIPTION
#---------       --------       -----------------
 DEPT.ft          : <Measured Depth>
 CAL.in           : Caliper
 DPHI.%           : Density Porosity
 DT.us/ft         : Sonic
 GR.gAPI          : Gamma Ray
 ILD.ohmm         : Deep Resistivity
 ILS.ohmm         : Shallow Resistivity
 RHOB.g/cm3       : Density

~PARAMETER INFORMATION
#MNEM.UNIT       VALUE       DESCRIPTION
#---------       -----       -----------
 EKB.ft      3382 : Elevation above MSL

~A       DEPT         CAL        DPHI          DT          GR         ILD         ILS        RHOB
# ...
        16833      6.1453     -999.25     -999.25    513.1517     30.2941     17.7925     -999.25
      16833.5      6.1453     -999.25     -999.25    535.6512     29.3336     16.9692     -999.25
        16834      6.1453     -999.25     -999.25     550.136     28.5088     16.1837     -999.25
      16834.5      6.1453     -999.25     -999.25    576.0743     28.4823     15.7288     -999.25
        16835      6.1453     -999.25     -999.25    589.8836     29.8645     16.3253     -999.25
      16835.5      6.1453     -999.25     -999.25    554.4708     31.3138     17.1175     -999.25
        16836      6.1623     -999.25     -999.25    528.7427     32.8335     17.9482     -999.25
      16836.5      6.1627     -999.25     -999.25    506.8446     32.1969      18.199     -999.25
        16837      6.1631     -999.25     -999.25    514.1256     32.0589      18.102     -999.25
      16837.5      6.1634     -999.25     -999.25     536.694     32.0589     17.2641     -999.25
        16838      6.1638     -999.25     -999.25    559.0909     29.4733     16.7789     -999.25
      16838.5      6.1642     -999.25     -999.25    549.1071     27.1925      16.146     -999.25
        16839      6.1645     -999.25     -999.25    551.5352     26.4381     15.6541     -999.25
      16839.5      6.1649     -999.25     -999.25    569.4444     28.4141     17.0174     -999.25
        16840      6.1653     -999.25     -999.25    569.4444     30.8886     17.9232     -999.25
      16840.5      6.1657     -999.25     -999.25    551.2512      33.392     22.4345     -999.25
        16841       6.166     -999.25     -999.25    513.0037     39.9133     26.1426     -999.25
      16841.5      6.1664     -999.25     -999.25    502.5802     53.6436      38.172     -999.25
        16842      6.1668     -999.25     -999.25    506.8481     60.2342     40.2753     -999.25
      16842.5      6.1671     -999.25     -999.25    521.1865     44.8778     32.0285     -999.25
        16843      6.1675     -999.25     -999.25    521.1865     34.4926     24.1697     -999.25
      16843.5      6.1679     -999.25     -999.25     513.635     29.8126     18.2022     -999.25
        16844      6.1682     -999.25     -999.25    492.9498     22.8603       15.86     -999.25
      16844.5      6.1686     -999.25     -999.25    480.4688     20.0302     14.9519     -999.25
        16845       6.169     -999.25     -999.25    480.4688     19.5986     14.9447     -999.25
      16845.5      6.1693     -999.25     -999.25    487.5262     24.3027     17.1493     -999.25
        16846      6.1697     -999.25     -999.25    495.9677     30.2717     23.4286     -999.25
      16846.5      6.1701     -999.25     -999.25    495.9677     34.5581     22.9954     -999.25
        16847      6.1704     -999.25     -999.25    516.5604     30.4436     20.3864     -999.25
      16847.5      6.1708     -999.25     -999.25    521.1865     28.0847     19.0082     -999.25
        16848      6.1712     -999.25     -999.25    508.3373      26.786     19.7973     -999.25
      16848.5      6.1715     -999.25     -999.25    504.0984     30.9431     23.5933     -999.25
        16849      6.1719     -999.25     -999.25    512.0305     35.1138     24.1887     -999.25
      16849.5      6.1723     -999.25     -999.25    517.9371     35.1767     24.0978     -999.25
        16850      6.1726     -999.25     -999.25    516.3956     32.9395     20.8158     -999.25
      16850.5       6.173     -999.25     -999.25    495.4518     31.4139     19.9805     -999.25
        16851      6.1734     -999.25     -999.25    476.1848     30.2941     19.8963     -999.25
      16851.5      6.1738     -999.25     -999.25    466.5798     30.2941     20.4879     -999.25
        16852      6.1741     -999.25     -999.25    491.3703       31.23      20.463     -999.25
      16852.5      6.1745     -999.25     -999.25    513.5563      32.783     20.9234     -999.25
        16853      6.1749     -999.25     -999.25    536.0844     33.7639     21.0403     -999.25
      16853.5      6.1752     -999.25     -999.25     550.601     30.6292     18.6395     -999.25
        16854      6.1756     -999.25     -999.25     565.962      27.579     16.6229     -999.25
      16854.5       6.176     -999.25     -999.25    569.4444     26.6279     17.6557     -999.25
        16855      6.1763     -999.25     -999.25    562.2832     27.9205     18.2268     -999.25
      16855.5      6.1767     -999.25     -999.25    559.0909     29.2751     18.4861     -999.25
        16856      6.1771     -999.25     -999.25    542.1739      29.705     17.5106     -999.25
      16856.5      6.1774     -999.25     -999.25    530.1724     26.6414     15.5578     -999.25
        16857      6.1778     -999.25     -999.25    530.1724     24.8814     13.8224     -999.25
      16857.5      6.1782     -999.25     -999.25    493.9071     22.0458     14.2175     -999.25
        16858      6.1785     -999.25     -999.25    480.4688     22.7138     15.7982     -999.25
      16858.5      6.1789     -999.25     -999.25    500.7584     26.3114     17.3968     -999.25
        16859      6.1793     -999.25     -999.25    546.2965     29.5952     16.8243     -999.25
      16859.5      6.1766     -999.25     -999.25     566.154     27.9481     16.1088     -999.25
        16860      6.1482     -999.25     -999.25    541.0938     27.0506     15.9811     -999.25
      16860.5      6.1453     -999.25     -999.25    521.1865     27.0506     15.9719     -999.25
        16861      6.1453     -999.25     -999.25     528.913     27.0506     16.0739     -999.25
      16861.5      6.1453     -999.25     -999.25    535.9962     27.0506      16.285     -999.25
        16862      6.1453     -999.25     -999.25    513.4739     27.0506     16.5989     -999.25
      16862.5      6.1572     -999.25     -999.25    504.0984     26.5449     16.7476     -999.25
        16863      6.1623     -999.25     -999.25     520.456     26.5449     16.7476     -999.25
      16863.5      6.1623     -999.25     -999.25    545.7422     26.5449     16.7476     -999.25
        16864      6.1623     -999.25     -999.25    595.8361     26.5449     16.7476     -999.25
      16864.5      6.1623     -999.25     -999.25    646.8671     27.2469     17.4813     -999.25
        16865      6.1623     -999.25     -999.25    682.9169     26.7124     16.6783     -999.25
      16865.5      6.1623     -999.25     -999.25    706.7622     25.2744     15.7191     -999.25
        16866      6.1623     -999.25     -999.25     -999.25      23.742     15.9022     -999.25
      16866.5     -999.25     -999.25     -999.25     -999.25     23.8944     16.5262     -999.25
        16867     -999.25     -999.25     -999.25     -999.25     26.2168     19.0907     -999.25
      16867.5     -999.25     -999.25     -999.25     -999.25     25.6184     17.7041     -999.25
        16868     -999.25     -999.25     -999.25     -999.25     22.4643     15.2021     -999.25
      16868.5     -999.25     -999.25     -999.25     -999.25     19.6536     14.9419     -999.25
        16869     -999.25     -999.25     -999.25     -999.25     19.6181     14.9419     -999.25
      16869.5     -999.25     -999.25     -999.25     -999.25     19.6261     14.9419     -999.25
        16870     -999.25     -999.25     -999.25     -999.25          20     14.3843     -999.25
