###############################################
##         ENVERUS                           ##
##         ESS - Open Hole                   ##
##         PERMIAN / DELAWARE                ##
##         Nov 02 2023  V4.0                 ##
##         42-109-31408-00-00                ##
###############################################
## Copyright 2017-2023  ENVERUS.  All Rights Reserved. 
## Confidential - Property of ENVERUS, use governed by terms and 
## conditions found within the existing Information Services Subscription Agreement 
## (as may be amended, the “ISSA”) between Customer and ENVERUS. 
## 
~VERSION INFORMATION
# MNEM.UNIT                               DATA : DESCRIPTION OF MNEMONIC
#-----.-----     ----------------------------- : -----------------------------
VERS.                                     2.00 : CWLS LOG ASCII STANDARD - VERSION 2.00
WRAP.                                       NO : MULTIPLE LINES PER DEPTH STEP
VEND.                                  ENVERUS : VENDOR
TYPE.                          ESS - OPEN HOLE : ENVERUS ESSENTIAL CURVES – ACCESSIBLE THROUGH ENVERUS PRISM(TM)
DOC.                                  31850517 : ENVERUS HEADER RAW DOCUMENT ID
#___________________________________________________________________________________________________ 
~WELL INFORMATION 
# bqLd+XSZJOn45CI61XVoQu+UOVndmKoY6sdO6/bnbKn7IExcVbobTFa2ZjWyWmdO1mIol927X6bTh1nHm93KmQ== 
# MNEM.UNIT                                              DATA : DESCRIPTION OF MNEMONIC 
#-----.-----                    ----------------------------- : ----------------------------- 
CNTY.                                               CULBERSON : COUNTY 
STATE.                                                  TEXAS : STATE 
CNTRY.                                                    USA : COUNTRY 
API.                                             42-109-31408 : API (10 Digit) 
API_14.                                    42-109-31408-00-00 : API (14 Digits) 
API_14_std.                                 42-109-31408-0000 : API (14 Digits Standard) 
UWI.                                           42109314080000 : UNIQUE WELL ID 
WELL.                                           CASTILE 48  1 : WELL NAME
STRT.FT                                                2207.0 : START DEPTH
STOP.FT                                               11710.0 : STOP DEPTH
STEP.FT                                                   0.5 : STEP BETWEEN DEPTHS
NULL.                                                 -999.25 : NULL VALUE
COMP.                                         TENNECO OIL CO. : COMPANY 
DATE.                                             28-APR-1980 : LOG DATE
#___________________________________________________________________________________________________ 
~CURVE INFORMATION 
# MNEM.UNIT           : CURVE DESCRIPTION 
#-----.-----          : ----------------------------- 
 DEPT.FT               : MEASURED DEPTH 
 CALI.IN               : CALIPER (CAL - CAL) 
 GR.API                : GAMMA RAY (GR) 
 DT.US/FT              : SONIC DELTA TRANSIT TIME (DT) 
 RESS.OHMM             : SHALLOW INDUCTION RESISTIVITY (ILS - ILS) 
 RESD.OHMM             : DEEP INDUCTION RESISTIVITY (ILD - ILD) 
 #___________________________________________________________________________________________________ 
~A         DEPT           CALI             GR             DT           RESS           RESD
# ...
         8499.0         10.609         79.173         87.253       1484.510       1176.942
         8499.5         10.605         87.757         87.977        303.054        768.518
         8500.0         10.602         90.880         87.977        127.962        217.211
         8500.5         10.598         90.655         87.977        109.723        111.455
         8501.0         10.595         90.429         87.233         91.484         93.859
         8501.5         10.591         90.204         86.325         83.766         86.336
         8502.0         10.588         89.978         85.416         83.275         83.914
         8502.5         10.584         89.753         84.507         82.784         81.492
         8503.0         10.580         89.527         83.599         82.293         79.071
         8503.5         10.577         88.876         83.326         80.384         76.649
         8504.0         10.573         87.583         83.812         76.366         74.304
         8504.5         10.570         86.289         84.298         72.927         73.576
         8505.0         10.566         84.995         84.783         72.181         72.848
         8505.5         10.563         83.701         85.269         71.434         72.120
         8506.0         10.559         82.407         85.755         70.688         71.392
         8506.5         10.555         82.326         86.142         81.745         83.456
         8507.0         10.552         85.257         85.709        102.580        102.737
         8507.5         10.548         88.188         85.275        123.415        122.019
         8508.0         10.545         91.119         84.842        135.813        141.300
         8508.5         10.541         94.049         84.408        135.844        138.779
         8509.0         10.538         96.980         83.975        135.875        133.652
         8509.5         10.534         92.841         83.541        123.383        127.437
         8510.0         10.530         86.147         82.638        116.131        117.074
         8510.5         10.527         79.452         80.509        115.492        107.183
         8511.0         10.523         72.757         78.379        108.926         98.612
         8511.5         10.520         66.063         76.250         86.442         90.042
         8512.0         10.516         59.368         74.121         76.331         81.471
         8512.5         10.513         53.457         73.623         73.397         72.900
         8513.0         10.509         58.649         75.463         70.462         64.329
         8513.5         10.505         63.840         77.303         67.528         59.573
         8514.0         10.502         66.743         75.341         64.594         59.587
         8514.5         10.498         64.022         73.238         61.660         59.600
         8515.0         10.495         61.300         71.135         58.726         59.614
         8515.5         10.491         58.579         69.032         55.792         59.627
         8516.0         10.488         62.907         67.407         56.805         62.330
         8516.5         10.484         67.554         70.245         58.580         65.754
         8517.0         10.480         72.201         73.083         62.134         69.179
         8517.5         10.480         76.847         75.922         69.548         72.604
         8518.0         10.482         81.494         78.760         72.456         70.079
         8518.5         10.483         83.626         80.344         66.481         63.609
         8519.0         10.485         82.027         81.353         60.505         57.140
         8519.5         10.487         80.428         82.362         54.530         50.671
         8520.0         10.489         78.830         83.371         58.221         63.215
         8520.5         10.490         77.231         83.392         73.298         76.492
         8521.0         10.492         75.633         80.944         88.375         89.769
         8521.5         10.494         72.212         78.497        102.984        103.046
         8522.0         10.495         64.390         76.049        104.617        110.267
         8522.5         10.497         64.109         73.602        106.250        110.803
         8523.0         10.499         68.294         72.821        102.725        111.241
         8523.5         10.501         72.478         74.313         94.360        107.517
         8524.0         10.502         76.662         75.805         85.995        103.792
         8524.5         10.504         75.282         75.988         78.114        100.068
         8525.0         10.506         71.932         74.798         70.399         86.850
         8525.5         10.507         68.581         73.786         62.684         71.956
         8526.0         10.509         65.230         76.039         54.969         57.061
         8526.5         10.511         64.567         78.293         47.827         49.458
         8527.0         10.512         70.266         80.547         51.991         75.563
         8527.5         10.514         75.965         82.801         90.370        102.901
         8528.0         10.516         81.664         84.586        119.820        129.628
         8528.5         10.518         87.363         83.784        138.861        156.355
         8529.0         10.519         87.743         82.983        157.902        174.568
         8529.5         10.521         87.185         82.182        166.888        161.763
         8530.0         10.523         86.626         81.381        155.303        148.959
         8530.5         10.524         86.068         81.696        139.852        135.640
         8531.0         10.526         85.509         82.353        118.272        113.509
         8531.5         10.528         87.387         83.009         96.692         93.606
         8532.0         10.530         89.688         83.665         82.511         88.175
         8532.5         10.531         91.989         84.321         81.014         82.744
         8533.0         10.533        100.643         84.977         94.626         95.611
         8533.5         10.535        107.229         85.634        108.655        109.641
         8534.0         10.536        104.214         84.552        122.683        123.671
         8534.5         10.538        101.199         81.222        136.712        137.701
         8535.0         10.540         89.932         77.892        145.277        134.540
         8535.5         10.541         73.747         74.562        125.154        112.302
         8536.0         10.543         65.639         71.416        105.030         90.064
         8536.5         10.545         68.955         70.879         84.907         67.827
         8537.0         10.547         72.271         70.629         69.388         69.037
         8537.5         10.548         75.586         72.608         64.421         73.472
         8538.0         10.550         78.902         74.588         69.493         77.907
         8538.5         10.552         82.218         76.568         74.566         82.342
         8539.0         10.553         85.534         76.913         79.639         81.654
         8539.5         10.555         88.850         76.516         82.829         80.607
         8540.0         10.557         87.562         76.118         80.972         79.560
         8540.5         10.559         83.580         76.041         79.378         80.854
         8541.0         10.560         79.597         76.816         84.001         84.413
         8541.5         10.562         76.077         77.591         88.623         87.971
         8542.0         10.564         73.624         78.366         93.246         91.530
         8542.5         10.565         71.170         77.741         97.868         95.089
