# Exported from Transform Software 5.2.0 on 25-May-2018 by user brian.umlang
# DI Transform - A Product of Drillinginfo, Inc. - www.drillinginfo.com
#
~VERSION INFORMATION
 VERS.        2.0 : LAS ASCII STANDARD - VERSION 2.0
 WRAP.         NO : ONE LINE PER DEPTH STEP

~WELL INFORMATION
#MNEM.UNIT       DATA TYPE       INFORMATION
#---------       ---------       -----------
# Enverus has updated the API/UWI.  The previous names are renamed to  PREV_API / PREV_UWI
API.         42-109-32508-00-00 : API (14 Digits with Dashes)
UWI.             42109325080000 : UNIQUE WELL ID

 STRT.ft                1970 : Start Depth
 STOP.ft                8730 : Stop Depth
 STEP.ft                 0.5 : Step Length
 NULL.               -999.25 : Null Value
 COMP.                       : Company
 WELL.  42109325080000_API14 : Well Name
 FLD.                        : Field Name
 LOC.                        : Well Location
 CNTY.                       : County
 STAT.                       : State or Province
 CTRY.                       : Country
 SRVC.                       : Service Company
 DATE.                       : Date
PREV_APII.         42109325080000 : Well Identifier

~CURVE INFORMATION
#MNEM.UNIT       API CODE       CURVE DESCRIPTION
#---------       --------       -----------------
 DEPT.ft        : <Measured Depth>
 CAL.in         : Caliper
 DT.us/ft       : Pressure Wave Sonic
 GR.gAPI        : Gamma Ray

~PARAMETER INFORMATION
#MNEM.UNIT       VALUE       DESCRIPTION
#---------       -----       -----------
 EKB.ft      3552 : Elevation above MSL

~A      DEPT         CAL          DT          GR
# ...
        8202      8.6758     72.8777      90.625
      8202.5      8.5977     72.7485     90.2506
        8203      8.5977     73.3554     91.1988
      8203.5      8.6172      72.517     92.5539
        8204      8.6172     71.9931     91.4182
      8204.5      8.6367      72.164     87.4998
        8205      8.6367     73.8037     85.3474
      8205.5      8.6758     73.6817     84.7656
        8206      8.6758     73.2053     81.2005
      8206.5      8.6155     68.9116     70.9128
        8207      8.5977     64.6538     61.8319
      8207.5      8.5977     64.3349     57.3532
        8208      8.6201     64.6629     62.6149
      8208.5        8.64      67.964     71.2593
        8209       8.699     71.5868     81.6711
      8209.5      8.7344     72.6316     88.1679
        8210      8.7344     72.2537     80.4387
      8210.5      8.7099      70.218     71.4326
        8211      8.6953     67.6608     66.8857
      8211.5      8.6953      69.508     64.9817
        8212      8.6953     70.0151      66.066
      8212.5      8.6953     69.9397     68.4237
        8213      8.6953     66.4166     63.5753
      8213.5      8.7027     64.3882     57.3446
        8214      8.7148     65.8945     55.0781
      8214.5      8.7148     67.4626     61.4474
        8215      8.6867     71.7896     77.9144
      8215.5      8.6367     73.8331     88.8367
        8216      8.6367     72.8958     88.5848
      8216.5      8.6074     72.4264     82.7132
        8217      8.5781     71.5455      81.157
      8217.5      8.5781     73.0566     84.5164
        8218      8.5781     74.8438     90.2857
      8218.5      8.5781     75.4729     92.4974
        8219      8.5781      75.144     93.0874
      8219.5       8.585     71.3885      92.355
        8220       8.585     70.2339     85.7243
      8220.5       8.585     70.3509     72.1261
        8221       8.585      66.793     66.5871
      8221.5       8.585     64.0864     63.1717
        8222       8.585     63.1239     55.6119
      8222.5       8.585     63.0128     55.2734
        8223       8.585     65.3332     67.8174
      8223.5       8.585     65.9751     49.0712
        8224      8.5941     66.2373     55.5153
      8224.5      8.6172     66.4489     56.7883
        8225      8.6172     71.0031     71.1278
      8225.5      8.6172     73.7893     85.4836
        8226      8.6172     75.4444     91.1333
      8226.5      8.6172      75.551     95.0406
        8227      8.5977     75.5556     95.7031
      8227.5      8.6172     74.5201     94.7337
        8228      8.6172     69.7351     93.9484
      8228.5      8.6172     65.7303     87.6912
        8229      8.5977      67.076     73.7872
      8229.5      8.5772     67.4123     66.1741
        8230      8.4791     72.1158     67.3961
      8230.5      8.4041     74.7876     72.6132
        8231      8.3416     74.2688     85.1971
      8231.5      8.3854     74.0335     90.6761
        8232      8.4219     73.4833     90.9563
      8232.5      8.5034      73.715     86.8129
        8233      8.5781     73.7897     83.2472
      8233.5      8.5781     73.7897     79.7571
        8234      8.5586        73.9     76.0799
      8234.5      8.5586     73.6336     74.1636
        8235       8.557     61.7382     63.9442
      8235.5         8.5     61.5205     51.1719
        8236         8.5     61.0953     50.9766
      8236.5         8.5     73.9725     52.8368
        8237      8.5195     74.2583     68.1749
      8237.5      8.5391     74.6473     82.0247
        8238      8.5586     75.4671     94.0949
      8238.5      8.5586     76.0545     91.8461
        8239      8.5391     76.1308     90.3221
      8239.5      8.5391     76.2106     88.9927
        8240      8.5391     76.2106     94.6974
      8240.5      8.5391     74.8434     90.2254
        8241      8.5391     67.5521     75.3823
      8241.5      8.5498     59.9299     53.4403
        8242      8.5781     59.7661     42.1325
      8242.5      8.5781     61.4789     43.5846
        8243      8.5781     70.6947     56.6088
      8243.5      8.5781     73.7154     77.7208
        8244      8.5781     74.0351     95.6811
      8244.5      8.5781     74.0936     100.674
        8245      8.5586     73.5977      98.225
      8245.5      8.5586     72.3977      91.878
        8246      8.5781     72.5578     89.4531
      8246.5      8.5781     72.7062     93.2789
        8247      8.5781     73.7239     94.9649
      8247.5      8.5781     75.5558     91.9922
        8248      8.5781     76.7523     95.3684
      8248.5      8.5421      77.193    102.1285
        8249      8.5195     77.0655    100.9146
      8249.5      8.5195     76.1906     89.5739
        8250         8.5     62.5202     78.5237
      8250.5         8.5     62.1681     62.5847
        8251         8.5     56.8173     41.5919
      8251.5         8.5      55.667     34.0217
        8252      8.4805     59.7012     36.7145
      8252.5      8.4805     60.3526     48.0839
        8253         8.5     64.5535     69.3157
      8253.5         8.5     74.3275     89.0828
        8254         8.5     73.5704     92.7592
      8254.5         8.5     72.2697     88.1897
        8255         8.5      70.095     77.2928
      8255.5         8.5     67.4695     69.4783
        8256         8.5     68.0885      69.983
      8256.5         8.5     68.5484     75.5293
        8257      8.5391     71.0503      85.074
      8257.5      8.5781     73.8596     95.6123
        8258      8.5781      72.215     95.4609
      8258.5      8.5781     71.2128     91.5928
        8259      8.5781     71.0196     84.1595
      8259.5      8.5781     68.9864     77.2254
        8260      8.5781     68.7324     76.7578
      8260.5      8.5781     69.0845     75.8418
        8261      8.6172     69.7347     74.4141
      8261.5      8.6172     71.6468     78.7735
        8262      8.6172     70.0778     82.8125
      8262.5      8.6172     69.2982     78.1808
        8263      8.5977     69.7339     73.2422
      8263.5      8.6264     71.8335      77.987
        8264      8.6527     72.6603     83.2031
      8264.5      8.6758      72.924     83.8891
        8265      8.6758     73.0994     84.7786
      8265.5      8.6758     73.1255     85.0056
        8266      8.6562     72.1213     81.1619
      8266.5      8.6367     71.5441     75.5109
        8267      8.6172      71.345     74.4598
      8267.5      8.5977     71.8663     80.9335
        8268      8.5977     74.0324      85.023
      8268.5      8.6172     74.3088      86.789
        8269      8.6172     74.4444     87.8906
      8269.5      8.6172     74.7206     87.6953
        8270      8.6172     75.3651     89.7432
      8270.5      8.5781     75.9234     91.6121
        8271      8.5781     75.9064       89.97
      8271.5      8.5391     75.7781     87.4567
        8272      8.5034     70.8236     81.1986
      8272.5         8.5     64.6418     62.5568
        8273      8.4805     63.8089     49.2809
      8273.5      8.4805     63.1059     46.8967
        8274      8.4609     64.4977     45.8959
      8274.5      8.4609     65.9992     50.7273
        8275      8.4609     66.6639     57.5796
      8275.5      8.4799     67.3621      66.142
        8276      8.4805     72.2662     76.3551
      8276.5      8.5586     74.5657     81.6492
        8277      8.5593     75.3237     84.7935
      8277.5      8.5781      75.614     88.2812
        8278      8.5781     74.9436     85.0806
      8278.5      8.5781     69.1592     74.7693
        8279      8.5781      67.076     64.1179
      8279.5      8.5977     66.9498     56.3801
        8280      8.5781      68.787     64.1885
      8280.5      8.5781     72.5842      75.835
        8281      8.5977     72.7485     81.9549
      8281.5      8.5977     72.6901     82.9203
        8282      8.5929     72.6316     81.0068
      8282.5      8.6028     72.9277      80.716
        8283      8.6423     73.8596      82.646
      8283.5      8.6758     73.9181     86.4334
