# Exported from Transform Software 5.2.0 on 17-Oct-2019 by user kathryn.gehrke
# DI Transform - A Product of Drillinginfo, Inc. - www.drillinginfo.com
#
~VERSION INFORMATION
 VERS.        2.0 : LAS ASCII STANDARD - VERSION 2.0
 WRAP.         NO : ONE LINE PER DEPTH STEP

~WELL INFORMATION
#MNEM.UNIT       DATA TYPE       INFORMATION
#---------       ---------       -----------
 STRT.ft                 100 : Start Depth
 STOP.ft               10126 : Stop Depth
 STEP.ft                 0.5 : Step Length
 NULL.               -999.25 : Null Value
 COMP.                       : Company
 WELL.  42109329790000_API14 : Well Name
 FLD.                        : Field Name
 LOC.                        : Well Location
 CNTY.                       : County
 STAT.                       : State or Province
 CTRY.                       : Country
 SRVC.                       : Service Company
 DATE.                       : Date
 API.         42109329790000 : Well Identifier

~CURVE INFORMATION
#MNEM.UNIT       API CODE       CURVE DESCRIPTION
#---------       --------       -----------------
 DEPT.ft        : <Measured Depth>
 DT.us/ft       : Sonic
 GR.gAPI        : Gamma Ray

~PARAMETER INFORMATION
#MNEM.UNIT       VALUE       DESCRIPTION
#---------       -----       -----------
 EKB.ft      3282 : Elevation above MSL

~A      DEPT          DT          GR
# ...
      8671.5    264.4258     38.5187
        8672    264.4258     43.5129
      8672.5    264.4258     46.8167
        8673    264.4258     48.3291
      8673.5    264.4258     48.4779
        8674    264.4258     45.6819
      8674.5    264.4258     41.5366
        8675    264.4258     40.9332
      8675.5    264.4258     40.7478
        8676    263.8655     39.4958
      8676.5    263.8655     41.0326
        8677    263.8655     45.1877
      8677.5    263.8655      46.463
        8678    263.8655      46.646
      8678.5    263.8655     47.2197
        8679    263.8655      43.964
      8679.5    263.8655      40.032
        8680    263.8655     39.6703
      8680.5    264.4258     39.4865
        8681    264.4258     37.8151
      8681.5    264.4258     39.7202
        8682    264.4258     41.9383
      8682.5    264.4258      42.437
        8683    264.4258     43.7025
      8683.5    264.4258      44.958
        8684    264.4258     43.9405
      8684.5    264.4258     41.6763
        8685    264.4258     40.8322
      8685.5    264.4258     36.7551
        8686    264.4258     32.7641
      8686.5    265.1026     29.7445
        8687    267.8515     27.6828
      8687.5    268.6796     26.0504
        8688    267.7871     27.5264
      8688.5    267.7871     30.8885
        8689    267.7871      35.052
      8689.5    267.7871     41.4785
        8690      265.88     45.8027
      8690.5    264.4258      48.741
        8691    264.4258     51.0103
      8691.5    264.4258     54.1617
        8692    264.4258     55.5454
      8692.5    264.4258     54.4532
        8693    264.4258     52.7306
      8693.5    264.4258     50.1258
        8694    264.4258      46.345
      8694.5    264.4258     42.0177
        8695    264.4258     38.6144
      8695.5    264.4258      37.395
        8696    264.4258     38.4863
      8696.5    264.4258     40.5016
        8697    264.4258     43.1917
      8697.5    264.4258     44.9973
        8698    264.4258     45.7983
      8698.5    264.4258     44.7081
        8699    264.4258     42.1515
      8699.5    264.4258     38.7422
        8700    264.4258     39.0756
      8700.5    264.4258     39.4926
        8701    264.4258     38.9041
      8701.5    264.4258     39.4958
        8702    264.4258     39.5837
      8702.5    264.4258     37.0671
        8703    264.4258     33.8322
      8703.5    264.4258     30.8075
        8704    264.4258     28.4922
      8704.5    264.4258        27.4
        8705    264.4258     26.0504
      8705.5    264.4258     25.6303
        8706    264.4258     26.8401
      8706.5    264.4258     29.4898
        8707    264.4258     30.3268
      8707.5    264.4258     34.1952
        8708    264.4258     35.2874
      8708.5    264.4258     36.3095
        8709    264.4258     36.6699
      8709.5    264.4258     40.1075
        8710    264.4258      43.178
      8710.5    264.4258     46.4128
        8711    264.4258     49.5256
      8711.5    264.4258     51.2605
        8712    264.4258     49.9288
      8712.5    264.4258     46.1897
        8713    264.4258     44.5469
      8713.5    264.4258     42.9131
        8714    264.4258     40.4345
      8714.5    264.4258      38.376
        8715    264.4258     35.9764
      8715.5    264.4258     36.1242
        8716    264.4258     37.6366
      8716.5    264.4258     38.6555
        8717    264.4258     39.4008
      8717.5    264.4258     40.0729
        8718    264.4258     41.5852
      8718.5    264.4258     40.0957
        8719    264.4258     39.1478
      8719.5    264.4258     41.5183
        8720    264.4258      45.516
      8720.5    264.4258     43.5125
        8721    264.4258     40.4878
      8721.5    264.4258     37.7441
        8722    264.4258     36.6519
      8722.5    263.8655     35.1396
        8723    263.8655     34.8739
      8723.5    263.8655     36.4006
        8724    263.8655     39.6354
      8724.5    263.8655     41.9183
        8725    264.4258       41.75
      8725.5    264.4258     44.0953
        8726    264.4258      44.958
      8726.5    264.4258     44.8893
        8727    264.4258     43.2167
      8727.5    264.6287     39.9556
        8728    266.6452     36.1747
      8728.5    267.7871     34.6382
        8729    267.7871     34.4538
      8729.5    267.7871     35.1933
        8730    267.7871     37.1258
      8730.5    267.7871     38.6382
        8731    265.7635     39.0756
      8731.5    264.4258     37.3287
        8732    264.4258     34.9189
      8732.5    264.4258     31.3627
        8733    264.4258     31.5126
      8733.5    264.4258     31.0924
        8734    264.4258     31.5126
      8734.5    264.4258     30.3553
        8735    264.4258     30.4008
      8735.5    264.4258     31.9132
        8736    264.4258     32.1207
      8736.5    264.4258     31.4487
        8737    264.4258     29.9363
      8737.5    264.4258     30.3996
        8738    264.4258     31.4918
      8738.5    264.4258      30.021
        8739    264.4258     28.5714
      8739.5    264.4258     30.0938
        8740    264.4258     29.6856
      8740.5    264.4258     26.9347
        8741    264.4258     26.7005
      8741.5    264.4258     28.6638
        8742    264.4258     30.5656
      8742.5    264.4258     30.6723
        8743    264.4258     31.9096
      8743.5    264.4258     30.8451
        8744    264.4258     28.4808
      8744.5    264.4258     26.1583
        8745    264.4258     26.6146
      8745.5    264.4258     26.4949
        8746    264.4258     27.9587
      8746.5    264.4258     28.9916
        8747    264.4258     27.8401
      8747.5    264.4258     28.1513
        8748    264.4258     29.3863
      8748.5    264.4258      28.345
        8749    264.4258     28.6295
      8749.5    264.4258     29.8319
        8750    264.4258     28.9916
      8750.5    264.4258     29.3851
        8751    264.4258     30.8975
      8751.5    264.4258     31.5695
        8752    264.4258     32.6617
      8752.5    264.4258     32.6326
        8753    264.4258     31.1203
      8753.5    264.4258     29.6079
        8754    264.4258     29.8319
      8754.5    264.4258     29.1042
        8755    264.4258     29.6207
      8755.5    264.4258     31.4836
        8756    264.4258     31.2897
      8756.5    263.8655     30.1975
        8757    263.8655     29.7182
      8757.5    263.8655     29.2736
        8758    263.8655     29.3816
      8758.5    263.8655     31.1157
        8759    263.8655     33.6935
      8759.5    263.8655     36.6875
        8760    263.8655     38.2353
      8760.5    263.8655     38.2353
        8761    263.8655     38.4349
      8761.5    264.8463      37.395
        8762    263.8655     37.0909
      8762.5    263.8655     36.6904
        8763    263.8655     38.3966
      8763.5    263.8655     41.8345
        8764    263.8655     45.4292
      8764.5    263.8655     47.5132
        8765    263.8655     50.5466
      8765.5    263.8655     50.9077
        8766    263.8655     46.7235
      8766.5    265.6127     41.8672
        8767    267.2269     35.9455
      8767.5    267.2269     28.1711
        8768    267.2269      25.245
      8768.5    267.2269     26.3759
        8769     267.162     28.6201
      8769.5    266.2659     32.0248
        8770    264.4258     34.8739
      8770.5    264.4258     34.4898
        8771    264.4258     32.9775
      8771.5    264.4258     32.3529
        8772    264.4258     31.6334
      8772.5    264.4258     29.7008
        8773    264.4258     29.7947
      8773.5    264.4258     30.4576
        8774    263.8655     30.2985
      8774.5    263.8655     32.3191
        8775    263.8655     37.6893
      8775.5    263.8655     42.3986
        8776    263.8655     43.6975
      8776.5    263.8655     43.6975
        8777    263.8655     41.3358
      8777.5    263.8655      34.586
        8778    263.8655     30.2917
      8778.5    263.8655     30.8846
        8779    263.8655     33.7675
      8779.5    263.8655     38.3447
