###############################################
##         ENVERUS                           ##
##         ESS - Open Hole                   ##
##         PERMIAN / DELAWARE                ##
##         Nov 03 2023  V4.0                 ##
##         42-109-32572-90-00                ##
###############################################
## Copyright 2017-2023  ENVERUS.  All Rights Reserved. 
## Confidential - Property of ENVERUS, use governed by terms and 
## conditions found within the existing Information Services Subscription Agreement 
## (as may be amended, the “ISSA”) between Customer and ENVERUS. 
## 
~VERSION INFORMATION
# MNEM.UNIT                               DATA : DESCRIPTION OF MNEMONIC
#-----.-----     ----------------------------- : -----------------------------
VERS.                                     2.00 : CWLS LOG ASCII STANDARD - VERSION 2.00
WRAP.                                       NO : MULTIPLE LINES PER DEPTH STEP
VEND.                                  ENVERUS : VENDOR
TYPE.                          ESS - OPEN HOLE : ENVERUS ESSENTIAL CURVES – ACCESSIBLE THROUGH ENVERUS PRISM(TM)
DOC.                                  51093105 : ENVERUS HEADER RAW DOCUMENT ID
#___________________________________________________________________________________________________ 
~WELL INFORMATION 
# JLMmoJa/ja/TVcwAQvDk33OYEn4U2aLD16xKSNtVAxpK3Y/5Eg5lhKgsZNDQ5ZP0fRHfEZLFMAnipg5oeA7W3g== 
# MNEM.UNIT                                              DATA : DESCRIPTION OF MNEMONIC 
#-----.-----                    ----------------------------- : ----------------------------- 
CNTY.                                               CULBERSON : COUNTY 
STATE.                                                  TEXAS : STATE 
CNTRY.                                                    USA : COUNTRY 
API.                                             42-109-32572 : API (10 Digit) 
API_14.                                    42-109-32572-90-00 : API (14 Digits) 
API_14_std.                                 42-109-32572-9000 : API (14 Digits Standard) 
UWI.                                           42109325729000 : UNIQUE WELL ID 
WELL.                               42109325720000_PREV_API14 : WELL NAME
STRT.FT                                                2248.5 : START DEPTH
STOP.FT                                               10721.5 : STOP DEPTH
STEP.FT                                                   0.5 : STEP BETWEEN DEPTHS
NULL.                                                 -999.25 : NULL VALUE
PREV_APII.                                     42109325720000 : WELL IDENTIFIER
#___________________________________________________________________________________________________ 
~PARAMETER INFORMATION 
# MNEM.UNIT                                              DATA : DESCRIPTION OF MNEMONIC 
#-----.-----                    ----------------------------- : ----------------------------- 
EKB.FT                                                   3340 : ELEVATION ABOVE MSL
#___________________________________________________________________________________________________ 
~CURVE INFORMATION 
# MNEM.UNIT           : CURVE DESCRIPTION 
#-----.-----          : ----------------------------- 
 DEPT.FT               : MEASURED DEPTH 
 GR__A.API             : GAMMA RAY (GAMMA RAY) 
 DT__A.US/FT           : SONIC DELTA TRANSIT TIME (SONIC) 
 #___________________________________________________________________________________________________ 
~A         DEPT          GR__A          DT__A
# ...
         8338.5        155.020         90.983
         8339.0        174.860         91.557
         8339.5        188.480         92.148
         8340.0        191.363         92.148
         8340.5        191.236         94.227
         8341.0        193.044         98.751
         8341.5        238.783         99.562
         8342.0        254.057        100.561
         8342.5        278.932        104.151
         8343.0        270.036         93.836
         8343.5        221.329         89.496
         8344.0        203.821         89.230
         8344.5        164.820         87.352
         8345.0        163.945         81.884
         8345.5        164.262         75.182
         8346.0        156.607         73.828
         8346.5        127.780         74.655
         8347.0        131.459         77.145
         8347.5        137.654         82.828
         8348.0        143.580         83.428
         8348.5        157.668         79.505
         8349.0        143.800         76.995
         8349.5        110.381         74.141
         8350.0         99.319         72.645
         8350.5         84.645         70.682
         8351.0         84.164         73.952
         8351.5         94.186         74.640
         8352.0         96.912         74.081
         8352.5         91.272         71.114
         8353.0         88.966         70.587
         8353.5         87.280         72.129
         8354.0         89.459         72.227
         8354.5        103.327         72.596
         8355.0        101.121         71.663
         8355.5         94.057         70.646
         8356.0         90.989         69.550
         8356.5         87.481         70.371
         8357.0         91.096         70.371
         8357.5         90.411         68.497
         8358.0         92.020         66.925
         8358.5         94.716         68.249
         8359.0         88.184         67.663
         8359.5         82.178         67.512
         8360.0         79.030         67.539
         8360.5         72.519         68.334
         8361.0         72.432         71.346
         8361.5         77.517         72.100
         8362.0         85.596         72.031
         8362.5         97.336         70.792
         8363.0        101.761         68.220
         8363.5         97.830         63.777
         8364.0         93.007         63.274
         8364.5         66.665         63.504
         8365.0         51.730         67.294
         8365.5         65.392         69.782
         8366.0         72.569         70.079
         8366.5         78.278         68.648
         8367.0         78.617         68.128
         8367.5         83.616         67.672
         8368.0         83.118         66.225
         8368.5         75.684         65.350
         8369.0         76.491         65.842
         8369.5         92.466         66.604
         8370.0        101.218         67.141
         8370.5         98.658         68.575
         8371.0         92.053         67.832
         8371.5         89.395         67.598
         8372.0         90.251         67.091
         8372.5         89.399         67.458
         8373.0         88.681         67.986
         8373.5         90.944         68.027
         8374.0         91.754         68.027
         8374.5         89.297         67.257
         8375.0         86.670         66.313
         8375.5         84.932         66.747
         8376.0         84.326         67.451
         8376.5         83.757         68.276
         8377.0         83.366         69.349
         8377.5         84.957         78.636
         8378.0         88.763         83.688
         8378.5        136.764         98.742
         8379.0        173.209         98.984
         8379.5        162.175         99.695
         8380.0        150.487         99.960
         8380.5        123.483         75.811
         8381.0        112.918         76.621
         8381.5        124.929         76.767
         8382.0        131.849         79.765
         8382.5        125.617         79.747
         8383.0        111.114         77.058
         8383.5        112.646         77.617
         8384.0        121.102         78.094
         8384.5        230.624         89.052
         8385.0        276.069        102.525
         8385.5        276.824         86.189
         8386.0        263.858         84.593
         8386.5        165.697         82.817
         8387.0        137.200         78.291
         8387.5        126.565         74.375
         8388.0        122.567         73.719
         8388.5        129.360         75.302
         8389.0        157.107         77.434
         8389.5        211.550         92.697
         8390.0        205.715         92.832
         8390.5        168.448         71.016
         8391.0        124.470         65.578
         8391.5         82.224         64.553
         8392.0         66.293         63.968
         8392.5         89.373         68.960
         8393.0        100.190         83.405
         8393.5        143.534         86.387
         8394.0        164.289         86.693
         8394.5        176.379         89.155
         8395.0        163.722         86.060
         8395.5        150.274         77.695
         8396.0        142.518         77.728
         8396.5        126.939         79.095
         8397.0        156.215         83.481
         8397.5        190.676        101.966
         8398.0        205.579        103.554
         8398.5        216.559        106.925
         8399.0        223.411        107.232
         8399.5        241.382        109.062
         8400.0        249.299        110.900
         8400.5        272.408        107.061
         8401.0        271.019        100.910
         8401.5        233.171        100.244
         8402.0        204.188         98.567
         8402.5        163.888         90.448
         8403.0        172.540         91.002
         8403.5        183.519         86.460
         8404.0        177.202         85.972
         8404.5        154.503         82.083
         8405.0        169.354         80.611
         8405.5        195.877        102.765
         8406.0        219.401        106.429
         8406.5        230.833        107.383
         8407.0        197.526        107.892
         8407.5        160.929        104.929
         8408.0        131.426         81.356
         8408.5        114.277         73.769
         8409.0        115.928         73.458
         8409.5        166.399         76.526
         8410.0        216.888         85.135
         8410.5        256.928        107.400
         8411.0        250.589        107.035
         8411.5        225.261        102.866
         8412.0        180.366        101.898
         8412.5        107.176         85.981
         8413.0         93.993         79.145
         8413.5         96.985         76.910
         8414.0        102.600         76.803
         8414.5        135.474         76.892
         8415.0        197.793         83.003
         8415.5        257.667         92.140
         8416.0        270.794         94.753
         8416.5        240.752         90.586
         8417.0        216.090         89.219
         8417.5        237.160         88.885
         8418.0        254.129         99.385
         8418.5        246.653         93.258
         8419.0        215.619         92.473
         8419.5        182.777         89.006
         8420.0        170.254         86.875
         8420.5        171.696         88.817
         8421.0        174.822         86.673
         8421.5        159.541         86.198
         8422.0        170.668         87.076
         8422.5        227.495         99.406
         8423.0        260.514        109.888
         8423.5        276.712        105.861
         8424.0        262.217        104.450
         8424.5        221.798        100.763
         8425.0        111.898         78.160
