~VERSION INFORMATION
VERS. 2.0 : CWLS Log ASCII Standard - Version 2.0
WRAP. NO : One line per depth step
#--------------------------------------------------#
#----------------DRILLING INFO, INC.---------------#
#---------------WWW.DRILLINGINFO.COM---------------#
#------------------COPYRIGHT 2015------------------#
#--------------------------------------------------#
#THIS FILE MAY BE USED ONLY IN ACCORDANCE WITH A CURRENT SUBSCRIPTION AGREEMENT BETWEEN
#THE USER AND DRILLING INFO, INC. NO PART OF THIS FILE MAY BE REPRODUCED, USED, COPIED,
#MODIFIED, PROPAGATED, OR DISTRIBUTED EXCEPT IN ACCORDANCE WITH THE SUBSCRIPTION
#AGREEMENT. UNAUTHORIZED USE OR DISTRIBUTION OF ALL OR ANY PART OF THIS FILE MAY VIOLATE
#COPYRIGHT, TRADEMARK, AND/OR OTHER LAWS AND IS SUBJECT TO CIVIL AS WELL AS CRIMINAL
#SANCTIONS.
#--------------------------------------------------#
#THIS FILE IS PROVIDED "AS-IS" AND ALL WARRANTIES ARE EXPRESSLY DISCLAIMED, WHETHER
#EXPRESS, ORAL, IMPLIED, STATUTORY OR OTHERWISE, INCLUDING ANY IMPLIED WARRANTY OF FITNESS
#FOR A PARTICULAR PURPOSE, MERCHANTABILITY, TITLE OR NON-INFRINGEMENT, AND ANY WARRANTIES
#ARISING BY VIRTUE OF CUSTOM OF TRADE OR COURSE OF DEALING.  FURTHER, DRILLING INFO,
#INC. AND ITS LICENSORS DO NOT REPRESENT OR WARRANT THAT THIS FILE WILL MEET USER'S
#REQUIREMENTS OR ARE SUITABLE FOR USER'S NEEDS OR THAT THE DATA OR RESULTS PROVIDED IN
#CONJUNCTION THEREWITH ARE CORRECT, ACCURATE, TIMELY OR RELIABLE. THESE DISCLAIMERS SHALL
#APPLY REGARDLESS OF ANY FAILURE OF ESSENTIAL PURPOSE OF ANY LIMITED REMEDY.  SOME
#JURISDICTIONS DO NOT ALLOW THE EXCLUSION OF CERTAIN WARRANTIES SO SOME OF THE ABOVE
#EXCLUSIONS MAY NOT APPLY. IN NO EVENT SHALL DRILLING INFO, INC. OR ANY OF ITS AFFILIATES
#BE LIABLE UNDER ANY LEGAL THEORY, WHETHER IN TORT (INCLUDING WITHOUT LIMITATION
#NEGLIGENCE), CONTRACT, STRICT LIABILITY, STATUTORY OR OTHERWISE, FOR ANY SPECIAL,
#INCIDENTAL, CONSEQUENTIAL, EXEMPLARY, PUNITIVE OR INDIRECT DAMAGE OF ANY KIND, INCLUDING
#WITHOUT LIMITATION LOSS OF REVENUE, PROFITS, GOODWILL, USE, AND/OR DATA OR THE COST OF
#PROCUREMENT OF SUBSTITUTE GOODS OR SERVICES, EVEN IF APPRISED OF THE POSSIBILITY OF SUCH
#DAMAGES IN ADVANCE.
#--------------------------------------------------#
~WELL INFORMATION
#MNEMONIC     .UNIT              VALUE :DESCRIPTION
#--------------------------------------------------#
STRT       .ft                52.00000 :START DEPTH
STOP       .ft                8797.00000 :STOP DEPTH
STEP       .ft                0.50000 :STEP
NULL       .                -999.25000 :NULL VALUE
COMP       .                 :COMPANY
WELL       .                 :WELL
FLD       .                 :FIELD
LOC       .                 :LOCATION
CNTY       .                 :COUNTY
STAT       .                 :STATE
CTRY       .                 :COUNTRY
SRVC       .                 :SERVICE COMPANY
DATE       .                 :DATE
API       .                42109700290000 :API NUMBER
~CURVE INFORMATION
#MNEMONIC     .UNIT      API CODE :CURVE DESCRIPTION
#--------------------------------------------------#
DEPTH       .ft                      :Measured Depth
DT       .us/ft        UNKNOWN   :DT
GR       .gAPI        UNKNOWN   :GR
ILD       .ohmm        UNKNOWN   :ILD
ILS       .ohmm        UNKNOWN   :ILS
SP       .mV        UNKNOWN   :SP
~A    DEPTH    DT    GR    ILD    ILS    SP
# ...
7551.00000    61.02779    32.08265    111.70415    111.82710    -72.87920
7551.50000    60.99151    29.69579    110.86523    112.37686    -73.16808
7552.00000    60.47645    27.30892    110.02630    113.37576    -73.45696
7552.50000    59.96140    24.92206    109.18737    114.37466    -73.74584
7553.00000    59.63030    22.99640    108.34845    115.37356    -74.03472
7553.50000    59.45327    22.74511    114.06074    116.80235    -74.32360
7554.00000    59.27623    22.49382    119.90751    118.82494    -74.61248
7554.50000    59.87019    23.22535    125.75428    120.84752    -74.90136
7555.00000    60.48698    24.02606    131.60105    122.87011    -75.91201
7555.50000    61.10376    24.77015    137.44782    124.89270    -76.95541
7556.00000    61.72054    25.37686    143.29460    126.91528    -77.99881
7556.50000    62.33732    25.98357    149.14137    128.93787    -79.04220
7557.00000    62.95411    26.59028    154.98814    130.96046    -80.08560
7557.50000    62.99494    27.19698    160.83491    132.12030    -81.12899
7558.00000    62.63270    27.25192    166.68168    130.40028    -82.17239
7558.50000    62.27046    26.52776    160.05134    128.68026    -83.21578
7559.00000    61.04659    25.80361    147.78417    126.96024    -84.25918
7559.50000    59.26951    25.07945    135.51700    125.24022    -85.26145
7560.00000    59.85343    24.35529    123.24983    123.52019    -85.47031
7560.50000    60.43736    23.71135    122.24308    121.80017    -85.67917
7561.00000    61.02128    23.24652    123.57577    120.08015    -85.88803
7561.50000    61.60520    22.78168    121.85676    118.36013    -86.09689
7562.00000    62.18913    22.31685    119.79456    116.64011    -86.30575
7562.50000    62.21985    21.85202    117.73237    114.92009    -86.51461
7563.00000    60.54079    21.38718    115.78165    113.20007    -86.72347
7563.50000    58.86173    22.68578    116.77929    111.48005    -86.93233
7564.00000    57.18268    23.02692    117.77693    109.76002    -87.14119
7564.50000    56.68242    21.99827    118.77457    109.74161    -87.35006
7565.00000    56.80501    21.81373    119.77221    110.11918    -87.55892
7565.50000    57.83431    25.96385    120.76985    110.49675    -87.76778
7566.00000    58.86361    30.11398    121.76750    110.87432    -87.97664
7566.50000    59.89291    34.26410    122.76514    111.25188    -88.18550
7567.00000    60.92222    32.00815    122.13079    111.62945    -88.39436
7567.50000    61.95152    29.69997    118.02985    112.00702    -88.60322
7568.00000    61.54346    27.39178    113.92890    112.38458    -88.81208
7568.50000    60.97879    25.08360    109.82796    112.76215    -89.02094
7569.00000    60.41412    22.77542    105.72702    113.13972    -89.22980
7569.50000    59.84945    21.19990    104.93998    113.51728    -89.43867
7570.00000    60.21569    20.14231    104.91712    113.89485    -89.64753
7570.50000    60.74635    19.08473    105.11477    114.27242    -89.54132
7571.00000    61.27701    18.99617    106.00031    114.64999    -89.09064
7571.50000    61.72819    19.20321    106.88585    115.02755    -88.63996
7572.00000    61.68709    19.41024    107.77140    115.53571    -88.18928
7572.50000    61.64600    19.61728    108.65694    116.15437    -87.73860
7573.00000    61.59518    44.48114    109.54248    116.77303    -87.28793
7573.50000    61.26900    46.25670    114.70425    117.39170    -86.83724
7574.00000    60.94284    44.40212    125.05295    118.01036    -86.38657
7574.50000    60.61666    42.54753    135.40165    118.62903    -85.80686
7575.00000    60.29049    40.69293    145.75035    119.24769    -85.03208
7575.50000    59.33425    38.83834    156.09905    119.86636    -84.25730
7576.00000    57.54731    36.98375    166.44775    120.48502    -83.48252
7576.50000    55.76037    37.58054    176.79644    121.10369    -82.70775
7577.00000    55.00780    39.87913    187.14514    121.72235    -81.93297
7577.50000    55.14596    42.17772    195.57385    122.34101    -81.15819
7578.00000    55.28413    44.47631    186.28037    121.46828    -80.38341
7578.50000    55.42230    46.77490    176.98689    119.69943    -79.60863
7579.00000    55.56047    46.78734    167.69341    117.93059    -78.83386
7579.50000    55.69863    44.87938    158.39993    116.16174    -78.05908
7580.00000    55.45954    43.66895    149.10645    114.39289    -77.28430
7580.50000    55.12750    42.90399    139.81297    112.62405    -76.50952
7581.00000    54.79546    42.13902    130.70662    110.85520    -75.73474
7581.50000    54.46342    41.37406    132.72833    109.08635    -74.95997
7582.00000    54.13138    40.60910    134.75003    109.19413    -74.18519
7582.50000    53.94160    34.93262    135.86490    109.77829    -73.41041
7583.00000    53.81566    29.07133    135.84231    110.36245    -72.63563
7583.50000    53.74789    24.20067    135.81972    110.94661    -72.25634
7584.00000    54.14258    25.67756    135.79713    111.53078    -72.32888
7584.50000    54.53728    25.91676    135.77454    112.11494    -72.40141
7585.00000    54.93197    24.39063    126.15939    112.69910    -72.47394
7585.50000    55.33624    22.86450    115.94376    113.28326    -72.54647
7586.00000    55.74102    21.55970    116.28221    113.86743    -72.61900
7586.50000    56.14580    23.44447    134.95435    114.45159    -72.69154
7587.00000    56.55058    25.32924    153.62649    119.56420    -72.76407
7587.50000    59.68077    25.52990    172.29863    126.26197    -72.83660
7588.00000    63.81736    24.13852    190.97077    132.95974    -72.90913
7588.50000    67.95395    22.74714    212.60789    139.65750    -72.98166
7589.00000    72.09054    21.35577    234.68504    146.35527    -73.05419
7589.50000    74.17667    20.55491    256.76219    153.05303    -73.12672
7590.00000    71.72947    21.73202    278.83933    159.75080    -73.19926
7590.50000    69.28228    22.90913    300.91648    166.44857    -73.27179
7591.00000    58.32646    24.08625    322.99363    173.14633    -73.34432
7591.50000    58.43240    26.52381    326.69555    177.25629    -73.41685
7592.00000    58.74053    29.38321    308.33962    178.25726    -73.48938
7592.50000    59.47597    30.67923    289.98369    179.25824    -73.56191
7593.00000    60.21140    27.85252    271.62777    180.25921    -73.63445
7593.50000    58.70915    26.08587    253.27184    181.26019    -73.70698
7594.00000    55.97609    24.63564    236.93526    182.26116    -73.77951
7594.50000    54.35156    23.18540    225.35396    183.26214    -73.47806
7595.00000    55.07046    21.73517    213.77265    184.26311    -73.13472
7595.50000    55.78937    20.79926    202.19135    185.26408    -72.79139
7596.00000    56.50827    19.88837    199.55316    185.81834    -72.44805
7596.50000    57.82008    20.67704    208.51721    185.95602    -72.10471
7597.00000    59.56235    28.52562    217.48125    186.09370    -71.76137
7597.50000    61.30462    33.33285    229.44208    186.23138    -71.41804
7598.00000    63.04689    38.14008    251.95980    186.36906    -71.07470
7598.50000    64.78916    42.94731    238.01428    186.50674    -70.73136
7599.00000    66.53143    40.62773    292.58495    186.64442    -70.38802
7599.50000    65.40115    38.17164    285.76219    186.78210    -70.04468
7600.00000    64.19368    35.71556    278.93944    186.91978    -69.70135
7600.50000    62.98621    33.25947    272.11669    187.05746    -69.35801
7601.00000    61.77874    31.75636    262.32784    183.23541    -69.01467
7601.50000    60.57127    31.08174    235.84613    178.61552    -68.67133
7602.00000    59.29308    43.81840    209.36442    173.99563    -68.32800
7602.50000    59.17421    43.11745    182.88271    169.37575    -67.98466
7603.00000    59.96010    42.41649    162.86194    164.75586    -67.64132
7603.50000    60.74599    43.30907    159.38816    160.13597    -67.29798
7604.00000    61.53188    44.92513    155.91439    155.51609    -66.95464
7604.50000    61.07615    40.99288    152.44061    150.89620    -66.61131
7605.00000    60.34272    37.06063    148.96684    146.27631    -66.26797
