###############################################
##         ENVERUS                           ##
##         ESS - Open Hole                   ##
##         PERMIAN / DELAWARE                ##
##         Nov 02 2023  V4.0                 ##
##         42-109-31550-00-00                ##
###############################################
## Copyright 2017-2023  ENVERUS.  All Rights Reserved. 
## Confidential - Property of ENVERUS, use governed by terms and 
## conditions found within the existing Information Services Subscription Agreement 
## (as may be amended, the “ISSA”) between Customer and ENVERUS. 
## 
~VERSION INFORMATION
# MNEM.UNIT                               DATA : DESCRIPTION OF MNEMONIC
#-----.-----     ----------------------------- : -----------------------------
VERS.                                     2.00 : CWLS LOG ASCII STANDARD - VERSION 2.00
WRAP.                                       NO : MULTIPLE LINES PER DEPTH STEP
VEND.                                  ENVERUS : VENDOR
TYPE.                          ESS - OPEN HOLE : ENVERUS ESSENTIAL CURVES – ACCESSIBLE THROUGH ENVERUS PRISM(TM)
DOC.                                  22584426 : ENVERUS HEADER RAW DOCUMENT ID
#___________________________________________________________________________________________________ 
~WELL INFORMATION 
# ASdzl/zqz3tyMoI2i40d5lqA861uk+/GXWRvioHJ4uiq1sQ7a4yIDDt4z64Puw3+ifUTTkKIB4eyCaXtXAsvCw== 
# MNEM.UNIT                                              DATA : DESCRIPTION OF MNEMONIC 
#-----.-----                    ----------------------------- : ----------------------------- 
CNTY.                                               CULBERSON : COUNTY 
STATE.                                                  TEXAS : STATE 
CNTRY.                                                    USA : COUNTRY 
API.                                             42-109-31550 : API (10 Digit) 
API_14.                                    42-109-31550-00-00 : API (14 Digits) 
API_14_std.                                 42-109-31550-0000 : API (14 Digits Standard) 
UWI.                                           42109315500000 : UNIQUE WELL ID 
WELL.                                       UNIVERSITY_6-46-1 : WELL NAME
STRT.FT                                                 249.5 : START DEPTH
STOP.FT                                               10300.0 : STOP DEPTH
STEP.FT                                                   0.5 : STEP BETWEEN DEPTHS
NULL.                                                 -999.25 : NULL VALUE
COMP.                                    MONSANTO OIL COMPANY : COMPANY 
FLD.                                                  WILDCAT : FIELD 
DATE.                                              10/31/2016 : DATE 
TVD.                                                       NO : TVD FLAG 
WSTA.                                                     LOC : WELL STATUS
#___________________________________________________________________________________________________ 
~PARAMETER INFORMATION 
# MNEM.UNIT                                              DATA : DESCRIPTION OF MNEMONIC 
#-----.-----                    ----------------------------- : ----------------------------- 
RUN.                                                      ONE : RUN NUMBER 
PDAT.                                                      GL : PERMANENT DATUM 
LMF.                                            KELLY BUSHING : LOG MEASURED FROM
#___________________________________________________________________________________________________ 
~CURVE INFORMATION 
# MNEM.UNIT           : CURVE DESCRIPTION 
#-----.-----          : ----------------------------- 
 DEPT.FT               : MEASURED DEPTH 
 DT.US/FT              : SONIC DELTA TRANSIT TIME (DELTA-T) 
 RESS_LL.OHMM          : SHALLOW LATEROLOG (LLS - LATERO-LOG SHALLOW (RESISTIVITY)) 
 RESD_LL.OHMM          : DEEP LATEROLOG (LLD - LATERO-LOG DEEP (RESISTIVITY)) 
 #___________________________________________________________________________________________________ 
~A         DEPT             DT        RESS_LL        RESD_LL
# ...
         2427.5         67.111       138.4302       147.6970
         2428.0         66.792       156.1321       182.7402
         2428.5         66.996       162.0215       176.0977
         2429.0         67.842       162.0215       156.1321
         2429.5         68.444       147.6970       146.3361
         2430.0         68.457       136.7322       144.9878
         2430.5         68.014       135.8910       153.2682
         2431.0         67.352       138.4302       152.5069
         2431.5         66.877       138.4302       150.9170
         2432.0         67.014       137.1548       147.4416
         2432.5         67.672       132.1789       142.8783
         2433.0         68.508       126.2256       137.8406
         2433.5         68.741       123.9403       133.3984
         2434.0         68.695       124.9664       133.3984
         2434.5         68.737       123.9548       133.3984
         2435.0         69.458       117.4434       133.3984
         2435.5         70.181       119.1358       118.2740
         2436.0         71.185       105.0587       101.0526
         2436.5         71.385        92.9751       101.0526
         2437.0         70.722        92.8864       101.0526
         2437.5         70.481        94.7467       105.8396
         2438.0         71.143        94.7441       103.0553
         2438.5         72.166        88.9762        98.7890
         2439.0         73.069        86.8219        93.1597
         2439.5         73.551        81.4918        88.7700
         2440.0         73.129        80.1302        91.2697
         2440.5         72.889        80.1761        89.5955
         2441.0         72.949        80.1761        87.1417
         2441.5         73.370        80.1761        87.1417
         2442.0         73.190        80.1761        83.9741
         2442.5         74.092        76.5499        80.9217
         2443.0         74.213        74.4534        79.4374
         2443.5         73.370        79.8768        87.1417
         2444.0         71.805        81.6387        91.2697
         2444.5         70.241        86.5346       100.1215
         2445.0         70.000        94.0449       111.8842
         2445.5         70.662        93.7036       107.4369
         2446.0         72.536        88.0892       100.3408
         2446.5         73.852        82.4510        94.1131
         2447.0         73.852        79.3898        88.7700
         2447.5         72.889        81.6561        92.1184
         2448.0         72.570        83.1234        92.0683
         2448.5         72.396        83.9741        93.8954
         2449.0         72.222        83.2004        93.7471
         2449.5         72.049        82.4338        95.5932
         2450.0         71.875        81.7823        95.5932
         2450.5         71.625        80.9217        94.7124
         2451.0         71.384        82.4188        94.6550
         2451.5         71.264        83.2051        94.7958
         2452.0         71.384        83.1911        92.8903
         2452.5         71.745        83.1884        94.0088
         2453.0         72.106        83.2660        94.7124
         2453.5         72.648        81.6070        91.2697
         2454.0         73.190        81.7264        92.1184
         2454.5         73.190        80.9217        93.8397
         2455.0         72.768        82.4338        94.7124
         2455.5         72.227        84.7551        98.2850
         2456.0         72.386        89.5955       101.9924
         2456.5         72.347        89.5955       105.8396
         2457.0         72.708        83.9741        97.3794
         2457.5         72.708        83.2004        92.1184
         2458.0         72.708        83.3546        94.7124
         2458.5         72.828        83.9741        94.7124
         2459.0         72.949        83.9733        92.0968
         2459.5         73.129        83.9836        92.0858
         2460.0         72.972        83.9384        92.9407
         2460.5         72.828        83.9741        97.3094
         2461.0         72.287        88.7700       103.0233
         2461.5         71.745        89.5955       106.5385
         2462.0         71.482        91.2697       101.0526
         2462.5         71.444        91.2697       101.0526
         2463.0         71.565        91.2697       101.0526
         2463.5         71.685        90.4287       101.0526
         2464.0         71.533        89.5955       101.0526
         2464.5         71.264        90.3137       101.0526
         2465.0         71.324        91.2697       101.0511
         2465.5         71.685        91.2697       101.0440
         2466.0         71.935        90.4287       101.0809
         2466.5         72.107        90.4567       100.9820
         2467.0         72.053        89.5742       102.9409
         2467.5         71.693        90.4517       105.8396
         2468.0         70.905        92.1830       108.8199
         2468.5         69.932        97.5457       111.8842
         2469.0         69.085       101.1825       117.1842
         2469.5         69.025       103.9745       121.6515
         2470.0         69.732       104.8644       119.3444
         2470.5         70.602        98.2168       113.0693
         2471.0         71.083        97.3348       108.7670
         2471.5         70.963        97.4043       106.8238
         2472.0         70.534       100.9532       106.8238
         2472.5         70.181       105.8396       110.8533
         2473.0         70.241       101.9924       113.9748
         2473.5         70.421       103.8982       117.1842
         2474.0         70.506       105.8396       118.2740
         2474.5         70.722       105.8809       116.1045
         2475.0         71.143       105.9090       112.9247
         2475.5         71.805       103.9795       110.8533
         2476.0         72.559       103.8982       107.6890
         2476.5         72.832       101.4369       106.8238
         2477.0         72.642       101.0526       108.8199
         2477.5         72.575       105.8396       111.8842
         2478.0         72.273       104.8644       115.0347
         2478.5         71.796       110.8533       118.2740
         2479.0         71.320       109.8319       119.3739
         2479.5         71.203       115.0347       116.1045
         2480.0         71.231       112.9247       112.9247
         2480.5         71.264       105.7943       110.8533
         2481.0         71.263       106.8598       109.8319
         2481.5         71.501       104.9025       107.8173
         2482.0         71.505       103.8344       107.8173
         2482.5         70.963       105.8396       110.8533
         2483.0         70.060       105.8396       112.9247
         2483.5         69.458       103.8982       112.9247
         2484.0         69.157       103.8982       112.9247
         2484.5         69.880       100.1215       108.8199
         2485.0         71.023        96.4455       105.8396
         2485.5         71.685        92.9429       102.9409
         2486.0         71.565        96.5164       102.9409
         2486.5         71.264        97.3794       102.9409
         2487.0         70.963        98.2850       103.8982
         2487.5         70.782        98.2850       103.8982
         2488.0         70.782        98.2966       104.8644
         2488.5         70.782        98.1754       106.8238
         2489.0         70.542        99.9498       109.8319
         2489.5         69.699       102.1078       116.1045
         2490.0         69.146       106.8002       124.0178
         2490.5         68.620       112.9505       123.6828
         2491.0         68.810       112.9949       119.5034
         2491.5         69.535       111.0313       118.2740
         2492.0         69.880       104.7258       112.9247
         2492.5         69.819       104.7323       113.9748
         2493.0         69.458       113.0469       119.3739
