###############################################
##         ENVERUS                           ##
##         ESS - Open Hole                   ##
##         PERMIAN / DELAWARE                ##
##         Nov 03 2023  V4.0                 ##
##         42-109-33370-00-00                ##
###############################################
## Copyright 2017-2023  ENVERUS.  All Rights Reserved. 
## Confidential - Property of ENVERUS, use governed by terms and 
## conditions found within the existing Information Services Subscription Agreement 
## (as may be amended, the “ISSA”) between Customer and ENVERUS. 
## 
~VERSION INFORMATION
# MNEM.UNIT                               DATA : DESCRIPTION OF MNEMONIC
#-----.-----     ----------------------------- : -----------------------------
VERS.                                     2.00 : CWLS LOG ASCII STANDARD - VERSION 2.00
WRAP.                                       NO : MULTIPLE LINES PER DEPTH STEP
VEND.                                  ENVERUS : VENDOR
TYPE.                          ESS - OPEN HOLE : ENVERUS ESSENTIAL CURVES – ACCESSIBLE THROUGH ENVERUS PRISM(TM)
DOC.                                  52814434 : ENVERUS HEADER RAW DOCUMENT ID
#___________________________________________________________________________________________________ 
~WELL INFORMATION 
# 4wk/Fx8UuugU+iebl2dHJIcndKaYvWbTE+/Vf37HP7rynMiEVi3nAb6NYbehQO/VbM9PVY38flJCaeNisGRn4g== 
# MNEM.UNIT                                              DATA : DESCRIPTION OF MNEMONIC 
#-----.-----                    ----------------------------- : ----------------------------- 
CNTY.                                               CULBERSON : COUNTY 
STATE.                                                  TEXAS : STATE 
CNTRY.                                                    USA : COUNTRY 
API.                                             42-109-33370 : API (10 Digit) 
API_14.                                    42-109-33370-00-00 : API (14 Digits) 
API_14_std.                                 42-109-33370-0000 : API (14 Digits Standard) 
UWI.                                           42109333700000 : UNIQUE WELL ID 
WELL.                                       ROXANNE FEE 46 3H : WELL NAME
STRT.FT                                                8800.0 : START DEPTH
STOP.FT                                               14157.0 : STOP DEPTH
STEP.FT                                                   0.5 : STEP BETWEEN DEPTHS
NULL.                                                 -999.25 : NULL VALUE
LOC.                                        API  42-109-33370 : LOCATION 
FL1.                                        API  42-109-33370 : LOCATIONLINE1 
DMF.                                                       KB : DRILL MEAS FROM 
PDAT.                                                      GL : PERMANENT DATUM 
FLD.                                    FORD, WEST (WOLFCAMP) : FIELD NAME 
COMP.                                          CAPITAN ENERGY : COMPANY 
DATE.                                             29-APR-2019 : DATE 
SVCO.                                             HALLIBURTON : SERVICECONAME 
PROV.                                                   TEXAS : PROVINCE 
BASI.                                                 PERMIAN : BASIN 
RANG.                                                     N/A : RANGE 
TOWN.                                                     N/A : TOWNSHIP 
SECT.                                                     N/A : SECTION 
SON.                                                905631605 : JOB NUMBER 
SRVC.                                             HALLIBURTON : SERVICE COMPANY 
LMF.                                                       KB : LOG MEASURED FROM 
BAP.FT                                                 0.0000 : GL ELEV ONSHORE 
GVFD.G                                                 1.0000 : GRAVITY FIELD
#___________________________________________________________________________________________________ 
~CURVE INFORMATION 
# MNEM.UNIT           : CURVE DESCRIPTION 
#-----.-----          : ----------------------------- 
 DEPT.FT               : MEASURED DEPTH 
 GR.API                : GAMMA RAY (GR_CHI - GR_CHI) 
 GR__01.API            : GAMMA RAY (GR_OH - GR_OH) 
 DT.US/FT              : SONIC DELTA TRANSIT TIME (DTC_CHI - DTC_CHI) 
 DT__01.US/FT          : SONIC DELTA TRANSIT TIME (DTC_OH - DTC_OH) 
 PE.B/E                : PHOTOELECTRIC EFFECT/FACTOR (PE_CHI - PE_CHI) 
 PE__01.B/E            : PHOTOELECTRIC EFFECT/FACTOR (PE_OH - PE_OH) 
 RESS_10.OHMM          : 10 INCH SHALLOW INDUCTION RESISTIVITY (RT10_CHI - RT10_CHI) 
 RESS_10__01.OHMM      : 10 INCH SHALLOW INDUCTION RESISTIVITY (RT10_OH - RT10_OH) 
 RESM_30.OHMM          : 30 INCH MEDIUM INDUCTION RESISTIVITY (RT30_CHI - RT30_CHI) 
 RESM_30__01.OHMM      : 30 INCH MEDIUM INDUCTION RESISTIVITY (RT30_OH - RT30_OH) 
 RESD_90.OHMM          : 90 INCH DEEP INDUCTION RESISTIVITY (RT90_CHI - RT90_CHI) 
 RESD_90__01.OHMM      : 90 INCH DEEP INDUCTION RESISTIVITY (RT90_OH - RT90_OH) 
 NPHI.V/V              : NEUTRON POROSITY (NPHI_CHI - NPHI_CHI) 
 NPHI__01.V/V          : NEUTRON POROSITY (NPHI_OH - NPHI_OH) 
 SPHI.V/V              : SONIC POROSITY (SPHI_CHI - SPHI_CHI) 
 RHOB.G/CC             : BULK DENSITY (RHOB_CHI - RHOB_CHI) 
 RHOB__01.G/CC         : BULK DENSITY (RHOB_OH - RHOB_OH) 
 #___________________________________________________________________________________________________ 
~A         DEPT             GR         GR__01             DT         DT__01             PE         PE__01        RESS_10    RESS_10__01        RESM_30    RESM_30__01        RESD_90    RESD_90__01           NPHI       NPHI__01           SPHI           RHOB       RHOB__01
# ...
        10585.0         89.417       -999.250         72.626       -999.250         3.5571      -999.2500         46.652       -999.250         48.190       -999.250         51.266       -999.250        0.12690     -999.25000        0.17660         2.5859      -999.2500
        10585.5         91.455       -999.250         72.739       -999.250         3.5443      -999.2500         45.699       -999.250         47.205       -999.250         50.218       -999.250        0.12890     -999.25000        0.17730         2.5846      -999.2500
        10586.0         92.440       -999.250         72.774       -999.250         3.5403      -999.2500         44.631       -999.250         46.103       -999.250         49.045       -999.250        0.13060     -999.25000        0.17780         2.5843      -999.2500
        10586.5         92.214       -999.250         72.767       -999.250         3.5397      -999.2500         43.508       -999.250         44.942       -999.250         47.811       -999.250        0.13180     -999.25000        0.17800         2.5847      -999.2500
        10587.0         91.603       -999.250         72.781       -999.250         3.5312      -999.2500         42.409       -999.250         43.807       -999.250         46.604       -999.250        0.13220     -999.25000        0.17820         2.5849      -999.2500
        10587.5         92.134       -999.250         72.813       -999.250         3.5071      -999.2500         41.360       -999.250         42.724       -999.250         45.451       -999.250        0.13220     -999.25000        0.17840         2.5839      -999.2500
        10588.0         93.962       -999.250         72.856       -999.250         3.4787      -999.2500         40.500       -999.250         41.836       -999.250         44.506       -999.250        0.13200     -999.25000        0.17860         2.5822      -999.2500
        10588.5         96.171       -999.250         72.912       -999.250         3.4498      -999.2500         39.848       -999.250         41.162       -999.250         43.789       -999.250        0.13180     -999.25000        0.17880         2.5801      -999.2500
        10589.0         96.944       -999.250         72.921       -999.250         3.4327      -999.2500         39.442       -999.250         40.743       -999.250         43.343       -999.250        0.13110     -999.25000        0.17880         2.5792      -999.2500
        10589.5         96.328       -999.250         72.904       -999.250         3.4252      -999.2500         39.264       -999.250         40.559       -999.250         43.147       -999.250        0.12990     -999.25000        0.17870         2.5791      -999.2500
        10590.0         93.829       -999.250         72.822       -999.250         3.4281      -999.2500         39.252       -999.250         40.546       -999.250         43.134       -999.250        0.12790     -999.25000        0.17840         2.5803      -999.2500
        10590.5         90.348       -999.250         72.735       -999.250         3.4395      -999.2500         39.295       -999.250         40.590       -999.250         43.181       -999.250        0.12580     -999.25000        0.17820         2.5823      -999.2500
        10591.0         88.174       -999.250         72.712       -999.250         3.4457      -999.2500         39.189       -999.250         40.481       -999.250         43.065       -999.250        0.12470     -999.25000        0.17820         2.5834      -999.2500
        10591.5         87.869       -999.250         72.788       -999.250         3.4443      -999.2500         38.827       -999.250         40.107       -999.250         42.667       -999.250        0.12510     -999.25000        0.17870         2.5832      -999.2500
        10592.0         88.697       -999.250         72.953       -999.250         3.4409      -999.2500         38.241       -999.250         39.501       -999.250         42.023       -999.250        0.12720     -999.25000        0.17970         2.5824      -999.2500
        10592.5         90.274       -999.250         73.185       -999.250         3.4370      -999.2500         37.532       -999.250         38.769       -999.250         41.244       -999.250        0.13030     -999.25000        0.18090         2.5811      -999.2500
        10593.0         92.726       -999.250         73.418       -999.250         3.4332      -999.2500         36.851       -999.250         38.066       -999.250         40.496       -999.250        0.13380     -999.25000        0.18220         2.5794      -999.2500
        10593.5         96.392       -999.250         73.584       -999.250         3.4197      -999.2500         36.183       -999.250         37.376       -999.250         39.762       -999.250        0.13680     -999.25000        0.18330         2.5772      -999.2500
        10594.0         99.644       -999.250         73.660       -999.250         3.4030      -999.2500         35.526       -999.250         36.697       -999.250         39.040       -999.250        0.13880     -999.25000        0.18410         2.5753      -999.2500
        10594.5        102.644       -999.250         73.732       -999.250         3.3867      -999.2500         34.868       -999.250         36.018       -999.250         38.317       -999.250        0.14060     -999.25000        0.18480         2.5735      -999.2500
        10595.0        104.528       -999.250         73.804       -999.250         3.3760      -999.2500         34.197       -999.250         35.325       -999.250         37.580       -999.250        0.14210     -999.25000        0.18530         2.5724      -999.2500
        10595.5        105.373       -999.250         73.862       -999.250         3.3679      -999.2500         33.465       -999.250         34.568       -999.250         36.775       -999.250        0.14320     -999.25000        0.18590         2.5718      -999.2500
        10596.0        107.280       -999.250         73.968       -999.250         3.3508      -999.2500         32.656       -999.250         33.733       -999.250         35.886       -999.250        0.14450     -999.25000        0.18660         2.5702      -999.2500
        10596.5        111.870       -999.250         74.117       -999.250         3.3174      -999.2500         31.841       -999.250         32.890       -999.250         34.990       -999.250        0.14580     -999.25000        0.18730         2.5667      -999.2500
        10597.0        116.199       -999.250         74.205       -999.250         3.2831      -999.2500         31.176       -999.250         32.204       -999.250         34.259       -999.250        0.14650     -999.25000        0.18790         2.5634      -999.2500
        10597.5        119.719       -999.250         74.255       -999.250         3.2578      -999.2500         30.862       -999.250         31.879       -999.250         33.914       -999.250        0.14680     -999.25000        0.18830         2.5609      -999.2500
        10598.0        122.067       -999.250         74.278       -999.250         3.2492      -999.2500         31.044       -999.250         32.067       -999.250         34.114       -999.250        0.14710     -999.25000        0.18850         2.5594      -999.2500
        10598.5        124.323       -999.250         74.307       -999.250         3.2508      -999.2500         31.679       -999.250         32.723       -999.250         34.812       -999.250        0.14740     -999.25000        0.18850         2.5582      -999.2500
        10599.0        125.547       -999.250         74.273       -999.250         3.2589      -999.2500         32.606       -999.250         33.681       -999.250         35.831       -999.250        0.14710     -999.25000        0.18810         2.5578      -999.2500
        10599.5        125.619       -999.250         74.143       -999.250         3.2683      -999.2500         33.629       -999.250         34.738       -999.250         36.955       -999.250        0.14580     -999.25000        0.18730         2.5583      -999.2500
