#--------------------------------------------------#
#----------------DRILLING INFO, INC.---------------#
#---------------WWW.DRILLINGINFO.COM---------------#
#------------------COPYRIGHT 2018------------------#
#--------------------------------------------------#
#THIS FILE MAY BE USED ONLY IN ACCORDANCE WITH A CURRENT SUBSCRIPTION AGREEMENT BETWEEN
#THE USER AND DRILLING INFO, INC. NO PART OF THIS FILE MAY BE REPRODUCED, USED, COPIED,
#MODIFIED, PROPAGATED, OR DISTRIBUTED EXCEPT IN ACCORDANCE WITH THE SUBSCRIPTION
#AGREEMENT. UNAUTHORIZED USE OR DISTRIBUTION OF ALL OR ANY PART OF THIS FILE MAY VIOLATE
#COPYRIGHT, TRADEMARK, AND/OR OTHER LAWS AND IS SUBJECT TO CIVIL AS WELL AS CRIMINAL
#SANCTIONS.
#--------------------------------------------------#
#THIS FILE IS PROVIDED "AS-IS" AND ALL WARRANTIES ARE EXPRESSLY DISCLAIMED, WHETHER
#EXPRESS, ORAL, IMPLIED, STATUTORY OR OTHERWISE, INCLUDING ANY IMPLIED WARRANTY OF FITNESS
#FOR A PARTICULAR PURPOSE, MERCHANTABILITY, TITLE OR NON-INFRINGEMENT, AND ANY WARRANTIES
#ARISING BY VIRTUE OF CUSTOM OF TRADE OR COURSE OF DEALING.  FURTHER, DRILLING INFO,
#INC. AND ITS LICENSORS DO NOT REPRESENT OR WARRANT THAT THIS FILE WILL MEET USER'S
#REQUIREMENTS OR ARE SUITABLE FOR USER'S NEEDS OR THAT THE DATA OR RESULTS PROVIDED IN
#CONJUNCTION THEREWITH ARE CORRECT, ACCURATE, TIMELY OR RELIABLE. THESE DISCLAIMERS SHALL
#APPLY REGARDLESS OF ANY FAILURE OF ESSENTIAL PURPOSE OF ANY LIMITED REMEDY.  SOME
#JURISDICTIONS DO NOT ALLOW THE EXCLUSION OF CERTAIN WARRANTIES SO SOME OF THE ABOVE
#EXCLUSIONS MAY NOT APPLY. IN NO EVENT SHALL DRILLING INFO, INC. OR ANY OF ITS AFFILIATES
#BE LIABLE UNDER ANY LEGAL THEORY, WHETHER IN TORT (INCLUDING WITHOUT LIMITATION
#NEGLIGENCE), CONTRACT, STRICT LIABILITY, STATUTORY OR OTHERWISE, FOR ANY SPECIAL,
#INCIDENTAL, CONSEQUENTIAL, EXEMPLARY, PUNITIVE OR INDIRECT DAMAGE OF ANY KIND, INCLUDING
#WITHOUT LIMITATION LOSS OF REVENUE, PROFITS, GOODWILL, USE, AND/OR DATA OR THE COST OF
#PROCUREMENT OF SUBSTITUTE GOODS OR SERVICES, EVEN IF APPRISED OF THE POSSIBILITY OF SUCH
#DAMAGES IN ADVANCE.
#--------------------------------------------------#
# Exported from DI Transform
# DI Transform - A Product of Drillinginfo, Inc. - www.drillinginfo.com
#--------------------------------------------------#
#
~VERSION INFORMATION
 VERS.        2.0 : LAS ASCII STANDARD - VERSION 2.0
 WRAP.         NO : ONE LINE PER DEPTH STEP

~WELL INFORMATION
#MNEM.UNIT       DATA TYPE       INFORMATION
#---------       ---------       -----------
 STRT.ft          9043 : Start Depth
 STOP.ft         16870 : Stop Depth
 STEP.ft           0.5 : Step Length
 NULL.         -999.25 : Null Value
 COMP.                 : Company
 WELL.          DRD_55 : Well Name
 FLD.                  : Field Name
 LOC.                  : Well Location
 CNTY.                 : County
 STAT.                 : State or Province
 CTRY.                 : Country
 SRVC.                 : Service Company
 DATE.                 : Date
 API.   42109326310000 : Well Identifier

~CURVE INFORMATION
#MNEM.UNIT       API CODE       CURVE DESCRIPTION
#---------       --------       -----------------
 DEPT.ft          : <Measured Depth>
 CAL.in           : Caliper
 DPHI.%           : Density Porosity
 DT.us/ft         : Sonic
 GR.gAPI          : Gamma Ray
 ILD.ohmm         : Deep Resistivity
 ILS.ohmm         : Shallow Resistivity
 RHOB.g/cm3       : Density

~PARAMETER INFORMATION
#MNEM.UNIT       VALUE       DESCRIPTION
#---------       -----       -----------
 EKB.ft      3382 : Elevation above MSL

~A       DEPT         CAL        DPHI          DT          GR         ILD         ILS        RHOB
# ...
        14906      6.1138      5.5788     62.8967    465.9091     18.7006      9.0189      2.6119
      14906.5      6.1138      5.5266      62.898    465.9091     19.6074      9.3164      2.6119
        14907      6.1138      5.4844     63.1482    473.7412     19.6261      9.4987       2.613
      14907.5      6.1138      5.3279     63.3878    488.0952     19.6261      9.5489       2.614
        14908      6.1138      5.4195     63.6407    487.1962     20.1835      9.6443       2.614
      14908.5      6.1138      5.4098     63.9481    481.6509     20.3811       9.747      2.6128
        14909      6.1138      5.4918     64.1224    476.8986          20      9.5242      2.6107
      14909.5      6.1138      5.4918     64.1573    476.8986     19.6209      9.0671      2.6087
        14910      6.1138       5.431     63.9866    488.0606      18.899      8.7273      2.6066
      14910.5      6.1138      5.8915     63.6791    497.2784     19.2723      8.7116      2.6033
        14911      6.1138      6.1641     63.3717    502.2216     20.2083      9.1094      2.5992
      14911.5      6.1138      6.3702     63.0778    502.2216     21.1883      9.5248      2.5963
        14912      6.1138      6.4754     63.1859    488.0952     22.2173      9.9597      2.5942
      14912.5      6.1138      6.5574     63.2946     482.421     23.2947     10.4139      2.5947
        14913      6.1138      6.4543     63.5224    465.9091      24.426     10.8895      2.5967
      14913.5      6.1138      6.2482     63.7283    458.9552     25.6107     11.3861      2.5963
        14914      6.1138      6.2526     63.9258    454.1366     26.0486      11.906      2.5942
      14914.5      6.1138       6.459          64    464.5189     27.1458      12.449      2.5934
        14915      6.1138      6.5316          64    484.0907      29.147     13.0173      2.5921
      14915.5      6.1138      6.3256     63.8216    522.6542     30.7064     13.6111       2.598
        14916      6.1138      5.9556     63.7348    555.6752     27.3352     12.7819      2.6043
      14916.5      6.1138      5.7495      63.667    531.5105     23.5573     10.3077      2.6071
        14917      6.1138      5.6557     63.6622    509.3901     22.1147      9.9824      2.6092
      14917.5      6.1138      5.6557     63.7909    489.0071     21.0909      9.4946      2.6085
        14918      6.1138      5.7377     63.9764    480.4688     20.7694      9.2592      2.6092
      14918.5      6.1138       5.597     64.0867    473.7259     20.3811      9.1895      2.6119
        14919      6.1138      5.3749     64.1506    462.9452     20.3811      8.9783       2.615
      14919.5      6.1138      5.1309     64.1224    452.6093     20.3811      8.9783      2.6174
        14920      6.1138      5.5253          64    445.6522     20.3811      9.0126      2.6195
      14920.5      6.1138      6.1397          64     458.741     20.3811       9.071      2.6066
        14921      6.1138      6.4937     63.8346    482.2185     21.0714      9.1646      2.5956
      14921.5      6.1138       6.721     63.7551    504.0682     21.2757      9.0456      2.5905
        14922      6.1138      6.9271     63.8007       512.5     21.1651      8.8153      2.5879
      14922.5      6.1138      6.8013     64.1082       512.5     20.3811      8.8866      2.5895
        14923      6.1138      6.5952     64.2449    504.0984          20      8.8866      2.5941
      14923.5      6.1138      6.3892     64.4782     487.696          20      8.5891      2.5985
        14924      6.1138      6.2616     64.4539    469.0173          20      8.2003      2.5966
      14924.5      6.1138       6.482     64.1313    465.9091     19.2591      8.0055       2.594
        14925      6.1138      6.6061     63.9463    465.9091      18.899      7.9375      2.5919
      14925.5      6.1138      6.7302     63.8472    473.0769      18.899      7.8274      2.5929
        14926      6.1138      6.6703     63.9339    461.5808      18.899      7.6967       2.595
      14926.5      6.1138      6.4642     64.1189    444.7835     19.0368      7.7761       2.597
        14927      6.1138      6.2582     64.1224     429.186     19.5869      7.8267      2.5975
      14927.5      6.1138       6.243     64.1227    440.8678     19.6261      7.8791      2.5991
        14928      6.1138      6.3115          64    472.1342     19.6261      7.9198      2.5996
      14928.5      6.1138      6.1318     63.7532    497.5329     19.6261      7.9549      2.6012
        14929      6.1138      6.0415     63.5682     498.354          20      8.1753      2.6033
      14929.5      6.1138      6.0475     63.4936    486.4134     20.3811      8.3942      2.6037
        14930      6.1138      5.9016     63.7551    475.0392     20.3811      8.6134      2.6053
      14930.5      6.1138      5.7993     63.8848    480.4688     20.3811      8.7825      2.6074
        14931      6.1138      5.7377     64.0393    494.0986     20.7694      8.8866      2.6095
      14931.5      6.1138      5.9243          64       512.5     20.7694      8.8866      2.6032
        14932      6.1138      6.0656     63.8776    505.8576     20.7694      8.8866         2.6
      14932.5      6.1138      6.2295      63.865    501.6216     20.7694      8.8866      2.5979
        14933      6.1138      6.3115     63.7551    495.9677     20.7694      8.8866      2.5992
      14933.5      6.1138      6.2022      63.717    495.9677     20.7694      8.8866      2.6013
        14934      6.1134      5.9962     63.7551    495.9677     21.1651      8.8866      2.6034
      14934.5      6.1138      5.7901      63.734    493.1283     21.1651      8.8866      2.6054
        14935      6.1138       5.666      63.868    488.0952     21.5683      8.8396      2.6075
      14935.5      6.1138      5.6157     63.8233    477.5955     21.9793      8.7828      2.6078
        14936      6.1138      5.7297     63.7626    465.9091      21.943      8.7264      2.6096
      14936.5      6.1138      5.9358     63.6327    458.9552     21.5683      8.6585      2.6045
        14937      6.1138        6.18     63.6327    452.2059     21.1651      8.5194      2.5983
      14937.5      6.1138      6.4299     63.5893    455.2077     21.1651      8.3556      2.5957
        14938      6.1138       6.636     63.7551    465.6224      21.113      8.3556      2.5937
      14938.5      6.1138      6.4754     64.0287    462.6213     20.5199       8.216      2.5953
        14939      6.1138      6.4754     64.1224    452.2949     19.6261      7.8441      2.5973
      14939.5      6.1138      6.2704     64.1224    452.2059     19.6261      7.7761      2.5994
        14940      6.1138      6.0644     64.2449    458.9552     19.6261      7.7527      2.6014
      14940.5      6.1138      5.9836     64.2449    469.6998     19.6261      7.7029      2.6035
        14941      6.1138      5.9871     64.2449    458.6659     19.6261      7.6967      2.6018
      14941.5      6.1138      6.1932     64.2449    448.5562     19.6261      7.6967      2.6016
        14942      6.1138      6.3934     64.3673    446.1168          20      7.6967      2.5997
      14942.5      6.1138      6.3115     64.4898    445.6522          20      7.6967      2.5996
        14943      6.1138      6.1475     64.6122    452.8736          20      7.7857      2.6015
      14943.5      6.1138      6.1475     64.7768    463.2175     20.3811      7.8868      2.6036
        14944      6.1138      6.0656     64.9618    466.8191      20.873      7.9915      2.6056
      14944.5      6.1138      5.9311      65.102    473.0769     21.5683      8.3889      2.6077
        14945      6.1138      5.6713     65.2094    488.0952      22.098      8.5415      2.6108
      14945.5      6.1138      5.2866     65.5169    488.0952     22.8248       8.904      2.6158
        14946      6.1138       4.985     65.5918    486.6995     22.8248      8.7775       2.623
      14946.5      6.1138      4.7789     65.7143    480.4688     22.8248       8.529      2.6282
