###############################################
##         ENVERUS                           ##
##         ESS - Open Hole                   ##
##         PERMIAN / DELAWARE                ##
##         Nov 02 2023  V4.0                 ##
##         42-109-31375-00-00                ##
###############################################
## Copyright 2017-2023  ENVERUS.  All Rights Reserved. 
## Confidential - Property of ENVERUS, use governed by terms and 
## conditions found within the existing Information Services Subscription Agreement 
## (as may be amended, the “ISSA”) between Customer and ENVERUS. 
## 
~VERSION INFORMATION
# MNEM.UNIT                               DATA : DESCRIPTION OF MNEMONIC
#-----.-----     ----------------------------- : -----------------------------
VERS.                                     2.00 : CWLS LOG ASCII STANDARD - VERSION 2.00
WRAP.                                       NO : MULTIPLE LINES PER DEPTH STEP
VEND.                                  ENVERUS : VENDOR
TYPE.                          ESS - OPEN HOLE : ENVERUS ESSENTIAL CURVES – ACCESSIBLE THROUGH ENVERUS PRISM(TM)
DOC.                                  32006335 : ENVERUS HEADER RAW DOCUMENT ID
#___________________________________________________________________________________________________ 
~WELL INFORMATION 
# Eb7Zbut2Nwqt2ftj1i2q6V2Ye1Joym9Qrd6BFF0aHeZ6Mf1z+VAuEcbs4uVngcAWjTW62nvWGWatc34NWk2mnA== 
# MNEM.UNIT                                              DATA : DESCRIPTION OF MNEMONIC 
#-----.-----                    ----------------------------- : ----------------------------- 
CNTY.                                               CULBERSON : COUNTY 
STATE.                                                  TEXAS : STATE 
CNTRY.                                                    USA : COUNTRY 
API.                                             42-109-31375 : API (10 Digit) 
API_14.                                    42-109-31375-00-00 : API (14 Digits) 
API_14_std.                                 42-109-31375-0000 : API (14 Digits Standard) 
UWI.                                           42109313750000 : UNIQUE WELL ID 
WELL.                                      7806 JV-P DUVAL  1 : WELL NAME
STRT.FT                                                     0 : START DEPTH
STOP.FT                                               15739.0 : STOP DEPTH
STEP.FT                                                   0.5 : STEP BETWEEN DEPTHS
NULL.                                                 -999.25 : NULL VALUE
COMP.                                  BTA OIL PRODUCERS  LLC : COMPANY 
DATE.                                             26-MAY-1978 : LOG DATE
#___________________________________________________________________________________________________ 
~CURVE INFORMATION 
# MNEM.UNIT           : CURVE DESCRIPTION 
#-----.-----          : ----------------------------- 
 DEPT.FT               : MEASURED DEPTH 
 CALI.IN               : CALIPER (CAL - CAL) 
 GR.API                : GAMMA RAY (GR) 
 DT.US/FT              : SONIC DELTA TRANSIT TIME (DT) 
 #___________________________________________________________________________________________________ 
~A         DEPT           CALI             GR             DT
# ...
         5874.0         12.583         84.135         63.554
         5874.5         12.583         89.999         65.177
         5875.0         12.583         96.057         65.842
         5875.5         12.583         94.211         65.264
         5876.0         12.583         92.366         64.686
         5876.5         12.583         90.520         64.108
         5877.0         12.583         87.317         63.530
         5877.5         12.600         81.763         62.952
         5878.0         12.627         75.510         62.416
         5878.5         12.645         67.415         61.913
         5879.0         12.649         59.320         61.411
         5879.5         12.654         55.043         60.909
         5880.0         12.658         53.745         59.910
         5880.5         12.663         52.448         58.882
         5881.0         12.668         51.151         57.855
         5881.5         12.672         48.565         56.828
         5882.0         12.677         44.390         55.800
         5882.5         12.682         40.216         54.773
         5883.0         12.686         36.738         54.247
         5883.5         12.691         36.469         56.364
         5884.0         12.696         36.200         58.481
         5884.5         12.700         35.931         60.577
         5885.0         12.705         43.621         62.670
         5885.5         12.709         52.266         64.763
         5886.0         12.714         60.911         64.634
         5886.5         12.719         62.720         63.886
         5887.0         12.723         59.191         63.138
         5887.5         12.728         55.662         62.389
         5888.0         12.733         46.421         62.770
         5888.5         12.737         42.753         63.608
         5889.0         12.747         39.086         64.446
         5889.5         12.756         35.419         65.056
         5890.0         12.765         32.334         65.490
         5890.5         12.775         33.161         65.924
         5891.0         12.784         33.987         66.357
         5891.5         12.793         34.814         66.791
         5892.0         12.803         35.337         67.225
         5892.5         12.812         35.270         67.659
         5893.0         12.821         35.203         67.112
         5893.5         12.831         35.970         66.335
         5894.0         12.840         36.738         65.558
         5894.5         12.850         36.811         64.782
         5895.0         12.861         36.855         64.005
         5895.5         12.872         36.899         63.787
         5896.0         12.882         39.398         64.475
         5896.5         12.893         44.872         65.164
         5897.0         12.904         50.251         65.671
         5897.5         12.914         55.509         65.580
         5898.0         12.925         60.768         65.490
         5898.5         12.936         66.027         65.399
         5899.0         12.903         71.285         65.308
         5899.5         12.835         73.826         65.104
         5900.0         12.807         69.599         64.857
         5900.5         12.805         65.372         64.609
         5901.0         12.803         64.197         64.362
         5901.5         12.801         63.322         64.114
         5902.0         12.800         62.446         64.236
         5902.5         12.798         63.708         64.477
         5903.0         12.796         65.962         64.719
         5903.5         12.786         68.216         64.627
         5904.0         12.775         69.412         64.312
         5904.5         12.763         66.467         63.996
         5905.0         12.752         63.523         63.025
         5905.5         12.741         60.578         61.217
         5906.0         12.730         56.598         59.409
         5906.5         12.728         52.567         57.600
         5907.0         12.740         44.733         56.868
         5907.5         12.751         34.825         58.072
         5908.0         12.762         36.898         59.276
         5908.5         12.773         38.971         60.480
         5909.0         12.784         41.044         61.684
         5909.5         12.795         39.995         62.888
         5910.0         12.792         36.641         64.121
         5910.5         12.790         33.286         65.224
         5911.0         12.787         34.501         65.549
         5911.5         12.784         36.168         65.874
         5912.0         12.782         37.836         65.822
         5912.5         12.779         41.779         65.336
         5913.0         12.776         46.640         65.405
         5913.5         12.773         51.501         65.763
         5914.0         12.771         49.840         66.121
         5914.5         12.768         46.948         66.479
         5915.0         12.765         43.996         66.837
         5915.5         12.762         40.771         67.195
         5916.0         12.760         37.546         67.552
         5916.5         12.757         34.321         67.719
         5917.0         12.754         33.814         67.654
         5917.5         12.752         34.891         67.589
         5918.0         12.749         35.967         67.524
         5918.5         12.744         38.649         66.657
         5919.0         12.723         52.095         65.640
         5919.5         12.698         75.179         64.623
         5920.0         12.667         76.401         64.348
         5920.5         12.650         77.622         64.431
         5921.0         12.649         78.844         64.514
         5921.5         12.648         80.619         64.597
         5922.0         12.647         85.424         64.679
         5922.5         12.647         81.822         64.353
         5923.0         12.646         74.916         63.863
         5923.5         12.645         68.011         63.373
         5924.0         12.644         64.918         62.883
         5924.5         12.643         63.317         62.651
         5925.0         12.642         61.716         62.559
         5925.5         12.642         60.373         62.466
         5926.0         12.641         59.104         62.186
         5926.5         12.640         60.484         61.778
         5927.0         12.639         65.534         61.804
         5927.5         12.638         70.937         61.830
         5928.0         12.638         76.341         61.856
         5928.5         12.638         71.587         61.882
         5929.0         12.638         66.683         62.111
         5929.5         12.638         61.779         62.462
         5930.0         12.638         57.582         62.812
         5930.5         12.638         58.862         63.162
         5931.0         12.638         60.142         63.513
         5931.5         12.638         59.994         63.863
         5932.0         12.638         59.458         63.820
         5932.5         12.641         58.922         63.660
         5933.0         12.649         58.386         63.501
         5933.5         12.657         57.502         63.341
         5934.0         12.665         56.610         63.181
         5934.5         12.673         55.719         63.022
         5935.0         12.682         54.315         62.876
         5935.5         12.676         52.307         62.732
         5936.0         12.659         50.300         62.587
         5936.5         12.641         48.292         62.443
         5937.0         12.624         46.285         61.596
         5937.5         12.606         44.277         60.619
         5938.0         12.589         42.270         59.641
         5938.5         12.577         40.262         58.663
         5939.0         12.577         41.449         57.685
         5939.5         12.577         43.430         60.636
