~VERSION INFORMATION
VERS. 2.0 : CWLS Log ASCII Standard - Version 2.0
WRAP. NO : One line per depth step
#--------------------------------------------------#
#----------------DRILLING INFO, INC.---------------#
#---------------WWW.DRILLINGINFO.COM---------------#
#------------------COPYRIGHT 2015------------------#
#--------------------------------------------------#
#THIS FILE MAY BE USED ONLY IN ACCORDANCE WITH A CURRENT SUBSCRIPTION AGREEMENT BETWEEN
#THE USER AND DRILLING INFO, INC. NO PART OF THIS FILE MAY BE REPRODUCED, USED, COPIED,
#MODIFIED, PROPAGATED, OR DISTRIBUTED EXCEPT IN ACCORDANCE WITH THE SUBSCRIPTION
#AGREEMENT. UNAUTHORIZED USE OR DISTRIBUTION OF ALL OR ANY PART OF THIS FILE MAY VIOLATE
#COPYRIGHT, TRADEMARK, AND/OR OTHER LAWS AND IS SUBJECT TO CIVIL AS WELL AS CRIMINAL
#SANCTIONS.
#--------------------------------------------------#
#THIS FILE IS PROVIDED "AS-IS" AND ALL WARRANTIES ARE EXPRESSLY DISCLAIMED, WHETHER
#EXPRESS, ORAL, IMPLIED, STATUTORY OR OTHERWISE, INCLUDING ANY IMPLIED WARRANTY OF FITNESS
#FOR A PARTICULAR PURPOSE, MERCHANTABILITY, TITLE OR NON-INFRINGEMENT, AND ANY WARRANTIES
#ARISING BY VIRTUE OF CUSTOM OF TRADE OR COURSE OF DEALING.  FURTHER, DRILLING INFO,
#INC. AND ITS LICENSORS DO NOT REPRESENT OR WARRANT THAT THIS FILE WILL MEET USER'S
#REQUIREMENTS OR ARE SUITABLE FOR USER'S NEEDS OR THAT THE DATA OR RESULTS PROVIDED IN
#CONJUNCTION THEREWITH ARE CORRECT, ACCURATE, TIMELY OR RELIABLE. THESE DISCLAIMERS SHALL
#APPLY REGARDLESS OF ANY FAILURE OF ESSENTIAL PURPOSE OF ANY LIMITED REMEDY.  SOME
#JURISDICTIONS DO NOT ALLOW THE EXCLUSION OF CERTAIN WARRANTIES SO SOME OF THE ABOVE
#EXCLUSIONS MAY NOT APPLY. IN NO EVENT SHALL DRILLING INFO, INC. OR ANY OF ITS AFFILIATES
#BE LIABLE UNDER ANY LEGAL THEORY, WHETHER IN TORT (INCLUDING WITHOUT LIMITATION
#NEGLIGENCE), CONTRACT, STRICT LIABILITY, STATUTORY OR OTHERWISE, FOR ANY SPECIAL,
#INCIDENTAL, CONSEQUENTIAL, EXEMPLARY, PUNITIVE OR INDIRECT DAMAGE OF ANY KIND, INCLUDING
#WITHOUT LIMITATION LOSS OF REVENUE, PROFITS, GOODWILL, USE, AND/OR DATA OR THE COST OF
#PROCUREMENT OF SUBSTITUTE GOODS OR SERVICES, EVEN IF APPRISED OF THE POSSIBILITY OF SUCH
#DAMAGES IN ADVANCE.
#--------------------------------------------------#
~WELL INFORMATION
#MNEMONIC     .UNIT              VALUE :DESCRIPTION
#--------------------------------------------------#
STRT       .ft                52.00000 :START DEPTH
STOP       .ft                8797.00000 :STOP DEPTH
STEP       .ft                0.50000 :STEP
NULL       .                -999.25000 :NULL VALUE
COMP       .                 :COMPANY
WELL       .                 :WELL
FLD       .                 :FIELD
LOC       .                 :LOCATION
CNTY       .                 :COUNTY
STAT       .                 :STATE
CTRY       .                 :COUNTRY
SRVC       .                 :SERVICE COMPANY
DATE       .                 :DATE
API       .                42109700290000 :API NUMBER
~CURVE INFORMATION
#MNEMONIC     .UNIT      API CODE :CURVE DESCRIPTION
#--------------------------------------------------#
DEPTH       .ft                      :Measured Depth
DT       .us/ft        UNKNOWN   :DT
GR       .gAPI        UNKNOWN   :GR
ILD       .ohmm        UNKNOWN   :ILD
ILS       .ohmm        UNKNOWN   :ILS
SP       .mV        UNKNOWN   :SP
~A    DEPTH    DT    GR    ILD    ILS    SP
# ...
1341.50000    57.06554    38.59334    205.58342    287.91411    97.22259
1342.00000    56.34887    37.66679    203.91398    286.30460    96.93501
1342.50000    55.63219    39.40753    199.19709    284.69510    96.69285
1343.00000    55.06776    41.14827    194.48019    283.08559    96.45070
1343.50000    54.90039    42.88900    189.76330    281.47609    96.20855
1344.00000    56.07419    44.62974    192.90330    279.86658    95.96639
1344.50000    57.51934    46.37048    199.95558    278.25708    95.72424
1345.00000    58.96448    48.11122    207.00787    276.64757    95.48208
1345.50000    60.05533    49.60617    214.06015    275.03806    95.23993
1346.00000    60.69567    48.53260    218.87264    273.42856    94.99778
1346.50000    60.88045    47.45902    213.89168    271.81905    94.75562
1347.00000    60.25897    46.18097    208.91071    270.20955    94.51347
1347.50000    58.86984    44.44293    203.92974    268.60004    94.27132
1348.00000    56.74750    42.70488    198.94877    266.99053    94.02916
1348.50000    54.81669    40.96683    193.96780    265.38103    93.78701
1349.00000    55.90150    40.76440    188.98684    264.62467    93.54485
1349.50000    56.98631    41.83968    184.00587    264.11589    93.30270
1350.00000    57.25553    42.91496    179.02490    263.60712    93.06055
1350.50000    57.41810    43.99023    214.03581    263.09834    92.81839
1351.00000    57.58067    42.98285    209.99015    262.58956    92.57624
1351.50000    58.55632    40.45789    205.94449    262.08078    92.44804
1352.00000    58.12474    40.08300    201.89882    261.57200    92.45113
1352.50000    57.36843    40.79416    197.85316    261.06323    92.45422
1353.00000    56.61211    41.50532    193.80750    260.55445    92.45732
1353.50000    56.85711    42.21648    189.76183    260.04567    92.46041
1354.00000    56.86649    40.51563    192.59221    259.53689    92.46350
1354.50000    56.18621    37.59575    198.34522    257.81221    92.46659
1355.00000    55.38958    34.67587    204.09823    254.87185    92.46969
1355.50000    54.59296    31.75599    203.39188    251.93149    92.47278
1356.00000    53.79634    28.83610    196.11414    248.99113    92.47587
1356.50000    52.99971    28.88352    188.83640    246.05077    92.47897
1357.00000    52.54582    29.47954    181.55867    243.11040    92.48206
1357.50000    53.74446    30.07556    174.28093    240.17004    92.38458
1358.00000    52.94832    30.67158    167.00319    237.22968    91.90393
1358.50000    52.15218    31.26760    159.72545    234.28932    91.42328
1359.00000    52.65413    31.86363    152.44771    231.34896    90.94263
1359.50000    53.54084    32.85168    145.16998    228.40860    90.46198
1360.00000    54.30021    35.87093    137.89224    225.46824    89.98133
1360.50000    54.02861    38.89019    140.31527    222.52788    89.50068
1361.00000    53.75701    41.90944    145.54686    219.58751    89.02003
1361.50000    53.48541    41.42732    150.77845    216.64715    88.53938
1362.00000    55.50416    42.32761    156.01004    217.44981    88.05872
1362.50000    57.10189    43.69743    161.24163    218.62980    87.57807
1363.00000    57.46093    45.06725    166.47322    219.80979    87.09742
1363.50000    58.81911    46.43707    171.70481    220.98977    86.61677
1364.00000    59.87101    45.84854    172.84468    222.16976    86.13612
1364.50000    59.99352    46.83942    172.40914    223.34974    85.65547
1365.00000    60.11602    49.54989    171.97360    224.52973    85.17482
1365.50000    60.79529    52.26036    171.53806    225.70971    84.69417
1366.00000    62.71737    54.97084    171.10251    226.88970    84.21352
1366.50000    64.63944    57.68131    170.66697    228.06968    84.10282
1367.00000    64.66561    60.39178    182.04516    229.24967    84.10593
1367.50000    64.58777    63.10226    194.28766    230.42965    84.10905
1368.00000    64.50993    62.67764    191.25645    231.60964    84.11217
1368.50000    64.49472    60.86531    188.22523    232.78962    84.11528
1369.00000    65.37933    63.56204    186.74051    233.96961    84.11840
1369.50000    66.26394    67.31199    187.33919    235.14959    84.12152
1370.00000    65.93318    71.06194    187.93787    235.74509    84.12463
1370.50000    65.53028    59.98395    188.53655    234.12943    84.12775
1371.00000    65.12738    47.09007    189.13523    232.51378    84.13087
1371.50000    57.40535    34.19619    183.74606    230.89812    84.13398
1372.00000    56.79624    29.94850    177.83436    229.28247    84.13710
1372.50000    55.94087    28.12390    171.92266    227.66681    84.14021
1373.00000    55.06652    26.29930    166.01096    226.05116    84.14333
1373.50000    54.19216    24.47470    160.09925    224.43550    84.14645
1374.00000    53.31780    22.65010    154.18755    222.81985    84.21053
1374.50000    53.80256    21.46789    148.27585    221.20419    84.42896
1375.00000    54.70871    23.43252    142.36414    219.58854    84.64738
1375.50000    56.06912    25.39715    140.46772    218.85054    84.86581
1376.00000    57.42954    27.36178    142.52771    220.32407    85.08424
1376.50000    58.78996    29.32641    144.58769    221.79759    85.30266
1377.00000    60.15038    30.85165    146.64767    223.27112    85.52109
1377.50000    59.56757    31.69345    148.70766    224.74464    85.73951
1378.00000    58.58085    32.53526    150.76764    226.21817    85.95794
1378.50000    57.67235    33.37707    152.82762    227.69169    86.17636
1379.00000    57.28866    38.36100    154.88761    229.16522    86.39479
1379.50000    56.90497    44.11956    153.41961    230.63874    86.61321
1380.00000    56.52128    43.95738    150.99602    232.11227    86.83164
1380.50000    57.85751    42.47133    148.57242    233.58579    87.05006
1381.00000    59.34425    40.98528    146.14882    235.05932    87.26849
1381.50000    58.54985    42.13192    143.72522    236.53284    87.48691
1382.00000    57.75545    45.31443    141.30163    238.00637    87.70534
1382.50000    57.26749    48.40118    142.55936    239.47989    87.92377
1383.00000    57.34948    45.78526    151.20944    240.95342    88.14219
1383.50000    56.25705    43.26517    159.85952    242.42694    88.36061
1384.00000    54.99177    41.49025    168.50960    243.90047    88.57904
1384.50000    54.22911    39.71532    177.15968    245.37399    88.79747
1385.00000    53.71194    22.71183    185.80976    246.84752    89.01589
1385.50000    52.92571    23.42243    194.45984    248.32105    89.23432
1386.00000    51.59929    24.13302    189.89727    249.79457    89.45274
1386.50000    50.75094    24.84362    184.50530    251.26810    89.47687
1387.00000    52.77165    25.60053    179.11332    252.74162    89.44969
1387.50000    54.79236    31.51515    174.27345    252.06306    89.42250
1388.00000    56.81307    37.42977    178.90049    250.44751    89.39532
1388.50000    58.44471    43.34439    183.52754    248.83197    89.36814
1389.00000    59.79348    41.84813    188.15458    247.21643    89.34096
1389.50000    58.38619    38.04180    192.78163    245.60088    89.31378
1390.00000    56.73534    34.23547    197.40867    243.33734    89.28660
1390.50000    56.15085    33.24435    190.60696    238.95177    89.25942
1391.00000    57.52135    37.21173    182.89178    234.56619    89.23224
1391.50000    58.89184    41.17911    175.17661    230.18062    89.20506
1392.00000    60.26234    47.35560    167.46143    225.79504    89.17788
1392.50000    61.63284    56.55542    159.74625    221.40947    89.15070
1393.00000    62.37652    58.43781    152.03108    217.02389    89.12352
1393.50000    62.01930    53.15156    144.31590    212.63832    89.09634
1394.00000    61.66208    47.86530    140.73869    208.25275    89.06916
1394.50000    61.30485    47.23532    138.25395    203.86717    89.04198
1395.00000    60.94763    51.41500    135.76922    199.48160    88.85785
1395.50000    62.33228    55.59468    133.28449    195.09602    88.40751
1396.00000    63.81741    56.35954    130.79976    190.71045    87.95717
