###############################################
##         ENVERUS                           ##
##         ESS - Open Hole                   ##
##         PERMIAN / DELAWARE                ##
##         Nov 02 2023  V4.0                 ##
##         42-109-10071-00-00                ##
###############################################
## Copyright 2017-2023  ENVERUS.  All Rights Reserved. 
## Confidential - Property of ENVERUS, use governed by terms and 
## conditions found within the existing Information Services Subscription Agreement 
## (as may be amended, the “ISSA”) between Customer and ENVERUS. 
## 
~VERSION INFORMATION
# MNEM.UNIT                               DATA : DESCRIPTION OF MNEMONIC
#-----.-----     ----------------------------- : -----------------------------
VERS.                                     2.00 : CWLS LOG ASCII STANDARD - VERSION 2.00
WRAP.                                       NO : MULTIPLE LINES PER DEPTH STEP
VEND.                                  ENVERUS : VENDOR
TYPE.                          ESS - OPEN HOLE : ENVERUS ESSENTIAL CURVES – ACCESSIBLE THROUGH ENVERUS PRISM(TM)
DOC.                                  31950413 : ENVERUS HEADER RAW DOCUMENT ID
#___________________________________________________________________________________________________ 
~WELL INFORMATION 
# OfUh2+mdeFjroaXzMJDg/lRWUsinBwpBr+LWp9Jgnw936lSgPWOOCrYxw0Bz1A8ekYSC2IJg55FhS+cGr4hs3w== 
# MNEM.UNIT                                              DATA : DESCRIPTION OF MNEMONIC 
#-----.-----                    ----------------------------- : ----------------------------- 
CNTY.                                               CULBERSON : COUNTY 
STATE.                                                  TEXAS : STATE 
CNTRY.                                                    USA : COUNTRY 
API.                                             42-109-10071 : API (10 Digit) 
API_14.                                    42-109-10071-00-00 : API (14 Digits) 
API_14_std.                                 42-109-10071-0000 : API (14 Digits Standard) 
UWI.                                           42109100710000 : UNIQUE WELL ID 
WELL.                                                  DRD_55 : WELL NAME
STRT.FT                                                 320.5 : START DEPTH
STOP.FT                                               12359.5 : STOP DEPTH
STEP.FT                                                   0.5 : STEP BETWEEN DEPTHS
NULL.                                                 -999.25 : NULL VALUE
#___________________________________________________________________________________________________ 
~PARAMETER INFORMATION 
# MNEM.UNIT                                              DATA : DESCRIPTION OF MNEMONIC 
#-----.-----                    ----------------------------- : -----------------------------
#___________________________________________________________________________________________________ 
~CURVE INFORMATION 
# MNEM.UNIT           : CURVE DESCRIPTION 
#-----.-----          : ----------------------------- 
 DEPT.FT               : MEASURED DEPTH 
 GR.API                : GAMMA RAY (GAMMA RAY) 
 DT.US/FT              : SONIC DELTA TRANSIT TIME (SONIC) 
 #___________________________________________________________________________________________________ 
~A         DEPT             GR             DT
# ...
         8237.5         84.856         62.681
         8238.0         83.991         61.735
         8238.5         81.467         60.263
         8239.0         77.261         59.455
         8239.5         67.956         58.525
         8240.0         65.963         59.686
         8240.5         68.636         59.877
         8241.0         73.713         61.276
         8241.5         83.818         62.814
         8242.0         83.427         63.329
         8242.5         67.067         63.573
         8243.0         59.482         63.062
         8243.5         58.747         62.002
         8244.0         59.193         59.907
         8244.5         60.809         58.611
         8245.0         68.848         59.243
         8245.5         71.731         61.289
         8246.0         74.807         63.334
         8246.5         83.686         64.899
         8247.0         84.856         65.729
         8247.5         84.846         66.555
         8248.0         83.602         63.604
         8248.5         69.702         60.653
         8249.0         54.767         57.702
         8249.5         50.516         54.735
         8250.0         50.640         53.123
         8250.5         56.337         53.701
         8251.0         59.628         54.690
         8251.5         68.313         56.629
         8252.0         70.713         59.027
         8252.5         81.718         61.424
         8253.0         86.560         62.893
         8253.5         86.291         62.613
         8254.0         68.103         61.578
         8254.5         60.480         61.422
         8255.0         60.842         61.856
         8255.5         62.923         61.804
         8256.0         71.349         63.541
         8256.5         74.821         65.832
         8257.0         78.731         67.943
         8257.5         86.603         67.573
         8258.0         93.700         66.574
         8258.5         89.554         66.054
         8259.0         81.125         62.418
         8259.5         75.342         57.482
         8260.0         69.965         56.185
         8260.5         78.813         57.157
         8261.0         87.508         58.989
         8261.5         96.777         60.397
         8262.0        106.342         62.087
         8262.5        107.477         63.564
         8263.0        102.330         65.401
         8263.5        102.022         65.074
         8264.0        106.732         64.649
         8264.5        113.263         65.403
         8265.0        114.639         66.152
         8265.5        114.367         66.036
         8266.0        110.976         64.810
         8266.5        101.895         63.772
         8267.0         93.730         62.081
         8267.5         90.135         60.433
         8268.0         88.700         61.055
         8268.5         88.457         60.400
         8269.0         93.360         60.758
         8269.5         99.010         63.204
         8270.0       -999.250         63.097
         8270.5        100.744         64.719
         8271.0        103.033         65.663
         8271.5        111.082         64.753
         8272.0        106.962         64.212
         8272.5        105.407         65.079
         8273.0        105.663         66.596
         8273.5        115.822         70.861
         8274.0        128.131         75.126
         8274.5        138.026         79.391
         8275.0        138.743         81.922
         8275.5        134.138         83.950
         8276.0        130.123         83.166
         8276.5        124.457         82.149
         8277.0        120.676         81.222
         8277.5        108.449         77.869
         8278.0         96.053         74.515
         8278.5         88.998         72.962
         8279.0         76.772         72.248
         8279.5         67.198         70.639
         8280.0         66.963         61.794
         8280.5         69.167         60.135
         8281.0         69.071         59.139
         8281.5         65.686         56.876
         8282.0         68.742         55.629
         8282.5         76.713         58.436
         8283.0         84.685         69.559
         8283.5         87.301         65.046
         8284.0         87.867         65.356
         8284.5         89.963         67.056
         8285.0         87.830         67.143
         8285.5         83.272         65.182
         8286.0         74.285         64.378
         8286.5         70.346         64.026
         8287.0         73.964         64.710
         8287.5         76.583         65.153
         8288.0         73.757         67.240
         8288.5         70.620         69.212
         8289.0         67.667         69.309
         8289.5         68.222         68.051
         8290.0         71.574         66.579
         8290.5         70.448         65.107
         8291.0         64.055         63.635
         8291.5         59.651         62.913
         8292.0         60.418         62.400
         8292.5         64.585         61.985
         8293.0         66.269         62.919
         8293.5         65.838         65.794
         8294.0         61.966         63.576
         8294.5         59.886         64.680
         8295.0         60.052         66.525
         8295.5         64.593         63.430
         8296.0         54.939         60.283
         8296.5         51.751         57.842
         8297.0         49.890         56.708
         8297.5         53.085         56.185
         8298.0         61.276         56.621
         8298.5         62.634         56.863
         8299.0         58.379         56.470
         8299.5         56.183         55.817
         8300.0         47.803         55.168
         8300.5         44.834         54.621
         8301.0         47.536         54.555
         8301.5         55.670         54.828
         8302.0         57.530         57.614
         8302.5         59.752         60.325
         8303.0         68.901         63.037
         8303.5         71.654         64.675
         8304.0         72.128         65.360
         8304.5         72.024         65.526
         8305.0         71.086         65.414
         8305.5         67.978         64.996
         8306.0         65.408         65.211
         8306.5         67.865         65.586
         8307.0         66.507         65.983
         8307.5         64.334         66.009
         8308.0         70.577         65.544
         8308.5         67.386         65.008
         8309.0         69.961         64.566
         8309.5         70.942         64.626
         8310.0         69.984         64.976
         8310.5         66.465         65.171
         8311.0         68.793         64.623
         8311.5         64.856         64.980
         8312.0         65.213         65.539
         8312.5         68.830         65.840
         8313.0         72.206         66.603
         8313.5         74.225         67.674
         8314.0         74.635         68.744
         8314.5         71.962         69.278
         8315.0         68.071         69.209
         8315.5         64.810         68.428
         8316.0         66.559         66.646
         8316.5         68.046         64.776
         8317.0         69.046         64.502
         8317.5         69.843         64.144
         8318.0         70.170         64.052
         8318.5         69.843         64.499
         8319.0         66.489         64.332
         8319.5         59.227         62.766
         8320.0         56.692         61.533
         8320.5         55.898         61.408
         8321.0         56.469         61.500
         8321.5         54.184         60.817
         8322.0         54.017         60.942
         8322.5         54.242         62.584
         8323.0         58.449         63.802
         8323.5         63.249         61.856
         8324.0         56.498         59.910
