~Version Information
 VERS.                  2.0:   CWLS log ASCII Standard -VERSION 2.0
 WRAP.                   NO:   One line per depth step
~Well Information Block
#MNEM.UNIT     VALUE/NAME     DESCRIPTION
#---------     -----------    ---------------------------
 STRT.F              8432.0000: START DEPTH
 STOP.F             13842.0000: STOP DEPTH
 STEP.F                 0.5000: STEP DEPTH
 NULL.                 -999.25: NULL VALUE
 LOC .     100' FNL & 990' FEL:  LOCATION
 FL6 .       API  42-109-33163:  LOCATIONLINE6
 FL4 .           ABSTRACT 1006:  LOCATIONLINE4
 FL3 .        T&P RR CO SURVEY:  LOCATIONLINE3
 FL2 .     SECTION 36, BLOCK 59 T2:  LOCATIONLINE2
 FL1 .     100' FNL & 990' FEL:  LOCATIONLINE1
 DMF .                      KB:  DRILL MEAS FROM
 PDAT.                      GL:  PERMANENT DATUM
 CNTY.               CULBERSON:  COUNTY NAME
 FLD .     FORD, WEST (WOLFCAMP):  FIELD NAME
 WELL.         SCOTT FEE 36 2H:  WELL NAME
 COMP.     CAPITAN ENERGY INC.:  COMPANY
 DATE.             11-Oct-2017:  DATE
 SVCO.             Halliburton:  SERVICECONAME
 PROV.                   TEXAS:  PROVINCE
 STAT.                   TEXAS:  STATE NAME
 CTRY.           UNITED STATES:  COUNTRY NAME
 HIDE.                        :  WELLNAMEOPERAT
 BASI.                 PERMIAN:  BASIN
 UWI .            42-109-33163Lat:  UNIQUE WELL IDENTIFIER
 API .            42-109-33163Lat:  API NUMBER
 RANG.                     N/A:  RANGE
 TOWN.                     N/A:  TOWNSHIP
 SECT.                     N/A:  SECTION
 SON .               904352259:  JOB NUMBER
 SRVC.             Halliburton:  SERVICE COMPANY
 LMF .                      KB:  LOG MEASURED FROM
 EGL .ft             3174.0000:  GROUND ELEVATION
 BAP .ft                0.0000:  GL ELEV ONSHORE
 GVFD.g                 1.0000:  GRAVITY FIELD
 EKB .ft             3200.0000:  KB ELEVATION
 EDF .ft             3199.0000:  DF ELEVATION
~Curve Information Block
#MNEM.UNIT                 API CODE     Curve Description
#---------               -----------    ---------------------------
 DEPT.F                 00 000 000 000:  Depth
 CCL .V                 00 000 000 000:  Casing Collar Locator
 NPHI_OH.pu             00 000 000 000:  NPHI_OH
 NPHI_CHI.pu            00 000 000 000:  NPHI_CHI
 GR_CHI.api             00 000 000 000:  GR_CHI
 GR_OH.api              00 000 000 000:  GR_OH
 RHOB_OH.g/cc           00 000 000 000:  RHOB_OH
 RHOB_CHI.g/cc          00 000 000 000:  RHOB_CHI
 PE_CHI.b/e             00 000 000 000:  PE_CHI
 PE_OH.b/e              00 000 000 000:  PE_OH
 MSFL_OH.ohmm           00 000 000 000:  MSFL_OH
 MSFL_CHI.ohmm          00 000 000 000:  MSFL_CHI
 LLS_OH.ohmm            00 000 000 000:  LLS_OH
 LLS_CHI.ohmm           00 000 000 000:  LLS_CHI
 LLD_OH.ohmm            00 000 000 000:  LLD_OH
 LLD_CHI.ohmm           00 000 000 000:  LLD_CHI
 DTC_OH.uspf            00 000 000 000:  DTC_OH
 DTC_CHI.uspf           00 000 000 000:  DTC_CHI
 SPHI_CHI.pu            00 000 000 000:  SPHI_CHI
 SGF .cu                00 000 000 000:  Formation Sigma
 CRNF.NONE              00 000 000 000:  CM GrsCaptRatio
 RIN .NONE              00 000 000 000:  CM GrsInelRatio
~A    DEPT      CCL   NPHI_OH NPHI_CHI  GR_CHI   GR_OH   RHOB_OH RHOB_CHI PE_CHI  PE_OH   MSFL_OH  MSFL_CHI  LLS_OH   LLS_CHI   LLD_OH  LLD_CHI  DTC_OH  DTC_CHI SPHI_CHI   SGF    CRNF   RIN   
# ...
   13115.0000  0.0000 -999.25  15.7199 123.1955  -999.25 -999.25   2.5072 3.1803 -999.25   -999.25  39.7664   -999.25  48.1508  -999.25  48.6610 -999.25 71.4820  16.9700 23.5424 1.0074 1.0532
   13115.5000  0.0000 -999.25  15.6132 114.4740  -999.25 -999.25   2.5159 3.2325 -999.25   -999.25  40.0333   -999.25  48.5189  -999.25  49.0355 -999.25 70.9497  16.6300 23.6567 1.0178 1.0539
   13116.0000  0.0000 -999.25  15.3998 102.4104  -999.25 -999.25   2.5290 3.3016 -999.25   -999.25  39.6547   -999.25  47.9969  -999.25  48.5044 -999.25 70.3300  16.2100 23.5243 1.0199 1.0506
   13116.5000  0.0000 -999.25  15.4556 103.0515  -999.25 -999.25   2.5280 3.2975 -999.25   -999.25  39.2771   -999.25  47.4768  -999.25  47.9754 -999.25 70.5544  16.1900 23.3039 1.0127 1.0463
   13117.0000  0.0000 -999.25  15.6414 109.0661  -999.25 -999.25   2.5215 3.2716 -999.25   -999.25  39.7148   -999.25  48.0798  -999.25  48.5887 -999.25 71.1426  16.5200 22.8281 1.0028 1.0423
   13117.5000  0.0000 -999.25  15.7668 114.9502  -999.25 -999.25   2.5155 3.2453 -999.25   -999.25  40.4543   -999.25  49.1004  -999.25  49.6272 -999.25 71.5496  16.8500 22.6861 0.9887 1.0427
   13118.0000  0.0000 -999.25  15.6453 108.7445  -999.25 -999.25   2.5234 3.2952 -999.25   -999.25  42.0981   -999.25  51.3782  -999.25  51.9453 -999.25 71.0133  16.6700 22.7290 0.9824 1.0488
   13118.5000  0.0000 -999.25  15.6191 108.2520  -999.25 -999.25   2.5238 3.2918 -999.25   -999.25  42.6015   -999.25  52.0783  -999.25  52.6578 -999.25 70.7731  16.4400 22.9442 0.9780 1.0573
   13119.0000  0.0000 -999.25  15.6387 112.6505  -999.25 -999.25   2.5189 3.2584 -999.25   -999.25  42.4488   -999.25  51.8658  -999.25  52.4415 -999.25 70.7756  16.3900 23.3968 0.9854 1.0630
   13119.5000  0.0000 -999.25  15.5399 109.5893  -999.25 -999.25   2.5219 3.2674 -999.25   -999.25  41.6909   -999.25  50.8129  -999.25  51.3698 -999.25 70.4565  16.2300 23.8476 0.9983 1.0640
   13120.0000  0.0000 -999.25  15.5274 111.7966  -999.25 -999.25   2.5187 3.2409 -999.25   -999.25  40.1410   -999.25  48.6676  -999.25  49.1868 -999.25 70.5241  16.2000 24.3068 1.0167 1.0616
   13120.5000  0.0000 -999.25  15.4788 107.5291  -999.25 -999.25   2.5221 3.2496 -999.25   -999.25  38.6545   -999.25  46.6208  -999.25  47.1046 -999.25 70.3977  16.1500 24.7448 1.0398 1.0586
   13121.0000  0.0000 -999.25  15.4775 101.9257  -999.25 -999.25   2.5259 3.2546 -999.25   -999.25  37.1968   -999.25  44.6245  -999.25  45.0743 -999.25 70.2696  16.0600 24.9690 1.0673 1.0626
   13121.5000  0.1387 -999.25  15.6308 102.0721  -999.25 -999.25   2.5233 3.2305 -999.25   -999.25  35.8578   -999.25  42.7999  -999.25  43.2193 -999.25 70.6323  16.2100 25.4182 1.0955 1.0646
   13122.0000  0.0000 -999.25  15.7335  98.7113  -999.25 -999.25   2.5251 3.2325 -999.25   -999.25  35.1911   -999.25  41.8951  -999.25  42.2995 -999.25 70.8633  16.4000 25.1614 1.0988 1.0661
   13122.5000  0.0000 -999.25  15.8805  98.1081  -999.25 -999.25   2.5238 3.2216 -999.25   -999.25  33.8924   -999.25  40.1393  -999.25  40.5152 -999.25 71.3955  16.7200 24.7789 1.0872 1.0601
   13123.0000  0.0000 -999.25  16.1947 105.0633  -999.25 -999.25   2.5155 3.1928 -999.25   -999.25  34.6289   -999.25  41.1339  -999.25  41.5258 -999.25 72.4403  17.3500 24.1429 1.0540 1.0542
   13123.5000  0.1240 -999.25  16.3398 112.6685  -999.25 -999.25   2.5087 3.1685 -999.25   -999.25  35.7556   -999.25  42.6611  -999.25  43.0781 -999.25 72.9969  17.8400 23.4556 1.0220 1.0507
   13124.0000  0.0000 -999.25  16.2496 112.1227  -999.25 -999.25   2.5117 3.1972 -999.25   -999.25  37.7107   -999.25  45.3270  -999.25  45.7887 -999.25 72.7184  17.8200 22.8797 0.9971 1.0500
   13124.5000  0.0000 -999.25  16.1069 117.3020  -999.25 -999.25   2.5098 3.2021 -999.25   -999.25  39.9439   -999.25  48.3956  -999.25  48.9101 -999.25 72.3675  17.5900 22.4685 0.9803 1.0513
   13125.0000  0.0000 -999.25  15.9040 119.3526  -999.25 -999.25   2.5112 3.2248 -999.25   -999.25  41.9166   -999.25  51.1262  -999.25  51.6887 -999.25 71.8610  17.2700 22.6271 0.9736 1.0502
   13125.5000  0.0000 -999.25  15.6035 111.8677  -999.25 -999.25   2.5216 3.2956 -999.25   -999.25  43.3845   -999.25  53.1697  -999.25  53.7688 -999.25 70.9126  16.6900 23.1190 0.9726 1.0499
   13126.0000  0.0000 -999.25  15.4480 110.6652  -999.25 -999.25   2.5235 3.3015 -999.25   -999.25  42.8124   -999.25  52.3720  -999.25  52.9568 -999.25 70.5233  16.2900 23.6227 0.9769 1.0490
   13126.5000  0.0000 -999.25  15.5086 117.0931  -999.25 -999.25   2.5155 3.2391 -999.25   -999.25  41.0854   -999.25  49.9733  -999.25  50.5154 -999.25 70.7975  16.3500 23.9272 0.9824 1.0500
   13127.0000  0.0000 -999.25  15.5975 126.5759  -999.25 -999.25   2.5054 3.1637 -999.25   -999.25  39.3891   -999.25  47.6309  -999.25  48.1322 -999.25 71.3493  16.6800 23.9112 0.9850 1.0484
   13127.5000  0.0000 -999.25  15.4968 118.4618  -999.25 -999.25   2.5123 3.2014 -999.25   -999.25  38.3978   -999.25  46.2685  -999.25  46.7463 -999.25 70.9443  16.6000 23.9647 0.9880 1.0442
   13128.0000  0.0000 -999.25  15.2145 102.3662  -999.25 -999.25   2.5299 3.3012 -999.25   -999.25  38.4492   -999.25  46.3391  -999.25  46.8181 -999.25 70.0556  16.0700 24.0479 0.9944 1.0410
   13128.5000  0.0000 -999.25  15.3933 109.4010  -999.25 -999.25   2.5218 3.2562 -999.25   -999.25  38.2774   -999.25  46.1034  -999.25  46.5784 -999.25 70.5440  16.1200 23.9318 0.9927 1.0409
   13129.0000  0.0000 -999.25  15.4943 111.9600  -999.25 -999.25   2.5180 3.2310 -999.25   -999.25  38.0118   -999.25  45.7393  -999.25  46.2080 -999.25 70.7520  16.3300 23.3761 0.9826 1.0463
   13129.5000  0.0000 -999.25  15.5365 109.5522  -999.25 -999.25   2.5199 3.2422 -999.25   -999.25  38.3830   -999.25  46.2482  -999.25  46.7256 -999.25 70.7127  16.3500 22.7403 0.9635 1.0517
   13130.0000  0.0000 -999.25  15.4691 106.0950  -999.25 -999.25   2.5252 3.2839 -999.25   -999.25  40.2106   -999.25  48.7637  -999.25  49.2846 -999.25 70.4540  16.2200 21.8835 0.9535 1.0535
   13130.5000  0.0000 -999.25  15.4495 109.6919  -999.25 -999.25   2.5240 3.3001 -999.25   -999.25  42.4086   -999.25  51.8100  -999.25  52.3847 -999.25 70.5027  16.1900 21.5918 0.9566 1.0498
   13131.0000  0.0000 -999.25  15.3525 113.3843  -999.25 -999.25   2.5240 3.3353 -999.25   -999.25  45.5619   -999.25  56.2184  -999.25  56.8731 -999.25 70.3966  16.1400 21.7944 0.9643 1.0444
   13131.5000  0.0000 -999.25  15.4102 121.9975  -999.25 -999.25   2.5167 3.3025 -999.25   -999.25  46.6881   -999.25  57.8032  -999.25  58.4874 -999.25 70.7425  16.2900 22.0389 0.9705 1.0414
   13132.0000  0.0000 -999.25  15.3277 115.5959  -999.25 -999.25   2.5226 3.3322 -999.25   -999.25  45.9030   -999.25  56.6978  -999.25  57.3614 -999.25 70.4127  16.2000 22.2337 0.9631 1.0417
   13132.5000  0.0000 -999.25  15.2216 106.9912  -999.25 -999.25   2.5301 3.3636 -999.25   -999.25  44.9731   -999.25  55.3918  -999.25  56.0314 -999.25 70.0056  15.9300 22.2930 0.9633 1.0467
   13133.0000  0.0000 -999.25  14.9045  95.8182  -999.25 -999.25   2.5406 3.4187 -999.25   -999.25  44.2457   -999.25  54.3729  -999.25  54.9939 -999.25 69.3957  15.5400 22.2609 0.9591 1.0491
   13133.5000  0.0000 -999.25  15.2108 105.8596  -999.25 -999.25   2.5303 3.3502 -999.25   -999.25  44.0266   -999.25  54.0665  -999.25  54.6819 -999.25 69.9005  15.6600 22.3643 0.9595 1.0504
   13134.0000  0.0000 -999.25  14.9670  99.4353  -999.25 -999.25   2.5376 3.4025 -999.25   -999.25  44.1451   -999.25  54.2321  -999.25  54.8505 -999.25 69.5109  15.5800 22.2735 0.9525 1.0458
   13134.5000  0.0000 -999.25  14.9482 101.0972  -999.25 -999.25   2.5366 3.3993 -999.25   -999.25  43.7646   -999.25  53.7003  -999.25  54.3091 -999.25 69.5634  15.5200 22.3446 0.9488 1.0392
   13135.0000  0.0000 -999.25  15.2054 111.5884  -999.25 -999.25   2.5265 3.3455 -999.25   -999.25  44.0985   -999.25  54.1671  -999.25  54.7843 -999.25 70.2314  15.8600 22.1514 0.9467 1.0329
   13135.5000  0.0000 -999.25  15.1250 111.9466  -999.25 -999.25   2.5269 3.3472 -999.25   -999.25  43.8368   -999.25  53.8012  -999.25  54.4118 -999.25 70.1334  15.9600 22.1707 0.9567 1.0276
