~Version Information
 VERS.                  2.0:   CWLS log ASCII Standard -VERSION 2.0
 WRAP.                   NO:   One line per depth step
~Well Information Block
#MNEM.UNIT       Data Type    Information
#---------     -----------    ---------------------------
 STRT.F              3503.5000:
 STOP.F             12186.0000:
 STEP.F                 0.5000:
 NULL.               -999.2500:
 UWI .            42-109-32278:  API WELLHOLE NUMBER
 COMP.     SAMSON LONE STAR LP:  COMPANY NAME
 COUN.               CULBERSON:  COUNTY
 DAT2.                   02000:  LOGGING DATE 2
 DAT3.                   02000:  LOGGING DATE 3
 DAT4.                   02000:  LOGGING DATE 4
 DATE.                   02000:  LOGGING DATE
 DMF .           KELLY BUSHING:  DRILLING MEASURED
 LOC .    1521' FWL AND 2040' FSL:  FIELD LOCATION
 FL1 .    1521' FWL AND 2040' FSL:  FIELD LOCATION LINE 1
 FL2 .        SEC. 14, BLK. 46:  FIELD LOCATION LINE 2
 FLD .                 WILDCAT:  FIELD NAME
 HDAT.                   02000:  DATUM
 LMF .                    K.B.:  LOG MEASURED FROM
 OS1 .                    XRMI:  OTHER SERVICES LINE 1
 OS2 .               LSS / FWS:  OTHER SERVICES LINE 2
 OS3 .                 SDL/DSN:  OTHER SERVICES LINE 3
 OS4 .                DLL/MGRD:  OTHER SERVICES LINE 4
 PDAT.            GROUND LEVEL:  PERMANENT DATUM
 R1  .    TOOLSTRING: RWCH/D4TS/NGRT/LFS_D2/XRMI/CENT:  REMARKS LINE 1
 R2  .    LOGGING INTERVALS AS PER CUSTOMER REQUEST.:  REMARKS LINE 2
 RDT2.                   02000:  CASING DATE 2
 RDT3.                   02000:  CASING DATE 3
 RDT4.                   02000:  CASING DATE 4
 RDT5.                   02000:  CASING DATE 5
 SON .                 4992511:  SERVICE/TICKET ORDER NUMBER
 PROV.                   TEXAS:  STATE
 WELL.    UNIVERSITY LANDS 46-14 No. 2:  WELL NAME
~Parameter Information Block
#MNEM.UNIT       Value        Description
#---------     -----------    ---------------------------
~Curve Information Block
#MNEM.UNIT                 API CODE     Curve Description
#---------               -----------    ---------------------------
 DEPT.F                 00 000 000 000:  
 LLD .ohmm              00 000 000 000:  LLD                                    
 LLS .ohmm              00 000 000 000:  LLS                                    
 NPHI.decp              00 000 000 000:  Neutron Porosity                       
 GR  .api               00 000 000 000:  Gamma API                              
 MGRD.ohmm              00 000 000 000:  MCGRD                                  
 DRHO.g/cc              00 000 000 000:  DensityCorr                            
 DPHI.decp              00 000 000 000:  DensityPorosity                        
 PE  .b/e               00 000 000 000:  Pe                                     
 RHOB.g/cc              00 000 000 000:  Density                                
 XPHI.decp              00 000 000 000:  CrossplotPhi                           
 CALI.in                00 000 000 000:  Caliper                                
 DTC .                  00 000 000 000:  DELTA-T COMPRESSIONAL - FWS
 GR2 .GAPI              00 000 000 000:  NATURAL GAMMA - FWS
 SPHI.DECP              00 000 000 000:  SONIC POROSITY MTX=47.6 (DTC)
~A  DEPT        LLD        LLS        NPHI       GR         MGRD       DRHO       DPHI       PE         RHOB       XPHI       CALI       DTC        GR2        SPHI   
# ...
 9310.0000   192.8853   175.6286     0.0511    55.1123   372.8885     0.0246     0.0264     3.7169     2.6649     0.0551    10.5405    55.5836    50.0249     0.0565 
 9310.5000   213.9480   189.9075     0.0333    53.2101   217.7147     0.0271     0.0254     3.6570     2.6665     0.0340    10.5328    54.7938    49.5569     0.0509 
 9311.0000   182.9031   161.4501     0.0264    60.7125   101.5297     0.0346     0.0348     3.6305     2.6505     0.0321    10.5328    55.0777    53.0116     0.0529 
 9311.5000   139.6194   120.7431     0.0292    66.4193    50.5784     0.0377     0.0535     3.6363     2.6185     0.0357    10.5405    56.2997    56.5344     0.0615 
 9312.0000   109.0905    92.7719     0.0379    63.7881    25.1248     0.0422     0.0597     3.6474     2.6078     0.0485    10.5405    58.4852    61.7419     0.0770 
 9312.5000    92.6185    77.5932     0.0501    56.3746    18.2956     0.0499     0.0620     3.6411     2.6040     0.0522    10.5405    60.4296    66.9665     0.0907 
 9313.0000    85.4170    71.0591     0.0660    59.5213    17.8103     0.0528     0.0723     3.6614     2.5863     0.0648    10.5405    60.9994    76.7605     0.0948 
 9313.5000    84.1487    69.8906     0.0833    72.1616    27.2772     0.0531     0.0731     3.7417     2.5850     0.0830    10.5481    61.5138    81.5511     0.0984 
 9314.0000    87.0803    74.0877     0.0926    74.1350    38.6116     0.0549     0.0550     3.7837     2.6160     0.0824    10.5557    61.3313    75.3990     0.0971 
 9314.5000    94.7650    83.6935     0.0844    71.0949    68.6865     0.0542     0.0436     3.6176     2.6354     0.0786    10.5481    60.7530    72.0975     0.0930 
 9315.0000   102.8325    93.4681     0.0720    73.7083    58.0443     0.0509     0.0529     3.3550     2.6196     0.0686    10.5481    60.0040    72.4038     0.0877 
 9315.5000   109.8236   102.9960     0.0744    69.3882    34.3144     0.0499     0.0581     3.2923     2.6107     0.0692    10.5481    59.0234    73.4249     0.0808 
 9316.0000   109.9443   104.8503     0.0791    63.2014    36.9180     0.0501     0.0514     3.4102     2.6221     0.0728    10.5481    59.4095    72.0975     0.0835 
 9316.5000   103.8419    99.0369     0.0798    62.1347    54.8362     0.0475     0.0533     3.5403     2.6188     0.0738    10.5405    60.2509    74.7864     0.0895 
 9317.0000    97.7285    90.9623     0.0865    69.9038    62.7342     0.0454     0.0608     3.6167     2.6060     0.0806    10.5405    60.8391    79.1515     0.0936 
 9317.5000    92.3712    82.7431     0.1029    91.8243    41.3214     0.0441     0.0552     3.6427     2.6155     0.0889    10.5481    61.9329    81.7383     0.1014 
 9318.0000    86.6418    76.2202     0.1280   102.5445    39.4364     0.0437     0.0425     3.7171     2.6374     0.0997    10.5405    62.5127    86.0949     0.1055 
 9318.5000    85.2266    74.5528     0.1287    99.3978    39.8041     0.0478     0.0348     3.8121     2.6504     0.0977    10.5405    62.2280    89.5454     0.1035 
 9319.0000    87.0663    74.8934     0.1209   100.0556    57.4475     0.0490     0.0376     3.7810     2.6457     0.0944    10.5481    61.2838    87.6053     0.0968 
 9319.5000    96.2665    86.1988     0.1181    85.1219    43.3568     0.0451     0.0432     3.6810     2.6361     0.0959    10.5557    59.6701    79.3430     0.0854 
 9320.0000    98.1679    90.5798     0.0969    64.0548    52.4925     0.0435     0.0281     3.7740     2.6620     0.0865    10.5481    59.6199    69.2087     0.0850 
 9320.5000    96.8576    90.6093     0.0837    57.9213    71.2989     0.0429     0.0067     4.1501     2.6985     0.0617    10.5405    59.5707    66.8431     0.0847 
 9321.0000    89.7436    83.7680     0.0830    65.6015    73.8894     0.0399     0.0108     4.3856     2.6916     0.0613    10.5481    59.4799    75.0629     0.0840 
 9321.5000    87.4906    78.7555     0.0921    86.4553    39.4665     0.0357     0.0256     4.1756     2.6662     0.0726    10.5405    59.5042    84.0783     0.0842 
 9322.0000    87.8250    78.0323     0.1019    94.2954    47.7884     0.0340     0.0315     3.9148     2.6561     0.0805    10.5405    58.6048    80.3768     0.0778 
 9322.5000    99.3134    96.7164     0.0810    76.0550   122.4720     0.0316     0.0268     3.8925     2.6641     0.0659    10.5557    57.9581    73.1101     0.0733 
 9323.0000   136.8517   160.1011     0.0456    58.6147   481.1417     0.0259     0.0152     3.9758     2.6841     0.0392    10.5481    56.3849    56.7386     0.0621 
 9323.5000   185.8404   229.9455     0.0272    52.9612  1062.2037     0.0192     0.0043     4.0462     2.7027     0.0235    10.5481    54.5205    46.8425     0.0489 
 9324.0000   215.7932   269.8812     0.0314    52.4812   340.9666     0.0142     0.0049     3.9899     2.7017     0.0265    10.5328    54.6240    52.9095     0.0497 
 9324.5000   146.7836   176.0123     0.0501    63.4681    88.8966     0.0280     0.0121     3.8301     2.6893     0.0413    10.5252    55.8127    67.8727     0.0581 
 9325.0000   106.7650   115.9336     0.0817    78.7751    54.7263     0.0585     0.0151     3.7483     2.6842     0.0510    10.5252    58.2997    84.6527     0.0757 
 9325.5000    89.1749    93.4334     0.1151    89.0509    45.5808     0.0688     0.0251     3.7793     2.6670     0.0758    10.5252    60.6018    89.7581     0.0920 
 9326.0000    84.5362    88.6575     0.1336    95.9844    47.1144     0.0594     0.0312     3.8663     2.6567     0.0995    10.5328    62.2446    88.1499     0.1036 
 9326.5000    87.0681    93.1898     0.1352    96.6422    46.7443     0.0533     0.0222     3.9364     2.6720     0.0977    10.5405    62.4543    84.6186     0.1051 
 9327.0000    93.8805    99.3670     0.1166    92.1621    49.9278     0.0472     0.0139     3.9334     2.6862     0.0841    10.5481    61.3405    84.8526     0.0972 
 9327.5000   103.8764   110.3292     0.1041    88.7487    57.3064     0.0397     0.0107     3.8610     2.6917     0.0756    10.5405    60.0565    82.9806     0.0881 
 9328.0000   120.7353   130.0917     0.0914    76.9973    85.7661     0.0326     0.0158     3.7643     2.6829     0.0756    10.5328    58.3729    76.9689     0.0762 
 9328.5000   132.3803   150.5658     0.0711    62.0103   136.3469     0.0268     0.0229     3.8161     2.6709     0.0584    10.5252    57.2904    67.7876     0.0685 
 9329.0000   124.2556   146.8751     0.0607    56.0013   216.0544     0.0251     0.0226     4.0258     2.6714     0.0515    10.5252    57.4230    65.1073     0.0695 
 9329.5000   103.9536   122.8582     0.0686    64.1081    90.7919     0.0239     0.0236     4.1241     2.6696     0.0527    10.5328    58.1090    72.0677     0.0743 
 9330.0000    84.6812    93.1400     0.0929    85.3886    43.3462     0.0219     0.0381     3.9808     2.6448     0.0770    10.5405    59.0768    85.1419     0.0812 
 9330.5000    80.4148    85.0877     0.1205    96.7666    35.8041     0.0216     0.0541     3.7925     2.6175     0.0886    10.5481    59.9689    94.8976     0.0875 
 9331.0000    94.1267   105.7576     0.1264    84.9797    60.7923     0.0219     0.0540     3.7737     2.6176     0.1026    10.5481    60.3295    91.0515     0.0900 
 9331.5000   127.1106   160.1148     0.0938    66.2770   185.1047     0.0214     0.0440     3.9007     2.6347     0.0795    10.5481    59.7535    73.4972     0.0860 
 9332.0000   174.4600   218.0854     0.0563    51.3967   329.3154     0.0235     0.0319     4.0487     2.6554     0.0515    10.5481    58.0548    55.2878     0.0739 
 9332.5000   184.9602   229.0967     0.0383    48.5344    91.0352     0.0271     0.0222     4.0372     2.6721     0.0364    10.5481    56.7517    51.8842     0.0647 
 9333.0000   141.8917   169.6623     0.0456    61.2814    59.7191     0.0312     0.0143     3.8265     2.6855     0.0390    10.5405    56.0803    64.4563     0.0600 
 9333.5000   106.2409   120.0408     0.0796    83.0952    46.8990     0.0360     0.0118     3.6287     2.6898     0.0480    10.5405    56.4926    74.4290     0.0629 
 9334.0000    88.3350    96.3708     0.1194   102.6156    45.5499     0.0424     0.0152     3.5717     2.6840     0.0740    10.5405    57.9360    91.9662     0.0731 
