~Version Information
 VERS.                  2.0:   CWLS log ASCII Standard -VERSION 2.0
 WRAP.                   NO:   One line per depth step
~Well Information Block
#MNEM.UNIT     VALUE/NAME     DESCRIPTION
#---------     -----------    ---------------------------
 STRT.F              8400.0000: START DEPTH
 STOP.F             14130.0000: STOP DEPTH
 STEP.F                 0.5000: STEP DEPTH
 NULL.                 -999.25: NULL VALUE
 LOC .            42-109-33596:  LOCATION
 FL1 .            42-109-33596:  LOCATIONLINE1
 PROV.                      TX:  PROVINCE
 STAT.                      TX:  STATE NAME
 CNTY.               CULBERSON:  COUNTY NAME
 FLD .              WOLFCAMP B:  FIELD NAME
 WELL.           DALE STATE 5H:  WELL NAME
 COMP.     CAPITAN ENERGY INC.:  COMPANY
 DMF .             Drill Floor:  DRILL MEAS FROM
 PDAT.                      GL:  PERMANENT DATUM
 DATE.             11-Feb-2020:  DATE
 SVCO.             Halliburton:  SERVICECONAME
 HIDE.                        :  WELLNAMEOPERAT
 BASI.                 PERMIAN:  BASIN
 UWI .            42-109-33596:  UNIQUE WELL IDENTIFIER
 API .            42-109-33596:  API NUMBER
 RANG.                     N/A:  RANGE
 TOWN.                     N/A:  TOWNSHIP
 SECT.                     N/A:  SECTION
 SON .               906289953:  JOB NUMBER
 CTRY.                        :  COUNTRY
 SRVC.             Halliburton:  SERVICE COMPANY
 LMF .             Drill Floor:  LOG MEASURED FROM
 TVDS.ft             3291.0000:  TVDSS CORRECTN
 EGL .ft             3266.0000:  GROUND ELEVATION
 APD .ft               25.0000:  DEPTH ABOVE PD
 EPD .ft             3266.0000:  ELEVATION
 BAP .ft                0.0000:  GL ELEV ONSHORE
 GVFD.g                 1.0000:  GRAVITY FIELD
 EKB .ft             3291.0000:  KB ELEVATION
 EDF .ft             3291.0000:  DF ELEVATION
~Curve Information Block
#MNEM.UNIT                 API CODE     Curve Description
#---------               -----------    ---------------------------
 DEPT.F                 00 000 000 000:  Depth
 CCL .V                 00 000 000 000:  Casing Collar Locator
 NPHI_OH.pu             00 000 000 000:  NPHI_OH
 NPHI_CHI.decp          00 000 000 000:  NPHI_CHI
 GR_OH.api              00 000 000 000:  GR_OH
 GR_CHI.api             00 000 000 000:  GR_CHI
 RHOB_OH.g/cc           00 000 000 000:  RHOB_OH
 RHOB_CHI.g/cc          00 000 000 000:  RHOB_CHI
 PE_OH.NONE             00 000 000 000:  PE_OH
 PE_CHI.NONE            00 000 000 000:  PE_CHI
 LLS_CHI.ohmm           00 000 000 000:  LLS_CHI
 LLS_OH.ohmm            00 000 000 000:  LLS_OH
 LLD_OH.ohmm            00 000 000 000:  LLD_OH
 LLD_CHI.ohmm           00 000 000 000:  LLD_CHI
 DTC_OH.uspf            00 000 000 000:  DTC_OH
 DTC_CHI.uspf           00 000 000 000:  DTC_CHI
 SPHW_CHI.decp          00 000 000 000:  SPHW_CHI
#Other Information
#
#WARRANTY: Halliburton will use its best efforts to furnish customers with 
#accurate information and interpretations that are part of, and incident to, the services 
#provided.  However, Halliburton cannot and does not warrant the accuracy 
#or correctness of such information and interpretations.  Under no circumstances should any 
#such information or interpretation be relied upon as the sole basis for any drilling, 
#completion, production, or financial decision or any procedure involving any risk to the 
#safety of any drilling venture, drilling rig or its crew or any other third party.  The 
#Customer has full responsibility for all drilling, completion and production operation.  
#Halliburton makes no representations or warranties, either expressed or 
#implied, including, but not limited to, the implied warranties of merchantability or fitness 
#for a particular purpose, with respect to the services rendered.  In no event will 
#Halliburton be liable for failure to obtain any particular results or for 
#any damages, including, but not limited to, indirect, special or consequential damages, 
#resulting from the use of any information or interpretation provided by Halliburton.
#
~A    DEPT      CCL   NPHI_OH NPHI_CHI  GR_OH    GR_CHI  RHOB_OH RHOB_CHI  PE_OH  PE_CHI LLS_CHI   LLS_OH    LLD_OH    LLD_CHI  DTC_OH  DTC_CHI SPHW_CHI 
# ...
   11447.5000 -0.0026 -999.25   0.0837  -999.25  81.4108 -999.25   2.5750 -999.25 3.6165 122.2595   -999.25   -999.25  133.8782 -999.25 66.1903 0.1315
   11448.0000  0.0577 -999.25   0.0825  -999.25  80.6121 -999.25   2.5754 -999.25 3.6201 124.5977   -999.25   -999.25  137.0922 -999.25 65.8804 0.1293
   11448.5000  0.0641 -999.25   0.0828  -999.25  82.0500 -999.25   2.5746 -999.25 3.6321 131.4183   -999.25   -999.25  144.8395 -999.25 65.7360 0.1283
   11449.0000 -0.0058 -999.25   0.0752  -999.25  73.5101 -999.25   2.5852 -999.25 3.7378 137.7204   -999.25   -999.25  159.3202 -999.25 65.3430 0.1255
   11449.5000 -0.0254 -999.25   0.0717  -999.25  70.1322 -999.25   2.5909 -999.25 3.8043 140.5606   -999.25   -999.25  166.5569 -999.25 65.2974 0.1252
   11450.0000 -0.0725 -999.25   0.0784  -999.25  77.2268 -999.25   2.5801 -999.25 3.7105 141.1188   -999.25   -999.25  159.1626 -999.25 65.7204 0.1282
   11450.5000  0.0002 -999.25   0.0759  -999.25  73.0176 -999.25   2.5832 -999.25 3.7214 137.4455   -999.25   -999.25  155.1239 -999.25 65.7197 0.1281
   11451.0000  0.0075 -999.25   0.0720  -999.25  67.1311 -999.25   2.5887 -999.25 3.7472 131.0225   -999.25   -999.25  149.6872 -999.25 65.7684 0.1285
   11451.5000 -0.0486 -999.25   0.0672  -999.25  60.7130 -999.25   2.5962 -999.25 3.8018 126.6053   -999.25   -999.25  147.6773 -999.25 65.9025 0.1294
   11452.0000 -0.0081 -999.25   0.0695  -999.25  62.4703 -999.25   2.5933 -999.25 3.7689 123.0064   -999.25   -999.25  141.2260 -999.25 66.1943 0.1315
   11452.5000 -0.0027 -999.25   0.0766  -999.25  70.0069 -999.25   2.5835 -999.25 3.6979 126.0218   -999.25   -999.25  137.3810 -999.25 66.6439 0.1347
   11453.0000  0.0118 -999.25   0.0812  -999.25  75.2238 -999.25   2.5777 -999.25 3.6653 129.8956   -999.25   -999.25  135.2116 -999.25 67.0532 0.1376
   11453.5000  0.0129 -999.25   0.0833  -999.25  77.5289 -999.25   2.5756 -999.25 3.6573 131.9502   -999.25   -999.25  132.6552 -999.25 67.3739 0.1398
   11454.0000  0.0026 -999.25   0.0871  -999.25  82.9785 -999.25   2.5731 -999.25 3.6455 131.1555   -999.25   -999.25  126.2425 -999.25 67.7224 0.1423
   11454.5000 -0.0154 -999.25   0.0862  -999.25  80.4650 -999.25   2.5756 -999.25 3.6407 122.8026   -999.25   -999.25  118.3253 -999.25 67.9249 0.1437
   11455.0000 -0.0170 -999.25   0.0907  -999.25  88.0541 -999.25   2.5726 -999.25 3.6112 115.5644   -999.25   -999.25  108.5000 -999.25 68.0659 0.1447
   11455.5000 -0.0040 -999.25   0.0936  -999.25  91.8946 -999.25   2.5706 -999.25 3.5730 106.7565   -999.25   -999.25  100.7297 -999.25 68.1187 0.1451
   11456.0000  0.0053 -999.25   0.0998  -999.25 101.5685 -999.25   2.5657 -999.25 3.5313 100.5833   -999.25   -999.25   93.8475 -999.25 68.4731 0.1476
   11456.5000  0.0064 -999.25   0.0951  -999.25  89.2968 -999.25   2.5700 -999.25 3.4818  86.2711   -999.25   -999.25   86.8180 -999.25 68.4198 0.1472
   11457.0000 -0.0210 -999.25   0.0985  -999.25  93.0547 -999.25   2.5684 -999.25 3.4496  80.9790   -999.25   -999.25   81.0129 -999.25 68.7987 0.1499
   11457.5000  0.0000 -999.25   0.1007  -999.25  95.3540 -999.25   2.5685 -999.25 3.4347  77.4774   -999.25   -999.25   76.8409 -999.25 69.0350 0.1516
   11458.0000 -0.0100 -999.25   0.1003  -999.25  93.3086 -999.25   2.5711 -999.25 3.4214  72.1314   -999.25   -999.25   71.8187 -999.25 69.1000 0.1521
   11458.5000 -0.0275 -999.25   0.1014  -999.25  93.4663 -999.25   2.5727 -999.25 3.3931  65.7278   -999.25   -999.25   65.4719 -999.25 69.2607 0.1532
   11459.0000  0.0084 -999.25   0.1016  -999.25  91.4375 -999.25   2.5750 -999.25 3.3346  55.2611   -999.25   -999.25   55.8747 -999.25 69.4103 0.1542
   11459.5000  0.0013 -999.25   0.1045  -999.25  93.7606 -999.25   2.5754 -999.25 3.2510  44.9877   -999.25   -999.25   45.8281 -999.25 69.6834 0.1562
   11460.0000 -0.0047 -999.25   0.1109  -999.25 103.0880 -999.25   2.5737 -999.25 3.1898  39.7809   -999.25   -999.25   39.9068 -999.25 70.2571 0.1602
   11460.5000  0.0031 -999.25   0.1131  -999.25 101.8555 -999.25   2.5742 -999.25 3.1310  34.8343   -999.25   -999.25   36.0593 -999.25 70.6178 0.1628
   11461.0000  0.0055 -999.25   0.1134  -999.25  96.3860 -999.25   2.5759 -999.25 3.0844  30.6633   -999.25   -999.25   33.2913 -999.25 70.8136 0.1642
   11461.5000  0.0000 -999.25   0.1169  -999.25  98.9612 -999.25   2.5749 -999.25 3.0893  31.5005   -999.25   -999.25   34.4499 -999.25 71.2412 0.1672
   11462.0000  0.0000 -999.25   0.1231  -999.25 109.3618 -999.25   2.5716 -999.25 3.1190  35.4127   -999.25   -999.25   37.5308 -999.25 71.9377 0.1721
   11462.5000 -0.0096 -999.25   0.1267  -999.25 115.3579 -999.25   2.5702 -999.25 3.1365  37.5025   -999.25   -999.25   39.1206 -999.25 72.4049 0.1754
   11463.0000  0.0016 -999.25   0.1259  -999.25 112.1025 -999.25   2.5718 -999.25 3.1179  35.0887   -999.25   -999.25   37.2120 -999.25 72.2503 0.1743
   11463.5000  0.0036 -999.25   0.1250  -999.25 108.2372 -999.25   2.5730 -999.25 3.0907  32.0705   -999.25   -999.25   34.7975 -999.25 72.1545 0.1737
   11464.0000 -0.0201 -999.25   0.1247  -999.25 104.6796 -999.25   2.5738 -999.25 3.0610  29.0864   -999.25   -999.25   32.5064 -999.25 72.1725 0.1738
   11464.5000  0.0358 -999.25   0.1255  -999.25 103.6262 -999.25   2.5739 -999.25 3.0308  26.4592   -999.25   -999.25   30.2530 -999.25 72.3082 0.1747
   11465.0000  0.0086 -999.25   0.1267  -999.25 102.8220 -999.25   2.5738 -999.25 3.0126  24.6539   -999.25   -999.25   28.8856 -999.25 72.5074 0.1761
   11465.5000  0.0033 -999.25   0.1271  -999.25 101.1605 -999.25   2.5745 -999.25 3.0077  23.5984   -999.25   -999.25   28.2505 -999.25 72.5438 0.1764
   11466.0000  0.0006 -999.25   0.1277  -999.25 101.6633 -999.25   2.5747 -999.25 3.0304  25.1280   -999.25   -999.25   30.1465 -999.25 72.5189 0.1762
   11466.5000 -0.0109 -999.25   0.1344  -999.25 114.9054 -999.25   2.5698 -999.25 3.0808  31.2800   -999.25   -999.25   35.8515 -999.25 73.2962 0.1817
   11467.0000  0.0633 -999.25   0.1374  -999.25 122.6365 -999.25   2.5682 -999.25 3.1254  36.7158   -999.25   -999.25   40.8580 -999.25 73.6233 0.1840
   11467.5000  0.0039 -999.25   0.1307  -999.25 107.4885 -999.25   2.5734 -999.25 3.0845  30.7151   -999.25   -999.25   36.1375 -999.25 72.5573 0.1765
   11468.0000 -0.0077 -999.25   0.1254  -999.25  96.4433 -999.25   2.5784 -999.25 3.0630  26.0816   -999.25   -999.25   32.0935 -999.25 72.0989 0.1733
   11468.5000 -0.0214 -999.25   0.1314  -999.25 105.5342 -999.25   2.5723 -999.25 3.0506  26.5516   -999.25   -999.25   31.7826 -999.25 73.1535 0.1807
   11469.0000  0.0176 -999.25   0.1333  -999.25 107.0532 -999.25   2.5698 -999.25 3.0364  25.0995   -999.25   -999.25   30.0009 -999.25 73.8325 0.1855
   11469.5000 -0.0024 -999.25   0.1381  -999.25 114.7425 -999.25   2.5658 -999.25 3.0509  26.5998   -999.25   -999.25   30.9785 -999.25 74.7478 0.1920
   11470.0000  0.0003 -999.25   0.1377  -999.25 111.9799 -999.25   2.5676 -999.25 3.0570  25.9885   -999.25   -999.25   30.5378 -999.25 74.6600 0.1914
   11470.5000 -0.0016 -999.25   0.1383  -999.25 112.0897 -999.25   2.5688 -999.25 3.0857  27.9042   -999.25   -999.25   32.6827 -999.25 74.5916 0.1909
   11471.0000  0.0010 -999.25   0.1399  -999.25 115.1697 -999.25   2.5689 -999.25 3.1144  30.7012   -999.25   -999.25   35.3760 -999.25 74.6927 0.1916
   11471.5000  0.0070 -999.25   0.1388  -999.25 113.3704 -999.25   2.5696 -999.25 3.1148  30.7634   -999.25   -999.25   35.5293 -999.25 74.4986 0.1902
   11472.0000 -0.0065 -999.25   0.1343  -999.25 105.2833 -999.25   2.5734 -999.25 3.0842  26.9805   -999.25   -999.25   31.8635 -999.25 73.7910 0.1852
   11472.5000  0.0000 -999.25   0.1354  -999.25 109.3284 -999.25   2.5733 -999.25 3.0758  26.9910   -999.25   -999.25   31.2387 -999.25 73.7251 0.1848
   11473.0000  0.0134 -999.25   0.1381  -999.25 118.4900 -999.25   2.5726 -999.25 3.0989  29.6962   -999.25   -999.25   32.9019 -999.25 73.9786 0.1866
   11473.5000  0.0086 -999.25   0.1366  -999.25 118.1096 -999.25   2.5740 -999.25 3.0928  29.2527   -999.25   -999.25   32.1027 -999.25 73.6681 0.1844
