###############################################
##         ENVERUS                           ##
##         ESS - Open Hole                   ##
##         PERMIAN / DELAWARE                ##
##         Nov 03 2023  V4.0                 ##
##         42-109-32620-90-00                ##
###############################################
## Copyright 2017-2023  ENVERUS.  All Rights Reserved. 
## Confidential - Property of ENVERUS, use governed by terms and 
## conditions found within the existing Information Services Subscription Agreement 
## (as may be amended, the “ISSA”) between Customer and ENVERUS. 
## 
~VERSION INFORMATION
# MNEM.UNIT                               DATA : DESCRIPTION OF MNEMONIC
#-----.-----     ----------------------------- : -----------------------------
VERS.                                     2.00 : CWLS LOG ASCII STANDARD - VERSION 2.00
WRAP.                                       NO : MULTIPLE LINES PER DEPTH STEP
VEND.                                  ENVERUS : VENDOR
TYPE.                          ESS - OPEN HOLE : ENVERUS ESSENTIAL CURVES – ACCESSIBLE THROUGH ENVERUS PRISM(TM)
DOC.                                  51092896 : ENVERUS HEADER RAW DOCUMENT ID
#___________________________________________________________________________________________________ 
~WELL INFORMATION 
# mS4wxE9S4ErBCd3MEwtzWWb7vaBLyBp2a6hoNdhJ+t1pinRta8/5SsS3wr5CrR4pTncMCKeAGTUU45xlgh6yRQ== 
# MNEM.UNIT                                              DATA : DESCRIPTION OF MNEMONIC 
#-----.-----                    ----------------------------- : ----------------------------- 
CNTY.                                               CULBERSON : COUNTY 
STATE.                                                  TEXAS : STATE 
CNTRY.                                                    USA : COUNTRY 
API.                                             42-109-32620 : API (10 Digit) 
API_14.                                    42-109-32620-90-00 : API (14 Digits) 
API_14_std.                                 42-109-32620-9000 : API (14 Digits Standard) 
UWI.                                           42109326209000 : UNIQUE WELL ID 
WELL.                               42109326200000_PREV_API14 : WELL NAME
STRT.FT                                                2338.5 : START DEPTH
STOP.FT                                               10866.0 : STOP DEPTH
STEP.FT                                                   0.5 : STEP BETWEEN DEPTHS
NULL.                                                 -999.25 : NULL VALUE
PREV_APII.                                     42109326200000 : WELL IDENTIFIER
#___________________________________________________________________________________________________ 
~PARAMETER INFORMATION 
# MNEM.UNIT                                              DATA : DESCRIPTION OF MNEMONIC 
#-----.-----                    ----------------------------- : ----------------------------- 
EKB.FT                                                   3330 : ELEVATION ABOVE MSL
#___________________________________________________________________________________________________ 
~CURVE INFORMATION 
# MNEM.UNIT           : CURVE DESCRIPTION 
#-----.-----          : ----------------------------- 
 DEPT.FT               : MEASURED DEPTH 
 CALI.IN               : CALIPER (CAL - CALIPER) 
 GR.API                : GAMMA RAY (GAMMA RAY) 
 DT.US/FT              : SONIC DELTA TRANSIT TIME (PRESSURE WAVE SONIC) 
 #___________________________________________________________________________________________________ 
~A         DEPT           CALI             GR             DT
# ...
         9664.5          9.531         82.104         79.090
         9665.0          9.553         89.579         82.944
         9665.5          9.553         94.227         80.026
         9666.0          9.553         95.593         77.493
         9666.5          9.533         91.707         74.281
         9667.0          9.513         82.946         72.847
         9667.5          9.513         80.089         72.813
         9668.0          9.513         81.589         72.385
         9668.5          9.513         85.038         73.722
         9669.0          9.513         84.830         74.749
         9669.5          9.533         86.996         76.738
         9670.0          9.553         92.772         80.930
         9670.5          9.573        104.213         86.038
         9671.0          9.573        111.822         90.916
         9671.5          9.573        117.903         91.878
         9672.0          9.573        118.775         92.132
         9672.5          9.593        110.612         89.381
         9673.0          9.593        104.561         86.479
         9673.5          9.593        102.811         87.718
         9674.0          9.612        102.595         88.196
         9674.5          9.633        104.604         88.041
         9675.0          9.633        106.711         89.513
         9675.5          9.636        107.158         90.293
         9676.0          9.653        105.788         90.197
         9676.5          9.653        105.215         88.017
         9677.0          9.653        103.141         87.331
         9677.5          9.653         99.333         87.292
         9678.0          9.653         96.640         87.026
         9678.5          9.653         97.388         87.121
         9679.0          9.653        102.107         87.451
         9679.5          9.653        103.909         87.337
         9680.0          9.653        103.402         88.063
         9680.5          9.653        103.102         88.640
         9681.0          9.653        105.713         90.176
         9681.5          9.633        107.848         85.969
         9682.0          9.633        111.067         86.271
         9682.5          9.633        105.290         88.273
         9683.0          9.613         92.371         86.469
         9683.5          9.612         87.288         83.469
         9684.0          9.591         92.157         81.452
         9684.5          9.570         94.439         79.248
         9685.0          9.553         95.767         81.463
         9685.5          9.553         97.780         84.120
         9686.0          9.553        101.419         84.973
         9686.5          9.553        101.788         81.732
         9687.0          9.533         97.106         80.802
         9687.5          9.493         93.324         80.711
         9688.0          9.463         94.223         81.928
         9688.5          9.453         97.522         83.946
         9689.0          9.453         96.679         82.501
         9689.5          9.453         96.615         81.946
         9690.0          9.413         99.776         83.842
         9690.5          9.393        102.018         88.877
         9691.0          9.393        106.621         93.029
         9691.5          9.393        112.695         93.144
         9692.0          9.393        108.788         92.811
         9692.5          9.353         98.301         90.356
         9693.0          9.332         97.788         88.709
         9693.5          9.293         95.098         88.506
         9694.0          9.293         92.456         88.445
         9694.5          9.293         96.106         86.060
         9695.0          9.293         86.424         79.972
         9695.5          9.254         69.016         73.605
         9696.0          9.214         54.673         66.635
         9696.5          9.214         52.931         69.640
         9697.0          9.214         66.161         74.712
         9697.5          9.214         85.677         81.726
         9698.0          9.214         94.016         86.474
         9698.5          9.194         99.203         85.920
         9699.0          9.154         89.791         80.356
         9699.5          9.134         75.827         74.411
         9700.0          9.134         74.021         73.108
         9700.5          9.134         84.134         73.960
         9701.0          9.154         91.662         78.526
         9701.5          9.154         93.818         82.596
         9702.0          9.154         93.279         81.279
         9702.5          9.154         91.617         80.923
         9703.0          9.134         92.773         81.164
         9703.5          9.134         93.162         80.783
         9704.0          9.134         88.784         81.525
         9704.5          9.134         80.730         79.408
         9705.0          9.134         76.438         75.650
         9705.5          9.134         75.354         75.114
         9706.0          9.134         75.156         74.831
         9706.5          9.134         77.896         77.181
         9707.0          9.134         82.113         81.995
         9707.5          9.134         83.941         83.053
         9708.0          9.134         83.682         78.342
         9708.5          9.134         80.915         77.974
         9709.0          9.134         76.075         78.139
         9709.5          9.134         79.628         74.135
         9710.0          9.134         81.247         70.002
         9710.5          9.133         69.026         67.434
         9711.0          9.094         75.513         66.888
         9711.5          9.094         90.246         65.809
         9712.0          9.134         97.290         72.476
         9712.5          9.134        113.905         82.132
         9713.0          9.154        116.872         81.409
         9713.5          9.174        103.301         81.667
         9714.0          9.174        100.445         81.816
         9714.5          9.174        106.011         81.078
         9715.0          9.174        109.553         76.595
         9715.5          9.174        112.269         79.486
         9716.0          9.174        114.300         78.980
         9716.5          9.194        113.893         79.066
         9717.0          9.194        113.524         79.358
         9717.5          9.230        111.610         80.939
         9718.0          9.234        108.151         81.336
         9718.5          9.254        107.984         81.666
         9719.0          9.254        104.429         82.787
         9719.5          9.254         92.385         82.429
         9720.0          9.254         81.394         82.179
         9720.5          9.234         74.109         81.408
         9721.0          9.234         69.662         79.689
         9721.5          9.234         70.290         79.756
         9722.0          9.240         77.458         79.497
         9722.5          9.274         90.197         81.848
         9723.0          9.282         98.902         82.510
         9723.5          9.313        101.354         81.857
         9724.0          9.313         97.486         81.188
         9724.5          9.313         94.893         80.448
         9725.0          9.313         96.001         81.377
         9725.5          9.313         97.345         80.607
         9726.0          9.313         97.055         79.561
         9726.5          9.313         91.210         78.719
         9727.0          9.313         91.078         78.684
         9727.5          9.293         95.155         81.682
         9728.0          9.293        100.994         82.727
         9728.5          9.293        103.999         84.633
         9729.0          9.293        101.961         83.973
         9729.5          9.293         93.482         81.760
         9730.0          9.293         86.068         80.321
