###############################################
##         ENVERUS                           ##
##         ESS - Open Hole                   ##
##         PERMIAN / DELAWARE                ##
##         Nov 03 2023  V4.0                 ##
##         42-109-32538-90-00                ##
###############################################
## Copyright 2017-2023  ENVERUS.  All Rights Reserved. 
## Confidential - Property of ENVERUS, use governed by terms and 
## conditions found within the existing Information Services Subscription Agreement 
## (as may be amended, the “ISSA”) between Customer and ENVERUS. 
## 
~VERSION INFORMATION
# MNEM.UNIT                               DATA : DESCRIPTION OF MNEMONIC
#-----.-----     ----------------------------- : -----------------------------
VERS.                                     2.00 : CWLS LOG ASCII STANDARD - VERSION 2.00
WRAP.                                       NO : MULTIPLE LINES PER DEPTH STEP
VEND.                                  ENVERUS : VENDOR
TYPE.                          ESS - OPEN HOLE : ENVERUS ESSENTIAL CURVES – ACCESSIBLE THROUGH ENVERUS PRISM(TM)
DOC.                                  51093252 : ENVERUS HEADER RAW DOCUMENT ID
#___________________________________________________________________________________________________ 
~WELL INFORMATION 
# oCCetX3e+0pvkDd8h//i1tmWwvIHyfHqsQII3M49Y6eU5HggNAlLoqtwY+vCuZvzOG9Fr+Tv1xe2vto6NUMufQ== 
# MNEM.UNIT                                              DATA : DESCRIPTION OF MNEMONIC 
#-----.-----                    ----------------------------- : ----------------------------- 
CNTY.                                               CULBERSON : COUNTY 
STATE.                                                  TEXAS : STATE 
CNTRY.                                                    USA : COUNTRY 
API.                                             42-109-32538 : API (10 Digit) 
API_14.                                    42-109-32538-90-00 : API (14 Digits) 
API_14_std.                                 42-109-32538-9000 : API (14 Digits Standard) 
UWI.                                           42109325389000 : UNIQUE WELL ID 
WELL.                                                  DRD_55 : WELL NAME
STRT.FT                                                2546.5 : START DEPTH
STOP.FT                                               11260.0 : STOP DEPTH
STEP.FT                                                   0.5 : STEP BETWEEN DEPTHS
NULL.                                                 -999.25 : NULL VALUE
PREV_APII.                                     42109325380000 : WELL IDENTIFIER
#___________________________________________________________________________________________________ 
~PARAMETER INFORMATION 
# MNEM.UNIT                                              DATA : DESCRIPTION OF MNEMONIC 
#-----.-----                    ----------------------------- : ----------------------------- 
EKB.FT                                                   3182 : ELEVATION ABOVE MSL
#___________________________________________________________________________________________________ 
~CURVE INFORMATION 
# MNEM.UNIT           : CURVE DESCRIPTION 
#-----.-----          : ----------------------------- 
 DEPT.FT               : MEASURED DEPTH 
 CALI.IN               : CALIPER (CAL - CALIPER) 
 GR.API                : GAMMA RAY (GAMMA RAY) 
 DT.US/FT              : SONIC DELTA TRANSIT TIME (SONIC) 
 RESS.OHMM             : SHALLOW INDUCTION RESISTIVITY (ILS - SHALLOW RESISTIVITY) 
 RESD.OHMM             : DEEP INDUCTION RESISTIVITY (ILD - DEEP RESISTIVITY) 
 DPHI.V/V              : DENSITY POROSITY (DENSITY POROSITY) 
 NPHI.V/V              : NEUTRON POROSITY (NEUTRON POROSITY) 
 RHOB.G/CC             : BULK DENSITY (DENSITY) 
 #___________________________________________________________________________________________________ 
~A         DEPT           CALI             GR             DT           RESS           RESD           DPHI           NPHI           RHOB
# ...
         9567.5          9.046         68.947         75.909         50.614         44.474        0.14690        0.20726         2.4551
         9568.0          9.024         66.479         74.410         51.996         45.887        0.11553        0.17537         2.4572
         9568.5          9.010         71.432         73.381         49.716         43.883        0.10240        0.16195         2.4858
         9569.0          8.977         75.848         72.352         46.458         41.113        0.09629        0.16066         2.5144
         9569.5          8.938         83.254         71.902         41.579         38.459        0.10197        0.16870         2.5414
         9570.0          8.923         78.401         71.111         40.256         33.985        0.10890        0.19383         2.5486
         9570.5          8.880         68.886         69.785         40.037         34.851        0.10515        0.18579         2.5535
         9571.0          8.844         60.473         68.446         39.855         42.171        0.10688        0.16996         2.5564
         9571.5          8.812         57.653         65.788         45.995         47.162        0.09747        0.15860         2.5618
         9572.0          8.776         51.138         62.701         57.972         65.305        0.07063        0.15770         2.5656
         9572.5          8.733         36.754         59.409         82.440        100.401        0.05124        0.12581         2.5725
         9573.0          8.683         23.606         57.148        116.715        171.715        0.03428        0.11622         2.5845
         9573.5          8.619         23.170         55.643        157.095        239.645        0.00543        0.11689         2.6003
         9574.0          8.547         25.851         55.824        186.406        292.027        0.00000        0.09182         2.6799
         9574.5          8.481         53.222         57.751        149.764        156.233        0.00000        0.09917         2.7220
         9575.0          8.249         84.745         60.662         51.728         48.538        0.00000        0.10271         2.7529
         9575.5          7.939         93.162         63.572         36.232         40.276        0.06378        0.12180         2.7404
         9576.0          7.490         99.043         66.483         33.158         36.117        0.13766        0.17088         2.6208
         9576.5          6.954        104.246         69.393         30.483         32.122        0.12710        0.20386         2.5182
         9577.0          6.558         93.551         71.180         35.823         32.548        0.11556        0.14725         2.4896
         9577.5          6.455         90.849         71.180         35.907         36.069        0.10301        0.11847         2.5184
         9578.0          6.424         93.213         70.595         32.638         34.371        0.07998        0.12025         2.5371
         9578.5          6.415        103.695         69.975         29.837         29.600        0.08191        0.11785         2.5669
         9579.0          6.411        117.353         70.266         26.990         25.895        0.09672        0.12456         2.5789
         9579.5          6.397        120.000         70.266         24.366         22.779        0.10697        0.15909         2.5579
         9580.0          6.352        120.590         70.675         23.914         21.907        0.09860        0.18246         2.5468
         9580.5          6.262        106.176         70.993         25.551         23.840        0.09706        0.19204         2.5416
         9581.0          6.222        117.588         71.084         28.896         26.814        0.09524        0.18535         2.5509
         9581.5          6.191        123.353         71.084         31.602         27.877        0.09374        0.16687         2.5540
         9582.0          6.191        124.270         71.902         32.577         29.442        0.09829        0.16999         2.5571
         9582.5          6.191        115.134         72.247         32.376         28.368        0.10601        0.16817         2.5548
         9583.0          6.191        108.905         72.311         30.931         27.479        0.10980        0.17318         2.5401
         9583.5          6.191        103.820         72.311         31.621         27.755        0.10954        0.17557         2.5337
         9584.0          6.191        102.511         71.902         33.659         31.812        0.09927        0.14527         2.5334
         9584.5          6.191        103.168         71.121         34.839         32.800        0.08861        0.15104         2.5451
         9585.0          6.185        105.728         70.675         33.133         29.949        0.08719        0.15124         2.5617
         9585.5          6.164        118.394         70.129         32.391         29.163        0.09491        0.15722         2.5673
         9586.0          6.164        105.610         70.266         32.488         30.179        0.10861        0.16014         2.5538
         9586.5          6.164         88.667         70.266         35.107         35.893        0.11128        0.16883         2.5421
         9587.0          6.164         81.160         71.285         50.317         48.099        0.10236        0.16773         2.5322
         9587.5          6.158         82.422         72.314         58.708         52.139        0.09400        0.15079         2.5346
         9588.0          6.143        102.511         73.343         50.113         44.482        0.10543        0.20855         2.5493
         9588.5          6.164        123.335         74.781         40.353         32.592        0.11361        0.19258         2.5463
         9589.0          6.164        131.480         75.810         31.627         27.195        0.11925        0.19861         2.5250
         9589.5          6.184        122.271         77.136         31.335         26.882        0.12531        0.19472         2.5135
         9590.0          6.191        119.813         77.368         35.232         30.308        0.12092        0.18465         2.5106
         9590.5          6.191        116.705         75.723         39.500         34.887        0.10786        0.18483         2.5199
         9591.0          6.191        105.019         74.179         51.635         39.497        0.09536        0.18557         2.5363
         9591.5          6.184         89.303         72.811         65.627         59.690        0.08748        0.15994         2.5526
         9592.0          6.191         81.776         71.225         72.763         67.002        0.07913        0.16361         2.5640
         9592.5          6.191         82.639         70.196         79.481         73.754        0.07952        0.15759         2.5736
         9593.0          6.191         82.863         69.167         79.258         76.555        0.07654        0.14098         2.5791
         9593.5          6.191         79.432         68.547         78.593         77.436        0.07259        0.13074         2.5831
         9594.0          6.183         82.508         67.812         79.890         79.012        0.07166        0.12030         2.5882
         9594.5          6.169         83.274         66.994         99.119         84.406        0.05916        0.11477         2.5952
         9595.0          6.164         73.581         66.994        113.731        110.458        0.03436        0.10815         2.6154
         9595.5          6.155         58.921         67.513        143.136        127.621        0.03168        0.09379         2.6466
         9596.0          6.155         63.411         68.907        149.186        143.134        0.04317        0.08342         2.6527
         9596.5          6.155         90.043         70.717        142.452        131.213        0.05473        0.07807         2.6374
