###############################################
##         ENVERUS                           ##
##         ESS - Open Hole                   ##
##         PERMIAN / DELAWARE                ##
##         Nov 02 2023  V4.0                 ##
##         42-109-31408-00-00                ##
###############################################
## Copyright 2017-2023  ENVERUS.  All Rights Reserved. 
## Confidential - Property of ENVERUS, use governed by terms and 
## conditions found within the existing Information Services Subscription Agreement 
## (as may be amended, the “ISSA”) between Customer and ENVERUS. 
## 
~VERSION INFORMATION
# MNEM.UNIT                               DATA : DESCRIPTION OF MNEMONIC
#-----.-----     ----------------------------- : -----------------------------
VERS.                                     2.00 : CWLS LOG ASCII STANDARD - VERSION 2.00
WRAP.                                       NO : MULTIPLE LINES PER DEPTH STEP
VEND.                                  ENVERUS : VENDOR
TYPE.                          ESS - OPEN HOLE : ENVERUS ESSENTIAL CURVES – ACCESSIBLE THROUGH ENVERUS PRISM(TM)
DOC.                                  31850517 : ENVERUS HEADER RAW DOCUMENT ID
#___________________________________________________________________________________________________ 
~WELL INFORMATION 
# bqLd+XSZJOn45CI61XVoQu+UOVndmKoY6sdO6/bnbKn7IExcVbobTFa2ZjWyWmdO1mIol927X6bTh1nHm93KmQ== 
# MNEM.UNIT                                              DATA : DESCRIPTION OF MNEMONIC 
#-----.-----                    ----------------------------- : ----------------------------- 
CNTY.                                               CULBERSON : COUNTY 
STATE.                                                  TEXAS : STATE 
CNTRY.                                                    USA : COUNTRY 
API.                                             42-109-31408 : API (10 Digit) 
API_14.                                    42-109-31408-00-00 : API (14 Digits) 
API_14_std.                                 42-109-31408-0000 : API (14 Digits Standard) 
UWI.                                           42109314080000 : UNIQUE WELL ID 
WELL.                                           CASTILE 48  1 : WELL NAME
STRT.FT                                                2207.0 : START DEPTH
STOP.FT                                               11710.0 : STOP DEPTH
STEP.FT                                                   0.5 : STEP BETWEEN DEPTHS
NULL.                                                 -999.25 : NULL VALUE
COMP.                                         TENNECO OIL CO. : COMPANY 
DATE.                                             28-APR-1980 : LOG DATE
#___________________________________________________________________________________________________ 
~CURVE INFORMATION 
# MNEM.UNIT           : CURVE DESCRIPTION 
#-----.-----          : ----------------------------- 
 DEPT.FT               : MEASURED DEPTH 
 CALI.IN               : CALIPER (CAL - CAL) 
 GR.API                : GAMMA RAY (GR) 
 DT.US/FT              : SONIC DELTA TRANSIT TIME (DT) 
 RESS.OHMM             : SHALLOW INDUCTION RESISTIVITY (ILS - ILS) 
 RESD.OHMM             : DEEP INDUCTION RESISTIVITY (ILD - ILD) 
 #___________________________________________________________________________________________________ 
~A         DEPT           CALI             GR             DT           RESS           RESD
# ...
         4715.0         10.404         51.089         58.832        342.186        496.857
         4715.5         10.401         46.059         59.654        295.838        424.269
         4716.0         10.398         41.029         61.367        299.016        420.079
         4716.5         10.394         36.000         63.080        302.193        444.263
         4717.0         10.391         36.525         64.793        305.371        444.133
         4717.5         10.388         44.881         66.506        289.254        419.796
         4718.0         10.384         53.237         67.010        264.956        395.459
         4718.5         10.381         60.076         66.425        258.877        380.917
         4719.0         10.378         59.402         65.840        258.850        386.388
         4719.5         10.375         58.728         65.255        264.922        415.803
         4720.0         10.371         65.119         64.670        276.701        445.217
         4720.5         10.368         81.703         66.916        288.481        474.632
         4721.0         10.365         96.296         69.483        300.260        504.046
         4721.5         10.361        114.208         72.050        312.039        533.461
         4722.0         10.358        132.120         72.233        333.697        562.876
         4722.5         10.355        131.867         70.903        365.845        597.188
         4723.0         10.352        122.437         69.573        381.075        636.802
         4723.5         10.348        113.008         68.242        381.036        676.415
         4724.0         10.345        103.578         66.912        376.352        668.000
         4724.5         10.342         93.377         65.582        360.385        646.337
         4725.0         10.339         81.790         65.546        344.419        624.674
         4725.5         10.335         70.613         66.384        328.453        603.012
         4726.0         10.332         70.818         67.222        312.486        581.427
         4726.5         10.330         71.024         68.060        300.537        560.339
         4727.0         10.331         71.229         68.898        289.432        539.252
         4727.5         10.332         71.434         69.736        278.326        520.723
         4728.0         10.332         80.497         70.574        274.739        505.384
         4728.5         10.333         96.729         71.412        273.564        490.045
         4729.0         10.334        101.016         72.052        272.388        474.706
         4729.5         10.334        105.244         72.207        265.345        459.367
         4730.0         10.335        109.471         72.363        255.593        444.029
         4730.5         10.335        113.698         72.518        245.840        430.133
         4731.0         10.336        117.926         72.674        242.068        431.764
         4731.5         10.337        122.153         72.404        242.045        433.394
         4732.0         10.337        126.380         72.099        253.072        458.847
         4732.5         10.338        128.905         69.250        363.216        623.620
         4733.0         10.339        121.723         66.150        439.978        788.393
         4733.5         10.339        114.540         63.051        515.914        953.166
         4734.0         10.340        107.358         59.951        591.851       1117.939
         4734.5         10.340        100.176         56.852        572.038       1092.628
         4735.0         10.341         78.232         54.270        491.965        993.878
         4735.5         10.342         49.663         56.876        411.891        852.219
         4736.0         10.342         41.215         59.483        331.818        697.473
         4736.5         10.343         37.106         62.089        297.051        588.826
         4737.0         10.344         38.658         64.696        280.223        514.713
         4737.5         10.344         42.267         67.303        263.394        492.063
         4738.0         10.345         95.616         69.909        251.211        501.225
         4738.5         10.346        107.266         71.910        286.085        519.092
         4739.0         10.346        116.081         70.329        320.959        579.934
         4739.5         10.347        124.897         68.749        355.833        640.777
         4740.0         10.347        133.595         67.169        384.368        701.619
         4740.5         10.348        120.326         65.589        382.137        750.364
         4741.0         10.349        107.057         64.008        379.907        762.005
         4741.5         10.349         92.873         62.428        377.676        768.229
         4742.0         10.350         76.501         60.848        375.445        647.328
         4742.5         10.351         60.130         61.471        309.446        526.427
         4743.0         10.351         58.286         62.450        216.315        415.915
         4743.5         10.356         63.049         63.429        190.383        385.709
         4744.0         10.369         67.812         64.247        185.750        355.502
         4744.5         10.381         72.575         64.464        181.117        330.475
         4745.0         10.394         77.338         64.681        172.628        312.446
         4745.5         10.407         77.608         64.898        138.476        294.418
         4746.0         10.420         76.885         65.115        134.813        271.229
         4746.5         10.432         76.162         66.254        131.150        243.977
         4747.0         10.445         75.439         68.903        127.487        267.248
         4747.5         10.458        107.335         68.357        123.824        290.520
         4748.0         10.470        107.403         66.757        120.161        313.792
         4748.5         10.483         96.646         65.156        118.153        337.064
         4749.0         10.496         86.624         63.556        125.362        352.092
         4749.5         10.509         77.570         61.956        132.571        307.089
         4750.0         10.521         68.516         60.355        113.083        204.432
         4750.5         10.534         59.463         58.755         91.136        123.292
         4751.0         10.547         50.409         61.196         69.190        107.068
         4751.5         10.559         43.351         68.708         47.244         90.844
         4752.0         10.572         78.365         71.304         39.673         79.787
         4752.5         10.585         87.107         70.497         37.043         73.623
         4753.0         10.585         79.819         69.691         34.413         76.345
         4753.5         10.580         72.531         68.884         37.827         81.253
         4754.0         10.574         65.244         68.078         41.535         86.160
         4754.5         10.568         59.219         67.271         45.242         91.068
         4755.0         10.562         59.630         66.465         45.469         91.767
         4755.5         10.556         60.041         65.658         43.336         90.059
         4756.0         10.550         57.695         65.156         41.202         88.352
         4756.5         10.544         55.090         65.885         39.069         86.645
         4757.0         10.538         52.485         66.615         40.654         85.933
         4757.5         10.532         51.700         67.138         42.370         86.327
         4758.0         10.526         59.648         67.365         43.462         86.722
         4758.5         10.520         67.597         67.592         41.507         87.116
