~Version Information
 VERS.                  2.0:   CWLS log ASCII Standard -VERSION 2.0
 WRAP.                   NO:   One line per depth step
~Well Information Block
#MNEM.UNIT     VALUE/NAME     DESCRIPTION
#---------     -----------    ---------------------------
 STRT.F              8400.0000: START DEPTH
 STOP.F             13890.0000: STOP DEPTH
 STEP.F                 0.5000: STEP DEPTH
 NULL.                 -999.25: NULL VALUE
 LOC .     506' FEL & 344' FSL:  LOCATION
 FL6 .       API  42-109-33224:  LOCATIONLINE6
 FL4 .           ABSTRACT 4479:  LOCATIONLINE4
 FL3 .        T&P RR CO SURVEY:  LOCATIONLINE3
 FL2 .     SECTION 30, BLOCK 58 T2:  LOCATIONLINE2
 FL1 .     506' FEL & 344' FSL:  LOCATIONLINE1
 DMF .                      KB:  DRILL MEAS FROM
 PDAT.                      GL:  PERMANENT DATUM
 CNTY.               CULBERSON:  COUNTY NAME
 FLD .     FORD, WEST (WOLFCAMP):  FIELD NAME
 WELL.      LAUREN STATE 30 2H:  WELL NAME
 COMP.     CAPITAN ENERGY, INC.:  COMPANY
 DATE.             19-Feb-2018:  DATE
 SVCO.             Halliburton:  SERVICECONAME
 PROV.                   TEXAS:  PROVINCE
 STAT.                   TEXAS:  STATE NAME
 CTRY.                     USA:  COUNTRY NAME
 HIDE.                        :  WELLNAMEOPERAT
 BASI.                 PERMIAN:  BASIN
 UWI .            42-109-33224:  UNIQUE WELL IDENTIFIER
 API .            42-109-33224:  API NUMBER
 RANG.                     N/A:  RANGE
 TOWN.                     N/A:  TOWNSHIP
 SECT.                     N/A:  SECTION
 SON .               904646015:  JOB NUMBER
 SRVC.             Halliburton:  SERVICE COMPANY
 LMF .                      KB:  LOG MEASURED FROM
 EGL .ft             3168.0000:  GROUND ELEVATION
 BAP .ft                0.0000:  GL ELEV ONSHORE
 GVFD.g                 1.0000:  GRAVITY FIELD
 EKB .ft             3194.0000:  KB ELEVATION
 EDF .ft             3193.0000:  DF ELEVATION
~Curve Information Block
#MNEM.UNIT                 API CODE     Curve Description
#---------               -----------    ---------------------------
 DEPT.F                 00 000 000 000:  Depth
 CCL .V                 00 000 000 000:  Casing Collar Locator
 NPHI_OH.pu             00 000 000 000:  NPHI_OH
 NPHI_CHI.pu            00 000 000 000:  NPHI_CHI
 GR_OH.api              00 000 000 000:  GR_OH
 GR_CHI.api             00 000 000 000:  GR_CHI
 RHOB_OH.g/cc           00 000 000 000:  RHOB_OH
 RHOB_CHI.g/cc          00 000 000 000:  RHOB_CHI
 PE_OH.b/e              00 000 000 000:  PE_OH
 PE_CHI.b/e             00 000 000 000:  PE_CHI
 RT10_OH.ohmm           00 000 000 000:  RT10_OH
 RT10_CHI.ohmm          00 000 000 000:  RT10_CHI
 RT30_OH.ohmm           00 000 000 000:  RT30_OH
 RT30_CHI.ohmm          00 000 000 000:  RT30_CHI
 RT90_OH.ohmm           00 000 000 000:  RT90_OH
 RT90_CHI.ohmm          00 000 000 000:  RT90_CHI
 DTC_OH.uspf            00 000 000 000:  DTC_OH
 DTC_CHI.uspf           00 000 000 000:  DTC_CHI
 SPHI_CHI.pu            00 000 000 000:  SPHI_CHI
 SGF .cu                00 000 000 000:  Formation Sigma
 CRNF.NONE              00 000 000 000:  CM GrsCaptRatio
 RIN .NONE              00 000 000 000:  CM GrsInelRatio
#Other Information
#
#WARRANTY: Halliburton will use its best efforts to furnish customers with 
#accurate information and interpretations that are part of, and incident to, the services 
#provided.  However, Halliburton cannot and does not warrant the accuracy 
#or correctness of such information and interpretations.  Under no circumstances should any 
#such information or interpretation be relied upon as the sole basis for any drilling, 
#completion, production, or financial decision or any procedure involving any risk to the 
#safety of any drilling venture, drilling rig or its crew or any other third party.  The 
#Customer has full responsibility for all drilling, completion and production operation.  
#Halliburton makes no representations or warranties, either expressed or 
#implied, including, but not limited to, the implied warranties of merchantability or fitness 
#for a particular purpose, with respect to the services rendered.  In no event will 
#Halliburton be liable for failure to obtain any particular results or for 
#any damages, including, but not limited to, indirect, special or consequential damages, 
#resulting from the use of any information or interpretation provided by Halliburton.
#
~A    DEPT      CCL   NPHI_OH NPHI_CHI  GR_OH    GR_CHI  RHOB_OH RHOB_CHI  PE_OH  PE_CHI  RT10_OH  RT10_CHI RT30_OH  RT30_CHI RT90_OH  RT90_CHI DTC_OH  DTC_CHI SPHI_CHI   SGF    CRNF   RIN   
# ...
   11676.0000  0.0000 -999.25   8.2836  -999.25  62.4704 -999.25   2.6042 -999.25  4.2426  -999.25  65.8741  -999.25  66.3140  -999.25  73.9071 -999.25 66.5504  13.4000 17.6431 0.8962 1.0021
   11676.5000  0.0000 -999.25   7.9502  -999.25  57.7128 -999.25   2.6096 -999.25  4.2714  -999.25  59.1710  -999.25  59.4605  -999.25  66.6303 -999.25 65.9025  12.9400 17.8120 0.9053 1.0120
   11677.0000  0.0000 -999.25   8.1462  -999.25  62.0717 -999.25   2.6072 -999.25  4.2947  -999.25  53.4052  -999.25  53.2029  -999.25  59.8310 -999.25 66.0995  13.0800 18.0386 0.9142 1.0220
   11677.5000  0.0000 -999.25   8.0822  -999.25  60.6027 -999.25   2.6088 -999.25  4.2947  -999.25  50.3172  -999.25  50.0084  -999.25  56.3296 -999.25 65.9070  12.9500 18.3375 0.9278 1.0299
   11678.0000  0.0000 -999.25   8.9705  -999.25  73.5360 -999.25   2.5967 -999.25  4.2694  -999.25  48.7305  -999.25  47.7208  -999.25  53.6809 -999.25 67.1306  13.8100 18.7680 0.9405 1.0349
   11678.5000  0.0000 -999.25   8.9491  -999.25  70.5362 -999.25   2.5980 -999.25  4.2331  -999.25  48.3513  -999.25  47.3552  -999.25  53.1848 -999.25 67.0020  13.7200 19.3846 0.9511 1.0391
   11679.0000  0.0000 -999.25   9.0402  -999.25  68.1211 -999.25   2.5983 -999.25  4.1846  -999.25  46.6822  -999.25  45.5776  -999.25  51.1324 -999.25 66.9566  13.6900 20.1751 0.9657 1.0458
   11679.5000  0.0000 -999.25  10.0594  -999.25  81.5881 -999.25   2.5854 -999.25  4.1245  -999.25  45.3210  -999.25  43.6582  -999.25  48.7485 -999.25 68.2481  14.6000 20.7741 0.9739 1.0503
   11680.0000  0.0000 -999.25  10.4199  -999.25  84.2684 -999.25   2.5824 -999.25  4.0588  -999.25  43.5777  -999.25  41.7971  -999.25  46.4373 -999.25 68.5714  14.8300 21.3174 0.9745 1.0529
   11680.5000  0.0000 -999.25  10.2443  -999.25  76.9516 -999.25   2.5871 -999.25  3.9948  -999.25  42.3950  -999.25  40.7295  -999.25  45.1477 -999.25 68.1488  14.5300 21.7804 0.9765 1.0539
   11681.0000  0.0000 -999.25  11.2587  -999.25  91.1591 -999.25   2.5739 -999.25  3.9487  -999.25  41.0999  -999.25  39.0286  -999.25  43.1044 -999.25 69.3810  15.4000 22.1965 0.9777 1.0548
   11681.5000  0.0000 -999.25  11.1069  -999.25  88.2748 -999.25   2.5773 -999.25  3.9202  -999.25  40.2666  -999.25  38.3287  -999.25  42.1810 -999.25 69.1323  15.2300 22.7109 0.9933 1.0589
   11682.0000  0.0000 -999.25  11.1402  -999.25  88.0850 -999.25   2.5779 -999.25  3.8973  -999.25  38.6190  -999.25  36.7196  -999.25  40.3395 -999.25 69.0811  15.1900 23.3494 1.0061 1.0644
   11682.5000  0.0000 -999.25  12.5880  -999.25 111.0408 -999.25   2.5580 -999.25  3.8568  -999.25  38.8729  -999.25  36.5063  -999.25  39.8278 -999.25 70.8797  16.4600 23.9802 1.0151 1.0673
   11683.0000  0.0000 -999.25  13.6406  -999.25 123.2705 -999.25   2.5448 -999.25  3.7754  -999.25  39.9869  -999.25  37.3311  -999.25  40.4774 -999.25 72.0248  17.2700 24.8476 1.0234 1.0674
   11683.5000  0.0000 -999.25  13.4050  -999.25 115.4067 -999.25   2.5500 -999.25  3.6913  -999.25  42.0074  -999.25  39.4846  -999.25  42.4837 -999.25 71.7906  17.1100 25.7858 1.0356 1.0658
   11684.0000  0.0000 -999.25  13.7025  -999.25 117.1807 -999.25   2.5479 -999.25  3.6127  -999.25  41.3329  -999.25  38.8295  -999.25  41.4668 -999.25 72.0705  17.3100 26.3898 1.0457 1.0657
   11684.5000  0.0000 -999.25  14.2345  -999.25 123.0106 -999.25   2.5430 -999.25  3.5507  -999.25  37.8602  -999.25  35.3699  -999.25  37.6494 -999.25 72.4658  17.5900 26.6170 1.0476 1.0691
   11685.0000  0.0000 -999.25  14.7373  -999.25 127.5120 -999.25   2.5381 -999.25  3.5119  -999.25  34.5206  -999.25  32.0511  -999.25  34.2424 -999.25 72.7439  17.7800 26.5306 1.0471 1.0738
   11685.5000  0.0000 -999.25  13.9905  -999.25 112.5192 -999.25   2.5501 -999.25  3.4922  -999.25  32.4249  -999.25  30.2125  -999.25  32.4176 -999.25 71.7050  17.0500 26.1435 1.0394 1.0761
   11686.0000  0.0000 -999.25  14.5700  -999.25 121.4006 -999.25   2.5416 -999.25  3.4931  -999.25  33.0932  -999.25  30.7176  -999.25  32.9947 -999.25 72.3764  17.5200 25.7459 1.0368 1.0764
   11686.5000  0.0000 -999.25  14.7771  -999.25 125.0501 -999.25   2.5375 -999.25  3.5078  -999.25  35.1770  -999.25  32.6461  -999.25  35.0805 -999.25 72.7218  17.7700 25.3336 1.0300 1.0723
   11687.0000  0.0000 -999.25  13.8774  -999.25 112.9123 -999.25   2.5494 -999.25  3.5566  -999.25  34.0921  -999.25  31.7575  -999.25  34.2611 -999.25 71.6997  17.0400 24.8245 1.0102 1.0678
   11687.5000  0.0000 -999.25  14.5835  -999.25 125.3454 -999.25   2.5383 -999.25  3.5982  -999.25  33.6918  -999.25  31.1447  -999.25  33.7954 -999.25 72.4681  17.5900 24.0004 0.9855 1.0615
   11688.0000  0.0000 -999.25  14.2223  -999.25 121.8135 -999.25   2.5425 -999.25  3.6687  -999.25  31.0763  -999.25  28.6207  -999.25  31.3497 -999.25 71.9494  17.2200 22.5779 0.9540 1.0555
   11688.5000  0.0000 -999.25  13.4916  -999.25 116.1008 -999.25   2.5504 -999.25  3.7721  -999.25  30.0376  -999.25  27.6781  -999.25  30.4980 -999.25 71.2084  16.7000 20.7882 0.9130 1.0459
   11689.0000  0.0000 -999.25  13.5009  -999.25 123.9405 -999.25   2.5458 -999.25  3.8992  -999.25  32.0593  -999.25  29.4511  -999.25  32.6202 -999.25 71.5333  16.9300 19.1980 0.8823 1.0333
   11689.5000  0.0000 -999.25  12.3514  -999.25 115.0735 -999.25   2.5566 -999.25  4.0573  -999.25  35.5451  -999.25  33.0015  -999.25  36.7994 -999.25 70.6457  16.3000 17.6664 0.8501 1.0180
   11690.0000  0.0000 -999.25  10.1965  -999.25  91.7924 -999.25   2.5820 -999.25  4.2079  -999.25  42.4140  -999.25  40.6792  -999.25  45.5028 -999.25 68.5559  14.8200 16.4392 0.8239 1.0016
   11690.5000  0.0000 -999.25   8.9894  -999.25  80.4526 -999.25   2.5944 -999.25  4.3320  -999.25  50.7444  -999.25  49.8697  -999.25  56.0486 -999.25 67.4085  14.0100 15.4653 0.8059 0.9866
   11691.0000  0.0000 -999.25   8.1286  -999.25  74.7444 -999.25   2.6024 -999.25  4.4333  -999.25  61.9703  -999.25  62.4098  -999.25  70.1829 -999.25 66.6744  13.4900 14.6649 0.7862 0.9713
   11691.5000  0.0000 -999.25   8.3332  -999.25  85.9915 -999.25   2.5955 -999.25  4.5113  -999.25  73.9622  -999.25  75.0956  -999.25  84.1967 -999.25 67.4084  14.0100 14.0687 0.7708 0.9579
   11692.0000  0.0000 -999.25   7.2732  -999.25  72.0186 -999.25   2.6081 -999.25  4.5541  -999.25  88.5195  -999.25  92.2853  -999.25 103.3881 -999.25 66.1682  13.1300 13.6502 0.7609 0.9452
   11692.5000  0.0000 -999.25   7.0742  -999.25  73.9441 -999.25   2.6085 -999.25  4.6031  -999.25  98.6542  -999.25 103.9041  -999.25 116.1964 -999.25 66.1533  13.1200 13.2635 0.7509 0.9354
   11693.0000  0.0000 -999.25   6.0088  -999.25  57.9270 -999.25   2.6228 -999.25  4.6333  -999.25 105.8625  -999.25 113.9958  -999.25 127.6842 -999.25 64.5924  12.0200 12.8907 0.7448 0.9289
   11693.5000  0.0000 -999.25   5.5452  -999.25  51.5357 -999.25   2.6285 -999.25  4.6637  -999.25 109.9981  -999.25 119.6475  -999.25 134.3023 -999.25 63.8953  11.5200 12.5525 0.7431 0.9259
   11694.0000  0.0000 -999.25   5.5105  -999.25  53.6679 -999.25   2.6276 -999.25  4.6955  -999.25 114.7423  -999.25 125.1491  -999.25 140.5301 -999.25 63.9801  11.5800 12.2547 0.7418 0.9231
   11694.5000  0.0000 -999.25   5.1889  -999.25  48.8567 -999.25   2.6315 -999.25  4.7168  -999.25 118.7316  -999.25 130.4052  -999.25 146.6990 -999.25 63.4802  11.2300 12.0597 0.7447 0.9212
   11695.0000  0.0000 -999.25   4.8211  -999.25  41.7291 -999.25   2.6366 -999.25  4.7372  -999.25 119.4714  -999.25 132.0134  -999.25 149.1306 -999.25 62.7784  10.7300 12.0392 0.7570 0.9254
   11695.5000  0.0000 -999.25   4.8935  -999.25  43.6478 -999.25   2.6354 -999.25  4.7684  -999.25 115.1612  -999.25 126.7414  -999.25 143.8549 -999.25 62.8654  10.8000 12.1878 0.7758 0.9365
   11696.0000  0.0000 -999.25   4.9696  -999.25  44.4590 -999.25   2.6351 -999.25  4.8071  -999.25  98.6412  -999.25 107.4255  -999.25 123.1967 -999.25 62.7999  10.7500 12.5514 0.8021 0.9587
   11696.5000  0.0000 -999.25   5.1038  -999.25  43.8727 -999.25   2.6349 -999.25  4.8261  -999.25  78.0991  -999.25  83.5029  -999.25  96.9409 -999.25 62.7202  10.6900 13.0297 0.8221 0.9830
