~Version Information
 VERS.                  2.0:   CWLS log ASCII Standard -VERSION 2.0
 WRAP.                   NO:   One line per depth step
~Well Information Block
#MNEM.UNIT     VALUE/NAME     DESCRIPTION
#---------     -----------    ---------------------------
 STRT.F              8650.0000: START DEPTH
 STOP.F             14150.0000: STOP DEPTH
 STEP.F                 0.5000: STEP DEPTH
 NULL.                 -999.25: NULL VALUE
 LOC .     A1759-SEC34-BLK58-T2-:  LOCATION
 FL4 .        API 42-109-33169:  LOCATIONLINE4
 FL2 .     T&P RR CO-337FSL-25:  LOCATIONLINE2
 FL1 .     A1759-SEC34-BLK58-T2-:  LOCATIONLINE1
 DMF .                      KB:  DRILL MEAS FROM
 PDAT.                      GL:  PERMANENT DATUM
 CNTY.               CULBERSON:  COUNTY NAME
 FLD .     FORD, WEST (WOLFCAMP):  FIELD NAME
 WELL.         ALICE FEE 34 2H:  WELL NAME
 COMP.     CAPITAN ENERGY INC.:  COMPANY
 DATE.             27-Mar-2018:  DATE
 SVCO.             Halliburton:  SERVICECONAME
 PROV.                   TEXAS:  PROVINCE
 STAT.                   TEXAS:  STATE NAME
 CTRY.                     USA:  COUNTRY NAME
 HIDE.                        :  WELLNAMEOPERAT
 BASI.                 PERMIAN:  BASIN
 UWI .            42-109-33169LAT:  UNIQUE WELL IDENTIFIER
 API .            42-109-33169LAT:  API NUMBER
 RANG.                     N/A:  RANGE
 TOWN.                     N/A:  TOWNSHIP
 SECT.                     N/A:  SECTION
 SRVC.             Halliburton:  SERVICE COMPANY
 LMF .                      KB:  LOG MEASURED FROM
 TVDS.ft             3088.0000:  TVDSS CORRECTN
 EGL .ft             3063.0000:  GROUND ELEVATION
 APD .ft               25.0000:  DEPTH ABOVE PD
 EPD .ft             3063.0000:  ELEVATION
 BAP .ft                0.0000:  GL ELEV ONSHORE
 GVFD.g                 1.0000:  GRAVITY FIELD
 EKB .ft             3088.0000:  KB ELEVATION
 EDF .ft             3087.0000:  DF ELEVATION
~Curve Information Block
#MNEM.UNIT                 API CODE     Curve Description
#---------               -----------    ---------------------------
 DEPT.F                 00 000 000 000:  Depth
 CCL .mV                00 000 000 000:  Casing Collar Locator
 NPHI_OH.pu             00 000 000 000:  NPHI_OH
 NPHI_CHI.pu            00 000 000 000:  NPHI_CHI
 GR_OH.api              00 000 000 000:  GR_OH
 GR_CHI.api             00 000 000 000:  GR_CHI
 RHOB_OH.g/cc           00 000 000 000:  RHOB_OH
 RHOB_CHI.g/cc          00 000 000 000:  RHOB_CHI
 PE_OH.b/e              00 000 000 000:  PE_OH
 PE_CHI.b/e             00 000 000 000:  PE_CHI
 MSFL_OH.ohmm           00 000 000 000:  MSFL_OH
 MSFL_CHI.ohmm          00 000 000 000:  MSFL_CHI
 LLS_OH.ohmm            00 000 000 000:  LLS_OH
 LLS_CHI.ohmm           00 000 000 000:  LLS_CHI
 LLD_OH.ohmm            00 000 000 000:  LLD_OH
 LLD_CHI.ohmm           00 000 000 000:  LLD_CHI
 DTC_OH.uspf            00 000 000 000:  DTC_OH
 DTC_CHI.uspf           00 000 000 000:  DTC_CHI
 SPHI_CHI.pu            00 000 000 000:  SPHI_CHI
 SGF .cu                00 000 000 000:  Formation Sigma
 CRNF.NONE              00 000 000 000:  CM GrsCaptRatio
 RIN .NONE              00 000 000 000:  CM GrsInelRatio
#Other Information
#
#WARRANTY: Halliburton will use its best efforts to furnish customers with 
#accurate information and interpretations that are part of, and incident to, the services 
#provided.  However, Halliburton cannot and does not warrant the accuracy 
#or correctness of such information and interpretations.  Under no circumstances should any 
#such information or interpretation be relied upon as the sole basis for any drilling, 
#completion, production, or financial decision or any procedure involving any risk to the 
#safety of any drilling venture, drilling rig or its crew or any other third party.  The 
#Customer has full responsibility for all drilling, completion and production operation.  
#Halliburton makes no representations or warranties, either expressed or 
#implied, including, but not limited to, the implied warranties of merchantability or fitness 
#for a particular purpose, with respect to the services rendered.  In no event will 
#Halliburton be liable for failure to obtain any particular results or for 
#any damages, including, but not limited to, indirect, special or consequential damages, 
#resulting from the use of any information or interpretation provided by Halliburton.
#
~A    DEPT       CCL    NPHI_OH NPHI_CHI  GR_OH    GR_CHI  RHOB_OH RHOB_CHI  PE_OH  PE_CHI  MSFL_OH   MSFL_CHI  LLS_OH   LLS_CHI   LLD_OH   LLD_CHI  DTC_OH  DTC_CHI SPHI_CHI   SGF    CRNF   RIN   
    8650.0000    0.0000 14.7700   9.7679  49.6810  65.6877  2.6356   2.6030  4.3617 3.7994   101.7386  42.8445  133.8123 108.3690  150.9832 124.8227 62.6042 65.9727  12.9900 20.6378 0.6447 0.9640
    8650.5000    0.0000 13.3100   9.8183  49.2556  68.2688  2.6405   2.6021  4.5819 3.8247   108.3883  45.9835  227.4077 117.6799  217.0792 134.7230 61.6343 65.9596  12.9800 20.0495 0.6155 0.9551
    8651.0000    0.0000 13.4900   9.8463  54.1084  72.5622  2.6403   2.6017  4.5922 3.8339    76.5628  49.0916  145.3414 124.9887  165.4639 141.9967 60.3322 65.8881  12.9300 19.4099 0.5989 0.9469
    8651.5000    0.0000 13.5600   9.4952  63.4196  72.0329  2.6335   2.6066  4.3460 3.8808    51.9663  53.2951  146.8885 135.4931  171.1649 152.9177 59.4557 65.2908  12.5100 18.9070 0.5963 0.9439
    8652.0000    0.0000 12.1100   8.3448  65.2067  56.7979  2.6297   2.6226  4.1469 4.0167    49.6234  58.3512  147.4445 150.6040  172.5831 170.4547 58.3388 63.7236  11.4000 18.6378 0.6018 0.9447
    8652.5000    0.0000 10.8500   8.0759  46.8060  56.7150  2.6496   2.6261  4.4378 4.0856    50.0329  67.6004  185.7248 179.0054  217.9819 200.8360 56.1706 63.1306  10.9800 18.4107 0.5980 0.9453
    8653.0000    0.0000  8.0400   8.4570  26.2100  67.4524  2.6879   2.6208  5.0055 4.0549    49.8754  74.4640  578.0778 195.9276  429.7787 217.2216 55.0328 63.4121  11.1800 18.1106 0.5895 0.9406
    8653.5000    0.0000  7.8500   8.3359  23.6118  64.5589  2.7069   2.6223  5.2612 4.0814    37.5395  71.5266  277.6511 188.2789  309.7933 208.9892 54.1428 63.4371  11.2000 17.7814 0.5807 0.9340
    8654.0000    0.0000 10.9100   8.2498  55.9875  64.8621  2.6608   2.6234  4.9276 4.1031    58.2906  72.5078  229.6048 190.0639  250.6773 210.2514 53.2719 63.3695  11.1500 17.5140 0.5771 0.9276
    8654.5000    0.0000 12.0500   7.9350  56.2232  62.0169  2.6546   2.6277  4.8520 4.1470    71.8232  75.3696  192.7228 196.3823  203.0626 216.6581 53.2649 63.0372  10.9200 17.3585 0.5747 0.9250
    8655.0000    0.0000 10.8300   7.6974  48.0918  59.6670  2.6521   2.6310  4.9261 4.1761   110.8137  79.8261  223.8143 208.3744  231.4728 229.5329 53.8716 62.7055  10.6800 16.9664 0.5653 0.9227
    8655.5000   32.8939 10.3400   7.2927  44.0605  51.7685  2.6513   2.6365  4.9327 4.2330   138.0596  82.1064  219.7894 216.5016  234.1649 239.5771 54.6958 62.2487  10.3600 16.3122 0.5517 0.9194
    8656.0000    0.0000  9.9700   7.1648  42.4172  49.8521  2.6526   2.6382  4.9069 4.2619   114.3871  83.2749  227.7083 220.3395  245.6425 243.7600 55.3951 62.1156  10.2700 15.6207 0.5408 0.9117
    8656.5000   40.9497 10.1200   7.3076  42.4398  56.7378  2.6495   2.6361  4.9194 4.2666    72.1462  83.0147  191.8652 215.6113  199.5465 236.1458 55.7755 62.3379  10.4200 15.1399 0.5407 0.9058
    8657.0000  -31.9766 10.2500   6.3265  44.3029  41.8820  2.6436   2.6493  4.8747 4.4091    47.8635  94.7519  195.1586 240.7763  201.8154 264.8389 55.4844 61.3471   9.7200 14.9537 0.5489 0.9060
    8657.5000    0.0000 10.6800   6.6129  44.1413  50.9005  2.6452   2.6451  4.8889 4.4224    40.4114  94.7432  186.7358 249.5110  198.4935 270.7874 54.9594 61.4591   9.8000 14.9898 0.5628 0.9131
    8658.0000    0.0000 10.7800   6.3274  41.2800  45.1595  2.6562   2.6490  5.0105 4.4701    46.5151 103.4832  183.2811 279.5714  196.6263 303.8709 54.2401 61.0276   9.5000 15.1565 0.5740 0.9236
    8658.5000    0.0000  9.5300   6.3911  36.9144  42.5916  2.6707   2.6480  5.1104 4.4732    18.9317  99.6119  231.3198 275.7187  258.0057 301.3166 53.3811 61.0586   9.5200 15.3068 0.5809 0.9320
    8659.0000    0.0000  8.4400   6.8009  30.1247  46.5004  2.6908   2.6423  5.1851 4.4271     8.5517  88.1945  357.6230 245.3621  344.8516 269.0028 51.9986 61.5959   9.9000 15.3706 0.5795 0.9347
    8659.5000  -34.5318  8.5700   7.7827  26.2652  62.7511  2.7012   2.6287  5.2523 4.3164     9.5332  75.3294  315.5291 206.9972  335.1480 225.9658 52.0225 62.6812  10.6700 15.4483 0.5696 0.9323
    8660.0000    0.0000  9.1400   7.6570  28.2924  57.8876  2.6859   2.6304  5.2665 4.3349    23.6429  74.0546  322.8799 205.9580  351.5256 225.9547 52.4949 62.6170  10.6200 15.5366 0.5495 0.9271
    8660.5000    0.0000  9.4500   7.2086  33.7964  48.0780  2.6822   2.6366  5.2574 4.3837   168.2171  78.1420  336.6654 220.5965  417.7745 243.4981 53.2790 62.1214  10.2700 15.4783 0.5260 0.9207
    8661.0000    0.0000  9.5600   7.4387  41.3204  53.4284  2.7033   2.6335  5.4825 4.3508   384.8501  81.3169  285.3394 229.8929  331.3643 252.6799 53.8165 62.2553  10.3600 15.2324 0.5151 0.9142
    8661.5000    0.0000  9.6400   7.5414  50.2205  61.3903  2.6768   2.6323  5.4662 4.3197   159.1849  87.0282  286.5948 239.2132  342.9863 260.1047 54.8238 62.2635  10.3700 14.9953 0.5280 0.9125
    8662.0000    0.0000 10.5000   6.6124  51.1425  50.5016  2.6707   2.6453  5.2973 4.4125   130.9454 106.6319  275.8716 290.0771  333.3921 314.2884 55.2815 61.2063   9.6200 14.9741 0.5474 0.9154
    8662.5000    0.0000 10.9800   5.9775  39.7044  44.0076  2.6797   2.6541  5.2202 4.4932   150.5717 128.2860  344.1554 346.3833  382.2906 373.4082 54.5786 60.4251   9.0700 15.2605 0.5627 0.9205
    8663.0000    0.0000  9.6800   6.5064  26.2082  51.1370  2.6928   2.6467  5.2658 4.4436   212.5779 113.2384  726.1053 310.1482  822.6396 334.2798 52.9615 61.0031   9.4800 15.5585 0.5538 0.9223
    8663.5000    0.0000  7.7000   6.9301  19.8415  52.9895  2.7102   2.6408  5.2803 4.3958   364.1873  97.9315  719.3645 271.4484  777.4957 294.8803 52.2510 61.5501   9.8700 15.4500 0.5290 0.9181
    8664.0000    0.0000  7.9600   7.2526  20.9814  55.0620  2.7153   2.6363  5.2154 4.3515   115.3753  87.2485  481.3922 240.9602  454.3390 263.1207 51.9199 62.0288  10.2000 14.9505 0.5113 0.9097
    8664.5000    0.0000  8.5600   7.2937  32.2651  58.5630  2.6983   2.6358  5.0873 4.3466    78.8435  91.4000  203.7521 251.1468  245.9342 272.7397 52.0712 61.9798  10.1700 14.4288 0.5082 0.9039
    8665.0000    0.0000  8.7100   6.6180  46.5844  52.2503  2.6739   2.6453  5.0122 4.4174    55.7095 114.2875  176.1584 314.3251  209.8362 339.0505 52.0296 61.0722   9.5300 14.1768 0.5223 0.9049
    8665.5000    0.0000  9.6300   6.5541  50.2989  54.4814  2.6678   2.6460  5.1553 4.4519    59.9725 119.7850  172.7515 330.4474  205.8137 353.8996 52.1547 60.9247   9.4200 14.3200 0.5409 0.9104
    8666.0000  -40.8865  9.0500   5.9135  43.2573  44.8626  2.6830   2.6547  5.3833 4.5448    60.4135 137.5057  167.7150 383.2120  198.9174 410.3072 52.0123 60.1888   8.9000 14.7790 0.5551 0.9161
    8666.5000    0.0000  8.1100   6.2347  34.7850  49.3576  2.6961   2.6502  5.4509 4.5170    79.3708 124.8768  290.7993 348.9876  331.9373 373.7673 51.8374 60.5682   9.1700 15.3652 0.5674 0.9206
    8667.0000    0.0000  8.4400   7.2172  32.7127  65.2020  2.6988   2.6367  5.3820 4.3910    68.9331  94.8299  246.7216 255.8914  267.4247 274.1059 51.7398 61.7416  10.0000 16.0609 0.5909 0.9250
    8667.5000    0.0000  8.8700   7.2645  37.8151  62.9845  2.6911   2.6363  5.3287 4.3364    81.1491  86.4181  236.9862 226.3014  267.8026 244.3153 51.9664 62.0790  10.2400 17.0599 0.6381 0.9365
    8668.0000    0.0000  9.3500   7.2090  43.4797  59.0465  2.6796   2.6372  5.4168 4.3004   111.3262  77.7251  296.1174 193.8780  327.2180 211.3768 53.1928 62.3974  10.4600 18.4426 0.7141 0.9548
    8668.5000    0.0000  9.1200   7.2184  37.0463  53.6954  2.6900   2.6373  5.4421 4.2464   160.4728  72.1743  392.3418 172.1049  372.9830 190.2577 54.5525 62.7653  10.7300 20.3776 0.7941 0.9778
    8669.0000    0.0000  9.4100   8.0892  39.2262  57.2024  2.6922   2.6256  5.3548 4.0988   165.0199  56.4575  351.5035 134.1876  352.3070 150.5205 56.3753 64.1255  11.6900 22.5548 0.8451 0.9983
    8669.5000    0.0000 10.8800   9.1842  48.5106  56.9924  2.6877   2.6105  5.2829 3.9206    96.7032  42.6189  343.7599 101.3456  345.5965 116.2755 60.9385 66.0746  13.0700 23.9838 0.8216 1.0101
    8670.0000    0.0000 12.8200  10.9826  56.0956  68.5271  2.6518   2.5854  5.2190 3.6890    35.9685  34.7936  233.2874  87.0621  229.1772 101.1317 64.3155 68.6816  14.9100 23.8678 0.7571 1.0130
