~VERSION INFORMATION
VERS. 2.0 : CWLS Log ASCII Standard - Version 2.0
WRAP. NO : One line per depth step
#--------------------------------------------------#
#----------------DRILLING INFO, INC.---------------#
#---------------WWW.DRILLINGINFO.COM---------------#
#------------------COPYRIGHT 2015------------------#
#--------------------------------------------------#
#THIS FILE MAY BE USED ONLY IN ACCORDANCE WITH A CURRENT SUBSCRIPTION AGREEMENT BETWEEN
#THE USER AND DRILLING INFO, INC. NO PART OF THIS FILE MAY BE REPRODUCED, USED, COPIED,
#MODIFIED, PROPAGATED, OR DISTRIBUTED EXCEPT IN ACCORDANCE WITH THE SUBSCRIPTION
#AGREEMENT. UNAUTHORIZED USE OR DISTRIBUTION OF ALL OR ANY PART OF THIS FILE MAY VIOLATE
#COPYRIGHT, TRADEMARK, AND/OR OTHER LAWS AND IS SUBJECT TO CIVIL AS WELL AS CRIMINAL
#SANCTIONS.
#--------------------------------------------------#
#THIS FILE IS PROVIDED "AS-IS" AND ALL WARRANTIES ARE EXPRESSLY DISCLAIMED, WHETHER
#EXPRESS, ORAL, IMPLIED, STATUTORY OR OTHERWISE, INCLUDING ANY IMPLIED WARRANTY OF FITNESS
#FOR A PARTICULAR PURPOSE, MERCHANTABILITY, TITLE OR NON-INFRINGEMENT, AND ANY WARRANTIES
#ARISING BY VIRTUE OF CUSTOM OF TRADE OR COURSE OF DEALING.  FURTHER, DRILLING INFO,
#INC. AND ITS LICENSORS DO NOT REPRESENT OR WARRANT THAT THIS FILE WILL MEET USER'S
#REQUIREMENTS OR ARE SUITABLE FOR USER'S NEEDS OR THAT THE DATA OR RESULTS PROVIDED IN
#CONJUNCTION THEREWITH ARE CORRECT, ACCURATE, TIMELY OR RELIABLE. THESE DISCLAIMERS SHALL
#APPLY REGARDLESS OF ANY FAILURE OF ESSENTIAL PURPOSE OF ANY LIMITED REMEDY.  SOME
#JURISDICTIONS DO NOT ALLOW THE EXCLUSION OF CERTAIN WARRANTIES SO SOME OF THE ABOVE
#EXCLUSIONS MAY NOT APPLY. IN NO EVENT SHALL DRILLING INFO, INC. OR ANY OF ITS AFFILIATES
#BE LIABLE UNDER ANY LEGAL THEORY, WHETHER IN TORT (INCLUDING WITHOUT LIMITATION
#NEGLIGENCE), CONTRACT, STRICT LIABILITY, STATUTORY OR OTHERWISE, FOR ANY SPECIAL,
#INCIDENTAL, CONSEQUENTIAL, EXEMPLARY, PUNITIVE OR INDIRECT DAMAGE OF ANY KIND, INCLUDING
#WITHOUT LIMITATION LOSS OF REVENUE, PROFITS, GOODWILL, USE, AND/OR DATA OR THE COST OF
#PROCUREMENT OF SUBSTITUTE GOODS OR SERVICES, EVEN IF APPRISED OF THE POSSIBILITY OF SUCH
#DAMAGES IN ADVANCE.
#--------------------------------------------------#
~WELL INFORMATION
#MNEMONIC     .UNIT              VALUE :DESCRIPTION
#--------------------------------------------------#
STRT       .ft                51.00000 :START DEPTH
STOP       .ft                9476.00000 :STOP DEPTH
STEP       .ft                0.50000 :STEP
NULL       .                -999.25000 :NULL VALUE
COMP       .                 :COMPANY
WELL       .                 :WELL
FLD       .                 :FIELD
LOC       .                 :LOCATION
CNTY       .                 :COUNTY
STAT       .                 :STATE
CTRY       .                 :COUNTRY
SRVC       .                 :SERVICE COMPANY
DATE       .                 :DATE
API       .                42109100520000 :API NUMBER
~CURVE INFORMATION
#MNEMONIC     .UNIT      API CODE :CURVE DESCRIPTION
#--------------------------------------------------#
DEPTH       .ft                      :Measured Depth
CAL       .in        UNKNOWN   :CAL
DT       .us/ft        UNKNOWN   :DT
GR       .gAPI        UNKNOWN   :GR
~A    DEPTH    CAL    DT    GR
# ...
5782.00000    9.26816    62.93315    63.62170
5782.50000    9.26485    62.98039    69.10434
5783.00000    9.26565    63.02763    74.58698
5783.50000    9.26646    63.07486    75.79928
5784.00000    9.26726    64.52923    69.67258
5784.50000    9.26806    63.45236    74.52593
5785.00000    9.26887    62.37549    79.32679
5785.50000    9.26967    61.70296    75.77963
5786.00000    9.27047    61.52755    72.23248
5786.50000    9.27128    58.94951    68.68533
5787.00000    9.27208    59.47393    65.13817
5787.50000    9.27289    60.45381    61.59102
5788.00000    9.27369    61.43370    64.05741
5788.50000    9.27449    62.41358    70.02279
5789.00000    9.27530    63.02351    75.98817
5789.50000    9.27610    63.09450    81.95355
5790.00000    9.27690    63.16549    87.91894
5790.50000    9.27771    63.23647    90.17733
5791.00000    9.27851    63.92083    86.07254
5791.50000    9.27931    65.29610    81.96775
5792.00000    9.28012    66.67137    84.91031
5792.50000    9.28092    66.84775    90.78728
5793.00000    9.28172    66.04687    96.66426
5793.50000    9.28253    65.24598    102.35282
5794.00000    9.28333    64.44510    100.67269
5794.50000    9.28413    63.64422    93.51707
5795.00000    9.28494    62.84333    83.30166
5795.50000    9.28574    62.04245    73.08626
5796.00000    9.28655    63.09002    62.87085
5796.50000    9.28735    64.33486    64.30852
5797.00000    9.28815    65.57970    73.85139
5797.50000    9.28896    66.31562    83.39427
5798.00000    9.28976    65.33187    92.93714
5798.50000    9.29056    64.34812    94.37413
5799.00000    9.29137    63.36436    91.27884
5799.50000    9.29217    62.38061    86.68360
5800.00000    9.29080    61.39686    79.72519
5800.50000    9.28872    60.57980    72.76678
5801.00000    9.28664    60.08308    69.25952
5801.50000    9.28456    59.58636    70.63009
5802.00000    9.28248    60.28117    72.00065
5802.50000    9.28040    61.11224    73.37586
5803.00000    9.27832    61.94330    75.01244
5803.50000    9.27624    62.77437    76.64902
5804.00000    9.27416    63.60544    78.28559
5804.50000    9.27208    64.43650    81.79882
5805.00000    9.27000    65.26757    86.53944
5805.50000    9.26920    65.00152    91.28007
5806.00000    9.26931    62.87067    92.00195
5806.50000    9.26941    60.73982    87.61720
5807.00000    9.26951    58.60897    76.44167
5807.50000    9.26962    56.47812    65.26614
5808.00000    9.26972    54.34728    54.09062
5808.50000    9.26983    52.26192    44.32747
5809.00000    9.26993    53.07401    41.71352
5809.50000    9.27003    53.88609    39.09956
5810.00000    9.27013    54.69817    36.48561
5810.50000    9.27024    55.51026    34.18054
5811.00000    9.27034    56.32234    35.71162
5811.50000    9.27045    57.13443    37.24269
5812.00000    9.27055    56.93765    62.21036
5812.50000    9.27065    53.40538    59.11722
5813.00000    9.27076    50.66055    54.96379
5813.50000    9.27086    50.66040    50.65529
5814.00000    9.27097    50.66025    47.50429
5814.50000    9.27107    50.77677    44.94968
5815.00000    9.27117    52.72051    42.39508
5815.50000    9.27128    54.66425    39.84047
5816.00000    9.27138    56.60798    37.28587
5816.50000    9.27149    58.55172    39.47443
5817.00000    9.27159    60.49546    45.30727
5817.50000    9.27169    62.43919    60.09405
5818.00000    9.27180    64.38293    74.88083
5818.50000    9.27190    65.63674    89.66761
5819.00000    9.27201    65.09801    99.32343
5819.50000    9.27211    64.55928    98.25490
5820.00000    9.27222    64.02055    97.18637
5820.50000    9.27232    63.48182    88.18122
5821.00000    9.27243    62.94308    83.89947
5821.50000    9.27253    62.63868    79.61773
5822.00000    9.27264    62.52132    75.62479
5822.50000    9.27274    62.24021    74.53661
5823.00000    9.27285    61.13826    73.44844
5823.50000    9.27295    60.03631    72.36026
5824.00000    9.27305    58.93436    71.27208
5824.50000    9.27316    58.65712    70.18390
5825.00000    9.27326    58.61764    64.59989
5825.50000    9.27337    58.03353    58.86655
5826.00000    9.27347    56.62902    53.13322
5826.50000    9.27358    56.51258    48.14778
5827.00000    9.27368    57.03009    52.41704
5827.50000    9.27379    57.54761    56.68630
5828.00000    9.27389    57.78842    60.95556
5828.50000    9.27399    57.90004    65.22482
5829.00000    9.27410    59.85549    53.63742
5829.50000    9.27420    61.81094    60.71340
5830.00000    9.27431    63.76639    69.41626
5830.50000    9.27441    64.64000    78.11912
5831.00000    9.27452    64.40700    86.82198
5831.50000    9.27462    64.17401    82.57554
5832.00000    9.27473    63.94101    76.15560
5832.50000    9.27483    63.70801    77.68578
5833.00000    9.27494    64.19158    82.31537
5833.50000    9.27504    65.00982    82.74092
5834.00000    9.27515    65.82806    80.99469
5834.50000    9.27525    66.64630    79.24846
5835.00000    9.27536    65.73175    77.50223
5835.50000    9.27546    64.65963    75.75599
5836.00000    9.27557    63.58751    74.00977
5836.50000    9.27567    62.51539    73.50172
5837.00000    9.27578    61.44328    73.60098
5837.50000    9.27588    60.37116    72.41380
5838.00000    9.27599    60.97244    68.14907
5838.50000    9.27610    61.58489    63.88433
5839.00000    9.27620    61.69495    59.61960
5839.50000    9.27631    61.59697    58.66864
5840.00000    9.27641    61.49900    64.91401
5840.50000    9.27652    61.40102    67.76257
5841.00000    9.27662    61.30305    56.34993
5841.50000    9.27673    62.05728    54.16862
5842.00000    9.27684    62.87159    58.06063
5842.50000    9.27694    63.68590    61.95264
5843.00000    9.27705    64.50021    65.84465
5843.50000    9.27715    65.31452    69.73666
5844.00000    9.27726    65.38312    73.62867
5844.50000    9.27736    65.06855    75.97809
5845.00000    9.27747    64.75397    76.82492
5845.50000    9.27757    64.43940    77.67176
5846.00000    9.27768    64.12483    78.51859
5846.50000    9.27779    63.80315    81.70517
5847.00000    9.27789    63.08073    86.12231
5847.50000    9.27800    62.35832    74.59347
5848.00000    9.27810    61.63590    67.94688
5848.50000    9.27821    60.91349    72.95299
5849.00000    9.27831    62.59707    77.95910
5849.50000    9.27842    64.60784    84.11222
5850.00000    9.27853    66.61860    91.63021
5850.50000    9.27863    68.62937    99.14819
5851.00000    9.27874    69.83638    106.66617
5851.50000    9.27885    70.62000    113.30231
5852.00000    9.27895    70.60590    111.44897
5852.50000    9.27906    69.35188    109.59562
5853.00000    9.27917    68.09787    107.74227
5853.50000    9.27927    66.84386    105.88892
5854.00000    9.27938    65.58985    97.13413
5854.50000    9.27949    64.57267    88.06171
5855.00000    9.27959    64.25409    78.98930
5855.50000    9.27970    63.93550    69.91688
5856.00000    9.27981    63.64777    71.74386
5856.50000    9.27991    64.46601    75.41736
5857.00000    9.28002    65.28425    79.09087
5857.50000    9.28013    66.10249    82.43825
5858.00000    9.28023    66.59295    85.71170
5858.50000    9.28034    66.16170    88.98515
5859.00000    9.28045    65.73045    92.25859
5859.50000    9.28055    65.32962    95.53204
5860.00000    9.28066    67.16783    98.80548
5860.50000    9.28077    69.00603    96.65372
5861.00000    9.28087    68.20255    98.71598
5861.50000    9.28098    67.03970    102.67346
5862.00000    9.28109    65.87686    106.63093
5862.50000    9.28119    64.71401    99.01234
5863.00000    9.28130    64.69060    89.34736
5863.50000    9.28141    65.35375    79.68238
5864.00000    9.28152    66.01691    73.76458
5864.50000    9.28162    66.68006    83.53294
5865.00000    9.28173    66.65257    93.30130
5865.50000    9.28183    66.47720    92.17781
5866.00000    9.28194    66.30183    89.93777
5866.50000    9.28205    66.12646    89.78725
5867.00000    9.28215    65.99535    90.89391
5867.50000    9.28226    67.44581    92.00057
5868.00000    9.28237    68.89627    93.10724
5868.50000    9.28247    70.34673    94.21390
