~Version Information
 VERS.                  2.0:   CWLS log ASCII Standard -VERSION 2.0
 WRAP.                   NO:   One line per depth step
~Well Information Block
#MNEM.UNIT     VALUE/NAME     DESCRIPTION
#---------     -----------    ---------------------------
 STRT.F              8400.0000: START DEPTH
 STOP.F             13890.0000: STOP DEPTH
 STEP.F                 0.5000: STEP DEPTH
 NULL.                 -999.25: NULL VALUE
 LOC .     506' FEL & 344' FSL:  LOCATION
 FL6 .       API  42-109-33224:  LOCATIONLINE6
 FL4 .           ABSTRACT 4479:  LOCATIONLINE4
 FL3 .        T&P RR CO SURVEY:  LOCATIONLINE3
 FL2 .     SECTION 30, BLOCK 58 T2:  LOCATIONLINE2
 FL1 .     506' FEL & 344' FSL:  LOCATIONLINE1
 DMF .                      KB:  DRILL MEAS FROM
 PDAT.                      GL:  PERMANENT DATUM
 CNTY.               CULBERSON:  COUNTY NAME
 FLD .     FORD, WEST (WOLFCAMP):  FIELD NAME
 WELL.      LAUREN STATE 30 2H:  WELL NAME
 COMP.     CAPITAN ENERGY, INC.:  COMPANY
 DATE.             19-Feb-2018:  DATE
 SVCO.             Halliburton:  SERVICECONAME
 PROV.                   TEXAS:  PROVINCE
 STAT.                   TEXAS:  STATE NAME
 CTRY.                     USA:  COUNTRY NAME
 HIDE.                        :  WELLNAMEOPERAT
 BASI.                 PERMIAN:  BASIN
 UWI .            42-109-33224:  UNIQUE WELL IDENTIFIER
 API .            42-109-33224:  API NUMBER
 RANG.                     N/A:  RANGE
 TOWN.                     N/A:  TOWNSHIP
 SECT.                     N/A:  SECTION
 SON .               904646015:  JOB NUMBER
 SRVC.             Halliburton:  SERVICE COMPANY
 LMF .                      KB:  LOG MEASURED FROM
 EGL .ft             3168.0000:  GROUND ELEVATION
 BAP .ft                0.0000:  GL ELEV ONSHORE
 GVFD.g                 1.0000:  GRAVITY FIELD
 EKB .ft             3194.0000:  KB ELEVATION
 EDF .ft             3193.0000:  DF ELEVATION
~Curve Information Block
#MNEM.UNIT                 API CODE     Curve Description
#---------               -----------    ---------------------------
 DEPT.F                 00 000 000 000:  Depth
 CCL .V                 00 000 000 000:  Casing Collar Locator
 NPHI_OH.pu             00 000 000 000:  NPHI_OH
 NPHI_CHI.pu            00 000 000 000:  NPHI_CHI
 GR_OH.api              00 000 000 000:  GR_OH
 GR_CHI.api             00 000 000 000:  GR_CHI
 RHOB_OH.g/cc           00 000 000 000:  RHOB_OH
 RHOB_CHI.g/cc          00 000 000 000:  RHOB_CHI
 PE_OH.b/e              00 000 000 000:  PE_OH
 PE_CHI.b/e             00 000 000 000:  PE_CHI
 RT10_OH.ohmm           00 000 000 000:  RT10_OH
 RT10_CHI.ohmm          00 000 000 000:  RT10_CHI
 RT30_OH.ohmm           00 000 000 000:  RT30_OH
 RT30_CHI.ohmm          00 000 000 000:  RT30_CHI
 RT90_OH.ohmm           00 000 000 000:  RT90_OH
 RT90_CHI.ohmm          00 000 000 000:  RT90_CHI
 DTC_OH.uspf            00 000 000 000:  DTC_OH
 DTC_CHI.uspf           00 000 000 000:  DTC_CHI
 SPHI_CHI.pu            00 000 000 000:  SPHI_CHI
 SGF .cu                00 000 000 000:  Formation Sigma
 CRNF.NONE              00 000 000 000:  CM GrsCaptRatio
 RIN .NONE              00 000 000 000:  CM GrsInelRatio
#Other Information
#
#WARRANTY: Halliburton will use its best efforts to furnish customers with 
#accurate information and interpretations that are part of, and incident to, the services 
#provided.  However, Halliburton cannot and does not warrant the accuracy 
#or correctness of such information and interpretations.  Under no circumstances should any 
#such information or interpretation be relied upon as the sole basis for any drilling, 
#completion, production, or financial decision or any procedure involving any risk to the 
#safety of any drilling venture, drilling rig or its crew or any other third party.  The 
#Customer has full responsibility for all drilling, completion and production operation.  
#Halliburton makes no representations or warranties, either expressed or 
#implied, including, but not limited to, the implied warranties of merchantability or fitness 
#for a particular purpose, with respect to the services rendered.  In no event will 
#Halliburton be liable for failure to obtain any particular results or for 
#any damages, including, but not limited to, indirect, special or consequential damages, 
#resulting from the use of any information or interpretation provided by Halliburton.
#
~A    DEPT      CCL   NPHI_OH NPHI_CHI  GR_OH    GR_CHI  RHOB_OH RHOB_CHI  PE_OH  PE_CHI  RT10_OH  RT10_CHI RT30_OH  RT30_CHI RT90_OH  RT90_CHI DTC_OH  DTC_CHI SPHI_CHI   SGF    CRNF   RIN   
# ...
    9135.0000  0.0000  9.8200  12.9255  90.4740  88.3406  2.5093   2.5597  2.7771  2.8863  37.3222  24.6553  38.8507  23.2415  41.8329  25.2141 77.4808 74.9972  19.3800 35.6561 1.2627 1.2522
    9135.5000  0.0000 12.8700  13.6266  94.6013  96.5064  2.5150   2.5527  2.6384  2.8545  35.2248  25.0484  35.9849  23.4288  38.5374  25.3258 77.7732 76.0274  20.1000 35.9691 1.2746 1.2554
    9136.0000  0.0000 14.4700  14.4344 104.5280 112.1677  2.5174   2.5426  2.6995  2.8384  33.2452  26.2296  32.9739  24.5549  34.9228  26.4827 78.1065 77.4373  21.1000 36.2845 1.3001 1.2599
    9136.5000  0.0000 14.4700  14.8263 108.7408 120.3685  2.5174   2.5378  2.6995  2.8331  32.8463  26.4537  32.1927  24.8478  33.9187  26.7796 78.2907 78.0698  21.5500 36.0590 1.3185 1.2647
    9137.0000  0.0000 15.0500  14.5225 111.4257 109.2039  2.5183   2.5429  2.8706  2.8054  32.8755  26.1687  31.8660  24.4422  33.4381  26.3826 78.2734 77.3433  21.0300 35.8104 1.3214 1.2663
    9137.5000  0.0000 15.0500  14.1739 112.4772  93.4777  2.5183   2.5486  2.8706  2.7955  33.3828  28.3241  32.0084  26.5488  33.5098  28.9816 78.2083 76.3005  20.3000 35.5176 1.2956 1.2636
    9138.0000  0.0000 15.2200  14.7011 112.2560 101.8706  2.5095   2.5418  2.9392  2.8093  34.0047  28.2418  32.2726  26.9715  33.7394  29.8159 78.2106 76.9156  20.7300 34.5432 1.2585 1.2616
    9138.5000  0.0000 14.8100  14.4227 110.6987  94.2379  2.5055   2.5459  2.8914  2.8465  33.3517  24.7634  31.2783  23.9381  32.6074  26.7913 77.7461 76.0561  20.1200 33.2573 1.2192 1.2614
    9139.0000  0.0000 14.8100  14.6228 109.2552 106.9976  2.5055   2.5414  2.8914  2.9545  32.8198  23.7401  30.7475  23.4572  32.0356  26.3225 77.1838 76.4166  20.3800 30.6092 1.1812 1.2633
    9139.5000  0.0000 16.0000  14.0811 107.1015 104.4466  2.5219   2.5464  2.8553  3.0819  32.9121  25.1524  30.8747  24.9339  32.1912  27.8804 75.9835 75.5521  19.7700 28.3192 1.1439 1.2631
    9140.0000  0.0000 16.0000  12.8843 103.7043  87.6966  2.5219   2.5583  2.8553  3.2553  33.6148  26.3129  31.6517  26.2455  33.0645  29.5683 75.0318 73.7783  18.5100 25.6734 1.1146 1.2569
    9140.5000  0.0000 16.3300  12.0565  99.5109  79.8347  2.5406   2.5652  2.8509  3.3975  34.5298  28.2701  32.7409  28.4553  34.2922  32.1649 73.7869 72.8331  17.8500 23.3418 1.0969 1.2460
    9141.0000  0.0000 15.8000  10.2890  87.2131  50.0985  2.5810   2.5845  2.9869  3.5425  37.4436  27.4415  36.2769  28.0398  38.2728  32.1637 71.7100 70.0852  15.9000 22.1710 1.0923 1.2352
    9141.5000  0.0000 15.8000   9.5562  79.4406  41.9907  2.5810   2.5902  2.9869  3.6672  39.6602  29.9588  38.9257  31.0207  41.2220  35.9191 70.9403 69.1661  15.2500 21.8157 1.0930 1.2281
    9142.0000  0.0000 14.3400   9.5313  71.5751  46.8714  2.6533   2.5883  3.4545  3.7381  41.7710  31.9852  41.5601  33.3806  44.1146  38.7251 70.4499 69.5560  15.5300 22.0643 1.0860 1.2255
    9142.5000  0.0000 14.3400  10.1145  66.3081  62.2392  2.6533   2.5798  3.4545  3.7755  43.1862  34.2331  43.5407  35.7653  46.2688  41.3211 70.2992 71.3140  16.7700 22.5068 1.0695 1.2267
    9143.0000  0.0000  9.7100  10.3903  65.3256  68.6172  2.6863   2.5768  3.9838  3.7942  43.9390  37.4849  44.5636  38.5998  47.4112  44.2699 70.2906 71.7021  17.0500 22.5630 1.0473 1.2282
    9143.5000  0.0000  9.3800  11.2539  76.1098  90.7518  2.6505   2.5655  3.9817  3.8053  43.1342  48.1417  44.8815  48.3867  47.8553  54.4039 70.6277 73.9542  18.6400 21.9335 1.0333 1.2280
    9144.0000  0.0000  9.3800  11.5347  82.8937 101.9486  2.6505   2.5612  3.9817  3.8245  42.9316  55.3565  45.0752  55.3093  48.0872  61.4240 71.3053 74.9135  19.3200 21.0556 1.0411 1.2265
    9144.5000  0.0000 11.1600  10.1413  87.7222  75.6546  2.6012   2.5784  3.5381  3.8578  43.0843  46.5043  45.5973  47.6905  48.6442  53.6232 71.8380 71.6834  17.0300 20.4962 1.0655 1.2237
    9145.0000  0.0000 11.1600   9.8244  89.8932  72.2566  2.6012   2.5806  3.5381  3.8775  43.5828  42.2086  46.4157  44.1909  49.4925  50.1662 72.8956 71.5078  16.9100 20.5681 1.1027 1.2247
    9145.5000  0.0000 11.6500   9.5989  90.4398  64.7304  2.5837   2.5828  3.3903  3.8569  44.3111  38.2640  47.3614  40.3188  50.4485  46.3327 73.8229 71.1969  16.6900 21.3575 1.1441 1.2294
    9146.0000  0.0000 11.6500  10.1732  91.8727  71.3481  2.5837   2.5756  3.3903  3.8055  45.0999  38.1273  48.2072  40.0926  51.2726  46.2161 75.3593 72.8159  17.8300 23.1089 1.1881 1.2409
    9146.5000  0.0000 12.4900  10.9357 102.8966  78.4028  2.5905   2.5674  3.6376  3.7190  45.6209  37.3860  48.1787  39.2632  51.0229  45.3469 77.8329 74.5204  19.0400 25.0731 1.2289 1.2553
    9147.0000  0.0000 14.9200  12.6047 111.9507 105.1174  2.5799   2.5483  3.6726  3.5909  44.8107  37.6513  46.7931  39.8474  49.4256  45.6955 78.7823 78.3958  21.7800 27.8453 1.2661 1.2668
    9147.5000  0.0000 14.9200  13.7009 120.7263 118.1297  2.5799   2.5375  3.6726  3.4597  43.4734  36.2658  44.7989  38.3830  47.1865  43.9088 79.9823 80.3972  23.1900 29.3940 1.2860 1.2760
    9148.0000  0.0000 19.0500  14.3291 127.0508 120.8549  2.5351   2.5339  3.3099  3.2915  41.9085  33.7336  42.5823  35.1230  44.7198  39.9732 80.3757 81.2619  23.8100 29.8870 1.2832 1.2758
    9148.5000  0.0000 19.0500  14.3736 129.5470 110.9499  2.5351   2.5368  3.3099  3.1946  40.5802  28.9541  40.6669  29.7355  42.5774  34.1012 80.5298 80.5199  23.2800 29.9820 1.2633 1.2747
    9149.0000  0.0000 18.9200  14.2840 123.7056 102.9463  2.4936   2.5394  2.9718  3.1495  39.3550  27.0453  38.4821  27.5945  40.0402  31.8488 80.4855 79.9233  22.8600 29.7931 1.2469 1.2699
    9149.5000  0.0000 17.8600  14.1277 117.2558  99.8922  2.4910   2.5418  2.8922  3.1637  38.7454  25.4578  37.5163  25.9451  38.9107  30.0045 80.2085 79.2786  22.4000 29.7071 1.2119 1.2647
    9150.0000  0.0000 17.8600  14.3846 110.5262 111.9928  2.4910   2.5375  2.8922  3.2120  37.6341  27.5280  36.1863  28.1143  37.4002  32.2035 79.9947 80.0602  22.9600 29.5437 1.1776 1.2592
    9150.5000  0.0000 15.7300  14.4321 103.9744 117.8403  2.5100   2.5363  2.9119  3.2429  36.2417  29.9159  34.7106  30.4705  35.7499  34.5982 79.2686 80.3091  23.1300 28.8871 1.1386 1.2504
    9151.0000  0.0000 15.7300  13.1751  98.0460  96.9801  2.5100   2.5522  2.9119  3.2828  35.2549  28.4087  33.7001  28.6989  34.6081  32.4019 78.6957 77.5471  21.1800 28.4165 1.1266 1.2416
    9151.5000  0.0000 13.4200  12.6429  87.7307  94.0376  2.5209   2.5570  2.9737  3.3216  36.4411  29.9042  34.7022  30.1607  35.5361  33.7582 78.2600 77.1359  20.8900 28.1352 1.1385 1.2331
    9152.0000  0.0000 11.2000  11.6384  83.9943  81.4014  2.5277   2.5684  3.0886  3.3597  37.7465  29.2000  35.8660  28.9768  36.6992  32.1507 78.8938 75.3668  19.6400 28.2683 1.1742 1.2312
    9152.5000  0.0000 11.2000  11.0222  82.3951  70.3658  2.5277   2.5758  3.0886  3.3659  38.7123  29.2072  36.7169  28.5721  37.5334  31.6375 79.5101 74.0501  18.7100 29.1220 1.2104 1.2345
    9153.0000  0.0000 11.7700  11.2064  84.0653  71.2558  2.5290   2.5739  3.1427  3.3437  39.3824  30.2398  37.2969  29.5783  38.0857  32.8078 80.9368 74.4126  18.9600 30.5402 1.2459 1.2453
    9153.5000  0.0000 11.7700  12.0603  89.4708  80.8218  2.5290   2.5645  3.1427  3.2620  39.8050  31.9625  37.6602  31.3396  38.4131  34.8518 81.4792 76.2598  20.2700 32.2281 1.2792 1.2570
    9154.0000  0.0000 13.4400  13.4061  98.0470 101.9979  2.5131   2.5490  3.0569  3.1524  40.0191  33.3100  37.8601  32.8118  38.5723  36.4097 82.1942 79.4225  22.5100 33.9047 1.2948 1.2649
    9154.5000  0.0000 13.4400  14.0294 107.7610 106.5969  2.5131   2.5439  3.0569  3.0420  40.1407  32.0472  38.0224  31.3995  38.6938  34.7928 82.8674 80.3946  23.1900 34.7311 1.2871 1.2694
    9155.0000  0.0000 16.4400  15.1551 116.6451 125.1986  2.4966   2.5316  2.9159  2.9402  40.3700  31.1873  38.3471  30.6467  38.9837  33.8332 83.3873 82.7587  24.8600 33.3716 1.2708 1.2711
    9155.5000  0.0000 16.4400  15.1402 123.3356 120.2563  2.4966   2.5337  2.9159  2.9079  40.7424  27.7030  38.8838  27.1867  39.4899  30.1351 83.6485 82.1100  24.4100 32.0689 1.2546 1.2763
