~Version Information Block
 VERS.                2.00:     CWLS LOG ASCII STANDARD - VERSION 2.000000
 WRAP.                  NO:     One Line Per Depth Step
#
~Well Information Block
#MNEM.UNIT                     Data                         Information
#----------   ------------------------------------------   ----------------
 STRT.F                                        31.0000:     START DEPTH
 STOP.F                                     15936.0000:     STOP DEPTH
 STEP.F                                         0.5000:     STEP
 NULL.                                       -999.2500:     NULL VALUE
 COMP.                             AMERCN QUASAR PETRO:     COMPANY
 WELL.                                    SCOTT UNIT 1:     WELL
 FLD .                                         WILDCAT:     FIELD
 LOC .        Survey  PSL              - Abs  6331     - Blk  45   - Section  19:     LOCATION
 CNTY.                                              TX:     COUNTY
 STAT.                                              TX:     STATE
 CTRY.                        UNITED STATES OF AMERICA:     COUNTRY
 SRVC.                                      GEOGRAPHIX:     SERVICE COMPANY
 DATE.                                                :     DATE
 API .                                  42109313620000:     API NUMBER
 UWI .                                  42109313620000:     UWI NUMBER
 TVD .                                              NO:     TVD flag
 WSTA.                                             LOC:     Well status
#
~Curve Information Block
#MNEM.UNIT       API CODE      Curve Description
#----------    -------------   -------------------
 DEPT.F                    :   Depth in Feet
 LLD .OHMM                 :   LATEROLOG DEEP
 GRS .GAPI                 :   GAMMA RAY FROM SONIC LOG
 CALS.IN                   :   CALIPER FROM SONIC LOG
 MSFL.OHMM                 :   MICRO SPHERICALLY FOCUSED
 LLS .OHMM                 :   LATEROLOG SHALLOW
 DT  .US/F                 :   DELTA TIME
#
~Parameter Information Block
#MNEM.UNIT            Value               Description
#----------    --------------------    -------------------
 RUN .                         ONE:    Run Number
 PDAT.                          GL:    Permanent Datum
 EPD .FT                          :    Elevation Of Perm. Datum
 LMF .               KELLY BUSHING:    Log Measured From
 EKB .FT                          :    Elevation Of Kelly Bushing
 DF .FT                           :    Elevation Of Derrick Floor
 GL .FT                           :    Elevation Of Ground Level
 TD  .FT                          :    Total Depth
 CSGD.FT                          :    Casing Bottom (Driller) 1
 CSGL.FT                          :    Casing Bottom (Logger) 1
 MUD .                            :    Drilling Fluid Type
 MUDV .CP                         :    Drilling Fluid Viscosity
 MUDD .LB/USG                     :    Drilling Fluid Density
 FL .ML/30MIN                     :    Drilling Fluid Loss
 PH.                              :    Drilling Fluid Ph
 MUDS .                           :    Mud Sample Source
 RM .OHMM                         :    Resistivity Of Mud Sample
 RMT .DEGF                        :    Mud Sample Temperature
 RMF .OHMM                        :    Mud Filtrate Resistivity
 RMFT.DEGF                        :    Mud Filtrate Sample Temperature
 RMC .OHMM                        :    Mud Cake Resistivity
 RMCT.DEGF                        :    Mud Cake Sample Temperature
 RMB .OHMM                        :    Mud Resistivity At Bht
 TMAX .DEGF                       :    Bottom Hole Temperature
#
~Other Information Block
<DescLogPlotStart>   NEURALOG PLOT DEFINITION
PLOTDEFVERSION: 3
LASFILE: E:\Nair Innovations\42_TEXAS\109_Culberson\42109313620000_1.las
DEPTHSCALE: 239.999996
RESOLUTION: 200
DEPTHLABELFREQ: 100.000000
HEAVYGRIDFREQ: 50.000000
MEDIUMGRIDFREQ: 50.000000
LIGHTGRIDFREQ: 10.000000
#
#   TRACK 1
#
STARTTRACK: 
 LEFTX: 0.500000 inch
 RIGHTX: 3.000000 inch
 SCALETYPE: Linear
 NUMCHARTDIVISIONS: 10
CURVE: GRS   1.504600   250.000000 (0,0,255)      Solid             2     N    
CURVE: CALS  6.474400   14.873500  (0,131,131)    Solid             2     N    
ENDTRACK: 
#
#   TRACK 2
#
STARTTRACK: 
 LEFTX: 3.500000 inch
 RIGHTX: 6.000000 inch
 SCALETYPE: Log
 NUMCYCLES: 4
 STARTCYCLE: 2
CURVE: LLS   0.200000   2000.000000 (255,0,0)      Solid             4     Y   
BACKUP: 2000.000000 20000000.000000 (255,0,0)      Solid             4    
BACKUP: 0.000020   0.200000   (255,0,0)      Solid             4    
CURVE: MSFL  0.200000   2000.000000 (0,131,131)    Solid             2     N   
ENDTRACK: 
#
#   TRACK 3
#
STARTTRACK: 
 LEFTX: 6.500000 inch
 RIGHTX: 9.000000 inch
 SCALETYPE: Linear
 NUMCHARTDIVISIONS: 10
CURVE: LLD   0.200000   2000.000000 (255,0,255)    Solid             4     N   
CURVE: DT    190.000000 50.000000  (255,0,131)    Solid             2     N    
ENDTRACK: 
<DescLogPlotEnd>
<DepthTrack type='Reference' track='1' Label='0' color='0' hor='0' />
<Reference font='144,0,-900,0,500,0,16777216,Arial' />
~A DEPTH     LLD              GRS              CALS             MSFL             LLS              DT              
# ...
    3356.000 72.87090000      54.42770000      11.93010000      -999.25000000    56.51450000      66.23540000     
    3356.500 64.57930000      57.86910000      11.92980000      -999.25000000    46.65980000      67.14830000     
    3357.000 60.26660000      61.20860000      11.92950000      -999.25000000    44.24450000      67.49450000     
    3357.500 58.62700000      60.68330000      11.92920000      -999.25000000    43.74010000      67.68140000     
    3358.000 58.63580000      58.50660000      11.92890000      -999.25000000    43.74010000      67.75190000     
    3358.500 60.29090000      58.20200000      11.92860000      -999.25000000    44.56850000      67.17650000     
    3359.000 61.99260000      57.71730000      11.92830000      -999.25000000    46.49830000      66.39270000     
    3359.500 64.63500000      56.81510000      11.92800000      -999.25000000    48.83390000      65.36390000     
    3360.000 67.50860000      55.27120000      11.92770000      -999.25000000    50.23770000      64.46960000     
    3360.500 70.37740000      53.17960000      11.92740000      -999.25000000    51.64880000      63.62820000     
    3361.000 72.42520000      50.67090000      11.92710000      -999.25000000    51.64880000      63.02130000     
    3361.500 73.25200000      48.96660000      11.92680000      -999.25000000    51.64880000      63.08390000     
    3362.000 72.25290000      48.04970000      11.92650000      -999.25000000    50.93840000      63.99810000     
    3362.500 72.26450000      50.31090000      11.92620000      -999.25000000    48.19310000      65.36960000     
    3363.000 62.40730000      52.57180000      11.92590000      -999.25000000    44.96860000      66.74110000     
    3363.500 53.30570000      54.07970000      11.92560000      -999.25000000    41.38280000      67.74680000     
    3364.000 52.57260000      53.70500000      11.92530000      -999.25000000    38.60700000      68.20360000     
    3364.500 52.58120000      52.20080000      11.92500000      -999.25000000    37.55900000      68.47760000     
    3365.000 52.58830000      52.20260000      11.92470000      -999.25000000    37.62910000      68.20270000     
    3365.500 52.59530000      52.58100000      11.92440000      -999.25000000    38.61400000      67.65350000     
    3366.000 52.60240000      53.35090000      11.92410000      -999.25000000    39.15250000      66.90420000     
    3366.500 51.88540000      53.74940000      11.92380000      -999.25000000    39.32390000      66.82940000     
    3367.000 51.89280000      54.52430000      11.95360000      -999.25000000    39.69850000      67.49540000     
    3367.500 51.18590000      55.22400000      11.92320000      -999.25000000    39.69850000      67.86960000     
    3368.000 51.15540000      55.88880000      11.92290000      -999.25000000    39.69850000      68.13050000     
    3368.500 50.49540000      57.48650000      11.92260000      -999.25000000    40.00490000      68.31730000     
    3369.000 50.50280000      54.17530000      11.92230000      -999.25000000    40.25220000      68.41280000     
    3369.500 50.50980000      51.31090000      11.92200000      -999.25000000    40.25220000      68.34630000     
    3370.000 50.51680000      50.36380000      11.92170000      -999.25000000    40.81360000      67.89640000     
    3370.500 50.52380000      49.39210000      11.92140000      -999.25000000    41.38280000      67.11000000     
    3371.000 50.82930000      48.40460000      11.92110000      -999.25000000    41.95990000      65.79180000     
    3371.500 52.66500000      47.70900000      11.88590000      -999.25000000    42.54510000      64.61530000     
    3372.000 60.44230000      49.97020000      11.79990000      -999.25000000    44.35010000      69.93410000     
    3372.500 94.28120000      83.85750000      11.73940000      -999.25000000    47.66700000      72.03730000     
    3373.000 155.24750000     112.85030000     11.67890000      -999.25000000    61.44800000      77.61610000     
    3373.500 222.57370000     125.66650000     11.67860000      -999.25000000    97.27050000      78.62170000     
    3374.000 328.06000000     148.42150000     11.67830000      -999.25000000    168.85120000     78.34690000     
    3374.500 722.55150000     163.68390000     11.67800000      -999.25000000    405.12350000     75.60260000     
    3375.000 1464.51590000    153.14530000     11.67770000      -999.25000000    587.05290000     74.50460000     
    3375.500 1729.54920000    140.73570000     11.67740000      -999.25000000    713.69240000     72.94920000     
    3376.000 1879.66930000    130.82760000     11.67670000      -999.25000000    768.20480000     71.65520000     
    3376.500 1437.18790000    122.27610000     11.64670000      -999.25000000    732.45220000     68.70770000     
    3377.000 1103.41310000    111.73580000     11.64640000      -999.25000000    692.54510000     65.35730000     
    3377.500 991.34100000     100.44250000     11.67620000      -999.25000000    678.98010000     63.95970000     
    3378.000 963.57430000     88.01960000      11.71220000      -999.25000000    678.98010000     62.97750000     
    3378.500 919.15010000     87.26840000      11.79610000      -999.25000000    678.98010000     65.45010000     
    3379.000 730.41190000     92.71700000      11.79580000      -999.25000000    669.64100000     66.54370000     
    3379.500 532.70910000     92.91970000      11.79550000      -999.25000000    607.76650000     65.95210000     
    3380.000 435.75050000     90.66250000      11.79520000      -999.25000000    514.70250000     67.16460000     
    3380.500 398.98040000     96.90070000      11.79490000      -999.25000000    435.88890000     70.56050000     
    3381.000 399.03400000     121.56480000     11.79460000      -999.25000000    401.13050000     72.30080000     
    3381.500 464.76530000     132.20480000     11.81070000      -999.25000000    402.40000000     73.78320000     
    3382.000 808.89760000     142.17380000     11.82410000      -999.25000000    457.21800000     73.21760000     
    3382.500 1508.78940000    140.87390000     11.82370000      -999.25000000    582.64890000     73.12570000     
    3383.000 1733.15480000    129.84080000     11.82340000      -999.25000000    638.76100000     73.03380000     
    3383.500 2163.39230000    124.78550000     11.85330000      -999.25000000    672.93880000     72.57600000     
    3384.000 2111.64360000    113.34060000     11.91320000      -999.25000000    671.31780000     71.47800000     
    3384.500 1354.43290000    103.66470000     11.91290000      -999.25000000    559.35550000     69.64830000     
    3385.000 941.63490000     95.42630000      11.97290000      -999.25000000    489.77660000     67.81860000     
    3385.500 243.76660000     80.77340000      12.03280000      -999.25000000    379.51200000     66.26320000     
    3386.000 128.61920000     65.05110000      12.06270000      -999.25000000    152.13640000     65.07380000     
    3386.500 108.22850000     60.14520000      12.15270000      -999.25000000    112.17660000     63.97580000     
    3387.000 100.89240000     57.55680000      12.18480000      -999.25000000    97.66790000      64.93170000     
    3387.500 101.35190000     61.32370000      12.27260000      -999.25000000    97.44350000      65.83840000     
    3388.000 104.39350000     67.34970000      12.27750000      -999.25000000    101.81150000     65.89520000     
    3388.500 107.26880000     71.49300000      12.30210000      -999.25000000    104.67120000     64.80740000     
    3389.000 105.81060000     68.10630000      12.30180000      -999.25000000    106.15030000     64.19840000     
    3389.500 97.38620000      66.51150000      12.30150000      -999.25000000    106.02380000     63.97310000     
    3390.000 87.18370000      55.30880000      12.30120000      -999.25000000    97.98130000      64.18900000     
    3390.500 79.13860000      54.55760000      12.30090000      -999.25000000    81.85150000      64.30000000     
