~Version Information
 VERS.                  2.0:   CWLS log ASCII Standard -VERSION 2.0
 WRAP.                   NO:   One line per depth step
~Well Information Block
#MNEM.UNIT     VALUE/NAME     DESCRIPTION
#---------     -----------    ---------------------------
 STRT.F              8400.0000: START DEPTH
 STOP.F             13890.0000: STOP DEPTH
 STEP.F                 0.5000: STEP DEPTH
 NULL.                 -999.25: NULL VALUE
 LOC .     506' FEL & 344' FSL:  LOCATION
 FL6 .       API  42-109-33224:  LOCATIONLINE6
 FL4 .           ABSTRACT 4479:  LOCATIONLINE4
 FL3 .        T&P RR CO SURVEY:  LOCATIONLINE3
 FL2 .     SECTION 30, BLOCK 58 T2:  LOCATIONLINE2
 FL1 .     506' FEL & 344' FSL:  LOCATIONLINE1
 DMF .                      KB:  DRILL MEAS FROM
 PDAT.                      GL:  PERMANENT DATUM
 CNTY.               CULBERSON:  COUNTY NAME
 FLD .     FORD, WEST (WOLFCAMP):  FIELD NAME
 WELL.      LAUREN STATE 30 2H:  WELL NAME
 COMP.     CAPITAN ENERGY, INC.:  COMPANY
 DATE.             19-Feb-2018:  DATE
 SVCO.             Halliburton:  SERVICECONAME
 PROV.                   TEXAS:  PROVINCE
 STAT.                   TEXAS:  STATE NAME
 CTRY.                     USA:  COUNTRY NAME
 HIDE.                        :  WELLNAMEOPERAT
 BASI.                 PERMIAN:  BASIN
 UWI .            42-109-33224:  UNIQUE WELL IDENTIFIER
 API .            42-109-33224:  API NUMBER
 RANG.                     N/A:  RANGE
 TOWN.                     N/A:  TOWNSHIP
 SECT.                     N/A:  SECTION
 SON .               904646015:  JOB NUMBER
 SRVC.             Halliburton:  SERVICE COMPANY
 LMF .                      KB:  LOG MEASURED FROM
 EGL .ft             3168.0000:  GROUND ELEVATION
 BAP .ft                0.0000:  GL ELEV ONSHORE
 GVFD.g                 1.0000:  GRAVITY FIELD
 EKB .ft             3194.0000:  KB ELEVATION
 EDF .ft             3193.0000:  DF ELEVATION
~Curve Information Block
#MNEM.UNIT                 API CODE     Curve Description
#---------               -----------    ---------------------------
 DEPT.F                 00 000 000 000:  Depth
 CCL .V                 00 000 000 000:  Casing Collar Locator
 NPHI_OH.pu             00 000 000 000:  NPHI_OH
 NPHI_CHI.pu            00 000 000 000:  NPHI_CHI
 GR_OH.api              00 000 000 000:  GR_OH
 GR_CHI.api             00 000 000 000:  GR_CHI
 RHOB_OH.g/cc           00 000 000 000:  RHOB_OH
 RHOB_CHI.g/cc          00 000 000 000:  RHOB_CHI
 PE_OH.b/e              00 000 000 000:  PE_OH
 PE_CHI.b/e             00 000 000 000:  PE_CHI
 RT10_OH.ohmm           00 000 000 000:  RT10_OH
 RT10_CHI.ohmm          00 000 000 000:  RT10_CHI
 RT30_OH.ohmm           00 000 000 000:  RT30_OH
 RT30_CHI.ohmm          00 000 000 000:  RT30_CHI
 RT90_OH.ohmm           00 000 000 000:  RT90_OH
 RT90_CHI.ohmm          00 000 000 000:  RT90_CHI
 DTC_OH.uspf            00 000 000 000:  DTC_OH
 DTC_CHI.uspf           00 000 000 000:  DTC_CHI
 SPHI_CHI.pu            00 000 000 000:  SPHI_CHI
 SGF .cu                00 000 000 000:  Formation Sigma
 CRNF.NONE              00 000 000 000:  CM GrsCaptRatio
 RIN .NONE              00 000 000 000:  CM GrsInelRatio
#Other Information
#
#WARRANTY: Halliburton will use its best efforts to furnish customers with 
#accurate information and interpretations that are part of, and incident to, the services 
#provided.  However, Halliburton cannot and does not warrant the accuracy 
#or correctness of such information and interpretations.  Under no circumstances should any 
#such information or interpretation be relied upon as the sole basis for any drilling, 
#completion, production, or financial decision or any procedure involving any risk to the 
#safety of any drilling venture, drilling rig or its crew or any other third party.  The 
#Customer has full responsibility for all drilling, completion and production operation.  
#Halliburton makes no representations or warranties, either expressed or 
#implied, including, but not limited to, the implied warranties of merchantability or fitness 
#for a particular purpose, with respect to the services rendered.  In no event will 
#Halliburton be liable for failure to obtain any particular results or for 
#any damages, including, but not limited to, indirect, special or consequential damages, 
#resulting from the use of any information or interpretation provided by Halliburton.
#
~A    DEPT      CCL   NPHI_OH NPHI_CHI  GR_OH    GR_CHI  RHOB_OH RHOB_CHI  PE_OH  PE_CHI  RT10_OH  RT10_CHI RT30_OH  RT30_CHI RT90_OH  RT90_CHI DTC_OH  DTC_CHI SPHI_CHI   SGF    CRNF   RIN   
# ...
   10227.0000  0.0000 -999.25  10.6003  -999.25  90.9901 -999.25   2.5814 -999.25  3.9769  -999.25  46.8786  -999.25  45.4405  -999.25  49.3618 -999.25 69.0484  15.1700 21.0746 0.9222 1.0253
   10227.5000  0.0000 -999.25  10.6453  -999.25  94.4740 -999.25   2.5801 -999.25  4.0225  -999.25  45.0180  -999.25  43.5084  -999.25  47.4432 -999.25 69.1085  15.2100 20.9402 0.9242 1.0265
   10228.0000  0.0000 -999.25  10.7580  -999.25  96.8485 -999.25   2.5782 -999.25  4.0484  -999.25  43.2325  -999.25  41.5857  -999.25  45.5441 -999.25 69.1967  15.2700 20.7928 0.9207 1.0273
   10228.5000  0.0000 -999.25   9.7646  -999.25  81.0395 -999.25   2.5923 -999.25  4.0622  -999.25  43.2137  -999.25  42.0714  -999.25  46.1911 -999.25 67.8866  14.3500 20.9000 0.9140 1.0275
   10229.0000  0.0000 -999.25  10.3765  -999.25  90.7784 -999.25   2.5830 -999.25  4.0634  -999.25  44.3828  -999.25  42.9023  -999.25  47.0880 -999.25 68.7427  14.9500 20.8773 0.9080 1.0259
   10229.5000  0.0000 -999.25  11.1326  -999.25 104.1319 -999.25   2.5717 -999.25  4.0432  -999.25  47.9432  -999.25  46.2086  -999.25  50.3177 -999.25 69.8609  15.7400 20.8107 0.8992 1.0187
   10230.0000  0.0000 -999.25  10.5864  -999.25  96.9177 -999.25   2.5790 -999.25  4.0383  -999.25  51.3286  -999.25  50.0559  -999.25  54.2516 -999.25 69.3376  15.3700 20.5299 0.8991 1.0131
   10230.5000  0.0000 -999.25   9.9944  -999.25  88.7484 -999.25   2.5871 -999.25  4.0499  -999.25  51.8073  -999.25  50.9531  -999.25  55.2191 -999.25 68.6242  14.8700 20.1233 0.9011 1.0105
   10231.0000  0.0000 -999.25  10.2554  -999.25  95.6723 -999.25   2.5821 -999.25  4.0724  -999.25  54.9591  -999.25  54.0871  -999.25  58.4788 -999.25 69.1322  15.2300 19.8247 0.9047 1.0094
   10231.5000  0.0000 -999.25   9.8596  -999.25  89.2268 -999.25   2.5868 -999.25  4.0907  -999.25  57.6895  -999.25  57.1076  -999.25  61.9246 -999.25 68.6716  14.9000 19.6096 0.9099 1.0100
   10232.0000  0.0000 -999.25  10.0497  -999.25  91.9232 -999.25   2.5832 -999.25  4.0879  -999.25  62.6091  -999.25  62.0533  -999.25  67.1884 -999.25 69.0424  15.1600 19.5316 0.9127 1.0076
   10232.5000  0.0000 -999.25   9.9150  -999.25  88.6419 -999.25   2.5844 -999.25  4.0696  -999.25  68.2431  -999.25  68.0555  -999.25  73.5283 -999.25 69.0009  15.1400 19.4556 0.9125 1.0020
   10233.0000  0.0000 -999.25   9.9709  -999.25  88.1029 -999.25   2.5835 -999.25  4.0525  -999.25  70.7212  -999.25  70.6153  -999.25  76.2450 -999.25 69.1197  15.2200 19.3829 0.9094 0.9965
   10233.5000  0.0000 -999.25   9.5986  -999.25  81.0628 -999.25   2.5888 -999.25  4.0486  -999.25  70.8639  -999.25  71.0668  -999.25  76.8896 -999.25 68.6019  14.8500 19.2649 0.9048 0.9931
   10234.0000  0.0000 -999.25   9.4515  -999.25  78.7093 -999.25   2.5910 -999.25  4.0649  -999.25  69.1610  -999.25  69.3119  -999.25  75.2149 -999.25 68.3259  14.6600 19.1979 0.8974 0.9931
   10234.5000  0.0000 -999.25  10.2769  -999.25  93.6204 -999.25   2.5789 -999.25  4.0981  -999.25  66.8399  -999.25  66.1238  -999.25  71.8726 -999.25 69.3768  15.4000 19.1890 0.8903 0.9955
   10235.0000  0.0000 -999.25   9.5360  -999.25  82.5463 -999.25   2.5896 -999.25  4.1278  -999.25  62.8444  -999.25  62.4740  -999.25  68.2855 -999.25 68.2951  14.6400 19.1116 0.8799 0.9975
   10235.5000  0.0000 -999.25   9.3634  -999.25  81.7201 -999.25   2.5919 -999.25  4.1492  -999.25  61.3037  -999.25  61.0390  -999.25  66.7717 -999.25 68.0692  14.4800 19.0760 0.8697 0.9972
   10236.0000  0.0000 -999.25   9.6916  -999.25  89.2789 -999.25   2.5864 -999.25  4.1571  -999.25  64.1243  -999.25  63.8213  -999.25  69.5514 -999.25 68.6525  14.8900 18.9246 0.8629 0.9938
   10236.5000  0.0000 -999.25   9.2446  -999.25  84.5427 -999.25   2.5921 -999.25  4.1629  -999.25  67.1623  -999.25  67.5422  -999.25  73.3419 -999.25 68.2053  14.5700 18.8663 0.8614 0.9907
   10237.0000  0.0000 -999.25   9.1422  -999.25  85.6810 -999.25   2.5927 -999.25  4.1827  -999.25  69.2950  -999.25  70.0024  -999.25  75.8733 -999.25 68.2001  14.5700 18.7269 0.8620 0.9884
   10237.5000  0.0000 -999.25   9.1340  -999.25  87.4566 -999.25   2.5923 -999.25  4.1952  -999.25  70.1032  -999.25  70.9537  -999.25  76.8004 -999.25 68.2670  14.6200 18.5886 0.8626 0.9861
   10238.0000  0.0000 -999.25   8.9077  -999.25  84.0188 -999.25   2.5951 -999.25  4.2004  -999.25  71.7407  -999.25  72.9070  -999.25  78.9515 -999.25 67.9995  14.4300 18.4163 0.8621 0.9826
   10238.5000  0.0000 -999.25   8.9934  -999.25  85.3810 -999.25   2.5935 -999.25  4.2056  -999.25  73.1065  -999.25  74.2388  -999.25  80.4409 -999.25 68.1391  14.5300 18.1914 0.8575 0.9798
   10239.0000  0.0000 -999.25   8.6232  -999.25  78.8401 -999.25   2.5985 -999.25  4.2059  -999.25  75.2980  -999.25  76.9232  -999.25  83.4443 -999.25 67.6570  14.1800 18.0167 0.8546 0.9771
   10239.5000  0.0000 -999.25   8.9735  -999.25  85.1459 -999.25   2.5928 -999.25  4.2198  -999.25  77.3240  -999.25  78.6783  -999.25  85.3866 -999.25 68.1921  14.5600 17.9322 0.8540 0.9775
   10240.0000  0.0000 -999.25   8.5205  -999.25  78.6093 -999.25   2.5987 -999.25  4.2304  -999.25  79.1514  -999.25  81.1567  -999.25  88.1474 -999.25 67.6243  14.1600 17.8674 0.8560 0.9782
   10240.5000  0.0000 -999.25   8.1369  -999.25  72.6745 -999.25   2.6039 -999.25  4.2317  -999.25  80.3884  -999.25  82.9772  -999.25  90.1387 -999.25 67.1217  13.8100 17.9076 0.8600 0.9774
   10241.0000  0.0000 -999.25   8.2551  -999.25  74.9467 -999.25   2.6020 -999.25  4.2338  -999.25  81.4667  -999.25  84.0112  -999.25  91.2195 -999.25 67.3301  13.9500 17.9638 0.8621 0.9749
   10241.5000  0.0000 -999.25   7.6980  -999.25  64.4472 -999.25   2.6104 -999.25  4.2237  -999.25  80.4783  -999.25  83.6069  -999.25  90.9343 -999.25 66.4524  13.3300 18.0057 0.8605 0.9714
   10242.0000  0.0000 -999.25   7.6859  -999.25  63.1301 -999.25   2.6111 -999.25  4.2237  -999.25  78.6806  -999.25  81.5706  -999.25  88.8881 -999.25 66.3305  13.2500 18.0299 0.8562 0.9698
   10242.5000  0.0000 -999.25   8.5743  -999.25  78.2595 -999.25   2.5981 -999.25  4.2204  -999.25  79.7323  -999.25  81.6726  -999.25  88.7370 -999.25 67.6810  14.2000 17.9259 0.8541 0.9690
   10243.0000  0.0000 -999.25   8.0618  -999.25  69.6610 -999.25   2.6056 -999.25  4.2161  -999.25  79.4409  -999.25  81.9872  -999.25  89.1298 -999.25 66.9392  13.6800 17.7591 0.8539 0.9687
   10243.5000  0.0000 -999.25   7.7700  -999.25  65.6578 -999.25   2.6093 -999.25  4.2169  -999.25  81.0723  -999.25  84.2041  -999.25  91.4822 -999.25 66.5965  13.4300 17.5249 0.8531 0.9666
   10244.0000  0.0000 -999.25   7.7185  -999.25  65.3616 -999.25   2.6094 -999.25  4.2234  -999.25  82.8337  -999.25  86.2150  -999.25  93.6951 -999.25 66.5858  13.4300 17.3418 0.8492 0.9641
   10244.5000  0.0000 -999.25   7.8930  -999.25  68.6520 -999.25   2.6064 -999.25  4.2432  -999.25  84.5165  -999.25  87.7241  -999.25  95.5081 -999.25 66.8529  13.6200 17.3044 0.8415 0.9625
   10245.0000  0.0000 -999.25   7.5360  -999.25  62.5165 -999.25   2.6112 -999.25  4.2504  -999.25  85.4589  -999.25  89.2060  -999.25  97.3409 -999.25 66.3238  13.2400 17.3688 0.8395 0.9610
   10245.5000  0.0000 -999.25   7.4568  -999.25  62.1915 -999.25   2.6122 -999.25  4.2624  -999.25  85.3861  -999.25  89.2373  -999.25  97.3922 -999.25 66.2167  13.1700 17.4599 0.8382 0.9608
   10246.0000  0.0000 -999.25   7.3998  -999.25  63.2691 -999.25   2.6128 -999.25  4.2703  -999.25  85.0165  -999.25  89.0319  -999.25  96.9671 -999.25 66.2018  13.1600 17.5444 0.8413 0.9619
   10246.5000  0.0000 -999.25   7.7261  -999.25  69.7027 -999.25   2.6080 -999.25  4.2725  -999.25  84.6433  -999.25  88.2320  -999.25  95.9068 -999.25 66.7228  13.5200 17.6148 0.8400 0.9620
   10247.0000  0.0000 -999.25   7.5363  -999.25  66.6209 -999.25   2.6111 -999.25  4.2729  -999.25  83.1653  -999.25  86.8867  -999.25  94.4699 -999.25 66.4051  13.3000 17.6566 0.8346 0.9626
   10247.5000  0.0000 -999.25   7.6129  -999.25  67.0998 -999.25   2.6101 -999.25  4.2589  -999.25  83.2882  -999.25  86.9264  -999.25  94.4290 -999.25 66.5201  13.3800 17.6706 0.8318 0.9611
