###############################################
##         ENVERUS                           ##
##         ESS - Open Hole                   ##
##         PERMIAN / DELAWARE                ##
##         Nov 03 2023  V4.0                 ##
##         42-109-32620-90-00                ##
###############################################
## Copyright 2017-2023  ENVERUS.  All Rights Reserved. 
## Confidential - Property of ENVERUS, use governed by terms and 
## conditions found within the existing Information Services Subscription Agreement 
## (as may be amended, the “ISSA”) between Customer and ENVERUS. 
## 
~VERSION INFORMATION
# MNEM.UNIT                               DATA : DESCRIPTION OF MNEMONIC
#-----.-----     ----------------------------- : -----------------------------
VERS.                                     2.00 : CWLS LOG ASCII STANDARD - VERSION 2.00
WRAP.                                       NO : MULTIPLE LINES PER DEPTH STEP
VEND.                                  ENVERUS : VENDOR
TYPE.                          ESS - OPEN HOLE : ENVERUS ESSENTIAL CURVES – ACCESSIBLE THROUGH ENVERUS PRISM(TM)
DOC.                                  51092896 : ENVERUS HEADER RAW DOCUMENT ID
#___________________________________________________________________________________________________ 
~WELL INFORMATION 
# mS4wxE9S4ErBCd3MEwtzWWb7vaBLyBp2a6hoNdhJ+t1pinRta8/5SsS3wr5CrR4pTncMCKeAGTUU45xlgh6yRQ== 
# MNEM.UNIT                                              DATA : DESCRIPTION OF MNEMONIC 
#-----.-----                    ----------------------------- : ----------------------------- 
CNTY.                                               CULBERSON : COUNTY 
STATE.                                                  TEXAS : STATE 
CNTRY.                                                    USA : COUNTRY 
API.                                             42-109-32620 : API (10 Digit) 
API_14.                                    42-109-32620-90-00 : API (14 Digits) 
API_14_std.                                 42-109-32620-9000 : API (14 Digits Standard) 
UWI.                                           42109326209000 : UNIQUE WELL ID 
WELL.                               42109326200000_PREV_API14 : WELL NAME
STRT.FT                                                2338.5 : START DEPTH
STOP.FT                                               10866.0 : STOP DEPTH
STEP.FT                                                   0.5 : STEP BETWEEN DEPTHS
NULL.                                                 -999.25 : NULL VALUE
PREV_APII.                                     42109326200000 : WELL IDENTIFIER
#___________________________________________________________________________________________________ 
~PARAMETER INFORMATION 
# MNEM.UNIT                                              DATA : DESCRIPTION OF MNEMONIC 
#-----.-----                    ----------------------------- : ----------------------------- 
EKB.FT                                                   3330 : ELEVATION ABOVE MSL
#___________________________________________________________________________________________________ 
~CURVE INFORMATION 
# MNEM.UNIT           : CURVE DESCRIPTION 
#-----.-----          : ----------------------------- 
 DEPT.FT               : MEASURED DEPTH 
 CALI.IN               : CALIPER (CAL - CALIPER) 
 GR.API                : GAMMA RAY (GAMMA RAY) 
 DT.US/FT              : SONIC DELTA TRANSIT TIME (PRESSURE WAVE SONIC) 
 #___________________________________________________________________________________________________ 
~A         DEPT           CALI             GR             DT
# ...
         2932.5          9.973         63.486         79.264
         2933.0          9.992         59.420         80.668
         2933.5          9.992         53.446         80.339
         2934.0          9.992         54.891         79.705
         2934.5         10.012         60.097         79.217
         2935.0         10.012         59.378         79.142
         2935.5         10.012         57.593         79.520
         2936.0         10.012         57.285         79.810
         2936.5         10.032         57.571         79.638
         2937.0         10.032         58.009         78.779
         2937.5         10.032         59.494         79.022
         2938.0         10.032         60.679         80.312
         2938.5         10.032         59.726         80.365
         2939.0         10.032         57.546         79.488
         2939.5          9.994         54.648         78.516
         2940.0          9.992         51.837         79.047
         2940.5          9.992         51.716         81.226
         2941.0          9.992         58.098         80.912
         2941.5          9.992         62.850         80.569
         2942.0          9.992         61.323         80.611
         2942.5          9.907         60.973         79.653
         2943.0          9.866         65.808         77.191
         2943.5          9.832         73.402         74.034
         2944.0          9.792         82.531         72.894
         2944.5          9.753         93.864         72.738
         2945.0          9.693        112.416         74.126
         2945.5          9.661        152.409         76.048
         2946.0          9.613        216.944         77.350
         2946.5          9.613        205.528         77.211
         2947.0          9.673        147.130         76.906
         2947.5          9.733         95.024         76.926
         2948.0          9.753         76.204         76.779
         2948.5          9.773         62.708         74.551
         2949.0          9.773         58.291         72.579
         2949.5          9.773         57.488         70.873
         2950.0          9.733         58.590         71.058
         2950.5          9.730         58.657         71.734
         2951.0          9.653         58.775         72.065
         2951.5          9.653         73.225         72.016
         2952.0          9.647         79.655         71.800
         2952.5          9.586         67.845         71.082
         2953.0          9.553         50.448         70.668
         2953.5          9.553         46.799         70.363
         2954.0          9.553         52.364         70.498
         2954.5          9.553         58.027         71.135
         2955.0          9.593         63.724         71.392
         2955.5          9.593         63.263         71.313
         2956.0          9.593         60.956         70.852
         2956.5          9.593         58.266         70.499
         2957.0          9.593         57.559         70.391
         2957.5          9.593         65.157         70.325
         2958.0          9.593         75.745         70.538
         2958.5          9.593         81.950         71.114
         2959.0          9.593         84.867         71.361
         2959.5          9.593         86.453         71.843
         2960.0          9.593         86.790         71.885
         2960.5          9.593         86.675         71.506
         2961.0          9.593         88.042         70.996
         2961.5          9.613         94.217         70.752
         2962.0          9.633        105.555         71.024
         2962.5          9.653        106.656         72.160
         2963.0          9.653        100.719         72.769
         2963.5          9.653         94.225         73.074
         2964.0          9.653         86.162         72.922
         2964.5          9.653         82.230         72.165
         2965.0          9.618         80.691         71.671
         2965.5          9.597         79.602         71.427
         2966.0          9.573         78.872         70.946
         2966.5          9.573         76.322         70.818
         2967.0          9.573         76.513         70.572
         2967.5          9.573         91.221         71.421
         2968.0          9.613        122.517         72.623
         2968.5          9.613        145.494         75.639
         2969.0          9.613        165.454         78.787
         2969.5          9.573        156.838         78.413
         2970.0          9.573        121.232         77.196
         2970.5          9.573         85.442         73.873
         2971.0          9.573         70.400         70.853
         2971.5          9.553         65.377         67.696
         2972.0          9.533         62.900         65.548
         2972.5          9.533         58.683         63.771
         2973.0          9.533         60.535         64.936
         2973.5          9.533         62.281         68.983
         2974.0          9.533         63.673         70.877
         2974.5          9.533         63.832         72.064
         2975.0          9.513         66.076         72.145
         2975.5          9.495         70.640         71.341
         2976.0          9.513         77.302         70.995
         2976.5          9.513         84.756         71.053
         2977.0          9.515         93.455         71.298
         2977.5          9.556         98.482         71.765
         2978.0          9.613         93.652         72.424
         2978.5          9.613         86.692         72.632
         2979.0          9.633         83.353         72.678
         2979.5          9.633         85.834         72.476
         2980.0          9.653         76.015         72.160
         2980.5          9.653         63.163         71.495
         2981.0          9.653         59.513         70.525
         2981.5          9.641         60.482         69.157
         2982.0          9.633         63.241         68.291
         2982.5          9.633         62.868         67.623
         2983.0          9.633         62.224         67.848
         2983.5          9.597         62.874         68.345
         2984.0          9.593         61.550         69.178
         2984.5          9.593         61.259         70.503
         2985.0          9.593         66.910         71.080
         2985.5          9.593         71.367         71.536
         2986.0          9.613         76.416         71.595
         2986.5          9.633         81.117         71.467
         2987.0          9.633         88.136         71.066
         2987.5          9.633         91.961         70.738
         2988.0          9.633         83.360         70.554
         2988.5          9.653         83.082         70.632
         2989.0          9.653         88.878         70.752
         2989.5          9.653         92.708         70.692
         2990.0          9.663         95.409         70.572
         2990.5          9.673         94.810         70.357
         2991.0          9.673         92.299         69.812
         2991.5          9.673         90.536         69.447
         2992.0          9.693         92.564         69.263
         2992.5          9.693         92.415         69.368
         2993.0          9.693         93.540         69.480
         2993.5          9.693         92.633         69.549
         2994.0          9.693         86.204         69.667
         2994.5          9.693         88.273         70.096
         2995.0          9.691        105.850         70.910
         2995.5          9.673        112.153         71.518
         2996.0          9.649        102.607         71.157
         2996.5          9.633         94.623         70.469
         2997.0          9.633         90.194         69.064
         2997.5          9.613         96.079         68.427
         2998.0          9.613        143.213         69.635
