###############################################
##         ENVERUS                           ##
##         ESS - Open Hole                   ##
##         PERMIAN / DELAWARE                ##
##         Nov 03 2023  V4.0                 ##
##         42-109-32709-00-00                ##
###############################################
## Copyright 2017-2023  ENVERUS.  All Rights Reserved. 
## Confidential - Property of ENVERUS, use governed by terms and 
## conditions found within the existing Information Services Subscription Agreement 
## (as may be amended, the “ISSA”) between Customer and ENVERUS. 
## 
~VERSION INFORMATION
# MNEM.UNIT                               DATA : DESCRIPTION OF MNEMONIC
#-----.-----     ----------------------------- : -----------------------------
VERS.                                     2.00 : CWLS LOG ASCII STANDARD - VERSION 2.00
WRAP.                                       NO : MULTIPLE LINES PER DEPTH STEP
VEND.                                  ENVERUS : VENDOR
TYPE.                          ESS - OPEN HOLE : ENVERUS ESSENTIAL CURVES – ACCESSIBLE THROUGH ENVERUS PRISM(TM)
DOC.                                  32116645 : ENVERUS HEADER RAW DOCUMENT ID
#___________________________________________________________________________________________________ 
~WELL INFORMATION 
# 8SOIrMNgLSTosdYTMQVb7KPebVRgGb4NQOaGG3/cpRvPeoxWQd7So5pZ7XPWbXIrV4d26no2f3ffGwkTWQV8GA== 
# MNEM.UNIT                                              DATA : DESCRIPTION OF MNEMONIC 
#-----.-----                    ----------------------------- : ----------------------------- 
CNTY.                                               CULBERSON : COUNTY 
STATE.                                                  TEXAS : STATE 
CNTRY.                                                    USA : COUNTRY 
API.                                             42-109-32709 : API (10 Digit) 
API_14.                                    42-109-32709-00-00 : API (14 Digits) 
API_14_std.                                 42-109-32709-0000 : API (14 Digits Standard) 
UWI.                                           42109327090000 : UNIQUE WELL ID 
WELL.                                    42109327090000_API14 : WELL NAME
STRT.FT                                                  26.5 : START DEPTH
STOP.FT                                                5244.0 : STOP DEPTH
STEP.FT                                                   0.5 : STEP BETWEEN DEPTHS
NULL.                                                 -999.25 : NULL VALUE
#___________________________________________________________________________________________________ 
~PARAMETER INFORMATION 
# MNEM.UNIT                                              DATA : DESCRIPTION OF MNEMONIC 
#-----.-----                    ----------------------------- : ----------------------------- 
EKB.FT                                                   3124 : ELEVATION ABOVE MSL
#___________________________________________________________________________________________________ 
~CURVE INFORMATION 
# MNEM.UNIT           : CURVE DESCRIPTION 
#-----.-----          : ----------------------------- 
 DEPT.FT               : MEASURED DEPTH 
 CALI.IN               : CALIPER (CAL - CALIPER) 
 GR.API                : GAMMA RAY (GAMMA RAY) 
 DT.US/FT              : SONIC DELTA TRANSIT TIME (SONIC) 
 PE.B/E                : PHOTOELECTRIC EFFECT/FACTOR (PHOTOELECTRIC FACTOR) 
 RESS.OHMM             : SHALLOW INDUCTION RESISTIVITY (ILS - SHALLOW RESISTIVITY) 
 RESS_LL.OHMM          : SHALLOW LATEROLOG (LLS - SHALLOW RESISTIVITY) 
 RESD_LL.OHMM          : DEEP LATEROLOG (LLD - DEEP RESISTIVITY) 
 DPHI.V/V              : DENSITY POROSITY (DENSITY POROSITY) 
 NPHI.V/V              : NEUTRON POROSITY (NEUTRON POROSITY) 
 RHOB.G/CC             : BULK DENSITY (DENSITY) 
 #___________________________________________________________________________________________________ 
~A         DEPT           CALI             GR             DT             PE           RESS        RESS_LL        RESD_LL           DPHI           NPHI           RHOB
# ...
         3677.0          7.680         86.870        342.548         4.1653         26.070        50.6827        57.5555        0.02736        0.06241         2.6441
         3677.5          7.680         80.440        341.433         3.7753         22.808        44.1572        50.1301        0.05063        0.08221         2.6225
         3678.0          7.700         79.112        341.433         3.2915         26.873        43.7650        47.8331        0.06787        0.10970         2.5928
         3678.5          7.708         79.504        341.433         2.9972         24.497        51.7541        48.0558        0.07396        0.09870         2.5901
         3679.0          7.719         74.769        341.433         2.9106         20.934        50.2336        46.3456        0.07535        0.08777         2.5864
         3679.5          7.719         70.104        340.884         2.8304         18.680        45.3751        41.1693        0.09161        0.09112         2.5588
         3680.0          7.660         70.316        338.206         2.7699         17.935        43.6798        37.8141        0.10275        0.09405         2.5467
         3680.5          7.733         76.086        334.640         2.7219         16.843        42.1427        35.4627        0.10293        0.09581         2.5479
         3681.0          7.739         82.112        329.254         2.7219         16.005        39.5222        33.1051        0.09562        0.09830         2.5571
         3681.5          7.739         80.820        322.629         2.7416         14.206        36.3715        30.1921        0.09607        0.10580         2.5524
         3682.0          7.739         68.791        315.345         2.7416         12.823        33.3018        28.7621        0.10168        0.11059         2.5457
         3682.5          7.739         67.448        310.074         2.7416         11.722        31.1514        28.7061        0.10316        0.11646         2.5435
         3683.0          7.738         77.849        306.640         2.6830         11.432        30.7295        28.3173        0.10764        0.12192         2.5326
         3683.5          7.719         79.852        304.435         2.6036         13.242        32.2288        29.4779        0.11680        0.12048         2.5212
         3684.0          7.700         71.713        302.588         2.6036         15.406        36.0877        33.3418        0.11725        0.10553         2.5247
         3684.5          7.700         66.245        302.008         2.5641         18.175        40.4298        41.2546        0.10192        0.09803         2.5048
         3685.0          7.680         66.188        301.243         2.5886         22.189        44.8429        50.2915        0.08922        0.09524         2.5573
         3685.5          7.680         63.443        298.874         2.7212         31.316        54.0763        60.3680        0.07839        0.07649         2.5772
         3686.0          7.680         55.161        297.006         2.8712         42.846        72.5027        81.5176        0.07290        0.06568         2.5916
         3686.5          7.670         49.347        295.219         3.1077         77.096        79.3750       123.7127        0.05737        0.06673         2.6062
         3687.0          7.640         50.969        295.540         3.5866        147.399       114.0729       167.7796        0.03472        0.05412         2.6586
         3687.5          7.640         60.123        297.648         4.0934        149.846       216.0531       193.7418        0.01491        0.05130         2.6889
         3688.0          7.640         68.346        298.973         4.2012        110.557       172.9299       193.7418        0.00915        0.04846         2.6968
         3688.5          7.621         73.201        301.461         4.0884         83.961       153.0294       199.1467        0.00662        0.04883         2.7018
         3689.0          7.621         76.186        302.929         4.0863         89.598       167.2988       211.4833        0.00269        0.04832         2.7078
         3689.5          7.621         74.016        303.836         4.3404        135.814       186.2945       234.4817       -0.00281        0.04771         2.7138
         3690.0          7.621         64.597        303.836         4.5349        184.645       253.7484       276.6879       -0.00299        0.04244         2.7133
         3690.5          7.621         54.338        303.836         4.6743        171.851       281.9343       335.0415        0.00589        0.03571         2.7007
         3691.0          7.621         52.480        302.882         4.6340        173.453       294.5327       356.8617        0.01085        0.03378         2.6936
         3691.5          7.621         57.533        303.262         4.5759        208.111       280.8419       371.5960        0.00836        0.03693         2.6970
         3692.0          7.621         62.244        304.613         4.5327        248.728       263.8430       349.6500        0.00619        0.03741         2.6978
         3692.5          7.621         67.856        308.328         4.3806        171.571       253.1137       240.0021        0.01560        0.03284         2.6796
         3693.0          7.660         80.535        314.412         3.9390        103.502       145.1707       163.7019        0.03678        0.04470         2.6506
         3693.5          7.660         90.785        321.017         3.5210         73.463       134.3994       144.8740        0.04737        0.05152         2.6324
         3694.0          7.658         95.170        327.362         3.4320         71.046       133.5019       144.8740        0.04546        0.05318         2.6430
         3694.5          7.660         95.170        333.706         3.5572        105.959       134.7201       144.8740        0.02900        0.05721         2.6679
         3695.0          7.660         93.886        339.088         3.9583        121.618       131.2054       179.1039        0.02095        0.05594         2.6765
         3695.5          7.660         84.006        342.958         4.2110        132.269       126.4456       208.3850        0.02150        0.04392         2.6777
         3696.0          7.660         70.935        343.000         4.2604        138.500       120.7572       185.4878        0.01816        0.04521         2.6813
         3696.5          7.660         68.401        343.000         4.3531        110.860       115.3248       140.6941        0.01779        0.04990         2.6773
         3697.0          7.660         74.482        343.000         4.3419         68.168        80.7420       111.2561        0.03001        0.04911         2.6582
         3697.5          7.700         77.546        343.000         4.2044         48.918        55.9684        78.4951        0.03720        0.06544         2.6471
         3698.0          7.700         78.280        343.000         3.9643         35.166        46.1067        53.7795        0.04340        0.08306         2.6378
         3698.5          7.719         84.145        343.000         3.5842         23.231        33.7296        41.2128        0.05963        0.09551         2.6093
         3699.0          7.763         85.751        343.000         3.1310         17.311        27.2873        31.0993        0.07973        0.09468         2.5764
         3699.5          7.798         77.037        343.000         2.7216         13.711        23.6483        24.9179        0.09300        0.10931         2.5551
         3700.0          7.798         74.089        343.000         2.6036         11.535        21.7851        23.8565        0.10416        0.10753         2.5361
         3700.5          7.807         81.168        343.000         2.6300         10.982        21.3797        22.7832        0.11401        0.10612         2.5256
         3701.0          7.818         88.893        343.000         2.7219         10.910        20.9293        21.9017        0.11388        0.11657         2.5319
