###############################################
##         ENVERUS                           ##
##         ESS - Open Hole                   ##
##         PERMIAN / DELAWARE                ##
##         Nov 02 2023  V4.0                 ##
##         42-109-31391-00-00                ##
###############################################
## Copyright 2017-2023  ENVERUS.  All Rights Reserved. 
## Confidential - Property of ENVERUS, use governed by terms and 
## conditions found within the existing Information Services Subscription Agreement 
## (as may be amended, the “ISSA”) between Customer and ENVERUS. 
## 
~VERSION INFORMATION
# MNEM.UNIT                               DATA : DESCRIPTION OF MNEMONIC
#-----.-----     ----------------------------- : -----------------------------
VERS.                                     2.00 : CWLS LOG ASCII STANDARD - VERSION 2.00
WRAP.                                       NO : MULTIPLE LINES PER DEPTH STEP
VEND.                                  ENVERUS : VENDOR
TYPE.                          ESS - OPEN HOLE : ENVERUS ESSENTIAL CURVES – ACCESSIBLE THROUGH ENVERUS PRISM(TM)
DOC.                                  31999167 : ENVERUS HEADER RAW DOCUMENT ID
#___________________________________________________________________________________________________ 
~WELL INFORMATION 
# BOC9FSWoKCUsCFcWObZ1iTDYvHtSUwfaSl9bEava01AYiR20s/sWwY1hBaxvFz+VJj0aOQNxXrzxY9t5EPBGbg== 
# MNEM.UNIT                                              DATA : DESCRIPTION OF MNEMONIC 
#-----.-----                    ----------------------------- : ----------------------------- 
CNTY.                                               CULBERSON : COUNTY 
STATE.                                                  TEXAS : STATE 
CNTRY.                                                    USA : COUNTRY 
API.                                             42-109-31391 : API (10 Digit) 
API_14.                                    42-109-31391-00-00 : API (14 Digits) 
API_14_std.                                 42-109-31391-0000 : API (14 Digits Standard) 
UWI.                                           42109313910000 : UNIQUE WELL ID 
WELL.                                            TRES ALAS  1 : WELL NAME
STRT.FT                                                     0 : START DEPTH
STOP.FT                                               15494.0 : STOP DEPTH
STEP.FT                                                   0.5 : STEP BETWEEN DEPTHS
NULL.                                                 -999.25 : NULL VALUE
COMP.                           AMERICAN QUASAR PETROLEUM CO. : COMPANY
#___________________________________________________________________________________________________ 
~CURVE INFORMATION 
# MNEM.UNIT           : CURVE DESCRIPTION 
#-----.-----          : ----------------------------- 
 DEPT.FT               : MEASURED DEPTH 
 CALI.IN               : CALIPER (CAL - CAL) 
 GR.API                : GAMMA RAY (GR) 
 DT.US/FT              : SONIC DELTA TRANSIT TIME (DT) 
 #___________________________________________________________________________________________________ 
~A         DEPT           CALI             GR             DT
# ...
         7656.0         13.112         23.212         56.950
         7656.5         13.107         26.208         59.769
         7657.0         13.103         30.982         62.588
         7657.5         13.098         35.756         65.408
         7658.0         13.094         40.530         65.925
         7658.5         13.088         44.772         66.423
         7659.0         13.082         48.848         66.921
         7659.5         13.077         52.923         68.651
         7660.0         13.071         56.999         71.067
         7660.5         13.065         60.442         73.433
         7661.0         13.060         63.658         73.915
         7661.5         13.054         66.874         74.398
         7662.0         13.049         67.733         74.880
         7662.5         13.043         67.883         75.363
         7663.0         13.037         68.804         75.842
         7663.5         13.032         70.021         75.591
         7664.0         13.026         71.169         74.628
         7664.5         13.020         69.280         73.666
         7665.0         13.015         67.390         72.704
         7665.5         13.009         65.500         70.139
         7666.0         13.003         58.499         66.419
         7666.5         13.005         50.754         64.432
         7667.0         13.021         47.524         64.870
         7667.5         13.038         46.764         68.875
         7668.0         13.055         48.133         70.728
         7668.5         13.071         51.842         71.536
         7669.0         13.088         55.474         71.608
         7669.5         13.105         56.468         68.697
         7670.0         13.121         55.561         65.309
         7670.5         13.123         48.070         64.008
         7671.0         13.120         43.007         63.741
         7671.5         13.117         38.176         65.065
         7672.0         13.114         39.332         66.390
         7672.5         13.111         48.971         67.715
         7673.0         13.108         51.348         68.337
         7673.5         13.105         51.531         66.431
         7674.0         13.105         50.453         66.887
         7674.5         13.120         48.508         67.630
         7675.0         13.135         46.885         69.160
         7675.5         13.151         46.835         71.293
         7676.0         13.166         50.609         72.561
         7676.5         13.180         60.341         72.102
         7677.0         13.188         63.150         71.488
         7677.5         13.196         63.164         71.086
         7678.0         13.205         59.593         70.945
         7678.5         13.213         56.321         71.049
         7679.0         13.221         57.316         71.154
         7679.5         13.229         58.310         69.681
         7680.0         13.238         58.933         66.585
         7680.5         13.246         54.021         63.489
         7681.0         13.254         49.108         62.099
         7681.5         13.274         43.277         64.069
         7682.0         13.293         40.052         67.084
         7682.5         13.313         42.452         70.100
         7683.0         13.333         46.916         71.814
         7683.5         13.352         51.380         72.537
         7684.0         13.372         54.138         72.439
         7684.5         13.391         55.251         72.341
         7685.0         13.411         55.231         72.432
         7685.5         13.430         54.581         72.969
         7686.0         13.429         53.298         73.294
         7686.5         13.428         49.887         72.903
         7687.0         13.426         44.765         71.902
         7687.5         13.425         39.643         69.964
         7688.0         13.424         35.947         68.088
         7688.5         13.423         35.566         67.952
         7689.0         13.422         38.930         67.815
         7689.5         13.421         43.425         67.679
         7690.0         13.419         47.087         68.627
         7690.5         13.418         45.768         69.833
         7691.0         13.417         43.141         71.040
         7691.5         13.416         40.513         72.246
         7692.0         13.415         39.130         73.131
         7692.5         13.414         38.932         72.933
         7693.0         13.412         41.488         72.736
         7693.5         13.411         44.044         72.538
         7694.0         13.410         45.216         72.537
         7694.5         13.406         47.668         72.835
         7695.0         13.399         51.429         73.134
         7695.5         13.392         55.189         73.212
         7696.0         13.385         57.578         72.863
         7696.5         13.378         58.290         72.514
         7697.0         13.371         58.173         72.174
         7697.5         13.364         58.039         72.128
         7698.0         13.346         58.935         72.082
         7698.5         13.322         59.568         72.035
         7699.0         13.298         58.553         71.181
         7699.5         13.274         57.539         69.625
         7700.0         13.250         56.525         68.069
         7700.5         13.226         53.965         66.566
         7701.0         13.202         49.325         65.215
         7701.5         13.187         44.684         65.273
         7702.0         13.182         41.231         65.394
         7702.5         13.176         39.270         66.681
         7703.0         13.170         39.371         67.969
         7703.5         13.165         41.783         68.456
         7704.0         13.159         45.713         68.435
         7704.5         13.153         54.808         66.823
         7705.0         13.148         56.176         66.945
         7705.5         13.142         55.249         67.067
         7706.0         13.137         54.322         69.360
         7706.5         13.131         54.613         71.790
         7707.0         13.125         55.944         73.511
         7707.5         13.120         57.737         74.993
         7708.0         13.114         59.545         75.868
         7708.5         13.108         62.430         75.890
         7709.0         13.103         65.696         75.913
         7709.5         13.097         68.961         75.894
         7710.0         13.091         68.471         74.690
         7710.5         13.086         66.893         72.641
         7711.0         13.080         65.315         68.452
         7711.5         13.075         63.737         66.784
         7712.0         13.069         62.159         66.309
         7712.5         13.064         60.581         66.607
         7713.0         13.058         56.567         68.028
         7713.5         13.053         52.117         67.306
         7714.0         13.047         47.684         66.022
         7714.5         13.042         43.488         62.436
         7715.0         13.037         39.292         56.383
         7715.5         13.031         33.072         54.989
         7716.0         13.026         26.647         55.827
         7716.5         13.033         23.744         60.667
         7717.0         13.048         23.687         66.308
         7717.5         13.062         27.786         68.906
         7718.0         13.076         43.013         71.257
         7718.5         13.090         48.250         71.788
         7719.0         13.104         51.223         72.319
         7719.5         13.119         51.064         72.703
         7720.0         13.119         50.532         72.519
         7720.5         13.109         50.016         72.334
         7721.0         13.100         49.587         70.998
         7721.5         13.090         49.158         68.913
