###############################################
##         ENVERUS                           ##
##         ESS - Open Hole                   ##
##         PERMIAN / DELAWARE                ##
##         Nov 03 2023  V4.0                 ##
##         42-109-32620-90-00                ##
###############################################
## Copyright 2017-2023  ENVERUS.  All Rights Reserved. 
## Confidential - Property of ENVERUS, use governed by terms and 
## conditions found within the existing Information Services Subscription Agreement 
## (as may be amended, the “ISSA”) between Customer and ENVERUS. 
## 
~VERSION INFORMATION
# MNEM.UNIT                               DATA : DESCRIPTION OF MNEMONIC
#-----.-----     ----------------------------- : -----------------------------
VERS.                                     2.00 : CWLS LOG ASCII STANDARD - VERSION 2.00
WRAP.                                       NO : MULTIPLE LINES PER DEPTH STEP
VEND.                                  ENVERUS : VENDOR
TYPE.                          ESS - OPEN HOLE : ENVERUS ESSENTIAL CURVES – ACCESSIBLE THROUGH ENVERUS PRISM(TM)
DOC.                                  51092896 : ENVERUS HEADER RAW DOCUMENT ID
#___________________________________________________________________________________________________ 
~WELL INFORMATION 
# mS4wxE9S4ErBCd3MEwtzWWb7vaBLyBp2a6hoNdhJ+t1pinRta8/5SsS3wr5CrR4pTncMCKeAGTUU45xlgh6yRQ== 
# MNEM.UNIT                                              DATA : DESCRIPTION OF MNEMONIC 
#-----.-----                    ----------------------------- : ----------------------------- 
CNTY.                                               CULBERSON : COUNTY 
STATE.                                                  TEXAS : STATE 
CNTRY.                                                    USA : COUNTRY 
API.                                             42-109-32620 : API (10 Digit) 
API_14.                                    42-109-32620-90-00 : API (14 Digits) 
API_14_std.                                 42-109-32620-9000 : API (14 Digits Standard) 
UWI.                                           42109326209000 : UNIQUE WELL ID 
WELL.                               42109326200000_PREV_API14 : WELL NAME
STRT.FT                                                2338.5 : START DEPTH
STOP.FT                                               10866.0 : STOP DEPTH
STEP.FT                                                   0.5 : STEP BETWEEN DEPTHS
NULL.                                                 -999.25 : NULL VALUE
PREV_APII.                                     42109326200000 : WELL IDENTIFIER
#___________________________________________________________________________________________________ 
~PARAMETER INFORMATION 
# MNEM.UNIT                                              DATA : DESCRIPTION OF MNEMONIC 
#-----.-----                    ----------------------------- : ----------------------------- 
EKB.FT                                                   3330 : ELEVATION ABOVE MSL
#___________________________________________________________________________________________________ 
~CURVE INFORMATION 
# MNEM.UNIT           : CURVE DESCRIPTION 
#-----.-----          : ----------------------------- 
 DEPT.FT               : MEASURED DEPTH 
 CALI.IN               : CALIPER (CAL - CALIPER) 
 GR.API                : GAMMA RAY (GAMMA RAY) 
 DT.US/FT              : SONIC DELTA TRANSIT TIME (PRESSURE WAVE SONIC) 
 #___________________________________________________________________________________________________ 
~A         DEPT           CALI             GR             DT
# ...
         7420.5          9.114         98.790         70.510
         7421.0          9.074         86.004         71.093
         7421.5          9.037         85.657         69.678
         7422.0          9.094         85.931         69.248
         7422.5          9.114         85.266         69.368
         7423.0          9.154         97.361         70.129
         7423.5          9.154        112.765         73.285
         7424.0          9.134        110.306         72.696
         7424.5          9.134        102.341         72.452
         7425.0          9.134        101.996         70.780
         7425.5          9.194         93.778         63.754
         7426.0          9.232         72.442         61.429
         7426.5          9.293         59.763         61.095
         7427.0          9.293         55.259         62.214
         7427.5          9.232         68.745         69.102
         7428.0          9.194         93.402         72.602
         7428.5          9.194        104.920         73.727
         7429.0          9.179        117.849         75.768
         7429.5          9.200        127.868         76.710
         7430.0          9.254        136.626         76.033
         7430.5          9.254        134.941         73.871
         7431.0          9.223        121.548         70.818
         7431.5          9.214        100.276         63.305
         7432.0          9.254         70.714         57.134
         7432.5          9.201         57.550         55.427
         7433.0          9.279         33.292         53.616
         7433.5          9.198         21.653         50.242
         7434.0          9.194         17.020         51.730
         7434.5          9.216         22.931         55.948
         7435.0          9.176         38.068         60.126
         7435.5          9.194         66.798         63.407
         7436.0          9.154         84.153         62.926
         7436.5          9.196         87.769         62.348
         7437.0          9.214         84.354         62.281
         7437.5          9.258         94.159         66.398
         7438.0          9.268        106.877         71.491
         7438.5          9.254        112.974         71.325
         7439.0          9.254        112.251         70.707
         7439.5          9.225        117.651         70.910
         7440.0          9.174        120.149         71.655
         7440.5          9.231        122.210         71.543
         7441.0          9.234        110.015         69.154
         7441.5          9.201         76.836         59.244
         7442.0          9.194         45.567         52.512
         7442.5          9.214         31.455         51.194
         7443.0          9.217         25.557         51.424
         7443.5          9.194         25.575         52.650
         7444.0          9.194         29.593         54.010
         7444.5          9.233         37.512         56.839
         7445.0          9.213         45.013         59.561
         7445.5          9.154         66.588         64.799
         7446.0          9.154         94.043         68.896
         7446.5          9.134        108.857         73.115
         7447.0          9.134        106.188         73.695
         7447.5          9.134        111.754         74.799
         7448.0          9.134        127.771         75.970
         7448.5          9.134        141.142         76.409
         7449.0          9.134        146.006         75.763
         7449.5          9.134        147.078         75.353
         7450.0          9.134        146.627         74.291
         7450.5          9.134        130.823         68.142
         7451.0          9.114        103.231         59.856
         7451.5          9.114         75.672         57.243
         7452.0          9.114         54.127         55.478
         7452.5          9.114         30.367         50.894
         7453.0          9.114         18.553         51.537
         7453.5          9.114         21.943         53.505
         7454.0          9.114         34.480         55.909
         7454.5          9.114         57.972         61.788
         7455.0          9.134         80.705         68.084
         7455.5          9.134         91.409         70.308
         7456.0          9.134        101.543         70.720
         7456.5          9.134         93.885         64.789
         7457.0          9.134         70.036         61.642
         7457.5          9.134         58.397         62.071
         7458.0          9.134         63.118         65.420
         7458.5          9.134         75.757         71.520
         7459.0          9.146         80.419         71.986
         7459.5          9.154         82.236         71.144
         7460.0          9.154         80.326         69.962
         7460.5          9.154         75.412         66.008
         7461.0          9.154         71.328         64.586
         7461.5          9.171         59.274         60.918
         7462.0          9.174         50.205         59.574
         7462.5          9.174         47.501         61.808
         7463.0          9.194         54.481         63.509
         7463.5          9.194         62.665         64.822
         7464.0          9.174         66.898         65.651
         7464.5          9.194         69.262         65.985
         7465.0          9.234         67.651         65.894
         7465.5          9.234         65.933         66.618
         7466.0          9.234         66.980         68.067
         7466.5          9.254         72.377         70.689
         7467.0          9.274         80.325         72.948
         7467.5          9.263         80.820         68.618
         7468.0          9.254         72.488         65.715
         7468.5          9.254         50.238         61.210
         7469.0          9.254         36.618         57.600
         7469.5          9.254         33.333         57.579
         7470.0          9.254         36.093         60.293
         7470.5          9.254         56.637         63.641
         7471.0          9.254         68.005         65.249
         7471.5          9.254         66.316         63.988
         7472.0          9.254         61.818         61.187
         7472.5          9.254         43.342         59.543
         7473.0          9.254         41.086         58.783
         7473.5          9.254         36.514         57.842
         7474.0          9.254         33.007         57.033
         7474.5          9.274         36.780         58.574
         7475.0          9.274         46.577         60.455
         7475.5          9.274         54.153         62.682
         7476.0          9.274         54.811         62.569
         7476.5          9.304         48.237         59.432
         7477.0          9.313         38.078         57.993
         7477.5          9.274         33.436         58.372
         7478.0          9.274         35.784         59.653
         7478.5          9.274         47.758         65.672
         7479.0          9.274         66.828         67.986
         7479.5          9.274         81.298         69.688
         7480.0          9.274         83.221         70.816
         7480.5          9.274         76.869         66.006
         7481.0          9.274         61.848         64.144
         7481.5          9.274         49.385         61.834
         7482.0          9.274         46.029         60.230
         7482.5          9.293         50.071         63.391
         7483.0          9.293         58.903         65.516
         7483.5          9.300         72.852         66.899
         7484.0          9.313         74.215         65.955
         7484.5          9.313         61.390         61.852
         7485.0          9.313         45.016         60.132
         7485.5          9.313         46.391         60.745
         7486.0          9.325         52.705         62.364
