# Exported from Transform Software 5.2.0 on 17-Oct-2019 by user kathryn.gehrke
# DI Transform - A Product of Drillinginfo, Inc. - www.drillinginfo.com
#
~VERSION INFORMATION
 VERS.        2.0 : LAS ASCII STANDARD - VERSION 2.0
 WRAP.         NO : ONE LINE PER DEPTH STEP

~WELL INFORMATION
#MNEM.UNIT       DATA TYPE       INFORMATION
#---------       ---------       -----------
 STRT.ft                 100 : Start Depth
 STOP.ft               10126 : Stop Depth
 STEP.ft                 0.5 : Step Length
 NULL.               -999.25 : Null Value
 COMP.                       : Company
 WELL.  42109329790000_API14 : Well Name
 FLD.                        : Field Name
 LOC.                        : Well Location
 CNTY.                       : County
 STAT.                       : State or Province
 CTRY.                       : Country
 SRVC.                       : Service Company
 DATE.                       : Date
 API.         42109329790000 : Well Identifier

~CURVE INFORMATION
#MNEM.UNIT       API CODE       CURVE DESCRIPTION
#---------       --------       -----------------
 DEPT.ft        : <Measured Depth>
 DT.us/ft       : Sonic
 GR.gAPI        : Gamma Ray

~PARAMETER INFORMATION
#MNEM.UNIT       VALUE       DESCRIPTION
#---------       -----       -----------
 EKB.ft      3282 : Elevation above MSL

~A      DEPT          DT          GR
# ...
      9973.5    264.4258     60.0125
        9974    264.4258     60.4075
      9974.5    264.4258     63.9884
        9975    264.4258     66.8067
      9975.5    264.4258     64.2906
        9976    264.4258     58.8224
      9976.5    264.4258     52.5414
        9977    264.4258     44.6644
      9977.5    264.4258     40.3361
        9978    264.4258     42.6745
      9978.5    264.4258     45.8652
        9979    264.4258     50.8523
      9979.5    264.4258      58.327
        9980    264.4258     64.2857
      9980.5    264.4258     65.5069
        9981    264.4258      69.708
      9981.5    264.4258      74.919
        9982    264.4258     76.3601
      9982.5    264.4258     73.9329
        9983    264.4258     76.1931
      9983.5    264.4258     78.1513
        9984    264.4258     76.0432
      9984.5    265.7468     75.3605
        9985     267.797     76.0504
      9985.5    267.7871     72.6864
        9986    267.7871     68.8419
      9986.5    267.7871     69.8041
        9987    268.5464     71.5778
      9987.5    270.8122     74.3222
        9988    267.7264     77.5438
      9988.5    264.8999     77.9914
        9989    263.8655      73.156
      9989.5    263.8655     68.0552
        9990    263.8655     64.5463
      9990.5    263.8655     61.9316
        9991    263.8723     60.0207
      9991.5    264.4258     59.2437
        9992    264.4258     59.2437
      9992.5    264.4258     59.6425
        9993    264.4258     60.3145
      9993.5    264.4258     60.9866
        9994    264.4258     62.4459
      9994.5    264.4258     64.0113
        9995    263.8956     62.6501
      9995.5    263.8655     59.8547
        9996    263.8655     58.7625
      9996.5    263.8655     57.0937
        9997    263.8655     54.3327
      9997.5    263.8655      53.956
        9998    263.8655     55.8824
      9998.5    263.8655      55.042
        9999    263.8655     55.3537
      9999.5    263.8655      58.275
       10000    263.3053     62.9879
     10000.5    263.3053     65.2564
       10001    263.3053     68.6927
     10001.5    263.3053     74.0409
       10002    263.3053     75.0678
     10002.5    263.3053     72.9513
       10003    263.3053     70.0395
     10003.5    263.3053     68.4011
       10004    263.3053     65.6131
     10004.5    263.3053     64.2857
       10005    263.3053      62.856
     10005.5    263.3053     60.2796
       10006    263.3053     57.8142
     10006.5    263.3053      55.154
       10007    263.3053      54.482
     10007.5    263.3053     54.2017
       10008    263.3053     55.2655
     10008.5    263.8655     55.8272
       10009    263.8655      55.042
     10009.5    263.8655      54.063
       10010    263.8655     54.1721
     10010.5    263.8655     54.3996
       10011    263.8655      55.123
     10011.5    263.8655     58.3276
       10012    263.8655     63.5066
     10012.5    263.8655     65.9664
       10013    263.8655     65.3251
     10013.5    263.8655     62.8932
       10014    263.8655      61.229
     10014.5    263.8655      60.788
       10015    263.8655     61.7008
     10015.5    263.8655     64.2857
       10016    263.8655     65.1777
     10016.5    263.8655     66.0831
       10017    263.8655     65.1261
     10017.5    263.8655     65.0929
       10018    263.8655     63.6468
     10018.5    263.8655      63.916
       10019    263.8655     65.1261
     10019.5    263.8655      64.992
       10020    263.8655     63.8998
     10020.5    263.8655     65.3661
       10021    263.8655     68.5367
     10021.5    263.8655     69.6289
       10022    263.8655     70.1681
     10022.5    263.8655     70.5882
       10023    263.8655     69.1113
     10023.5    263.9297     66.0081
       10024     265.386     62.2152
     10024.5    265.5462     58.3501
       10025    266.0576     56.7227
     10025.5    267.2269     54.6064
       10026    267.2269     52.0539
     10026.5    268.1855     51.6807
       10027    270.5242     53.7528
     10027.5    264.4762     57.6975
       10028    263.5907     61.4595
     10028.5    263.8655     64.3544
       10029    263.8655     66.4128
     10029.5    263.8655     67.2269
       10030    263.8655     67.2269
     10030.5    263.8655     67.8543
       10031    263.8655     67.6471
     10031.5    263.8655      65.349
       10032    263.8655     61.9926
     10032.5    263.8655      59.514
       10033    263.8655     58.1949
     10033.5    263.8655     59.9391
       10034    263.8655     62.4177
     10034.5    263.8655     65.9272
       10035    263.8655     70.2748
     10035.5    263.8655     71.1128
       10036    263.8655     70.1681
     10036.5    263.8655     70.4622
       10037    263.8655     68.8031
     10037.5    263.8655      65.001
       10038    263.8655     66.4891
     10038.5    263.8655     68.0056
       10039    263.8655     66.6795
     10039.5    263.8655      65.507
       10040    263.8655      63.489
     10040.5    263.8655     60.3017
       10041    263.8655     55.5925
     10041.5    263.8655     53.0696
       10042    263.8655     54.9305
     10042.5    263.8655     57.5182
       10043    263.8655     58.6104
     10043.5    263.8655     61.6708
       10044    263.8655     63.8655
     10044.5    263.8655     62.7806
       10045    263.8655     58.9616
     10045.5    263.8655     54.9433
       10046    263.8655     54.2017
     10046.5    263.8655     55.3314
       10047    263.8655     56.8438
     10047.5    263.8655     60.1054
       10048    263.8655     65.6377
     10048.5    263.8655     67.2269
       10049    263.8655     66.3866
     10049.5    263.8655     66.6868
       10050    263.8655     64.7542
     10050.5    263.8655     63.4454
       10051    263.8655     63.8655
     10051.5    263.8655     62.7381
       10052    263.8655     63.5641
     10052.5    263.8655     63.8655
       10053    263.8655     63.1419
     10053.5    263.8655      60.016
       10054    263.8655     58.5376
     10054.5    263.8655      55.916
       10055    263.8655     56.6466
     10055.5    263.8655     56.1014
       10056    263.8655     59.3915
     10056.5    263.8655     63.3846
       10057    263.8655     64.8223
     10057.5    263.8655     65.5462
       10058    263.8655      67.847
     10058.5    263.8655     67.6154
       10059    263.8655     67.5104
     10059.5    263.8655     67.1116
       10060    263.8655     65.1791
     10060.5    263.8655     63.6667
       10061    263.8655     64.3162
     10061.5    263.8655     63.2319
       10062    263.8655     64.3038
     10062.5    263.8655     66.3323
       10063    263.8655     67.6471
     10063.5    263.8655      64.227
       10064    263.8655     63.0252
     10064.5    263.8655      62.605
       10065    263.8655      60.615
     10065.5    263.8655     58.6271
       10066    265.0235     60.1685
     10066.5    268.0389      62.605
       10067    267.7871     62.0731
     10067.5    267.2269     61.3445
       10068    267.2269     61.7647
     10068.5    267.2269     60.6738
       10069    267.2269     58.9648
     10069.5    265.3988     58.8235
       10070    264.4258     58.4611
     10070.5    263.8655     56.6416
       10071    263.8655     55.4622
     10071.5    263.8655     54.3442
       10072    263.8655     52.1469
     10072.5    263.8655     50.8403
       10073    264.1228     52.7933
     10073.5    264.4258     55.0667
       10074    264.4258     56.1589
     10074.5    264.4258     58.1455
       10075    264.4258     60.6241
     10075.5    264.4258     62.8927
       10076    264.4258     65.8032
     10076.5    264.4258     67.9224
       10077    263.8655     68.3804
     10077.5    263.8655     67.6471
       10078    263.8655      66.196
     10078.5    263.8655      64.031
       10079    263.8655     62.8792
     10079.5    263.8655     65.5479
       10080    263.8655     68.0048
     10080.5    263.8655     69.3277
       10081    263.8655     70.1892
     10081.5    263.8655     71.1556
