###############################################
##         ENVERUS                           ##
##         ESS - Open Hole                   ##
##         PERMIAN / DELAWARE                ##
##         Nov 03 2023  V4.0                 ##
##         42-109-32978-00-00                ##
###############################################
## Copyright 2017-2023  ENVERUS.  All Rights Reserved. 
## Confidential - Property of ENVERUS, use governed by terms and 
## conditions found within the existing Information Services Subscription Agreement 
## (as may be amended, the “ISSA”) between Customer and ENVERUS. 
## 
~VERSION INFORMATION
# MNEM.UNIT                               DATA : DESCRIPTION OF MNEMONIC
#-----.-----     ----------------------------- : -----------------------------
VERS.                                     2.00 : CWLS LOG ASCII STANDARD - VERSION 2.00
WRAP.                                       NO : MULTIPLE LINES PER DEPTH STEP
VEND.                                  ENVERUS : VENDOR
TYPE.                          ESS - OPEN HOLE : ENVERUS ESSENTIAL CURVES – ACCESSIBLE THROUGH ENVERUS PRISM(TM)
DOC.                                  43644371 : ENVERUS HEADER RAW DOCUMENT ID
#___________________________________________________________________________________________________ 
~WELL INFORMATION 
# sF+t5dzO8TjfhJXm5BhYJSGKqyGjnVcKAr1GJS+XHP+EILfiOmlFF7qBSMjafOrEHsreRpz+nmfYFwcq0MlVOA== 
# MNEM.UNIT                                              DATA : DESCRIPTION OF MNEMONIC 
#-----.-----                    ----------------------------- : ----------------------------- 
CNTY.                                               CULBERSON : COUNTY 
STATE.                                                  TEXAS : STATE 
CNTRY.                                                    USA : COUNTRY 
API.                                             42-109-32978 : API (10 Digit) 
API_14.                                    42-109-32978-00-00 : API (14 Digits) 
API_14_std.                                 42-109-32978-0000 : API (14 Digits Standard) 
UWI.                                           42109329780000 : UNIQUE WELL ID 
WELL.                                    42109329780000_API14 : WELL NAME
STRT.FT                                                 179.0 : START DEPTH
STOP.FT                                                9893.5 : STOP DEPTH
STEP.FT                                                   0.5 : STEP BETWEEN DEPTHS
NULL.                                                 -999.25 : NULL VALUE
#___________________________________________________________________________________________________ 
~PARAMETER INFORMATION 
# MNEM.UNIT                                              DATA : DESCRIPTION OF MNEMONIC 
#-----.-----                    ----------------------------- : ----------------------------- 
EKB.FT                                                   3282 : ELEVATION ABOVE MSL
#___________________________________________________________________________________________________ 
~CURVE INFORMATION 
# MNEM.UNIT           : CURVE DESCRIPTION 
#-----.-----          : ----------------------------- 
 DEPT.FT               : MEASURED DEPTH 
 GR.API                : GAMMA RAY (GAMMA RAY) 
 DT.US/FT              : SONIC DELTA TRANSIT TIME (SONIC) 
 #___________________________________________________________________________________________________ 
~A         DEPT             GR             DT
# ...
         6008.0         32.331        277.994
         6008.5         32.181        277.994
         6009.0         33.309        277.994
         6009.5         33.008        277.994
         6010.0         32.808        277.994
         6010.5         32.641        277.994
         6011.0         35.600        278.552
         6011.5         37.605        278.552
         6012.0         37.236        278.552
         6012.5         35.740        278.552
         6013.0         34.296        278.552
         6013.5         33.835        278.552
         6014.0         30.952        278.552
         6014.5         29.298        278.552
         6015.0         28.211        278.552
         6015.5         27.994        278.552
         6016.0         28.697        278.552
         6016.5         30.201        278.552
         6017.0         32.123        278.552
         6017.5         33.628        278.552
         6018.0         34.680        278.552
         6018.5         34.680        278.552
         6019.0         34.798        278.552
         6019.5         35.515        278.552
         6020.0         35.933        278.552
         6020.5         35.046        278.552
         6021.0         32.581        278.552
         6021.5         30.919        278.552
         6022.0         30.501        278.552
         6022.5         31.121        278.552
         6023.0         32.625        278.552
         6023.5         32.086        278.552
         6024.0         29.130        278.552
         6024.5         26.285        278.552
         6025.0         22.779        278.552
         6025.5         21.692        278.552
         6026.0         23.419        278.552
         6026.5         28.677        278.552
         6027.0         32.935        278.552
         6027.5         32.806        279.109
         6028.0         30.884        279.109
         6028.5         30.501        279.109
         6029.0         29.637        279.109
         6029.5         26.629        279.109
         6030.0         24.652        279.109
         6030.5         26.655        279.109
         6031.0         31.359        279.109
         6031.5         35.604        279.109
         6032.0         39.573        279.109
         6032.5         42.403        279.109
         6033.0         42.165        279.109
         6033.5         38.615        279.109
         6034.0         35.634        279.109
         6034.5         37.139        279.109
         6035.0         36.984        279.109
         6035.5         33.893        279.109
         6036.0         28.389        279.109
         6036.5         27.994        279.109
         6037.0         32.286        279.109
         6037.5         35.605        279.109
         6038.0         36.733        279.109
         6038.5         35.933        279.109
         6039.0         34.918        279.109
         6039.5         31.874        279.109
         6040.0         29.463        279.109
         6040.5         31.081        279.109
         6041.0         37.707        279.109
         6041.5         44.350        279.109
         6042.0         49.000        279.109
         6042.5         50.557        279.109
         6043.0         46.807        280.271
         6043.5         35.780        283.304
         6044.0         22.888        283.406
         6044.5         17.178        281.337
         6045.0         19.825        281.337
         6045.5         26.087        282.500
         6046.0         33.465        283.008
         6046.5         39.696        281.017
         6047.0         45.564        278.614
         6047.5         51.586        277.994
         6048.0         56.535        277.994
         6048.5         60.885        277.994
         6049.0         63.092        277.994
         6049.5         63.881        277.994
         6050.0         66.735        277.994
         6050.5         68.069        277.994
         6051.0         64.658        277.994
         6051.5         57.565        277.994
         6052.0         51.463        277.994
         6052.5         51.281        277.994
         6053.0         53.064        277.994
         6053.5         53.194        277.994
         6054.0         52.646        277.994
         6054.5         52.646        277.994
         6055.0         53.686        277.994
         6055.5         57.182        277.994
         6056.0         63.552        277.994
         6056.5         67.567        277.994
         6057.0         62.395        277.994
         6057.5         51.735        277.994
         6058.0         44.405        277.994
         6058.5         41.913        277.994
         6059.0         38.253        277.994
         6059.5         32.311        277.994
         6060.0         28.528        277.994
         6060.5         26.323        277.994
         6061.0         25.055        277.994
         6061.5         22.260        277.994
         6062.0         19.684        277.994
         6062.5         20.363        277.994
         6063.0         22.828        277.994
         6063.5         23.528        277.994
         6064.0         22.024        277.994
         6064.5         21.309        277.994
         6065.0         22.452        277.994
         6065.5         25.164        277.994
         6066.0         28.363        277.994
         6066.5         31.041        277.994
         6067.0         32.545        277.994
         6067.5         33.631        277.994
         6068.0         36.048        277.994
         6068.5         40.062        277.994
         6069.0         42.740        277.994
         6069.5         43.872        277.994
         6070.0         43.872        277.437
         6070.5         42.979        277.437
         6071.0         41.365        277.437
         6071.5         40.407        277.437
         6072.0         39.276        277.437
         6072.5         39.276        277.437
         6073.0         37.984        277.437
         6073.5         35.210        277.437
         6074.0         30.222        277.437
         6074.5         24.391        277.437
         6075.0         21.933        277.994
         6075.5         24.578        277.994
         6076.0         28.284        277.994
         6076.5         27.872        277.994
         6077.0         25.599        277.994
         6077.5         25.064        277.994
         6078.0         29.365        277.994
         6078.5         35.373        277.994
         6079.0         40.234        278.552
         6079.5         41.320        278.552
         6080.0         39.181        278.552
         6080.5         35.515        278.552
         6081.0         33.891        278.552
         6081.5         31.755        278.552
         6082.0         31.755        278.552
         6082.5         31.337        278.552
         6083.0         31.755        278.552
         6083.5         32.881        278.552
         6084.0         33.008        278.552
         6084.5         32.217        278.552
         6085.0         29.877        278.767
         6085.5         28.412        280.803
         6086.0         28.412        283.111
         6086.5         27.454        279.758
         6087.0         27.302        280.146
         6087.5         32.265        280.534
         6088.0         42.309        281.701
         6088.5         53.989        282.146
         6089.0         62.208        278.305
         6089.5         63.180        277.994
         6090.0         55.376        277.994
         6090.5         45.095        277.994
         6091.0         40.820        277.994
         6091.5         44.883        277.994
         6092.0         53.516        277.994
         6092.5         58.285        277.994
         6093.0         57.311        277.994
         6093.5         51.547        277.994
         6094.0         47.509        277.994
         6094.5         49.382        277.994
