###############################################
##         ENVERUS                           ##
##         EPlus - Open Hole                 ##
##         PERMIAN / DELAWARE                ##
##         Copyright ©                       ##
##         Enverus Version - V4.0            ##
##         Nov 20 2023                       ##
##         42-109-32440-00-00                ##
###############################################
## Copyright 2017-2023  ENVERUS.  All Rights Reserved. 
## Confidential - Property of ENVERUS, use governed by terms and 
## conditions found within the existing Information Services Subscription Agreement 
## (as may be amended, the “ISSA”) between Customer and ENVERUS. 
## 
#___________________________________________________________________________________________________
~VERSION INFORMATION
# MNEM.UNIT                               DATA : DESCRIPTION OF MNEMONIC
#-----.-----     ----------------------------- : -----------------------------
VERS.                                     2.00 : CWLS LOG ASCII STANDARD - VERSION 2.00
WRAP.                                       NO : MULTIPLE LINES PER DEPTH STEP
VEND.                                  ENVERUS : VENDOR
ENV_TYPE.                    EPLUS - OPEN HOLE : Enverus Essential Plus Curves – Accessible through Enverus Core(TM)
ENV_VERS.                                 V4.0 : EPlus - Open Hole Version number 
ENV_DOC.                              32926368 : ENVERUS Header Document id
ENV_REF.                               PERMIAN : ENVERUS BASIN OR PLAY APPLIED REFERENCE LIMITS 
#___________________________________________________________________________________________________ 
~WELL INFORMATION 
# uyaQ8P8kQDJ9DXFS5hR1PxmExEOYaAUkY5f3/tnOS+scoPAUWgXA1zCIHGRbWCuSuUcwDzaESCjqjWQ81XhadA== 
# MNEM.UNIT                                              DATA : DESCRIPTION OF MNEMONIC 
#-----.-----                    ----------------------------- : ----------------------------- 
CNTY.                                               CULBERSON : COUNTY 
STATE.                                                  TEXAS : STATE 
CNTRY.                                                    USA : COUNTRY 
API.                                             42-109-32440 : API (10 Digit) 
API_14.                                    42-109-32440-00-00 : API (14 Digits) 
API_14_std.                                 42-109-32440-0000 : API (14 Digits Standard) 
UWI.                                           42109324400000 : UNIQUE WELL ID
STRT.FT                                                2304.5 : START DEPTH
STOP.FT                                                9339.5 : STOP DEPTH
STEP.FT                                                   0.5 : STEP DEPTH
NULL.                                               -999.2500 : NULL VALUE
WELL.                                    RIVA RIDGE 10 FEE 1H : WELL NAME 
GR_ELEV.                                                 3479 : GROUND ELEVATION 
SLAT.                                                 31.8636 : SURFACE LATITUDE 
SLONG.                                              -104.1464 : SURFACE LONGITUDE
#___________________________________________________________________________________________________ 
~CURVE INFORMATION 
# MNEM.UNIT           : CURVE DESCRIPTION 
#-----.-----          : ----------------------------- 
DEPT.FT               : MEASURED DEPTH 
CALI_E.IN             : ENVERUS CALIPER - CLEANED BLENDED AND LUMPED 
CALI_F.               : ENVERUS CALIPER - OUTLIER INDICATOR - 0=(IN BOUNDS) 1=(OUT OF BOUNDS) 2=(REPEATING) 
CALI_S.               : ENVERUS CALIPER - SOURCE INDICATOR 
CALI_U.               : ENVERUS CALIPER - OPTION INDICATOR - 0=(NO OPTION) 1=(OTHER OPTIONS) 
DT_E.US/FT            : ENVERUS SONIC TRAVEL TIME - CLEANED BLENDED AND LUMPED 
DT_F.                 : ENVERUS SONIC TRAVEL TIME - OUTLIER INDICATOR - 0=(IN BOUNDS) 1=(OUT OF BOUNDS) 2=(REPEATING) 
DT_S.                 : ENVERUS SONIC TRAVEL TIME - SOURCE INDICATOR 
DT_U.                 : ENVERUS SONIC TRAVEL TIME - OPTION INDICATOR - 0=(NO OPTION) 1=(OTHER OPTIONS)
#___________________________________________________________________________________________________ 
~A         DEPT         CALI_E         CALI_F         CALI_S         CALI_U           DT_E           DT_F           DT_S           DT_U
# ...
        7909.50          8.743           2.00           0.00           0.00       70.83600           0.00           0.00           0.00
        7910.00          8.743           2.00           0.00           0.00       71.45000           0.00           0.00           0.00
        7910.50          8.743           2.00           0.00           0.00       72.02500           0.00           0.00           0.00
        7911.00          8.743           2.00           0.00           0.00       75.90300           0.00           0.00           0.00
        7911.50          8.743           2.00           0.00           0.00       76.81600           0.00           0.00           0.00
        7912.00          8.743           2.00           0.00           0.00       75.27200           0.00           0.00           0.00
        7912.50          8.743           2.00           0.00           0.00       70.68900           0.00           0.00           0.00
        7913.00          8.743           2.00           0.00           0.00       67.40200           0.00           0.00           0.00
        7913.50          8.743           2.00           0.00           0.00       66.26400           0.00           0.00           0.00
        7914.00          8.743           2.00           0.00           0.00       66.31000           0.00           0.00           0.00
        7914.50          8.724           2.00           0.00           0.00       66.43300           0.00           0.00           0.00
        7915.00          8.724           2.00           0.00           0.00       66.31600           0.00           0.00           0.00
        7915.50          8.724           2.00           0.00           0.00       66.37400           0.00           0.00           0.00
        7916.00          8.724           2.00           0.00           0.00       66.37400           0.00           0.00           0.00
        7916.50          8.724           2.00           0.00           0.00       66.31400           0.00           0.00           0.00
        7917.00          8.724           2.00           0.00           0.00       67.27200           0.00           0.00           0.00
        7917.50          8.685           0.00           0.00           0.00       68.62400           0.00           0.00           0.00
        7918.00          8.685           0.00           0.00           0.00       69.35700           0.00           0.00           0.00
        7918.50          8.724           2.00           0.00           0.00       69.71200           0.00           0.00           0.00
        7919.00          8.724           2.00           0.00           0.00       70.22500           0.00           0.00           0.00
        7919.50          8.724           2.00           0.00           0.00       67.90100           0.00           0.00           0.00
        7920.00          8.724           2.00           0.00           0.00       66.89000           0.00           0.00           0.00
        7920.50          8.724           2.00           0.00           0.00       65.66800           0.00           0.00           0.00
        7921.00          8.724           2.00           0.00           0.00       65.38500           0.00           0.00           0.00
        7921.50          8.704           0.00           0.00           0.00       66.54300           0.00           0.00           0.00
        7922.00          8.704           0.00           0.00           0.00       67.90100           0.00           0.00           0.00
        7922.50          8.691           0.00           0.00           0.00       68.66200           0.00           0.00           0.00
        7923.00          8.718           0.00           0.00           0.00       68.76000           0.00           0.00           0.00
        7923.50          8.720           0.00           0.00           0.00       67.47600           0.00           0.00           0.00
        7924.00          8.704           2.00           0.00           0.00       65.77500           0.00           0.00           0.00
        7924.50          8.704           2.00           0.00           0.00       63.16100           0.00           0.00           0.00
        7925.00          8.704           2.00           0.00           0.00       63.17500           0.00           0.00           0.00
        7925.50          8.704           2.00           0.00           0.00       63.56700           0.00           0.00           0.00
        7926.00          8.704           2.00           0.00           0.00       63.45000           0.00           0.00           0.00
        7926.50          8.704           2.00           0.00           0.00       63.58100           0.00           0.00           0.00
        7927.00          8.704           2.00           0.00           0.00       64.10800           0.00           0.00           0.00
        7927.50          8.704           2.00           0.00           0.00       64.44500           0.00           0.00           0.00
        7928.00          8.704           2.00           0.00           0.00       64.79500           0.00           0.00           0.00
        7928.50          8.704           2.00           0.00           0.00       64.65300           0.00           0.00           0.00
        7929.00          8.704           2.00           0.00           0.00       64.26900           0.00           0.00           0.00
        7929.50          8.704           2.00           0.00           0.00       63.44300           0.00           0.00           0.00
        7930.00          8.704           2.00           0.00           0.00       63.33300           0.00           0.00           0.00
        7930.50          8.685           0.00           0.00           0.00       63.75400           0.00           0.00           0.00
        7931.00          8.685           0.00           0.00           0.00       65.97300           0.00           0.00           0.00
        7931.50          8.685           0.00           0.00           0.00       69.61900           0.00           0.00           0.00
        7932.00          8.685           0.00           0.00           0.00       71.67600           0.00           0.00           0.00
        7932.50          8.704           0.00           0.00           0.00       76.14200           0.00           0.00           0.00
        7933.00          8.704           0.00           0.00           0.00       76.40900           0.00           0.00           0.00
        7933.50          8.704           0.00           0.00           0.00       74.37100           0.00           0.00           0.00
        7934.00          8.685           0.00           0.00           0.00       73.77600           0.00           0.00           0.00
        7934.50          8.665           0.00           0.00           0.00       71.96200           0.00           0.00           0.00
        7935.00          8.685           0.00           0.00           0.00       68.22600           0.00           0.00           0.00
        7935.50          8.694           0.00           0.00           0.00       63.88900           0.00           0.00           0.00
        7936.00          8.704           0.00           0.00           0.00       60.84900           0.00           0.00           0.00
        7936.50          8.665           0.00           0.00           0.00       59.27800           0.00           0.00           0.00
        7937.00          8.685           0.00           0.00           0.00       60.05900           0.00           0.00           0.00
        7937.50          8.704           0.00           0.00           0.00       59.40900           0.00           0.00           0.00
        7938.00          8.704           0.00           0.00           0.00       58.15600           0.00           0.00           0.00
        7938.50          8.704           0.00           0.00           0.00       56.85200           0.00           0.00           0.00
