~Version Information
 VERS.                  2.0:   CWLS log ASCII Standard -VERSION 2.0
 WRAP.                   NO:   One line per depth step
~Well Information Block
#MNEM.UNIT     VALUE/NAME     DESCRIPTION
#---------     -----------    ---------------------------
 STRT.F              8683.0000: START DEPTH
 STOP.F             14089.5000: STOP DEPTH
 STEP.F                 0.5000: STEP DEPTH
 NULL.                 -999.25: NULL VALUE
 LOC .       API  42-109-32906:  LOCATION
 FL1 .       API  42-109-32906:  LOCATIONLINE1
 DMF .                      KB:  DRILL MEAS FROM
 PDAT.                      GL:  PERMANENT DATUM
 PROV.                   TEXAS:  PROVINCE
 STAT.                   TEXAS:  STATE NAME
 CNTY.               CULBERSON:  COUNTY NAME
 LUL .                  ODESSA:  LOGGINGUNITLOC
 FLD .     FORD, WEST (WOLFCAMP):  FIELD NAME
 WELL.     SHELLY FEE 40 No. 2H:  WELL NAME
 COMP.     CAPITAN ENERGY, INC.:  COMPANY
 DATE.             08-Jun-2018:  DATE
 SVCO.             Halliburton:  SERVICECONAME
 HIDE.                        :  WELLNAMEOPERAT
 BASI.                   BACIA:  BASIN
 UWI .            42-109-32906Lat:  UNIQUE WELL IDENTIFIER
 API .            42-109-32906Lat:  API NUMBER
 RANG.                     N/A:  RANGE
 TOWN.                     N/A:  TOWNSHIP
 SECT.                     N/A:  SECTION
 SON .               902848974:  JOB NUMBER
 CTRY.                        :  COUNTRY
 SRVC.             Halliburton:  SERVICE COMPANY
 LMF .                      KB:  LOG MEASURED FROM
 BAP .ft                0.0000:  GL ELEV ONSHORE
 GVFD.g                 1.0000:  GRAVITY FIELD
~Curve Information Block
#MNEM.UNIT                 API CODE     Curve Description
#---------               -----------    ---------------------------
 DEPT.F                 00 000 000 000:  Depth
 CCL .mV                00 000 000 000:  Casing Collar Locator
 DTC_CHI.uspf           00 000 000 000:  DTC_CHI
 DTC_OH.uspf            00 000 000 000:  DTC_OH
 GR_CHI.api             00 000 000 000:  GR_CHI
 GR_OH.api              00 000 000 000:  GR_OH
 LLD_CHI.ohmm           00 000 000 000:  LLD_CHI
 LLD_OH.ohmm            00 000 000 000:  LLD_OH
 LLS_CHI.ohmm           00 000 000 000:  LLS_CHI
 LLS_OH.ohmm            00 000 000 000:  LLS_OH
 MSFL_CHI.ohmm          00 000 000 000:  MSFL_CHI
 MSFL_OH.ohmm           00 000 000 000:  MSFL_OH
 NPHI_CHI.pu            00 000 000 000:  NPHI_CHI
 NPHI_OH.pu             00 000 000 000:  NPHI_OH
 PE_CHI.b/e             00 000 000 000:  PE_CHI
 PE_OH.NONE             00 000 000 000:  Pe_OH
 RHOB_CHI.g/cc          00 000 000 000:  RHOB_CHI
 RHOB_OH.g/cc           00 000 000 000:  RHOB_OH
 SPHI_CHI.pu            00 000 000 000:  SPHI_CHI
#Other Information
#
#WARRANTY: Halliburton will use its best efforts to furnish customers with 
#accurate information and interpretations that are part of, and incident to, the services 
#provided.  However, Halliburton cannot and does not warrant the accuracy 
#or correctness of such information and interpretations.  Under no circumstances should any 
#such information or interpretation be relied upon as the sole basis for any drilling, 
#completion, production, or financial decision or any procedure involving any risk to the 
#safety of any drilling venture, drilling rig or its crew or any other third party.  The 
#Customer has full responsibility for all drilling, completion and production operation.  
#Halliburton makes no representations or warranties, either expressed or 
#implied, including, but not limited to, the implied warranties of merchantability or fitness 
#for a particular purpose, with respect to the services rendered.  In no event will 
#Halliburton be liable for failure to obtain any particular results or for 
#any damages, including, but not limited to, indirect, special or consequential damages, 
#resulting from the use of any information or interpretation provided by Halliburton.
#
~A    DEPT       CCL    DTC_CHI DTC_OH   GR_CHI   GR_OH   LLD_CHI   LLD_OH   LLS_CHI   LLS_OH   MSFL_CHI  MSFL_OH     NPHI_CHI   NPHI_OH   PE_CHI    PE_OH   RHOB_CHI  RHOB_OH SPHI_CHI 
# ...
   14051.0000   17.2375 66.4875 -999.25 103.6528  -999.25  51.4639   -999.25  45.0315   -999.25  25.6428    -999.25      13.4084 -999.25     3.1922 -999.25     2.5658 -999.25 13.3600
   14051.5000  -22.2393 66.4014 -999.25 100.5811  -999.25  50.6029   -999.25  44.2738   -999.25  25.2724    -999.25      13.3143 -999.25     3.1820 -999.25     2.5679 -999.25 13.3000
   14052.0000    0.0000 66.7408 -999.25 107.1003  -999.25  49.1526   -999.25  42.8252   -999.25  24.5008    -999.25      13.7302 -999.25     3.1276 -999.25     2.5585 -999.25 13.5400
   14052.5000    0.0000 67.1835 -999.25 113.5293  -999.25  48.7447   -999.25  42.4815   -999.25  24.1486    -999.25      14.1267 -999.25     3.0928 -999.25     2.5483 -999.25 13.8500
   14053.0000   24.1292 67.6900 -999.25 122.4421  -999.25  48.0634   -999.25  41.7607   -999.25  23.6721    -999.25      14.6834 -999.25     3.0460 -999.25     2.5357 -999.25 14.2100
   14053.5000    0.0000 67.9135 -999.25 125.5886  -999.25  47.2879   -999.25  40.9976   -999.25  23.2782    -999.25      14.9786 -999.25     3.0165 -999.25     2.5301 -999.25 14.3700
   14054.0000    0.0000 67.6091 -999.25 119.3547  -999.25  46.7571   -999.25  40.5358   -999.25  23.2061    -999.25      14.7692 -999.25     3.0257 -999.25     2.5373 -999.25 14.1500
   14054.5000    0.0000 68.1850 -999.25 124.6504  -999.25  47.4858   -999.25  41.3436   -999.25  23.4448    -999.25      15.3835 -999.25     3.0153 -999.25     2.5260 -999.25 14.5600
   14055.0000    0.0000 68.5042 -999.25 125.8981  -999.25  49.6969   -999.25  43.6631   -999.25  24.3980    -999.25      15.6188 -999.25     3.0537 -999.25     2.5217 -999.25 14.7800
   14055.5000  -10.0455 68.7990 -999.25 123.0978  -999.25  51.8852   -999.25  46.2457   -999.25  25.3511    -999.25      15.7238 -999.25     3.1015 -999.25     2.5198 -999.25 14.9900
   14056.0000    0.0000 68.3524 -999.25 114.0400  -999.25  53.2612   -999.25  47.7877   -999.25  26.1374    -999.25      15.1823 -999.25     3.1599 -999.25     2.5317 -999.25 14.6800
   14056.5000    0.0000 68.3560 -999.25 116.0784  -999.25  53.3425   -999.25  47.7179   -999.25  26.2209    -999.25      15.3054 -999.25     3.1582 -999.25     2.5306 -999.25 14.6800
   14057.0000    0.0000 68.6145 -999.25 126.1123  -999.25  53.3464   -999.25  47.2591   -999.25  26.1992    -999.25      15.8381 -999.25     3.1333 -999.25     2.5218 -999.25 14.8600
   14057.5000    0.0000 68.1336 -999.25 122.2506  -999.25  52.4560   -999.25  46.0604   -999.25  26.1192    -999.25      15.7251 -999.25     3.1339 -999.25     2.5301 -999.25 14.5200
   14058.0000    0.0000 67.7230 -999.25 122.1670  -999.25  51.1072   -999.25  44.3001   -999.25  25.6907    -999.25      15.6528 -999.25     3.1131 -999.25     2.5354 -999.25 14.2300
   14058.5000    0.0000 68.4218 -999.25 141.7582  -999.25  50.9390   -999.25  43.4121   -999.25  25.2700    -999.25      16.5738 -999.25     3.0468 -999.25     2.5151 -999.25 14.7300
   14059.0000   16.5589 67.8946 -999.25 134.1858  -999.25  50.0826   -999.25  42.6676   -999.25  25.0553    -999.25      16.0708 -999.25     3.0556 -999.25     2.5262 -999.25 14.3500
   14059.5000   18.8922 67.8425 -999.25 131.3992  -999.25  49.7101   -999.25  42.5662   -999.25  24.7858    -999.25      15.7558 -999.25     3.0554 -999.25     2.5285 -999.25 14.3200
   14060.0000    0.0000 68.2111 -999.25 135.2176  -999.25  50.8090   -999.25  43.7743   -999.25  25.1088    -999.25      15.9169 -999.25     3.0661 -999.25     2.5220 -999.25 14.5800
   14060.5000    0.0000 67.8110 -999.25 121.6168  -999.25  50.5802   -999.25  44.0817   -999.25  25.1728    -999.25      15.3098 -999.25     3.0990 -999.25     2.5346 -999.25 14.2900
   14061.0000   24.1893 67.8249 -999.25 119.9562  -999.25  50.3992   -999.25  43.9943   -999.25  25.1162    -999.25      15.3268 -999.25     3.0980 -999.25     2.5350 -999.25 14.3000
   14061.5000    0.0000 67.7848 -999.25 119.5494  -999.25  49.2535   -999.25  42.8387   -999.25  24.6118    -999.25      15.3645 -999.25     3.0734 -999.25     2.5350 -999.25 14.2700
   14062.0000    0.0000 67.4273 -999.25 116.0608  -999.25  48.6757   -999.25  42.1659   -999.25  24.4808    -999.25      15.1214 -999.25     3.0773 -999.25     2.5418 -999.25 14.0200
   14062.5000   21.6438 67.3264 -999.25 110.9542  -999.25  49.5039   -999.25  43.1929   -999.25  24.9242    -999.25      14.9051 -999.25     3.1117 -999.25     2.5465 -999.25 13.9500
   14063.0000    0.0000 67.8809 -999.25 114.6266  -999.25  50.9789   -999.25  44.9166   -999.25  25.4229    -999.25      15.2626 -999.25     3.1221 -999.25     2.5370 -999.25 14.3400
   14063.5000  -22.2711 68.1824 -999.25 116.1277  -999.25  52.9181   -999.25  47.0882   -999.25  26.1478    -999.25      15.3062 -999.25     3.1540 -999.25     2.5329 -999.25 14.5600
   14064.0000  -10.3241 68.8277 -999.25 127.5061  -999.25  53.9577   -999.25  48.0265   -999.25  26.3463    -999.25      15.8965 -999.25     3.1389 -999.25     2.5183 -999.25 15.0100
   14064.5000   11.0125 67.9184 -999.25 110.9214  -999.25  53.3805   -999.25  47.6468   -999.25  26.4353    -999.25      14.9670 -999.25     3.1814 -999.25     2.5398 -999.25 14.3700
   14065.0000    0.0000 67.6855 -999.25 105.1122  -999.25  54.9875   -999.25  49.4103   -999.25  27.2501    -999.25      14.6164 -999.25     3.2341 -999.25     2.5471 -999.25 14.2000
   14065.5000    0.0000 67.9801 -999.25 112.8832  -999.25  56.2844   -999.25  50.5752   -999.25  27.7189    -999.25      14.8975 -999.25     3.2416 -999.25     2.5398 -999.25 14.4100
   14066.0000   13.4625 67.8055 -999.25 116.1218  -999.25  57.4825   -999.25  51.5088   -999.25  28.2617    -999.25      14.6884 -999.25     3.2725 -999.25     2.5424 -999.25 14.2900
   14066.5000    0.0000 67.2431 -999.25 110.9549  -999.25  57.3182   -999.25  51.1435   -999.25  28.2984    -999.25      14.0802 -999.25     3.2938 -999.25     2.5541 -999.25 13.8900
   14067.0000   10.8578 66.5009 -999.25 110.1824  -999.25  55.2494   -999.25  48.4426   -999.25  27.5132    -999.25      13.5143 -999.25     3.2761 -999.25     2.5658 -999.25 13.3700
   14067.5000    0.0000 66.6993 -999.25 125.1344  -999.25  53.1629   -999.25  45.7576   -999.25  26.3882    -999.25      13.9688 -999.25     3.2037 -999.25     2.5551 -999.25 13.5100
   14068.0000    0.0000 65.7578 -999.25 106.3224  -999.25  51.4378   -999.25  44.2586   -999.25  25.8466    -999.25      12.9693 -999.25     3.2183 -999.25     2.5772 -999.25 12.8400
   14068.5000   10.3468 65.6361 -999.25  99.8312  -999.25  50.5123   -999.25  43.6008   -999.25  25.3586    -999.25      12.6743 -999.25     3.2090 -999.25     2.5812 -999.25 12.7600
   14069.0000  -21.1317 66.6222 -999.25 112.0003  -999.25  49.4421   -999.25  42.8406   -999.25  24.4606    -999.25      13.4463 -999.25     3.1281 -999.25     2.5591 -999.25 13.4500
   14069.5000  -22.5326 66.7145 -999.25 109.6030  -999.25  48.4185   -999.25  42.0622   -999.25  23.9689    -999.25      13.4698 -999.25     3.1076 -999.25     2.5579 -999.25 13.5200
   14070.0000    0.0000 67.1371 -999.25 118.7731  -999.25  47.1965   -999.25  40.7767   -999.25  23.2766    -999.25      13.9861 -999.25     3.0513 -999.25     2.5462 -999.25 13.8200
   14070.5000    0.0000 66.5229 -999.25 112.5475  -999.25  47.4068   -999.25  40.7772   -999.25  23.5715    -999.25      13.4953 -999.25     3.0862 -999.25     2.5590 -999.25 13.3800
   14071.0000    0.0000 66.3501 -999.25 114.3632  -999.25  48.6358   -999.25  41.6841   -999.25  24.2335    -999.25      13.4834 -999.25     3.1158 -999.25     2.5618 -999.25 13.2600
   14071.5000    0.0000 66.7189 -999.25 126.3150  -999.25  49.9018   -999.25  42.5377   -999.25  24.7470    -999.25      14.0476 -999.25     3.1149 -999.25     2.5514 -999.25 13.5200
   14072.0000    0.0000 66.5572 -999.25 121.8198  -999.25  50.2108   -999.25  42.9207   -999.25  25.0062    -999.25      13.9088 -999.25     3.1347 -999.25     2.5561 -999.25 13.4100
   14072.5000    0.0000 65.9927 -999.25 106.7515  -999.25  50.4896   -999.25  43.5243   -999.25  25.2906    -999.25      13.1267 -999.25     3.1844 -999.25     2.5722 -999.25 13.0100
