~VERSION INFORMATION
VERS. 2.0 : CWLS Log ASCII Standard - Version 2.0
WRAP. NO : One line per depth step
#--------------------------------------------------#
#----------------DRILLING INFO, INC.---------------#
#---------------WWW.DRILLINGINFO.COM---------------#
#------------------COPYRIGHT 2015------------------#
#--------------------------------------------------#
#THIS FILE MAY BE USED ONLY IN ACCORDANCE WITH A CURRENT SUBSCRIPTION AGREEMENT BETWEEN
#THE USER AND DRILLING INFO, INC. NO PART OF THIS FILE MAY BE REPRODUCED, USED, COPIED,
#MODIFIED, PROPAGATED, OR DISTRIBUTED EXCEPT IN ACCORDANCE WITH THE SUBSCRIPTION
#AGREEMENT. UNAUTHORIZED USE OR DISTRIBUTION OF ALL OR ANY PART OF THIS FILE MAY VIOLATE
#COPYRIGHT, TRADEMARK, AND/OR OTHER LAWS AND IS SUBJECT TO CIVIL AS WELL AS CRIMINAL
#SANCTIONS.
#--------------------------------------------------#
#THIS FILE IS PROVIDED "AS-IS" AND ALL WARRANTIES ARE EXPRESSLY DISCLAIMED, WHETHER
#EXPRESS, ORAL, IMPLIED, STATUTORY OR OTHERWISE, INCLUDING ANY IMPLIED WARRANTY OF FITNESS
#FOR A PARTICULAR PURPOSE, MERCHANTABILITY, TITLE OR NON-INFRINGEMENT, AND ANY WARRANTIES
#ARISING BY VIRTUE OF CUSTOM OF TRADE OR COURSE OF DEALING.  FURTHER, DRILLING INFO,
#INC. AND ITS LICENSORS DO NOT REPRESENT OR WARRANT THAT THIS FILE WILL MEET USER'S
#REQUIREMENTS OR ARE SUITABLE FOR USER'S NEEDS OR THAT THE DATA OR RESULTS PROVIDED IN
#CONJUNCTION THEREWITH ARE CORRECT, ACCURATE, TIMELY OR RELIABLE. THESE DISCLAIMERS SHALL
#APPLY REGARDLESS OF ANY FAILURE OF ESSENTIAL PURPOSE OF ANY LIMITED REMEDY.  SOME
#JURISDICTIONS DO NOT ALLOW THE EXCLUSION OF CERTAIN WARRANTIES SO SOME OF THE ABOVE
#EXCLUSIONS MAY NOT APPLY. IN NO EVENT SHALL DRILLING INFO, INC. OR ANY OF ITS AFFILIATES
#BE LIABLE UNDER ANY LEGAL THEORY, WHETHER IN TORT (INCLUDING WITHOUT LIMITATION
#NEGLIGENCE), CONTRACT, STRICT LIABILITY, STATUTORY OR OTHERWISE, FOR ANY SPECIAL,
#INCIDENTAL, CONSEQUENTIAL, EXEMPLARY, PUNITIVE OR INDIRECT DAMAGE OF ANY KIND, INCLUDING
#WITHOUT LIMITATION LOSS OF REVENUE, PROFITS, GOODWILL, USE, AND/OR DATA OR THE COST OF
#PROCUREMENT OF SUBSTITUTE GOODS OR SERVICES, EVEN IF APPRISED OF THE POSSIBILITY OF SUCH
#DAMAGES IN ADVANCE.
#--------------------------------------------------#
~WELL INFORMATION
#MNEMONIC     .UNIT              VALUE :DESCRIPTION
#--------------------------------------------------#
STRT       .ft                51.00000 :START DEPTH
STOP       .ft                9476.00000 :STOP DEPTH
STEP       .ft                0.50000 :STEP
NULL       .                -999.25000 :NULL VALUE
COMP       .                 :COMPANY
WELL       .                 :WELL
FLD       .                 :FIELD
LOC       .                 :LOCATION
CNTY       .                 :COUNTY
STAT       .                 :STATE
CTRY       .                 :COUNTRY
SRVC       .                 :SERVICE COMPANY
DATE       .                 :DATE
API       .                42109100520000 :API NUMBER
~CURVE INFORMATION
#MNEMONIC     .UNIT      API CODE :CURVE DESCRIPTION
#--------------------------------------------------#
DEPTH       .ft                      :Measured Depth
CAL       .in        UNKNOWN   :CAL
DT       .us/ft        UNKNOWN   :DT
GR       .gAPI        UNKNOWN   :GR
~A    DEPTH    CAL    DT    GR
# ...
2096.00000    13.43615    80.37225    59.81774
2096.50000    13.44862    80.65354    58.51987
2097.00000    13.46109    81.25723    57.22201
2097.50000    13.47356    81.86092    55.92414
2098.00000    13.48603    81.74241    54.62627
2098.50000    13.49850    81.09000    54.20467
2099.00000    13.50771    80.43759    53.91587
2099.50000    13.50964    80.17233    53.62707
2100.00000    13.51158    80.81161    53.33827
2100.50000    13.51351    81.45090    53.04947
2101.00000    13.51545    82.09019    52.76067
2101.50000    13.51738    82.72948    52.47187
2102.00000    13.51932    83.36877    52.18307
2102.50000    13.52125    83.18682    52.21625
2103.00000    13.52318    82.93234    52.32407
2103.50000    13.52512    82.67785    52.43188
2104.00000    13.52705    82.42337    52.53969
2104.50000    13.52899    82.57794    51.79458
2105.00000    13.53092    82.77553    50.31681
2105.50000    13.53285    82.65374    48.83905
2106.00000    13.53479    82.27053    47.36128
2106.50000    13.53672    81.88733    46.76615
2107.00000    13.53866    81.50412    48.27954
2107.50000    13.54059    81.12092    49.79292
2108.00000    13.54252    80.73771    51.30631
2108.50000    13.54446    80.35450    52.81970
2109.00000    13.54639    79.70038    54.33309
2109.50000    13.54833    78.34394    55.84648
2110.00000    13.55026    76.98749    57.35987
2110.50000    13.55219    75.63104    59.25717
2111.00000    13.55528    74.30693    63.02080
2111.50000    13.57246    73.98986    66.78443
2112.00000    13.58963    73.67278    69.82490
2112.50000    13.60680    73.35571    70.93568
2113.00000    13.62398    73.03864    72.04646
2113.50000    13.64115    72.72156    73.15724
2114.00000    13.65832    72.40449    71.91299
2114.50000    13.67550    73.01594    70.49666
2115.00000    13.69267    74.27937    69.08033
2115.50000    13.70984    75.54279    66.70189
2116.00000    13.72702    76.80622    59.31679
2116.50000    13.74419    78.06965    51.93169
2117.00000    13.76136    78.97627    51.87418
2117.50000    13.77854    79.25877    52.94408
2118.00000    13.79571    79.54127    54.01398
2118.50000    13.81288    79.82377    55.08388
2119.00000    13.83006    80.10628    55.86348
2119.50000    13.84723    80.38878    53.95099
2120.00000    13.86440    80.56305    52.03851
2120.50000    13.88158    79.84682    50.12602
2121.00000    13.89875    79.13060    48.75342
2121.50000    13.91592    79.24822    48.45899
2122.00000    13.92283    79.82710    48.16456
2122.50000    13.92893    80.40598    47.87013
2123.00000    13.93504    80.98485    47.57570
2123.50000    13.94115    81.56373    47.66462
2124.00000    13.94725    82.14261    48.01649
2124.50000    13.95336    82.72148    48.36836
2125.00000    13.95947    83.30036    48.72022
2125.50000    13.96557    83.63502    49.07209
2126.00000    13.97168    83.95269    49.42396
2126.50000    13.97779    84.27036    49.77583
2127.00000    13.98390    84.58803    50.12769
2127.50000    13.98696    84.77754    50.47942
2128.00000    13.96731    84.58420    50.82753
2128.50000    13.94766    84.39086    51.17564
2129.00000    13.92800    84.11640    51.52374
2129.50000    13.90835    83.82767    51.87185
2130.00000    13.88870    83.53895    52.21995
2130.50000    13.86904    83.25022    52.56806
2131.00000    13.84939    82.97819    53.37553
2131.50000    13.82974    83.33623    54.92846
2132.00000    13.81009    83.69428    56.48138
2132.50000    13.79043    84.05233    58.03430
2133.00000    13.77078    83.78551    59.58723
2133.50000    13.75113    83.45627    58.87076
2134.00000    13.73147    83.12703    56.64711
2134.50000    13.71182    82.79779    54.42346
2135.00000    13.68589    82.46854    52.19981
2135.50000    13.63806    82.37283    49.97616
2136.00000    13.59022    82.91451    47.75250
2136.50000    13.54238    82.79939    45.60870
2137.00000    13.49455    82.43334    46.84569
2137.50000    13.44671    82.06728    48.08268
2138.00000    13.39887    81.70122    49.31968
2138.50000    13.35104    81.33517    50.55667
2139.00000    13.30320    80.96911    51.79367
2139.50000    13.25536    80.60306    52.01829
2140.00000    13.20753    80.23700    51.94415
2140.50000    13.15969    79.87094    51.87002
2141.00000    13.11185    78.90475    51.79588
2141.50000    13.06401    77.82726    51.72174
2142.00000    13.01618    76.74977    51.64761
2142.50000    12.99192    75.67229    51.57347
2143.00000    12.96835    74.59480    51.49934
2143.50000    12.94478    73.51731    51.42520
2144.00000    12.92121    72.84791    53.74702
2144.50000    12.89764    72.18690    62.12365
2145.00000    12.87407    71.52588    70.50027
2145.50000    12.86289    70.86487    76.81037
2146.00000    12.85548    70.22306    78.70775
2146.50000    12.84808    69.87765    80.60513
2147.00000    12.84067    69.53224    82.50251
2147.50000    12.83326    69.43001    84.39989
2148.00000    12.82586    69.46379    86.29727
2148.50000    12.81845    69.49757    86.22946
2149.00000    12.81105    69.53135    84.68968
2149.50000    12.80364    69.56512    83.14990
2150.00000    12.79623    69.59890    81.61011
2150.50000    12.80841    69.63268    78.46969
2151.00000    12.82462    69.66646    74.93335
2151.50000    12.84084    69.70024    71.39701
2152.00000    12.85706    69.73402    67.86067
2152.50000    12.87328    69.76780    67.03115
2153.00000    12.88950    69.66101    68.00385
2153.50000    12.90571    69.44384    68.97656
2154.00000    12.92281    69.22667    69.94926
2154.50000    12.94144    69.00950    67.62423
2155.00000    12.96006    68.79234    64.39144
2155.50000    12.97869    68.57517    70.85127
2156.00000    12.99732    68.55006    77.31109
2156.50000    13.01594    69.63124    83.77092
2157.00000    13.03457    70.71242    83.58230
2157.50000    13.05320    71.68059    76.98919
2158.00000    13.07182    71.94804    75.80858
2158.50000    13.09045    72.21549    74.62796
2159.00000    13.10908    72.48058    71.10649
2159.50000    13.12770    72.49385    66.79438
2160.00000    13.14633    72.50712    62.48226
2160.50000    13.16496    72.52039    58.17015
2161.00000    13.18417    72.53366    53.85804
2161.50000    13.21308    72.54693    49.54593
2162.00000    13.24199    72.56020    46.58124
2162.50000    13.27090    72.57347    48.03750
2163.00000    13.29981    73.10528    49.49376
2163.50000    13.32872    73.70933    50.95002
2164.00000    13.35763    73.95479    52.40628
2164.50000    13.38654    73.92901    53.86254
2165.00000    13.41545    73.90323    55.31880
2165.50000    13.44436    73.87744    56.77506
2166.00000    13.47328    73.85166    57.87371
2166.50000    13.50219    73.82588    56.04128
2167.00000    13.53110    73.80009    54.20884
2167.50000    13.56001    73.91995    52.37641
2168.00000    13.58892    74.23777    58.92491
2168.50000    13.61783    74.57093    59.69466
2169.00000    13.64674    75.07350    58.85253
2169.50000    13.67566    75.57607    58.01041
2170.00000    13.70457    76.07864    57.16828
2170.50000    13.73348    76.58122    56.32616
2171.00000    13.75162    77.08379    55.48403
2171.50000    13.76635    77.58636    55.18734
2172.00000    13.78108    78.08893    56.98788
2172.50000    13.79581    78.59151    58.78841
2173.00000    13.81053    79.03735    60.58895
2173.50000    13.82526    79.44106    59.79578
2174.00000    13.83999    79.84477    58.56548
2174.50000    13.85472    80.24847    57.33519
2175.00000    13.86945    80.65218    56.10489
2175.50000    13.88418    81.05589    55.41392
2176.00000    13.89890    81.12703    58.13437
2176.50000    13.91363    80.59471    60.85482
2177.00000    13.92836    80.06240    63.57527
2177.50000    13.94309    79.53009    66.29571
2178.00000    13.95781    78.99778    69.01616
2178.50000    13.97254    78.88342    67.96581
2179.00000    13.98727    79.24156    66.23977
2179.50000    14.00200    79.73076    58.85210
2180.00000    14.01673    81.07455    55.24089
2180.50000    14.03145    82.41834    54.40598
2181.00000    14.04618    83.50705    53.57106
