~VERSION INFORMATION
 VERS.                2.0:   CWLS LOG ASCII STANDARD - VERSION 2.0
 WRAP.                 NO:   ONE LINE PER DEPTH STEP
~WELL INFORMATION
#MNEM.UNIT      DATA TYPE    INFORMATION
#----------   ------------   ------------------------------
 STRT.FT        8672.0000:   START DEPTH
 STOP.FT       14432.0000:   STOP DEPTH
 STEP.FT           0.5000:   STEP LENGTH
 NULL.          -999.2500:   NULL VALUE
 COMP. CAPITAN ENERGY, INCORPORATED:   COMPANY
 WELL.  MOTHER FEE 28 #1H:   WELL
 FLD . FORD, WEST (WOLFCAMP)	:   FIELD
 LOC .                   :   LOCATION
 CNTY.          CULBERSON:   COUNTY
 STAT.              TEXAS:   STATE
 CTRY. UNITED STATES OF AMERICA:   COUNTRY
 SRVC.        HALLIBURTON:   SERVICE COMPANY
 DATE.        16-Nov-2015:   LOGDATE
 API .     42109328880000:   API NUMBER
~CURVE INFORMATION
#MNEM.UNIT       API CODE    CURVE DESCRIPTION
#----------   ------------   ------------------------------
 DEPT.FT                 :   
 CALD_C.IN   45 280 60 00:   CALIPER FROM DENSITY COMPOSITE LOG
 DCOR.G/C3   45 356 01 00:   DENSITY CORRECTION
 DPHI_LS.DEC 45 890 10 00:   DENSITY POROSITY LIMESTONE
 DT_CH.US/F  60 501 00 00:   DELTA FROM THE FULL WAVE SONIC IN CASED HOLE
 GRD .GAPI   45 310 01 00:   GAMMA RAY FROM DENSITY LOG
 LLDC.OHMM   11 220 10 00:   CORRECTED LATEROLOG DEEP RESISTIVITY
 LLSC.OHMM   11 220 09 00:   CORRECTED LATEROLOG SHALLOW RESISTIVITY
 MSFLC.OHMM  11 270 04 00:   CORRECTED MICRO SPHERICALLY FOCUSED RESISTIVITY
 NPHI_LS.DEC 42 890 01 00:   NEUTRON POROSITY LIMESTONE
 PE  .B/E    45 358 01 00:   PHOTO ELECTRIC CROSS SECTION
 RHOB_CH.G/C3 45 350 01 00:   
~PARAMETER INFORMATION
#MNEM.UNIT          VALUE    DESCRIPTION
#----------   ------------   ------------------------------
 DATE.           11/16/15:   RUN DATE
 RUN .                  1:   RUN NUMBER
 BLI .FT            14432:   BOTTOM LOG INTERVAL
 TLI .FT             8672:   TOP LOG INTERVAL
 ORIG.     1" 2" 5" PRINT:   ORIGIN OF DATA
 UWI .     42109328880000:   UNIQUE WELL ID
~OTHER INFORMATION
~A   DEPT         CALD_C      DCOR       DPHI_LS      DT_CH       GRD        LLDC        LLSC        MSFLC       NPHI_LS         PE      RHOB_CH
# ...
 14020.0000   -999.2500   -999.2500      0.0938     72.8735    109.8155     24.3501     20.3295     12.1883      0.1576      3.0491      2.5592
 14020.5000   -999.2500   -999.2500      0.0903     72.0502    109.8141     22.3324     18.7606     11.5246      0.1565      3.0048      2.5655
 14021.0000   -999.2500   -999.2500      0.0930     71.9569    111.7162     27.3834     23.4342     14.2100      0.1562      3.0996      2.5584
 14021.5000   -999.2500   -999.2500      0.0896     71.8637    104.6378     26.8783     21.8268     13.1414      0.1530      3.1578      2.5705
 14022.0000   -999.2500   -999.2500      0.0879     71.7891    106.1115     25.4266     21.2939     13.5861      0.1521      3.1885      2.5674
 14022.5000   -999.2500   -999.2500      0.0931     72.0792    118.0241     33.0384     27.3742     16.0027      0.1537      3.2397      2.5583
 14023.0000   -999.2500   -999.2500      0.0931     72.1978    115.8088     35.2783     29.1816     17.3595      0.1548      3.2793      2.5565
 14023.5000   -999.2500   -999.2500      0.0886     72.3164    108.7671     29.1290     23.7256     14.6378      0.1541      3.2620      2.5649
 14024.0000   -999.2500   -999.2500      0.0912     72.4349    117.3157     30.8965     25.1599     15.7210      0.1560      3.2564      2.5661
 14024.5000   -999.2500   -999.2500      0.0942     72.5631    120.6226     34.2053     27.0963     16.7589      0.1582      3.2388      2.5621
 14025.0000   -999.2500   -999.2500      0.0925     72.5976    116.7351     29.8348     24.4199     14.6767      0.1595      3.2307      2.5619
 14025.5000   -999.2500   -999.2500      0.0919     72.6039    114.3664     25.8760     21.5613     13.4007      0.1606      3.1968      2.5614
 14026.0000   -999.2500   -999.2500      0.0907     72.6101    110.8292     24.1361     20.2333     12.4896      0.1612      3.1893      2.5649
 14026.5000   -999.2500   -999.2500      0.0877     72.6163    107.8621     22.2638     19.1709     11.8950      0.1613      3.1846      2.5663
 14027.0000   -999.2500   -999.2500      0.0889     72.6226    111.1113     24.4186     21.5590     13.0208      0.1619      3.1925      2.5662
 14027.5000   -999.2500   -999.2500      0.0885     72.6288    115.4656     27.0261     22.0984     13.8719      0.1614      3.2135      2.5654
 14028.0000   -999.2500   -999.2500      0.0902     72.6351    119.5780     31.0131     26.1104     15.7646      0.1613      3.2346      2.5646
 14028.5000   -999.2500   -999.2500      0.0890     72.6413    113.1815     30.6853     25.1153     15.2173      0.1590      3.2287      2.5674
 14029.0000   -999.2500   -999.2500      0.0861     72.6476    105.1353     26.7123     22.0304     13.3529      0.1575      3.2389      2.5702
 14029.5000   -999.2500   -999.2500      0.0853     72.6538    108.2875     26.7193     22.6777     13.5883      0.1566      3.2391      2.5729
 14030.0000   -999.2500   -999.2500      0.0862     72.6601    110.3020     30.7951     25.1511     15.3039      0.1567      3.2599      2.5739
 14030.5000   -999.2500   -999.2500      0.0856     72.6663    108.3126     28.8104     23.1467     13.8960      0.1565      3.2388      2.5720
 14031.0000   -999.2500   -999.2500      0.0869     72.6725    111.6046     26.6803     22.5818     13.4574      0.1570      3.2291      2.5670
 14031.5000   -999.2500   -999.2500      0.0898     72.6788    115.3455     26.6716     22.2599     13.6769      0.1599      3.2126      2.5658
 14032.0000   -999.2500   -999.2500      0.0905     72.6850    115.6741     26.6630     21.8576     13.5549      0.1605      3.2384      2.5646
 14032.5000   -999.2500   -999.2500      0.0898     72.6913    112.5710     25.9171     21.4553     13.3804      0.1611      3.2387      2.5658
 14033.0000   -999.2500   -999.2500      0.0898     72.6963    109.4596     25.7204     21.5593     13.2980      0.1617      3.2520      2.5648
 14033.5000   -999.2500   -999.2500      0.0864     72.6963    102.5688     22.9246     18.7611     11.8425      0.1615      3.2388      2.5676
 14034.0000   -999.2500   -999.2500      0.0869     72.6630    104.0616     22.0983     18.7031     11.9291      0.1618      3.2388      2.5704
 14034.5000   -999.2500   -999.2500      0.0895     72.5964    116.7612     25.1910     21.9330     13.0075      0.1627      3.2312      2.5655
 14035.0000   -999.2500   -999.2500      0.0923     72.4432    118.6317     29.9071     24.4705     14.9952      0.1636      3.1983      2.5648
 14035.5000   -999.2500   -999.2500      0.0896     72.2433    111.1337     27.6462     22.3737     13.8794      0.1593      3.1658      2.5657
 14036.0000   -999.2500   -999.2500      0.0880     72.0435    109.6180     24.6539     21.9978     12.8280      0.1578      3.1629      2.5663
 14036.5000   -999.2500   -999.2500      0.0903     71.8437    112.9432     26.4428     22.5123     13.6270      0.1573      3.1601      2.5640
 14037.0000   -999.2500   -999.2500      0.0904     71.6306    110.3281     26.5400     22.6050     13.4575      0.1565      3.1578      2.5634
 14037.5000   -999.2500   -999.2500      0.0904     71.5640    111.3937     27.4815     23.0163     14.0233      0.1557      3.1578      2.5628
 14038.0000   -999.2500   -999.2500      0.0909     71.5640    111.7063     28.8756     23.8610     14.3431      0.1559      3.1514      2.5614
 14038.5000   -999.2500   -999.2500      0.0899     71.5925    109.9280     28.9103     24.3033     14.4626      0.1554      3.1831      2.5641
 14039.0000   -999.2500   -999.2500      0.0890     71.6282    107.8093     28.9451     23.6992     14.3707      0.1560      3.2159      2.5659
 14039.5000   -999.2500   -999.2500      0.0880     71.6639    107.2415     27.9610     23.2674     13.9936      0.1565      3.2414      2.5664
 14040.0000   -999.2500   -999.2500      0.0887     71.6995    111.1224     29.2954     24.5894     14.7069      0.1579      3.2481      2.5659
 14040.5000   -999.2500   -999.2500      0.0896     71.7352    112.9429     30.4363     25.7169     15.3825      0.1587      3.2547      2.5660
 14041.0000   -999.2500   -999.2500      0.0893     71.7709    111.7160     30.1561     24.7746     15.0093      0.1588      3.2388      2.5661
 14041.5000   -999.2500   -999.2500      0.0888     71.8066    107.5890     28.4732     23.8571     14.2858      0.1586      3.2159      2.5662
 14042.0000   -999.2500   -999.2500      0.0881     71.8423    106.5796     26.4816     21.7231     13.3106      0.1578      3.1934      2.5661
 14042.5000   -999.2500   -999.2500      0.0899     71.8637    109.9132     26.0616     22.1410     13.3554      0.1574      3.1983      2.5658
 14043.0000   -999.2500   -999.2500      0.0912     71.8271    108.4666     27.7992     23.0049     13.9239      0.1568      3.1985      2.5646
 14043.5000   -999.2500   -999.2500      0.0888     71.6439    106.7449     25.4277     20.6471     13.0977      0.1554      3.1986      2.5658
 14044.0000   -999.2500   -999.2500      0.0919     71.4607    114.6728     30.3097     25.0834     14.9489      0.1557      3.2293      2.5642
 14044.5000   -999.2500   -999.2500      0.0898     71.2775    108.1150     30.0991     25.0062     15.1185      0.1537      3.2393      2.5648
 14045.0000   -999.2500   -999.2500      0.0874     71.0977    101.4759     28.0638     23.2909     14.0776      0.1497      3.2402      2.5711
 14045.5000   -999.2500   -999.2500      0.0860     70.9978    100.8233     29.4201     24.5682     14.0871      0.1452      3.2924      2.5760
 14046.0000   -999.2500   -999.2500      0.0879     70.9645    107.4656     34.5324     28.5082     16.1070      0.1438      3.3147      2.5671
 14046.5000   -999.2500   -999.2500      0.0877     70.9645    105.6936     36.3178     28.9753     17.5513      0.1428      3.3726      2.5661
 14047.0000   -999.2500   -999.2500      0.0858     70.8812     99.0347     33.6613     27.6658     16.6345      0.1424      3.4007      2.5720
 14047.5000   -999.2500   -999.2500      0.0848     70.6706     96.9834     33.6476     26.0310     15.7652      0.1420      3.4179      2.5760
