###############################################
##         ENVERUS                           ##
##         ESS - Open Hole                   ##
##         PERMIAN / DELAWARE                ##
##         Nov 02 2023  V4.0                 ##
##         42-109-31383-00-00                ##
###############################################
## Copyright 2017-2023  ENVERUS.  All Rights Reserved. 
## Confidential - Property of ENVERUS, use governed by terms and 
## conditions found within the existing Information Services Subscription Agreement 
## (as may be amended, the “ISSA”) between Customer and ENVERUS. 
## 
~VERSION INFORMATION
# MNEM.UNIT                               DATA : DESCRIPTION OF MNEMONIC
#-----.-----     ----------------------------- : -----------------------------
VERS.                                     2.00 : CWLS LOG ASCII STANDARD - VERSION 2.00
WRAP.                                       NO : MULTIPLE LINES PER DEPTH STEP
VEND.                                  ENVERUS : VENDOR
TYPE.                          ESS - OPEN HOLE : ENVERUS ESSENTIAL CURVES – ACCESSIBLE THROUGH ENVERUS PRISM(TM)
DOC.                                  31887493 : ENVERUS HEADER RAW DOCUMENT ID
#___________________________________________________________________________________________________ 
~WELL INFORMATION 
# e8MMFGpko9nixUfuEkfb9P8cKS4olzuguLrtdgPIjARTX3oRymgI2EYtnk6GmA/F0PbYW2Z7xnLx5OgyGayifw== 
# MNEM.UNIT                                              DATA : DESCRIPTION OF MNEMONIC 
#-----.-----                    ----------------------------- : ----------------------------- 
CNTY.                                               CULBERSON : COUNTY 
STATE.                                                  TEXAS : STATE 
CNTRY.                                                    USA : COUNTRY 
API.                                             42-109-31383 : API (10 Digit) 
API_14.                                    42-109-31383-00-00 : API (14 Digits) 
API_14_std.                                 42-109-31383-0000 : API (14 Digits Standard) 
UWI.                                           42109313830000 : UNIQUE WELL ID 
WELL.                                          KIRK  T. A.  1 : WELL NAME
STRT.FT                                                  43.0 : START DEPTH
STOP.FT                                               16492.0 : STOP DEPTH
STEP.FT                                                   0.5 : STEP BETWEEN DEPTHS
NULL.                                                 -999.25 : NULL VALUE
COMP.                                             EXXON CORP. : COMPANY 
DATE.                                             05-AUG-1981 : LOG DATE
#___________________________________________________________________________________________________ 
~CURVE INFORMATION 
# MNEM.UNIT           : CURVE DESCRIPTION 
#-----.-----          : ----------------------------- 
 DEPT.FT               : MEASURED DEPTH 
 CALI.IN               : CALIPER (CAL - CAL) 
 GR.API                : GAMMA RAY (GR) 
 SP.MV                 : SPONTANEOUS POTENTIAL (SP) 
 DT.US/FT              : SONIC DELTA TRANSIT TIME (DT) 
 RESS.OHMM             : SHALLOW INDUCTION RESISTIVITY (ILS - ILS) 
 RESD.OHMM             : DEEP INDUCTION RESISTIVITY (ILD - ILD) 
 NPHI.V/V              : NEUTRON POROSITY (NPHI) 
 #___________________________________________________________________________________________________ 
~A         DEPT           CALI             GR             SP             DT           RESS           RESD           NPHI
# ...
         7513.5         12.945         57.143       -999.250         59.666        170.593        305.830     -999.25000
         7514.0         12.946         56.066       -999.250         60.136        152.261        277.608     -999.25000
         7514.5         12.947         54.989       -999.250         61.691        133.929        249.386     -999.25000
         7515.0         12.949         53.912       -999.250         63.246        115.598        221.164     -999.25000
         7515.5         12.950         49.063       -999.250         64.801         97.266        192.942     -999.25000
         7516.0         12.951         44.137       -999.250         64.449         82.105        171.176     -999.25000
         7516.5         12.952         39.210       -999.250         63.109         86.646        171.985     -999.25000
         7517.0         12.953         34.284       -999.250         61.805         91.187        172.793     -999.25000
         7517.5         12.955         29.357       -999.250         60.500         95.728        173.601     -999.25000
         7518.0         12.954         24.431       -999.250         59.196        100.269        182.841     -999.25000
         7518.5         12.952         19.504       -999.250         57.143        202.401        192.628     -999.25000
         7519.0         12.950         28.051       -999.250         54.847        195.124        202.416     -999.25000
         7519.5         12.948         37.954       -999.250         52.551        187.847        212.060     -999.25000
         7520.0         12.947         47.858       -999.250         53.383        180.570        205.284     -999.25000
         7520.5         12.945         49.966       -999.250         55.668        166.081        198.509     -999.25000
         7521.0         12.943         44.945       -999.250         58.573        146.950        191.733     -999.25000
         7521.5         12.941         39.924       -999.250         61.479        127.820        184.958     -999.25000
         7522.0         12.939         34.903       -999.250         64.385        108.690        178.182     -999.25000
         7522.5         12.938         29.882       -999.250         64.086         91.905        171.406     -999.25000
         7523.0         12.936         30.749       -999.250         62.378         85.258        167.803     -999.25000
         7523.5         12.934         32.999       -999.250         60.670         93.407        179.185     -999.25000
         7524.0         12.932         35.249       -999.250         58.962        104.732        190.567     -999.25000
         7524.5         12.931         37.499       -999.250         59.153        116.056        201.949     -999.25000
         7525.0         12.929         39.749       -999.250         60.113        127.380        206.110     -999.25000
         7525.5         12.927         41.999       -999.250         61.072        129.446        206.735     -999.25000
         7526.0         12.925         57.453       -999.250         62.350        125.708        207.360     -999.25000
         7526.5         12.923         84.915       -999.250         64.221        121.970        207.985     -999.25000
         7527.0         12.922         79.764       -999.250         66.092        118.231        208.610     -999.25000
         7527.5         12.920         71.293       -999.250         67.963        114.493        209.235     -999.25000
         7528.0         12.918         63.198       -999.250         69.834        110.755        209.860     -999.25000
         7528.5         12.916         65.091       -999.250         71.705        107.497        210.484     -999.25000
         7529.0         12.914         66.983       -999.250         71.084        109.284        211.109     -999.25000
         7529.5         12.913         68.876       -999.250         69.293        111.071        211.734     -999.25000
         7530.0         12.911         70.768       -999.250         67.503        113.889        214.855     -999.25000
         7530.5         12.909         72.661       -999.250         67.407        121.444        221.830     -999.25000
         7531.0         12.907         74.553       -999.250         68.357        129.000        228.804     -999.25000
         7531.5         12.906         79.953       -999.250         68.634        136.556        235.778     -999.25000
         7532.0         12.904         86.352       -999.250         70.016        144.112        242.752     -999.25000
         7532.5         12.902         87.380       -999.250         71.327        151.667        249.726     -999.25000
         7533.0         12.900         87.274       -999.250         72.638        149.171        256.027     -999.25000
         7533.5         12.898         87.168       -999.250         72.643        146.479        262.138     -999.25000
         7534.0         12.897         85.329       -999.250         72.050        143.787        268.250     -999.25000
         7534.5         12.895         82.918       -999.250         71.457        141.094        271.954     -999.25000
         7535.0         12.893         80.507       -999.250         70.863        138.402        262.159     -999.25000
         7535.5         12.891         78.096       -999.250         70.270        135.710        252.364     -999.25000
         7536.0         12.890         80.293       -999.250         70.501        133.017        242.569     -999.25000
         7536.5         12.888         86.618       -999.250         71.448        130.325        250.982     -999.25000
         7537.0         12.886         92.944       -999.250         72.396        136.024        266.208     -999.25000
         7537.5         12.884        101.077       -999.250         73.344        155.263        289.046     -999.25000
         7538.0         12.882        109.350       -999.250         73.702        174.502        323.957     -999.25000
         7538.5         12.881        117.622       -999.250         73.811        193.741        358.868     -999.25000
         7539.0         12.881        118.496       -999.250         73.921        200.505        393.778     -999.25000
         7539.5         12.881        115.018       -999.250         75.092        198.690        428.689     -999.25000
         7540.0         12.882         77.226       -999.250         74.363        196.875        463.600     -999.25000
         7540.5         12.882         35.061       -999.250         70.734        195.060        495.660     -999.25000
         7541.0         12.882         46.399       -999.250         64.295        193.246        521.925     -999.25000
         7541.5         12.883         57.738       -999.250         57.856        191.431        548.190     -999.25000
         7542.0         12.883         69.076       -999.250         60.709        198.317        566.425     -999.25000
         7542.5         12.884         80.415       -999.250         64.618        210.283        578.721     -999.25000
         7543.0         12.884         91.753       -999.250         68.647        222.250        591.017     -999.25000
         7543.5         12.885        103.092       -999.250         72.676        234.216        603.314     -999.25000
         7544.0         12.885        114.430       -999.250         75.416        241.315        604.097     -999.25000
         7544.5         12.886        110.659       -999.250         77.220        231.302        604.095     -999.25000
         7545.0         12.886         95.163       -999.250         78.954        221.290        577.539     -999.25000
         7545.5         12.887         79.668       -999.250         77.692        211.278        547.187     -999.25000
         7546.0         12.887         64.173       -999.250         75.057        201.265        516.835     -999.25000
         7546.5         12.887         48.678       -999.250         69.975        191.253        487.247     -999.25000
