# Exported from Transform Software 5.2.0 on 17-Oct-2019 by user kathryn.gehrke
# DI Transform - A Product of Drillinginfo, Inc. - www.drillinginfo.com
#
~VERSION INFORMATION
 VERS.        2.0 : LAS ASCII STANDARD - VERSION 2.0
 WRAP.         NO : ONE LINE PER DEPTH STEP

~WELL INFORMATION
#MNEM.UNIT       DATA TYPE       INFORMATION
#---------       ---------       -----------
 STRT.ft                 100 : Start Depth
 STOP.ft               10126 : Stop Depth
 STEP.ft                 0.5 : Step Length
 NULL.               -999.25 : Null Value
 COMP.                       : Company
 WELL.  42109329790000_API14 : Well Name
 FLD.                        : Field Name
 LOC.                        : Well Location
 CNTY.                       : County
 STAT.                       : State or Province
 CTRY.                       : Country
 SRVC.                       : Service Company
 DATE.                       : Date
 API.         42109329790000 : Well Identifier

~CURVE INFORMATION
#MNEM.UNIT       API CODE       CURVE DESCRIPTION
#---------       --------       -----------------
 DEPT.ft        : <Measured Depth>
 DT.us/ft       : Sonic
 GR.gAPI        : Gamma Ray

~PARAMETER INFORMATION
#MNEM.UNIT       VALUE       DESCRIPTION
#---------       -----       -----------
 EKB.ft      3282 : Elevation above MSL

~A      DEPT          DT          GR
# ...
        2704    266.1064     36.1802
      2704.5    266.1064     34.5648
        2705    266.1064     31.4748
      2705.5    266.1064     31.0924
        2706    266.1064     31.2138
      2706.5    266.1064     32.7262
        2707    266.1064     33.8184
      2707.5    266.1064     34.9106
        2708    267.6115     36.0028
      2708.5     269.628     37.2748
        2709     270.028     34.5259
      2709.5    269.4678     33.8172
        2710    269.4678     36.2054
      2710.5    269.0847     38.9428
        2711    271.5921     38.5364
      2711.5    267.8857     39.0263
        2712     265.937     40.9589
      2712.5    265.5462     40.3019
        2713    265.5462     39.4958
      2713.5    265.5462     41.3532
        2714    265.5462     43.2269
      2714.5    265.5462     43.2773
        2715    266.1064     43.2442
      2715.5    266.1064     40.8166
        2716    266.1064     38.6905
      2716.5    266.1064     36.0276
        2717    266.1064     33.5232
      2717.5    266.1064     31.9647
        2718    266.1064     34.3911
      2718.5    266.1064       36.25
        2719    266.1064     37.7623
      2719.5    266.1064     38.4564
        2720    266.1064     37.7844
      2720.5    266.1064     35.5004
        2721    266.1064     34.4538
      2721.5    266.1064     35.2401
        2722    266.1064     36.1345
      2722.5    266.1064     36.1345
        2723    266.1064     36.2732
      2723.5    266.1064     34.7608
        2724    266.1064     32.2532
      2724.5    266.1064     28.9066
        2725    266.1064     28.1228
      2725.5    266.1064     26.8908
        2726    266.1064     27.8431
      2726.5    266.1064     28.0949
        2727    266.1064     29.7051
      2727.5    266.1064     31.5398
        2728    266.1064     32.7731
      2728.5    266.1064     31.4018
        2729    266.6667     31.4551
      2729.5    266.6667     31.5126
        2730    266.6667     31.9588
      2730.5    266.6667     34.2404
        2731    266.6667     35.8239
      2731.5    266.6667      37.395
        2732    266.6667     38.0421
      2732.5    266.6667     37.3701
        2733    266.6667     35.5092
      2733.5    266.6667     34.3453
        2734    266.6667     32.4427
      2734.5    266.6667     31.2845
        2735    266.1064     31.5126
      2735.5    266.1064      31.368
        2736    266.1064     31.1997
      2736.5    266.1064     33.2813
        2737    266.1064     35.7905
      2737.5    266.1064     36.5546
        2738    266.1064     37.2492
      2738.5    266.1064     37.9212
        2739    266.1064     39.8227
      2739.5    266.1064     40.1465
        2740    266.1064      39.916
      2740.5    266.1064     40.7563
        2741    266.1064     39.2859
      2741.5    266.1064     35.4842
        2742    266.1064     33.4249
      2742.5    266.1064     33.6134
        2743    266.1064     34.4417
      2743.5    266.1064     36.5521
        2744    266.1064     39.9647
      2744.5    266.1064      41.784
        2745    266.1064     41.5966
      2745.5    266.1064     41.0272
        2746    266.1064     40.2335
      2746.5    266.1064     38.1566
        2747    266.1064     37.5811
      2747.5    266.1302     36.9569
        2748    268.1467     35.4446
      2748.5    270.5071     35.7143
        2749     269.557     36.1345
      2749.5    269.4678     34.0838
        2750    269.4678     34.4705
      2750.5    269.4678     35.9828
        2751    268.7739     37.9655
      2751.5     265.383     39.8479
        2752    266.1064     41.3603
      2752.5    266.1064     40.7408
        2753    266.1064     39.2284
      2753.5    265.5462     36.9867
        2754    265.5462     34.9432
      2754.5    265.5462     34.4538
        2755    265.5462     34.4538
      2755.5    265.5462     34.0336
        2756    266.1064     34.0336
      2756.5    266.1064     35.6087
        2757    266.1064     35.5328
      2757.5    266.1064     35.3204
        2758    266.1064     39.7382
      2758.5    266.1064     42.5337
        2759    266.1064     43.6975
      2759.5    266.1064     44.2979
        2760    266.1064     45.7863
      2760.5    266.1064     42.4858
        2761    266.1064     38.6267
      2761.5    266.1064     34.8457
        2762    266.1064     32.0843
      2762.5    266.1064     28.5444
        2763    266.1064     25.7877
      2763.5    266.1064     25.2101
        2764    266.1064     25.9765
      2764.5    266.1064     27.5778
        2765    266.1064     29.0012
      2765.5    266.1064     29.8319
        2766    266.1064     29.4118
      2766.5    266.1064     29.0667
        2767    266.1064     28.8148
      2767.5    266.1064     27.7226
        2768    266.1064     27.3109
      2768.5    266.1064     28.1513
        2769    266.1064     29.3355
      2769.5    266.1064      31.268
        2770    266.1064     33.2042
      2770.5    266.1064      37.273
        2771    266.1064     36.4638
      2771.5    266.1064     34.9514
        2772    266.1064     33.0545
      2772.5    266.1064      30.453
        2773    266.1064     28.9916
      2773.5    266.1064     31.1821
        2774    266.1064     31.1711
      2774.5    266.1064     31.0924
        2775    266.1064     31.9328
      2775.5    266.1064     30.8356
        2776    266.1064     29.4118
      2776.5    266.1064     30.1723
        2777    266.1064     31.6847
      2777.5    266.1064     34.4576
        2778    266.1064     34.8739
      2778.5    266.1064     35.3815
        2779    266.1064     36.4737
      2779.5    266.1064     35.5434
        2780    266.1064     34.0362
      2780.5    266.1064     36.0131
        2781    266.1064     37.3088
      2781.5    266.1064      37.395
        2782    266.1064     39.5403
      2782.5    266.1064     40.7577
        2783    266.6667     40.9232
      2783.5    266.6667     39.4108
        2784    266.2175     39.4125
      2784.5    266.1064     37.2679
        2785    266.1064     35.2939
      2785.5    266.1064     35.5462
        2786    266.1064     35.2103
      2786.5     266.554     33.6979
        2787    266.8898     33.7808
      2787.5    268.9063     33.6144
        2788    270.9228     30.1295
      2788.5    269.4409     28.4888
        2789    269.4678     27.7311
      2789.5     270.028     26.7245
        2790    271.1457      27.729
      2790.5     269.695     32.1767
        2791    267.6785     36.3381
      2791.5    266.2767     38.5686
        2792    266.1064     38.6555
      2792.5    266.1064     37.8184
        2793    266.1064     35.8473
      2793.5    266.1064      33.113
        2794    266.1064     32.3529
      2794.5    266.1064     33.7773
        2795    266.1064     36.3357
      2795.5    266.1064     38.0625
        2796    266.1064      40.744
      2796.5    266.1064      44.735
        2797    266.1064     48.3059
      2797.5    266.1064     53.7534
        2798    266.1064     61.3153
      2798.5    266.1064      65.204
        2799    266.1064     63.2963
      2799.5    266.1064     59.5187
        2800    266.1064      52.538
      2800.5    266.1064     46.2186
        2801    266.1064     38.5968
      2801.5    266.1064     34.9655
        2802    266.1064     33.1629
      2802.5    266.1064      32.345
        2803    266.1064     33.9793
      2803.5    266.1064     36.7814
        2804    266.1064     39.4031
      2804.5    266.1064      39.916
        2805    266.1064     41.1673
      2805.5    266.1064     43.6741
        2806    266.1064     47.4178
      2806.5    266.1064     51.8192
        2807    266.1064     60.0875
      2807.5    266.1064     71.1515
        2808    266.1064     75.8718
      2808.5    266.1064     74.9903
        2809    266.5245     70.8734
      2809.5    266.6667     61.7485
        2810    266.6667     47.5709
      2810.5    266.6667     39.3443
        2811    266.6667     33.8534
      2811.5    266.6667     31.1887
        2812    266.6667     31.2481
