~Version Information Block
 VERS.                2.00:     CWLS LOG ASCII STANDARD - VERSION 2.000000
 WRAP.                  NO:     One Line Per Depth Step
#
~Well Information Block
#MNEM.UNIT                     Data                         Information
#----------   ------------------------------------------   ----------------
 STRT.FT                                     4210.0000:     START DEPTH
 STOP.FT                                    10370.0000:     STOP DEPTH
 STEP.FT                                        0.5000:     STEP
 NULL.                                       -999.2500:     NULL VALUE
 COMP.                       CHESAPEAKE OPERATING INC.:     COMPANY
 WELL.                         UNIVERSITY_LANDS_4627-1:     WELL
 FLD .                                         WILDCAT:     FIELD
 LOC .   1200' FNL & 1995' FEL|Section: 27, Block: 46, Abstract: 2860|University Lands Survey:     LOCATION
 SEC .                                              27:     SECTION
 CNTY.                                       CULBERSON:     COUNTY
 STAT.                                           TEXAS:     STATE
 CTRY.                                             USA:     COUNTRY
 SRVC.                                    SCHLUMBERGER:     SERVICE COMPANY
 DATE.                                      11/15/2016:     DATE
 API .                                  42109322870000:     API NUMBER
 UWI .                                  42109322870000:     UWI NUMBER
 TVD .                                              NO:     TVD flag
 WSTA.                                             LOC:     Well status
#
~Curve Information Block
#MNEM.UNIT       API CODE      Curve Description
#----------    -------------   -------------------
 DEPT.FT                   :   Depth in Feet
 RM_HRLT.OHMM                 :   HRLTB Mud Resistivity
 RXOZ.OHMM                 :   Stan Res MicroCFL Resistivity
 RLA5.OHMM                 :   HRLTB Resistivity 5
 RLA4.OHMM                 :   HRLTB Resistivity 4
 RLA3.OHMM                 :   HRLTB Resistivity 3
 DTCO.US/F                 :   Delta-T Compressional
 DTSM.US/F                 :   Delta-T Shear Measurement
 SPHI.V/V                  :   Sonic Porosity [47.6]
 HSGR.GAPI                 :   HNGS Spectroscopy Gamma Ray
 HCGR.GAPI                 :   HNGS Computed Gamma Ray
 HCAL.IN                   :   HILT Caliper
 DPHI.V/V                  :   Density Porosity
 PEFZ.                     :   Std. Res. Formation PE
 HDRA.G/C3                 :   Density Correction
 RHOB.G/C3                 :   Std. Res. Formation Density
 APLC.V/V                  :   APS Near/Array Corrected Limestone Porosity
 PXND.V/V                  :   Crossplot Porosity For Neutron-Density
#
~Parameter Information Block
#MNEM.UNIT            Value               Description
#----------    --------------------    -------------------
 DATE.                 07-Jun-2007:    Date As Month-Day-Year
 RUN .                         ONE:    Run Number
 PDAT.                         UNK:    Permanent Datum
 EPD .FT                -9999.5000:    Elevation Of Perm. Datum
 LMF .                          KB:    Log Measured From
 FAPD.FT                   40.0000:    Feet Above Perm. Datum
 EKB .FT                 4323.0000:    Elevation Of Kelly Bushing
 TD  .FT                10370.0000:    Total Depth
 DFT .                   Fresh Mud:    Drilling Fluid Type
 DFD .LB/G                  8.6000:    Drilling Fluid Density
 RMS .OHMM                  0.4210:    Resistivity Of Mud Sample
 MST .DEGF                 97.0000:    Mud Sample Temperature
 RMF .OHMM                  0.4210:    Mud Filtrate Resistivity
 MFST.DEGF                 97.0000:    Mud Filtrate Sample Temperature
 MFSS.                        CALC:    Mud Filtrate Sample Source
 MCSS.                        CALC:    Mud Cake Sample Source
 RMB .OHMM                  0.2280:    Mud Resistivity At Bht
 BHT .DEGF                185.0000:    Bottom Hole Temperature
 MRT .DEGF                185.0000:    Maximum Recorded Temperature
 WSTA.                         LOC:    
 LATB.FT                    0.0000:    
 LONB.FT                    0.0000:    
#
~Other Information Block
<DescLogPlotStart>   NEURALOG PLOT DEFINITION
PLOTDEFVERSION: 3
LASFILE: E:\nds\projects\Texas Standard Oil LLC\pdf\42109322870000 D\42-109-322
DEPTHSCALE: 240.000000
RESOLUTION: 196
DEPTHLABELFREQ: 100.000000
HEAVYGRIDFREQ: 100.000000
MEDIUMGRIDFREQ: 50.000000
LIGHTGRIDFREQ: 10.000000
#
#   TRACK 1
#
STARTTRACK: 
 LEFTX: 0.500000 inch
 RIGHTX: 3.000000 inch
 SCALETYPE: Linear
 NUMCHARTDIVISIONS: 10
CURVE: RXOZ  0.200000   2000.000000 (0,0,255)      Solid             2     Y   
BACKUP: 2000.000000 20000000.000000 (0,0,255)      Solid             2    
CURVE: RLA5  0.200000   2000.000000 (0,131,131)    Dot               2     Y   
BACKUP: 2000.000000 20000000.000000 (0,131,131)    Dot               2    
CURVE: RLA4  0.200000   2000.000000 (255,0,255)    Short_Dash        2     Y   
BACKUP: 2000.000000 20000000.000000 (255,0,255)    Short_Dash        2    
CURVE: RLA3  0.200000   2000.000000 (255,0,0)      Medium_Dash       2     Y   
BACKUP: 2000.000000 20000000.000000 (255,0,0)      Medium_Dash       2    
CURVE: DTCO  240.000000 40.000000  (0,0,255)      Solid             2     N    
CURVE: DTSM  240.000000 40.000000  (0,131,131)    Dot               2     Y    
BACKUP: 440.000000 240.000000 (0,131,131)    Dot               2    
CURVE: SPHI  0.300000   -0.100000  (255,0,255)    Short_Dash        2     Y    
BACKUP: 0.700000   0.300000   (255,0,255)    Short_Dash        2    
CURVE: HSGR  0.000000   150.000000 (0,0,255)      Solid             2     Y    
BACKUP: 150.000000 300.000000 (0,0,255)      Solid             2    
CURVE: HCGR  0.000000   150.000000 (0,131,131)    Dot               2     N    
CURVE: HCAL  6.000000   16.000000  (255,0,255)    Short_Dash        2     Y    
BACKUP: -4.000000  6.000000   (255,0,255)    Short_Dash        2    
BACKUP: 16.000000  26.000000  (255,0,255)    Short_Dash        2    
ENDTRACK: 
#
#   TRACK 2
#
STARTTRACK: 
 LEFTX: 3.500000 inch
 RIGHTX: 8.500000 inch
 SCALETYPE: Linear
 NUMCHARTDIVISIONS: 10
CURVE: RM_HRLT 0.020000   200.000000 (255,131,0)    Solid             2     N  
CURVE: DPHI  0.300000   -0.100000  (255,0,0)      Solid             2     Y    
BACKUP: 0.700000   0.300000   (255,0,0)      Solid             2    
BACKUP: -0.100000  -0.500000  (255,0,0)      Solid             2    
CURVE: APLC  0.300000   -0.100000  (255,131,0)    Dot               2     Y    
BACKUP: 0.700000   0.300000   (255,131,0)    Dot               2    
BACKUP: 1.100000   0.700000   (255,131,0)    Dot               2    
CURVE: PXND  0.300000   -0.100000  (255,255,0)    Short_Dash        2     Y    
BACKUP: 0.700000   0.300000   (255,255,0)    Short_Dash        2    
ENDTRACK: 
#
#   TRACK 3
#
STARTTRACK: 
 LEFTX: 0.500000 inch
 RIGHTX: 5.500000 inch
 SCALETYPE: Linear
 NUMCHARTDIVISIONS: 10
ENDTRACK: 
#
#   TRACK 4
#
STARTTRACK: 
 LEFTX: 3.500000 inch
 RIGHTX: 6.000000 inch
 SCALETYPE: Linear
 NUMCHARTDIVISIONS: 10
CURVE: PEFZ  0.000000   10.000000  (0,0,255)      Solid             2     N    
ENDTRACK: 
#
#   TRACK 5
#
STARTTRACK: 
 LEFTX: 3.500000 inch
 RIGHTX: 4.750000 inch
 SCALETYPE: Linear
 NUMCHARTDIVISIONS: 10
CURVE: HDRA  -0.050000  0.200000   (0,131,131)    Solid             2     N    
ENDTRACK: 
#
#   TRACK 6
#
STARTTRACK: 
 LEFTX: 3.500000 inch
 RIGHTX: 8.500000 inch
 SCALETYPE: Linear
 NUMCHARTDIVISIONS: 10
CURVE: RHOB  2.000000   3.000000   (255,0,255)    Solid             2     Y    
BACKUP: 1.000000   2.000000   (255,0,255)    Solid             2    
ENDTRACK: 
<DescLogPlotEnd>
~A DEPTH     RM_HRLT             RXOZ             RLA5             RLA4             RLA3             DTCO             DTSM             SPHI             HSGR             HCGR             HCAL             DPHI             PEFZ             HDRA             RHOB             APLC             PXND            
    4210.000 1.34929408       56.43761898      77.39076744      109.03421637     123.71176262     81.51128557      132.45098039     0.24327772       -999.25000000    -999.25000000    -999.25000000    -999.25000000    -999.25000000    -999.25000000    -999.25000000    -999.25000000    -999.25000000   
    4210.500 1.34929408       88.60435514      100.53175338     128.25724460     140.36511400     82.49263984      132.84313725     0.24327772       -999.25000000    -999.25000000    -999.25000000    -999.25000000    -999.25000000    -999.25000000    -999.25000000    -999.25000000    -999.25000000   
    4211.000 1.33714142       96.09805961      103.28956308     139.73342974     148.17179737     83.27772326      133.23529412     0.25937193       -999.25000000    -999.25000000    -999.25000000    -999.25000000    -999.25000000    -999.25000000    -999.25000000    -999.25000000    -999.25000000   
    4211.500 1.35516004       101.51584155     109.03421637     144.21564142     144.21564142     83.86653582      134.01960784     0.25976447       -999.25000000    -999.25000000    -999.25000000    -999.25000000    -999.25000000    -999.25000000    -999.25000000    -999.25000000    -999.25000000   
    4212.000 1.34919260       96.96887259      108.72221532     135.12802469     145.42147895     83.86653582      134.60318110     0.25937193       -999.25000000    -999.25000000    -999.25000000    -999.25000000    -999.25000000    -999.25000000    -999.25000000    -999.25000000    -999.25000000   
    4212.500 1.34923250       78.09206032      85.46418554      102.94636096     129.41947486     83.67026497      136.39150632     0.25858685       -999.25000000    -999.25000000    -999.25000000    -999.25000000    -999.25000000    -999.25000000    -999.25000000    -999.25000000    -999.25000000   
    4213.000 1.34939277       70.08000892      88.60435514      110.96011035     110.02225308     84.65161923      138.75962090     0.26408243       -999.25000000    -999.25000000    -999.25000000    -999.25000000    -999.25000000    -999.25000000    -999.25000000    -999.25000000    -999.25000000   
    4213.500 1.34881652       68.20888736      97.93909369      108.22443582     115.09836991     86.02551521      139.33131411     0.27114818       -999.25000000    -999.25000000    -999.25000000    -999.25000000    -999.25000000    -999.25000000    -999.25000000    -999.25000000    -999.25000000   
    4214.000 1.34929408       68.09178386      97.01991941      99.62894454      96.96887259      86.60290070      139.50809416     0.27782139       -999.25000000    -999.25000000    -999.25000000    -999.25000000    -999.25000000    -999.25000000    -999.25000000    -999.25000000    -999.25000000   
    4214.500 1.30133624       71.14300140      90.92127919      106.60276942     105.17000529     86.03739735      139.70137160     0.27703631       -999.25000000    -999.25000000    -999.25000000    -999.25000000    -999.25000000    -999.25000000    -999.25000000    -999.25000000    -999.25000000   
    4215.000 1.32509822       86.32677775      86.61956114      146.84116497     146.84116497     86.33771511      139.89843663     0.27703631       -999.25000000    -999.25000000    -999.25000000    -999.25000000    -999.25000000    -999.25000000    -999.25000000    -999.25000000    -999.25000000   
    4215.500 1.36155720       62.20530170      71.86069445      101.44274322     101.44274322     87.60811927      139.50120214     0.28842002       -999.25000000    -999.25000000    -999.25000000    -999.25000000    -999.25000000    -999.25000000    -999.25000000    -999.25000000    -999.25000000   
    4216.000 1.36155720       49.74168526      59.57650876      61.21082496      61.21082496      88.58467957      139.31372549     0.30058824       -999.25000000    -999.25000000    -999.25000000    -999.25000000    -999.25000000    -999.25000000    -999.25000000    -999.25000000    -999.25000000   
    4216.500 1.37393176       45.45097646      72.65492509      72.65492509      72.65492509      89.46738403      138.72549020     0.30176471       -999.25000000    -999.25000000    -999.25000000    -999.25000000    -999.25000000    -999.25000000    -999.25000000    -999.25000000    -999.25000000   
    4217.000 1.37393176       60.11637394      137.85538240     130.59223692     130.59223692     89.95873594      137.74509804     0.30411765       -999.25000000    -999.25000000    -999.25000000    -999.25000000    -999.25000000    -999.25000000    -999.25000000    -999.25000000    -999.25000000   
    4217.500 1.37393176       71.35585329      152.23647948     140.36511400     140.36511400     89.36600239      136.37254902     0.30372549       -999.25000000    -999.25000000    -999.25000000    -999.25000000    -999.25000000    -999.25000000    -999.25000000    -999.25000000    -999.25000000   
    4218.000 1.38641879       59.57650876      96.09805961      97.44279018      97.47498663      86.22178606      134.41176471     0.30215686       -999.25000000    -999.25000000    -999.25000000    -999.25000000    -999.25000000    -999.25000000    -999.25000000    -999.25000000    -999.25000000   
    4218.500 1.38641879       59.57650876      123.71176262     101.74045743     101.85627825     81.70755643      132.45098039     0.27629035       -999.25000000    -999.25000000    -999.25000000    -999.25000000    -999.25000000    -999.25000000    -999.25000000    -999.25000000    -999.25000000   
    4219.000 1.39901931       74.31207336      139.10458823     130.41347179     130.00306813     78.76349362      129.31372549     0.22051030       -999.25000000    -999.25000000    -999.25000000    -999.25000000    -999.25000000    -999.25000000    -999.25000000    -999.25000000    -999.25000000   
    4219.500 1.39901931       91.03496976      129.41947486     125.66570775     120.36347291     77.97841021      128.13725490     0.22011776       88.13976378      42.07677165      11.44291339      0.02673849       4.73632813       -0.00718504      2.63480392       0.13000000       0.10844794      
    4220.000 1.39901931       85.46418554      86.23863741      92.69231049      117.19379782     78.56722277      128.37901873     0.22286555       88.13976378      42.07677165      11.44291339      0.02673849       4.73632813       -0.00718504      2.63480392       0.13000000       0.10844794      
    4220.500 1.37393176       71.35585329      87.80865833      84.69668851      85.46418554      79.94111874      130.05787277     0.22953876       95.22637795      49.75393701      11.44291339      0.09548237       4.50195313       -0.00423228      2.46813725       0.13588235       0.11630648      
    4221.000 1.41173435       66.38772436      93.53226155      93.53226155      96.09805961      82.10009814      131.23844857     0.24052993       99.65551181      52.11614173      11.44291339      0.13643487       4.05273438       -0.00423228      2.45833333       0.13745098       0.13320236      
    4221.500 1.39901931       80.38099000      100.53175338     100.53175338     107.08468197     83.87477769      133.82352941     0.25819431       101.72244094     53.00196850      11.44291339      0.15249755       3.56445313       -0.00915354      2.44665748       0.13588235       0.14734774      
    4222.000 1.37393176       81.65656137      91.85990247      68.20888736      68.20888736      84.44549688      133.43137255     0.26526006       104.09725656     53.86435189      11.44292723      0.15554900       3.41777226       -0.00623348      2.44966566       0.13509804       0.15245580      
    4222.500 1.36155720       44.71865315      69.45066695      74.64801135      74.64801135      85.82791505      135.19607843     0.29901961       106.62919594     53.95784260      11.44267956      0.17037872       3.20950890       -0.00123813      2.38887365       0.14764706       0.15874263      
    4223.000 1.33714142       44.83509794      79.51376840      85.46418554      93.53226155      88.99425622      135.34901961     0.30058824       106.75825015     55.82437992      11.44243010      0.18501165       2.83335129       -0.00221698      2.36846167       0.15392157       0.16542240      
