###############################################
##         ENVERUS                           ##
##         ESS - Open Hole                   ##
##         PERMIAN / DELAWARE                ##
##         Nov 03 2023  V4.0                 ##
##         42-109-32572-90-00                ##
###############################################
## Copyright 2017-2023  ENVERUS.  All Rights Reserved. 
## Confidential - Property of ENVERUS, use governed by terms and 
## conditions found within the existing Information Services Subscription Agreement 
## (as may be amended, the “ISSA”) between Customer and ENVERUS. 
## 
~VERSION INFORMATION
# MNEM.UNIT                               DATA : DESCRIPTION OF MNEMONIC
#-----.-----     ----------------------------- : -----------------------------
VERS.                                     2.00 : CWLS LOG ASCII STANDARD - VERSION 2.00
WRAP.                                       NO : MULTIPLE LINES PER DEPTH STEP
VEND.                                  ENVERUS : VENDOR
TYPE.                          ESS - OPEN HOLE : ENVERUS ESSENTIAL CURVES – ACCESSIBLE THROUGH ENVERUS PRISM(TM)
DOC.                                  51093105 : ENVERUS HEADER RAW DOCUMENT ID
#___________________________________________________________________________________________________ 
~WELL INFORMATION 
# JLMmoJa/ja/TVcwAQvDk33OYEn4U2aLD16xKSNtVAxpK3Y/5Eg5lhKgsZNDQ5ZP0fRHfEZLFMAnipg5oeA7W3g== 
# MNEM.UNIT                                              DATA : DESCRIPTION OF MNEMONIC 
#-----.-----                    ----------------------------- : ----------------------------- 
CNTY.                                               CULBERSON : COUNTY 
STATE.                                                  TEXAS : STATE 
CNTRY.                                                    USA : COUNTRY 
API.                                             42-109-32572 : API (10 Digit) 
API_14.                                    42-109-32572-90-00 : API (14 Digits) 
API_14_std.                                 42-109-32572-9000 : API (14 Digits Standard) 
UWI.                                           42109325729000 : UNIQUE WELL ID 
WELL.                               42109325720000_PREV_API14 : WELL NAME
STRT.FT                                                2248.5 : START DEPTH
STOP.FT                                               10721.5 : STOP DEPTH
STEP.FT                                                   0.5 : STEP BETWEEN DEPTHS
NULL.                                                 -999.25 : NULL VALUE
PREV_APII.                                     42109325720000 : WELL IDENTIFIER
#___________________________________________________________________________________________________ 
~PARAMETER INFORMATION 
# MNEM.UNIT                                              DATA : DESCRIPTION OF MNEMONIC 
#-----.-----                    ----------------------------- : ----------------------------- 
EKB.FT                                                   3340 : ELEVATION ABOVE MSL
#___________________________________________________________________________________________________ 
~CURVE INFORMATION 
# MNEM.UNIT           : CURVE DESCRIPTION 
#-----.-----          : ----------------------------- 
 DEPT.FT               : MEASURED DEPTH 
 GR__A.API             : GAMMA RAY (GAMMA RAY) 
 DT__A.US/FT           : SONIC DELTA TRANSIT TIME (SONIC) 
 #___________________________________________________________________________________________________ 
~A         DEPT          GR__A          DT__A
# ...
         5032.5        125.738         78.048
         5033.0        128.183         79.185
         5033.5        107.146         85.799
         5034.0        105.675         88.071
         5034.5        108.508         88.414
         5035.0        109.589         88.558
         5035.5        106.084         88.633
         5036.0        103.631         88.633
         5036.5        104.602         88.752
         5037.0        108.498         89.250
         5037.5        109.198         90.293
         5038.0        108.885         90.488
         5038.5        111.112         89.512
         5039.0        116.838         89.200
         5039.5        123.462         88.846
         5040.0        114.998         89.725
         5040.5        108.347         89.592
         5041.0        109.264         89.105
         5041.5        108.906         89.023
         5042.0        108.024         89.039
         5042.5        109.198         89.331
         5043.0        107.574         89.595
         5043.5        104.738         89.073
         5044.0        110.817         88.438
         5044.5        119.528         87.367
         5045.0        116.315         86.875
         5045.5        112.282         86.875
         5046.0        112.374         86.961
         5046.5        113.546         85.888
         5047.0        119.906         84.467
         5047.5        148.543         83.589
         5048.0        176.945         82.960
         5048.5        219.468         81.992
         5049.0        204.420         81.699
         5049.5        183.240         81.594
         5050.0        192.201         81.902
         5050.5        203.131         84.147
         5051.0        165.881         85.508
         5051.5        135.957         85.522
         5052.0        124.819         86.592
         5052.5        114.837         88.835
         5053.0        109.158         88.080
         5053.5        101.861         86.866
         5054.0         95.090         87.757
         5054.5         94.354         88.092
         5055.0        105.329         85.992
         5055.5        116.479         82.175
         5056.0        122.517         79.938
         5056.5        132.290         82.679
         5057.0        127.401         88.093
         5057.5        122.508         91.894
         5058.0        120.553         92.247
         5058.5        120.157         91.369
         5059.0        115.283         91.756
         5059.5        114.643         91.906
         5060.0        117.403         91.175
         5060.5        134.185         90.680
         5061.0        137.360         90.684
         5061.5        140.881         89.414
         5062.0        138.595         89.219
         5062.5        128.643         89.512
         5063.0        125.466         89.512
         5063.5        126.530         89.609
         5064.0        129.520         89.617
         5064.5        135.062         89.663
         5065.0        124.403         88.996
         5065.5        123.747         87.572
         5066.0        128.729         87.178
         5066.5        161.541         86.885
         5067.0        188.764         86.495
         5067.5        227.028         85.818
         5068.0        236.431         85.410
         5068.5        246.869         86.332
         5069.0        208.295         88.191
         5069.5        168.538         89.303
         5070.0        141.347         90.014
         5070.5        108.864         89.296
         5071.0        115.341         87.066
         5071.5        122.044         87.194
         5072.0        125.736         87.933
         5072.5        134.605         89.292
         5073.0        134.314         90.485
         5073.5        133.003         90.145
         5074.0        135.117         89.334
         5074.5        146.660         89.200
         5075.0        149.350         87.762
         5075.5        126.066         88.936
         5076.0        120.367         90.761
         5076.5        126.172         94.246
         5077.0        129.857         97.104
         5077.5        130.790         98.057
         5078.0        133.767         96.414
         5078.5        136.595         90.999
         5079.0        133.351         73.425
         5079.5        116.985         67.937
         5080.0        108.903         64.927
         5080.5         83.173         61.716
         5081.0         80.336         62.405
         5081.5         81.306         61.767
         5082.0         84.028         62.337
         5082.5        100.399         72.929
         5083.0        114.936         80.981
         5083.5        122.647         87.782
         5084.0        128.262         88.214
         5084.5        134.914         89.838
         5085.0        133.504         90.811
         5085.5        130.453         90.359
         5086.0        130.724         91.434
         5086.5        127.903         91.660
         5087.0        122.240         91.399
         5087.5        114.870         90.781
         5088.0        114.286         90.228
         5088.5        116.502         86.380
         5089.0        123.728         86.680
         5089.5        129.208         88.267
         5090.0        131.759         89.184
         5090.5        132.039         89.926
         5091.0        128.218         90.684
         5091.5        126.665         90.915
         5092.0        129.302         90.977
         5092.5        138.411         90.721
         5093.0        144.271         89.279
         5093.5        137.389         89.978
         5094.0        131.304         91.798
         5094.5        110.886         92.218
         5095.0        107.009         90.821
         5095.5        108.597         90.448
         5096.0        111.673         89.573
         5096.5        116.468         91.823
         5097.0        126.837         93.278
         5097.5        135.438         93.584
         5098.0        140.665         94.863
         5098.5        146.705         96.646
         5099.0        147.231         95.408
         5099.5        133.564         92.008
         5100.0        125.485         90.631
         5100.5        116.634         90.488
         5101.0        122.342         89.656
         5101.5        129.568         89.093
         5102.0        130.724         89.023
         5102.5        129.741         88.435
         5103.0        128.569         89.268
         5103.5        128.572         91.368
         5104.0        130.918         92.538
         5104.5        132.186         93.613
         5105.0        138.102         92.958
         5105.5        149.988         92.010
         5106.0        149.047         88.926
         5106.5        133.133         88.535
         5107.0        127.321         88.881
         5107.5        127.079         88.104
         5108.0        130.492         87.155
         5108.5        132.290         86.333
         5109.0        131.289         88.833
         5109.5        137.695         92.063
         5110.0        141.016         92.916
         5110.5        141.683         94.568
         5111.0        138.779         94.166
         5111.5        137.998         92.051
         5112.0        135.160         90.605
         5112.5        123.595         88.104
         5113.0        118.748         87.363
         5113.5        129.415         86.691
         5114.0        135.551         86.132
         5114.5        132.110         86.424
         5115.0        130.481         86.956
         5115.5        133.218         88.583
         5116.0        132.537         89.550
         5116.5        121.121         88.407
         5117.0        115.991         86.313
         5117.5        120.866         87.937
         5118.0        125.839         88.960
         5118.5        132.098         92.572
         5119.0        136.271         92.441
