~Version Information
 VERS.                  2.0:   CWLS log ASCII Standard -VERSION 2.0
 WRAP.                   NO:   One line per depth step
~Well Information Block
#MNEM.UNIT     VALUE/NAME     DESCRIPTION
#---------     -----------    ---------------------------
 STRT.F              8650.0000: START DEPTH
 STOP.F             14150.0000: STOP DEPTH
 STEP.F                 0.5000: STEP DEPTH
 NULL.                 -999.25: NULL VALUE
 LOC .     A1759-SEC34-BLK58-T2-:  LOCATION
 FL4 .        API 42-109-33169:  LOCATIONLINE4
 FL2 .     T&P RR CO-337FSL-25:  LOCATIONLINE2
 FL1 .     A1759-SEC34-BLK58-T2-:  LOCATIONLINE1
 DMF .                      KB:  DRILL MEAS FROM
 PDAT.                      GL:  PERMANENT DATUM
 CNTY.               CULBERSON:  COUNTY NAME
 FLD .     FORD, WEST (WOLFCAMP):  FIELD NAME
 WELL.         ALICE FEE 34 2H:  WELL NAME
 COMP.     CAPITAN ENERGY INC.:  COMPANY
 DATE.             27-Mar-2018:  DATE
 SVCO.             Halliburton:  SERVICECONAME
 PROV.                   TEXAS:  PROVINCE
 STAT.                   TEXAS:  STATE NAME
 CTRY.                     USA:  COUNTRY NAME
 HIDE.                        :  WELLNAMEOPERAT
 BASI.                 PERMIAN:  BASIN
 UWI .            42-109-33169LAT:  UNIQUE WELL IDENTIFIER
 API .            42-109-33169LAT:  API NUMBER
 RANG.                     N/A:  RANGE
 TOWN.                     N/A:  TOWNSHIP
 SECT.                     N/A:  SECTION
 SRVC.             Halliburton:  SERVICE COMPANY
 LMF .                      KB:  LOG MEASURED FROM
 TVDS.ft             3088.0000:  TVDSS CORRECTN
 EGL .ft             3063.0000:  GROUND ELEVATION
 APD .ft               25.0000:  DEPTH ABOVE PD
 EPD .ft             3063.0000:  ELEVATION
 BAP .ft                0.0000:  GL ELEV ONSHORE
 GVFD.g                 1.0000:  GRAVITY FIELD
 EKB .ft             3088.0000:  KB ELEVATION
 EDF .ft             3087.0000:  DF ELEVATION
~Curve Information Block
#MNEM.UNIT                 API CODE     Curve Description
#---------               -----------    ---------------------------
 DEPT.F                 00 000 000 000:  Depth
 CCL .mV                00 000 000 000:  Casing Collar Locator
 NPHI_OH.pu             00 000 000 000:  NPHI_OH
 NPHI_CHI.pu            00 000 000 000:  NPHI_CHI
 GR_OH.api              00 000 000 000:  GR_OH
 GR_CHI.api             00 000 000 000:  GR_CHI
 RHOB_OH.g/cc           00 000 000 000:  RHOB_OH
 RHOB_CHI.g/cc          00 000 000 000:  RHOB_CHI
 PE_OH.b/e              00 000 000 000:  PE_OH
 PE_CHI.b/e             00 000 000 000:  PE_CHI
 MSFL_OH.ohmm           00 000 000 000:  MSFL_OH
 MSFL_CHI.ohmm          00 000 000 000:  MSFL_CHI
 LLS_OH.ohmm            00 000 000 000:  LLS_OH
 LLS_CHI.ohmm           00 000 000 000:  LLS_CHI
 LLD_OH.ohmm            00 000 000 000:  LLD_OH
 LLD_CHI.ohmm           00 000 000 000:  LLD_CHI
 DTC_OH.uspf            00 000 000 000:  DTC_OH
 DTC_CHI.uspf           00 000 000 000:  DTC_CHI
 SPHI_CHI.pu            00 000 000 000:  SPHI_CHI
 SGF .cu                00 000 000 000:  Formation Sigma
 CRNF.NONE              00 000 000 000:  CM GrsCaptRatio
 RIN .NONE              00 000 000 000:  CM GrsInelRatio
#Other Information
#
#WARRANTY: Halliburton will use its best efforts to furnish customers with 
#accurate information and interpretations that are part of, and incident to, the services 
#provided.  However, Halliburton cannot and does not warrant the accuracy 
#or correctness of such information and interpretations.  Under no circumstances should any 
#such information or interpretation be relied upon as the sole basis for any drilling, 
#completion, production, or financial decision or any procedure involving any risk to the 
#safety of any drilling venture, drilling rig or its crew or any other third party.  The 
#Customer has full responsibility for all drilling, completion and production operation.  
#Halliburton makes no representations or warranties, either expressed or 
#implied, including, but not limited to, the implied warranties of merchantability or fitness 
#for a particular purpose, with respect to the services rendered.  In no event will 
#Halliburton be liable for failure to obtain any particular results or for 
#any damages, including, but not limited to, indirect, special or consequential damages, 
#resulting from the use of any information or interpretation provided by Halliburton.
#
~A    DEPT       CCL    NPHI_OH NPHI_CHI  GR_OH    GR_CHI  RHOB_OH RHOB_CHI  PE_OH  PE_CHI  MSFL_OH   MSFL_CHI  LLS_OH   LLS_CHI   LLD_OH   LLD_CHI  DTC_OH  DTC_CHI SPHI_CHI   SGF    CRNF   RIN   
# ...
   10843.5000    0.0000 -999.25  11.6300  -999.25  89.5952 -999.25   2.5769 -999.25 3.5865    -999.25  27.1412   -999.25  45.0382   -999.25  51.7886 -999.25 67.9432  14.3900 24.0767 0.7476 1.0436
   10844.0000    0.0000 -999.25  11.9576  -999.25  97.5042 -999.25   2.5724 -999.25 3.5513    -999.25  29.5051   -999.25  47.6532   -999.25  54.4658 -999.25 68.2542  14.6100 24.7352 0.7512 1.0434
   10844.5000    0.0000 -999.25  12.2003  -999.25 101.9214 -999.25   2.5691 -999.25 3.5244    -999.25  30.5593   -999.25  48.4494   -999.25  55.3350 -999.25 68.4970  14.7800 25.5625 0.7547 1.0463
   10845.0000    0.0000 -999.25  12.2360  -999.25 101.7842 -999.25   2.5689 -999.25 3.4877    -999.25  28.2384   -999.25  43.8703   -999.25  50.4547 -999.25 68.4678  14.7600 26.0705 0.7545 1.0479
   10845.5000    0.0000 -999.25  12.4690  -999.25 105.7998 -999.25   2.5660 -999.25 3.4346    -999.25  26.9638   -999.25  40.3348   -999.25  46.6374 -999.25 68.6097  14.8600 26.1201 0.7586 1.0522
   10846.0000    0.0000 -999.25  13.0011  -999.25 116.3614 -999.25   2.5588 -999.25 3.3664    -999.25  28.8435   -999.25  40.4789   -999.25  46.9471 -999.25 68.9588  15.1100 25.9845 0.7644 1.0578
   10846.5000    0.0000 -999.25  13.2603  -999.25 121.4858 -999.25   2.5552 -999.25 3.3434    -999.25  30.7553   -999.25  41.9450   -999.25  48.7030 -999.25 69.1211  15.2200 25.5740 0.7705 1.0634
   10847.0000    0.0000 -999.25  13.2957  -999.25 121.0996 -999.25   2.5543 -999.25 3.3527    -999.25  31.7145   -999.25  43.2263   -999.25  50.3281 -999.25 69.1358  15.2300 25.2419 0.7704 1.0682
   10847.5000    0.0000 -999.25  13.4932  -999.25 122.8540 -999.25   2.5510 -999.25 3.3697    -999.25  35.7251   -999.25  49.2506   -999.25  57.1907 -999.25 69.5092  15.4900 24.8809 0.7604 1.0678
   10848.0000    0.0000 -999.25  12.8201  -999.25 105.0098 -999.25   2.5603 -999.25 3.4300    -999.25  27.2607   -999.25  40.7084   -999.25  47.6373 -999.25 69.1802  15.2600 24.4862 0.7494 1.0619
   10848.5000    0.0000 -999.25  12.6118  -999.25 100.4998 -999.25   2.5631 -999.25 3.4618    -999.25  26.6723   -999.25  41.0556   -999.25  47.9733 -999.25 69.0602  15.1800 24.2680 0.7388 1.0530
   10849.0000    0.0000 -999.25  12.7827  -999.25 108.6372 -999.25   2.5608 -999.25 3.4614    -999.25  31.9134   -999.25  48.4262   -999.25  55.8439 -999.25 69.1091  15.2100 24.0803 0.7335 1.0449
   10849.5000    0.0000 -999.25  13.0463  -999.25 118.7992 -999.25   2.5573 -999.25 3.4415    -999.25  37.1154   -999.25  54.4043   -999.25  62.0692 -999.25 69.1278  15.2200 24.0030 0.7287 1.0426
   10850.0000    0.0000 -999.25  12.8161  -999.25 114.3400 -999.25   2.5604 -999.25 3.4663    -999.25  36.1989   -999.25  54.0398   -999.25  61.7832 -999.25 68.8604  15.0400 24.0035 0.7318 1.0433
   10850.5000    0.0000 -999.25  12.6496  -999.25 112.6630 -999.25   2.5628 -999.25 3.4821    -999.25  36.4085   -999.25  54.6944   -999.25  62.5101 -999.25 68.5716  14.8300 23.9966 0.7395 1.0433
   10851.0000    0.0000 -999.25  12.2853  -999.25 105.8348 -999.25   2.5681 -999.25 3.5014    -999.25  32.4343   -999.25  49.8919   -999.25  57.1494 -999.25 68.2408  14.6000 23.9199 0.7437 1.0422
   10851.5000   44.6953 -999.25  12.3507  -999.25 107.8174 -999.25   2.5672 -999.25 3.4972    -999.25  33.5222   -999.25  51.2488   -999.25  58.5921 -999.25 68.2730  14.6200 23.7355 0.7437 1.0420
   10852.0000    0.0000 -999.25  12.7917  -999.25 116.0924 -999.25   2.5607 -999.25 3.4769    -999.25  38.4824   -999.25  57.2677   -999.25  65.2456 -999.25 68.6927  14.9200 23.6220 0.7379 1.0435
   10852.5000    0.0000 -999.25  13.0237  -999.25 118.5252 -999.25   2.5571 -999.25 3.4797    -999.25  40.8630   -999.25  60.5905   -999.25  69.0420 -999.25 69.0267  15.1500 23.5448 0.7348 1.0445
   10853.0000    0.0000 -999.25  12.4819  -999.25 105.9136 -999.25   2.5647 -999.25 3.5214    -999.25  34.5556   -999.25  53.9259   -999.25  61.8299 -999.25 68.6353  14.8800 23.5914 0.7355 1.0423
   10853.5000    0.0000 -999.25  12.2833  -999.25 103.7164 -999.25   2.5677 -999.25 3.5331    -999.25  33.3466   -999.25  52.5637   -999.25  60.1383 -999.25 68.4076  14.7200 23.6747 0.7397 1.0373
   10854.0000    0.0000 -999.25  12.1206  -999.25 102.3570 -999.25   2.5702 -999.25 3.5342    -999.25  31.6392   -999.25  50.1139   -999.25  57.1381 -999.25 68.2754  14.6200 23.7177 0.7419 1.0330
   10854.5000    0.0000 -999.25  12.0119  -999.25 100.4750 -999.25   2.5719 -999.25 3.5362    -999.25  30.1661   -999.25  48.0322   -999.25  54.7395 -999.25 68.2272  14.5900 23.7208 0.7407 1.0320
   10855.0000    0.0000 -999.25  13.1039  -999.25 125.1856 -999.25   2.5565 -999.25 3.4616    -999.25  40.3354   -999.25  58.8677   -999.25  66.1280 -999.25 69.0755  15.1900 23.4671 0.7394 1.0347
   10855.5000    0.0000 -999.25  12.8909  -999.25 118.2860 -999.25   2.5593 -999.25 3.4794    -999.25  38.5452   -999.25  57.5777   -999.25  65.1848 -999.25 68.9345  15.0900 23.1360 0.7390 1.0370
   10856.0000    0.0000 -999.25  13.7759  -999.25 139.4578 -999.25   2.5468 -999.25 3.4319    -999.25  47.6177   -999.25  65.6971   -999.25  73.4431 -999.25 69.6078  15.5600 22.8449 0.7358 1.0370
   10856.5000    0.0000 -999.25  12.7579  -999.25 115.5348 -999.25   2.5610 -999.25 3.5106    -999.25  37.8457   -999.25  57.7808   -999.25  65.2505 -999.25 68.8939  15.0600 22.5495 0.7353 1.0363
   10857.0000    0.0000 -999.25  12.3624  -999.25 106.8732 -999.25   2.5663 -999.25 3.5609    -999.25  35.0261   -999.25  55.7996   -999.25  63.1003 -999.25 68.6255  14.8700 22.5046 0.7338 1.0364
   10857.5000    0.0000 -999.25  11.8538  -999.25  95.9416 -999.25   2.5733 -999.25 3.6151    -999.25  32.1772   -999.25  53.5742   -999.25  60.9077 -999.25 68.1572  14.5400 22.3541 0.7319 1.0376
   10858.0000    0.0000 -999.25  12.0478  -999.25  99.3856 -999.25   2.5704 -999.25 3.6071    -999.25  34.5677   -999.25  56.8951   -999.25  64.7107 -999.25 68.2709  14.6200 22.3487 0.7255 1.0404
   10858.5000    0.0000 -999.25  12.7964  -999.25 115.3348 -999.25   2.5595 -999.25 3.5682    -999.25  44.0220   -999.25  67.9925   -999.25  76.9324 -999.25 68.7880  14.9800 22.3834 0.7170 1.0445
   10859.0000    0.0000 -999.25  12.6889  -999.25 112.9768 -999.25   2.5610 -999.25 3.5765    -999.25  43.7409   -999.25  68.1140   -999.25  77.2323 -999.25 68.6574  14.8900 22.3340 0.7091 1.0436
   10859.5000    0.0000 -999.25  13.0349  -999.25 122.7154 -999.25   2.5562 -999.25 3.5481    -999.25  49.3175   -999.25  73.5140   -999.25  82.9224 -999.25 68.7831  14.9800 22.2465 0.7071 1.0409
   10860.0000    0.0000 -999.25  12.8808  -999.25 121.6302 -999.25   2.5586 -999.25 3.5550    -999.25  49.4380   -999.25  74.0046   -999.25  83.3576 -999.25 68.5162  14.7900 21.9400 0.7007 1.0362
   10860.5000    0.0000 -999.25  12.4492  -999.25 113.1374 -999.25   2.5648 -999.25 3.5815    -999.25  44.8382   -999.25  69.5690   -999.25  78.5611 -999.25 68.1371  14.5200 21.5494 0.6934 1.0312
   10861.0000    0.0000 -999.25  12.8663  -999.25 124.1918 -999.25   2.5588 -999.25 3.5618    -999.25  51.4978   -999.25  76.5353   -999.25  85.7903 -999.25 68.3552  14.6800 21.0539 0.6825 1.0263
   10861.5000    0.0000 -999.25  12.5775  -999.25 118.3102 -999.25   2.5628 -999.25 3.6010    -999.25  49.2092   -999.25  75.4966   -999.25  84.6402 -999.25 68.1316  14.5200 20.7460 0.6712 1.0194
   10862.0000  -30.7454 -999.25  12.6223  -999.25 122.6152 -999.25   2.5620 -999.25 3.6276    -999.25  48.9032   -999.25  74.5958   -999.25  82.7986 -999.25 68.1271  14.5200 20.4758 0.6628 1.0104
   10862.5000    0.0000 -999.25  11.4200  -999.25 101.1428 -999.25   2.5792 -999.25 3.7228    -999.25  41.7395   -999.25  69.9428   -999.25  77.8519 -999.25 67.0001  13.7200 20.2525 0.6514 0.9993
   10863.0000    0.0000 -999.25  11.5298  -999.25 108.6276 -999.25   2.5778 -999.25 3.7146    -999.25  42.3137   -999.25  68.9369   -999.25  75.8251 -999.25 66.9738  13.7000 19.9813 0.6394 0.9888
   10863.5000    0.0000 -999.25  11.1868  -999.25 104.4474 -999.25   2.5827 -999.25 3.7470    -999.25  41.1197   -999.25  68.1079   -999.25  74.7128 -999.25 66.6083  13.4400 19.5936 0.6250 0.9802
