~VERSION INFORMATION
 VERS.                2.0:   CWLS LOG ASCII STANDARD - VERSION 2.0
 WRAP.                 NO:   ONE LINE PER DEPTH STEP
~WELL INFORMATION
#MNEM.UNIT      DATA TYPE    INFORMATION
#----------   ------------   ------------------------------
 STRT.FT          68.0000:   START DEPTH
 STOP.FT        1517.0000:   STOP DEPTH
 STEP.FT           0.5000:   STEP LENGTH
 NULL.          -999.2500:   NULL VALUE
 COMP. LINCOLN ROCK CORPORATION:   COMPANY
 WELL.        HOLLER #602:   WELL
 FLD .            UNNAMED:   FIELD
 LOC .                   :   LOCATION
 CNTY.          CULBERSON:   COUNTY
 STAT.              TEXAS:   STATE
 CTRY. UNITED STATES OF AMERICA:   COUNTRY
 SRVC.           Gearhart:   SERVICE COMPANY
 DATE.        24-Jun-1984:   LOGDATE
 API .     42109317410000:   API NUMBER
~CURVE INFORMATION
#MNEM.UNIT       API CODE    CURVE DESCRIPTION
#----------   ------------   ------------------------------
 DEPT.F                  :   
 CALXS.IN    60 280 13 00:   CALIPER FROM X AXIS OF X-Y CALIPER(S) FROM SONIC LOG
 GRD .GAPI   45 310 01 00:   GAMMA RAY FROM DENSITY LOG
 GRS .GAPI   60 310 01 00:   GAMMA RAY FROM SONIC LOG
 TEND.LB     45 635 00 00:   TENSION FROM DENSITY LOG
 TENR.LB     11 635 00 00:   TENSION FROM RESISTIVITY LOG
 TENS.LB     60 635 00 00:   TENSION FROM SONIC LOG
 CALYD.IN    45 280 24 00:   CALIPER FROM X AXIS OF X-Y CALIPER(S) FROM DENSITY LOG
 CNS_LS.DEC  42 890 01 00:   COMPENSATED NEUTRON POROSITY
 CDL_LS.DEC  45 890 10 00:   COMPENSATED DENSITY POROSITY LIMESTONE
 RHOB.G/C3   45 350 01 00:   BULK DENSITY
 DRHO.G/C3   45 356 01 00:   BULK DENSITY CORRECTION
 GRR .GAPI   11 310 01 00:   GAMMA RAY FROM RESISTIVITY LOG
 RLLD.OHMM   11 220 10 00:   RAW LATEROLOG DEEP RESISTIVITY
 RLLS.OHMM   11 220 09 00:   RAW LATEROLOG SHALLOW RESISTIVITY
 DT  .US/F   60 500 00 00:   DELTA-T (INTERVAL TRANSIT TIME)
 SPHI.DEC    60 890 00 00:   SONIC POROSITY
~PARAMETER INFORMATION
#MNEM.UNIT          VALUE    DESCRIPTION
#----------   ------------   ------------------------------
 PD  .                 GL:   PERMANENT DATUM
 EPD .FT             3532:   ELEVATION PERMANENT DATUM
 LMF .                 GL:   LOG MEASURED FROM
 DMF .                RKB:   DRILLING MEASURED FROM
 EKB .FT             3544:   KELLY BUSHING
 EDF .FT             3543:   DRILLING FLOOR
 EGL .FT             3532:   GROUND LEVEL
 DATE.           06/24/84:   RUN DATE
 RUN .                  1:   RUN NUMBER
 DD  .FT             1502:   DEPTH DRILLER
 DL  .FT             1506:   DEPTH LOGGER
 BLI .FT             1505:   BOTTOM LOG INTERVAL
 TLI .FT               90:   TOP LOG INTERVAL
 CS  .IN              4.5:   CASING SIZE
 CBD .FT              101:   CASING BOTTOM DRILLER
 CBL .FT             1502:   CASING BOTTOM LOGGER
 BS  .IN            7.875:   BIT SIZE
 BSD .FT             1502:   BIT SIZE AT DEPTH
 DFT .          FRESH H2O:   DRILLING FLUID TYPE
 DFD .                8.4:   DRILLING FLUID DENSITY
 DFV .                 27:   DRILLING FLUID VISCOSITY
 DFPH.                 12:   DRILLING FLUID PH
 MSS .                PIT:   MUD SAMPLE SOURCE
 RMS .OHMM           2.32:   RESISTIVITY MUD SAMPLE
 MST .DEGF             77:   MUD SAMPLE TEMPERATURE
 RMF .OHMM           2.32:   RESISTIVITY MUD FILTRATE SAMPLE
 MFST.DEGF             77:   MUD FILTRATE SAMPLE TEMPERATURE
 MFSS.               MEAS:   MUD FILTRATE SAMPLE SOURCE
 TCS .HRS            0940:   TIME CIRCULATED STOPPED
 TLAB.HRS            1319:   TIME LOGGER AT BOTTOM
 MRT .DEGF            770:   MAXIMUM RECORDED TEMPERATURE
 LUN .               7583:   LOGGING UNIT NUMBER
 LUL .              HOBBS:   LOGGING UNIT LOCATION
 ENGI.             BRYANT:   RECORDING ENGINEER
 WITN.             BURROW:   WITNESSED BY
 CLNT.            :   CLIENT CODE
 ORIG.      1" 2.5" PRINT:   ORIGIN OF DATA
 UWI .     42109317410000:   UNIQUE WELL ID
 
~OTHER INFORMATION
~A   DEPT    CALXS        GRD        GRS       TEND       TENR       TENS      CALYD      CNS_LS     CDL_LS      RHOB       DRHO          GRR     RLLD       RLLS         DT       SPHI   
# ...
  562.5000     8.5914     6.5846     4.6801   952.4337   613.8805   805.6379     8.0501    -0.0038     0.2675     2.9548    -0.0126     4.9595 10440.4805 10123.0029    48.9003    -0.0237
  563.0000     8.5887     6.5055     4.7174   958.3018   613.4829   803.3962     8.0482    -0.0045     0.2695     2.9495    -0.0143     4.6559  6200.3301  9693.8379    48.9786    -0.0223
  563.5000     8.5693     6.2848     5.2704   960.1230   613.0843   803.3503     8.0503    -0.0051     0.2644     2.9441    -0.0119     5.4296  2808.2092  9821.1904    49.0088    -0.0217
  564.0000     8.5619     6.3531     5.8627   964.6542   612.6870   801.1099     8.0484    -0.0057     0.2601     2.9388    -0.0094     6.1352 33846.9961 10588.0957    49.1094    -0.0221
  564.5000     8.5812     6.4619     6.0285   963.1298   612.2884   801.0640     8.0505    -0.0058     0.2556     2.9342    -0.0094     6.8409 43585.8594 23689.4277    48.8915    -0.0233
  565.0000     8.5979     6.5707     5.5715   961.6054   611.8899   798.8236     8.0526    -0.0050     0.2568     2.9393    -0.0122     7.4899 65586.2578 27488.4902    48.6735    -0.0240
  565.5000     8.6238     6.4350     4.9740   964.1280   611.4925   798.7789     8.0507    -0.0042     0.2591     2.9438    -0.0168     6.6186 58072.7227 28376.7188    48.7437    -0.0242
  566.0000     8.6137     6.3398     4.4163   962.6023   611.0940   803.7373     8.0528    -0.0034     0.2614     2.9483    -0.0178     5.8121 50559.1875 29109.7715    48.8860    -0.0235
  566.5000     8.6002     6.2041     4.2354   965.1249   610.6966   805.6713     8.0509    -0.0030     0.2658     2.9528    -0.0188     5.0057 46061.6680 29126.8047    48.9512    -0.0229
  567.0000     8.6119     6.1472     4.3717   963.6005   610.2981   796.9082     8.0530    -0.0036     0.2696     2.9565    -0.0198     4.2510 46088.1719 28782.8984    48.9971    -0.0222
  567.5000     8.5993     6.2032     4.9528   966.1233   609.9007   790.3419     8.0511    -0.0042     0.2713     2.9484    -0.0208     4.5575 46114.6797 28752.3164    48.9614    -0.0218
  568.0000     8.5822     6.5811     5.5734   968.1109   609.5022   808.1413     8.0492    -0.0049     0.2684     2.9430    -0.0218     4.8456 46141.2227 28439.8984    48.9053    -0.0226
  568.5000     8.5976     7.2142     5.7651   963.9105   609.1036   798.7256     8.0513    -0.0055     0.2604     2.9384    -0.0212     5.1336 44994.1328 26947.6914    48.8493    -0.0232
  569.0000     8.6266     7.8067     6.1196   963.7586   608.7059   799.6175     8.0494    -0.0061     0.2523     2.9339    -0.0172     5.4216 43160.2930 25455.4824    48.7932    -0.0242
  569.5000     8.6236     7.9451     6.4655   959.5584   608.3074   811.0355     8.0515    -0.0052     0.2491     2.9302    -0.0146     5.7097 41326.4531 23963.2734    48.5737    -0.0247
  570.0000     8.6157     8.0833     6.5830   975.8729   607.7354   836.3403     8.0536    -0.0044     0.2475     2.9532    -0.0156     5.7034 39492.6133 22164.7188    48.6111    -0.0252
  570.5000     8.6148     7.4869     6.1925   961.9631   608.2253   836.4991     8.0527    -0.0037     0.2529     2.9686    -0.0165     5.3254 39684.2188 19906.6484    48.5816    -0.0257
  571.0000     8.5997     6.9106     5.6704   964.9354   606.8063   834.9571     8.0538    -0.0035     0.2548     2.9605    -0.0175     4.9474 42366.8047 18688.9063    48.3398    -0.0263
  571.5000     8.6111     6.3721     5.6428   970.9456   607.2982   834.0987     8.0519    -0.0034     0.2539     2.9605    -0.0184     4.7713 43458.9609 17731.2461    48.2830    -0.0272
  572.0000     8.5929     6.1459     5.6863   972.9061   605.8796   832.1892     8.0540    -0.0033     0.2529     2.9605    -0.0137     5.2753 40929.9023 15038.6641    48.3743    -0.0268
  572.5000     8.5985     6.6195     5.4566   974.3984   606.3703   826.4008     8.0521    -0.0031     0.2548     2.9605    -0.0102     5.3479 36310.3164 11189.4668    48.6184    -0.0248
  573.0000     8.6130     7.1858     5.2267   971.8400   606.8623   820.6044     8.0542    -0.0030     0.2598     2.9605    -0.0122     5.1589 30174.6875  7397.4048    48.9653    -0.0219
  573.5000     8.6004     7.7898     5.1323   973.3335   605.4449   820.7198     8.0523    -0.0029     0.2646     2.9577    -0.0159     4.9699 24039.0586  4303.5889    49.3701    -0.0188
  574.0000     8.6079     8.4343     5.3434   980.5519   605.9344   830.1945     8.0544    -0.0035     0.2682     2.9455    -0.0200     4.7809 17903.4297  4743.2671    49.6907    -0.0174
  574.5000     8.6124     8.0708     5.5600   979.0050   604.5170   840.0026     8.0525    -0.0045     0.2704     2.9362    -0.0240     4.5919 11767.7998  5662.1621    49.4979    -0.0187
  575.0000     8.6168     7.3220     5.6824   974.9926   605.0090   839.9530     8.0545    -0.0055     0.2707     2.9362    -0.0281     4.4028  5632.1709  8142.8560    49.1891    -0.0220
  575.5000     8.6145     6.5328     5.8433   980.0045   603.5912   839.5684     8.0526    -0.0057     0.2711     2.9347    -0.0327     4.2510  3149.1570 10662.4863    48.5067    -0.0259
  576.0000     8.6027     6.1202     5.9658   980.9682   602.1726   839.5151     8.0547    -0.0045     0.2622     2.9296    -0.0243     4.4639 12883.1572 13991.4131    48.2551    -0.0281
  576.5000     8.5857     6.1716     6.0554   983.2931   602.6645   839.1305     8.0528    -0.0034     0.2569     2.9316    -0.0158     4.6418 36838.6992 21856.1211    48.2287    -0.0275
  577.0000     8.5665     6.2633     6.1272   981.5735   625.8658   838.7460     8.0549    -0.0031     0.2580     2.9448    -0.0082     4.8197 60794.2422 34214.8672    48.5143    -0.0257
  577.5000     8.6019     6.3876     6.1608   983.8985   628.8081   838.6939     8.0530    -0.0037     0.2633     2.9539    -0.0164     4.9976 59452.9492 49689.0000    48.7940    -0.0235
  578.0000     8.5838     7.1953     5.7648   982.1751   612.8802   838.6418     8.0551    -0.0042     0.2678     2.9519    -0.0239     5.1755 46809.4023 60920.4570    49.1774    -0.0208
  578.5000     8.5686     7.0452     5.2368   984.5001   604.5133   838.2572     8.0532    -0.0047     0.2711     2.9475    -0.0314     5.3534 34165.8594 65814.4063    49.4385    -0.0180
  579.0000     8.5634     6.1785     4.4591   982.7805   635.9220   837.8714     8.0553    -0.0052     0.2711     2.9373    -0.0388     5.2049 31067.6035 67938.7813    49.7741    -0.0159
  579.5000     8.5625     5.1091     3.7929   985.1054   633.7669   837.8181     8.0533    -0.0058     0.2657     2.9308    -0.0371     4.4992 42671.6914 77830.2578    50.0081    -0.0148
  580.0000     8.5588     4.0846     3.8070   998.3634   631.8862   797.1378     8.0510    -0.0063     0.2577     2.9322    -0.0298     3.7935 57171.3789 74964.3594    49.6067    -0.0175
  580.5000     8.6339     4.7495     3.7461   990.0149   641.2624   799.4355     8.0524    -0.0069     0.2497     2.9367    -0.0210     3.0879 66496.1016 63018.3086    49.0847    -0.0205
  581.0000     8.6432     5.5322     3.7036   985.5230   638.7635   799.8995     8.0514    -0.0069     0.2442     2.9516    -0.0121     2.8691 62415.0781 49350.8633    48.8344    -0.0231
  581.5000     8.6504     6.1436     3.7157   976.1637   647.9790   798.4962     8.0538    -0.0069     0.2442     2.9666    -0.0041     3.4413 57257.9336 43274.5234    48.5253    -0.0250
  582.0000     8.6489     6.3420     3.9426   987.4748   662.0894   798.9601     8.0518    -0.0069     0.2487     2.9764    -0.0095     3.4413 58351.1133 47707.8086    48.2924    -0.0268
  582.5000     8.6478     6.2282     4.1703   984.8472   667.7946   797.5583     8.0542    -0.0069     0.2525     2.9754    -0.0143     3.4413 74005.5938 53515.3359    48.0989    -0.0285
  583.0000     8.6462     6.0337     4.3969   988.0999   670.9536   798.0235     8.0522    -0.0069     0.2563     2.9717    -0.0180     3.4413 81792.3594 50128.0898    48.0536    -0.0289
  583.5000     8.6294     5.5772     4.4206   985.4723   668.3625   796.6218     8.0546    -0.0069     0.2580     2.9625    -0.0215     3.4413 78800.9297 50306.8047    48.1909    -0.0279
