# Exported from Transform Software 5.2.0 on 30-Oct-2019 by user kathryn.gehrke
# DI Transform - A Product of Drillinginfo, Inc. - www.drillinginfo.com
#
~VERSION INFORMATION
 VERS.        2.0 : LAS ASCII STANDARD - VERSION 2.0
 WRAP.         NO : ONE LINE PER DEPTH STEP

~WELL INFORMATION
#MNEM.UNIT       DATA TYPE       INFORMATION
#---------       ---------       -----------
 STRT.ft                  40 : Start Depth
 STOP.ft                9358 : Stop Depth
 STEP.ft                 0.5 : Step Length
 NULL.               -999.25 : Null Value
 COMP.                       : Company
 WELL.  42109330610000_API14 : Well Name
 FLD.                        : Field Name
 LOC.                        : Well Location
 CNTY.                       : County
 STAT.                       : State or Province
 CTRY.                       : Country
 SRVC.                       : Service Company
 DATE.                       : Date
 API.         42109330610000 : Well Identifier

~CURVE INFORMATION
#MNEM.UNIT       API CODE       CURVE DESCRIPTION
#---------       --------       -----------------
 DEPT.ft        : <Measured Depth>
 DT.us/ft       : Sonic
 GR.gAPI        : Gamma Ray

~PARAMETER INFORMATION
#MNEM.UNIT       VALUE       DESCRIPTION
#---------       -----       -----------
 EKB.ft      3200.5 : Elevation above MSL

~A      DEPT          DT          GR
# ...
        3729    241.7427     42.3246
      3729.5    256.3445     42.0842
        3730    271.7319     41.4581
      3730.5    280.0464     41.6032
        3731    282.7655     42.2293
      3731.5    282.7655     42.7102
        3732    282.7655      42.901
      3732.5     279.072     40.5916
        3733    272.4868     37.0799
      3733.5    259.8186     33.9078
        3734    246.2776     34.1979
      3734.5    237.3888     35.8317
        3735    233.8677     33.4728
      3735.5    234.6693     33.8618
        3736    235.4709     35.8317
      3736.5    236.2725     34.5798
        3737    236.2725     33.1402
      3737.5    236.7592     37.8049
        3738    237.8758     41.9886
      3738.5    237.8758     43.0461
        3739    238.6774     41.6988
      3739.5    240.2806     41.2671
        3740    241.5686     42.8056
      3740.5    241.3974     41.1686
        3741    239.7942     35.3944
      3741.5    240.7669     31.5987
        3742    248.7106     31.6478
      3742.5    262.9094     32.4649
        3743    274.4341     34.0526
      3743.5    272.6602     34.4845
        3744    265.6035     32.3202
      3744.5    266.6609      32.033
        3745    274.2035     34.5335
      3745.5    280.8467      32.416
        3746    282.7655     29.0493
      3746.5    282.7655     28.6172
        3747    282.7655     29.0982
      3747.5    281.9639     29.5322
        3748    281.9639     30.9262
      3748.5    282.7655     31.8393
        3749    282.7655      30.156
      3749.5    281.9639     28.6172
        3750    281.1623     29.4833
      3750.5    281.9639     31.2625
        3751    282.4494     32.2731
      3751.5    282.7655     34.7738
        3752    282.7655     36.0235
      3752.5    281.9639     32.3677
        3753    282.7655      30.637
      3753.5    281.9639     32.5135
        3754    281.9639     33.0419
      3754.5    282.7655      31.214
        3755    282.2804     27.9433
      3755.5    281.9639     25.4425
        3756    281.9639     22.6052
      3756.5    281.9639     24.0005
        3757    282.7655     29.3878
      3757.5    282.2806     32.8982
        3758    281.9639     33.9561
      3758.5    282.7655     36.3609
        3759    282.7655     38.3808
      3759.5    282.7655     38.0921
        3760    282.7655     35.6873
      3760.5    282.7655     35.3507
        3761    282.7655      36.409
      3761.5    282.7655     37.1302
        3762    282.7655     34.9178
      3762.5    282.7655     33.1383
        3763    282.7655     31.8397
      3763.5    281.9639     30.7335
        3764    278.8326     29.5792
      3764.5    269.6893     29.7234
        3765    257.3481     30.6853
      3765.5    245.8836     31.5509
        3766    239.7964     33.3306
      3766.5    237.3916     34.2446
        3767    237.8758     32.5134
      3767.5    237.8758     30.6374
        3768    237.0741     29.3872
      3768.5    239.9629     27.4148
        3769    249.9072     27.9435
      3769.5    265.9392     29.9637
        3770    278.6817     30.5411
      3770.5    281.9639     30.0601
        3771    281.9639     29.9637
      3771.5    281.9639     29.4351
        3772    281.9639     28.6172
      3772.5    282.7655     29.5303
        3773    282.7655     34.2909
      3773.5    282.7655     36.2651
        3774    282.7655     31.7925
      3774.5    283.5671     28.1363
        3775    283.0837     29.6266
      3775.5    282.7655      31.022
        3776    283.5671     31.7909
      3776.5    283.5671     34.6274
        3777    283.5671      36.697
      3777.5    282.7655      34.919
        3778    280.6792     30.1587
      3778.5    272.7401     28.1363
        3779    266.2504     29.0016
      3779.5    268.0181      29.723
        3780    275.5561     30.8287
      3780.5    281.6453     33.1369
        3781    283.5671     35.4474
      3781.5    279.6365     33.7169
        3782    267.6853     31.2154
      3782.5    253.0198     31.4063
        3783    242.2027     31.5997
      3783.5    240.2806     29.2447
        3784    240.2806     25.0598
      3784.5    241.5647     23.1829
        3785     243.487     23.5173
      3785.5    244.2886     28.1832
        3786     244.771     31.4531
      3786.5     248.779     34.8198
        3787     251.503     37.1777
      3787.5     251.503     38.5238
        3788     255.674      37.515
      3788.5     270.585     38.1396
        3789    280.0413     36.8939
      3789.5    277.2327     33.6673
        3790    266.2485     34.8662
      3790.5    252.8624     39.9665
        3791    240.7599     41.2192
      3791.5    236.5922     39.2953
        3792    235.4709     37.4685
      3792.5    240.6837     33.8147
        3793     252.309     31.0725
      3793.5    269.4623     29.5327
        3794    280.0409     28.8577
      3794.5    282.7655     29.0982
        3795    278.8366     29.1952
      3795.5    265.8494     27.5119
        3796    249.8175      25.588
      3796.5    238.9974     24.7695
        3797     235.791     26.4992
      3797.5    242.1257     28.6172
        3798    255.8346     28.9548
      3798.5    272.1856     28.1363
        3799    273.5462     30.0092
      3799.5     258.315     31.6463
        3800    241.9635     33.6673
      3800.5    237.5553     33.6673
        3801    246.3734     35.6373
      3801.5    262.8864     38.3798
        3802    277.2348     39.6333
      3802.5    281.4829     36.5071
        3803    273.6272     34.1483
      3803.5    260.3208     34.2915
        3804    244.7698     34.3428
      3804.5    237.3949     32.3217
        3805    237.0741     34.5779
      3805.5    236.7533     38.9065
        3806    241.0016     42.4678
      3806.5    254.2273     43.0461
        3807    270.4197     41.3169
      3807.5    280.0397     36.9425
        3808    282.7655     35.3507
      3808.5    282.7655     37.3203
        3809    282.7655     39.7768
      3809.5    282.7655     36.0326
        3810    279.0787     29.3905
      3810.5    267.8579     27.6553
        3811    251.1851     28.7603
      3811.5    238.3578     31.0676
        3812    235.7923     32.3675
      3812.5    237.0741      31.074
        3813    237.0741     28.8577
      3813.5    236.2725     29.7221
        3814    234.1893     30.4436
      3814.5    233.0661     32.5103
        3815    233.5461     34.9605
      3815.5    242.1211     36.1697
        3816    258.3111     35.2078
      3816.5     273.945     34.7268
        3817    280.8405     32.9006
      3817.5    281.9639     31.2173
        3818    281.9639     30.9244
      3818.5    281.9639     33.7577
        3819    281.4843     38.0863
      3819.5     276.596     39.9198
        3820    264.9765     39.6794
      3820.5    251.1846     41.1673
        3821     247.495     43.1889
      3821.5    252.6229     42.3773
        3822    257.1142     38.0937
      3822.5    254.2301     36.7936
        3823    247.8173     38.2365
      3823.5    243.0078     36.6059
        3824     239.479     32.9988
      3824.5    240.2806     32.1267
        3825    240.2806      34.291
      3825.5     239.479     35.4934
        3826    237.0741     36.3126
      3826.5    234.6693     35.4486
        3827     233.545     34.7271
      3827.5    239.9526     35.6359
        3828    256.1405      37.515
      3828.5    273.0574     37.3724
        3829    282.4427     35.8317
      3829.5    280.4443     34.4867
        3830    269.2277     30.5052
      3830.5    251.4311     28.6172
        3831     237.481     29.8642
      3831.5    233.0661     30.1581
        3832    233.0661     28.3768
      3832.5    233.5446     29.1427
        3833    235.4709      31.405
      3833.5    236.7509     29.6328
        3834    237.5524     28.1363
      3834.5    237.3975     29.0001
        3835    236.2725     29.5792
      3835.5    235.4709     28.6172
        3836    233.3896      28.902
      3836.5    232.2645     30.2025
        3837    231.4629     30.7816
