###############################################
##         ENVERUS                           ##
##         ESS - Open Hole                   ##
##         PERMIAN / DELAWARE                ##
##         Nov 03 2023  V4.0                 ##
##         42-109-32507-90-00                ##
###############################################
## Copyright 2017-2023  ENVERUS.  All Rights Reserved. 
## Confidential - Property of ENVERUS, use governed by terms and 
## conditions found within the existing Information Services Subscription Agreement 
## (as may be amended, the “ISSA”) between Customer and ENVERUS. 
## 
~VERSION INFORMATION
# MNEM.UNIT                               DATA : DESCRIPTION OF MNEMONIC
#-----.-----     ----------------------------- : -----------------------------
VERS.                                     2.00 : CWLS LOG ASCII STANDARD - VERSION 2.00
WRAP.                                       NO : MULTIPLE LINES PER DEPTH STEP
VEND.                                  ENVERUS : VENDOR
TYPE.                          ESS - OPEN HOLE : ENVERUS ESSENTIAL CURVES – ACCESSIBLE THROUGH ENVERUS PRISM(TM)
DOC.                                  51094130 : ENVERUS HEADER RAW DOCUMENT ID
#___________________________________________________________________________________________________ 
~WELL INFORMATION 
# OeTAuI96vYP/1gAnXdiC+b2e5mg9bdq0rVS4GA6NX+ctg1PKQ5RhcqUsdOd2aOUDNf5EtC5635oDT1THDUi6iw== 
# MNEM.UNIT                                              DATA : DESCRIPTION OF MNEMONIC 
#-----.-----                    ----------------------------- : ----------------------------- 
CNTY.                                               CULBERSON : COUNTY 
STATE.                                                  TEXAS : STATE 
CNTRY.                                                    USA : COUNTRY 
API.                                             42-109-32507 : API (10 Digit) 
API_14.                                    42-109-32507-90-00 : API (14 Digits) 
API_14_std.                                 42-109-32507-9000 : API (14 Digits Standard) 
UWI.                                           42109325079000 : UNIQUE WELL ID 
WELL.                               42109325070000_PREV_API14 : WELL NAME
STRT.FT                                                2104.5 : START DEPTH
STOP.FT                                                9085.0 : STOP DEPTH
STEP.FT                                                   0.5 : STEP BETWEEN DEPTHS
NULL.                                                 -999.25 : NULL VALUE
PREV_APII.                                     42109325070000 : WELL IDENTIFIER
#___________________________________________________________________________________________________ 
~PARAMETER INFORMATION 
# MNEM.UNIT                                              DATA : DESCRIPTION OF MNEMONIC 
#-----.-----                    ----------------------------- : ----------------------------- 
EKB.FT                                                 3578.5 : ELEVATION ABOVE MSL
#___________________________________________________________________________________________________ 
~CURVE INFORMATION 
# MNEM.UNIT           : CURVE DESCRIPTION 
#-----.-----          : ----------------------------- 
 DEPT.FT               : MEASURED DEPTH 
 GR__A.API             : GAMMA RAY (GAMMA RAY) 
 DT__A.US/FT           : SONIC DELTA TRANSIT TIME (SONIC) 
 #___________________________________________________________________________________________________ 
~A         DEPT          GR__A          DT__A
# ...
         6715.5        134.244         88.509
         6716.0        137.609         89.192
         6716.5        152.977         91.135
         6717.0        164.867         92.844
         6717.5        156.247         93.281
         6718.0        150.170         95.138
         6718.5        164.533         95.618
         6719.0        176.120         97.212
         6719.5        173.872         99.966
         6720.0        154.294        115.236
         6720.5        136.556        129.347
         6721.0        128.642        127.562
         6721.5        148.467        112.631
         6722.0        173.183        104.945
         6722.5        180.985        102.434
         6723.0        165.750        103.561
         6723.5        141.627        110.643
         6724.0        108.314        119.216
         6724.5        101.588        122.143
         6725.0        116.492        120.960
         6725.5        148.766        110.931
         6726.0        176.333        105.562
         6726.5        180.392        103.508
         6727.0        175.427        102.234
         6727.5        173.340        100.432
         6728.0        160.134        102.344
         6728.5        145.019        107.442
         6729.0        121.494        112.069
         6729.5        125.059        111.343
         6730.0        149.098        108.861
         6730.5        160.828        108.861
         6731.0        181.925        109.056
         6731.5        186.988        108.326
         6732.0        187.270        103.738
         6732.5        182.488         99.463
         6733.0        176.998         99.457
         6733.5        181.526        101.021
         6734.0        183.413        103.320
         6734.5        181.061        103.836
         6735.0        187.622        102.678
         6735.5        206.751        101.598
         6736.0        209.568        102.198
         6736.5        195.140        103.985
         6737.0        186.967        103.227
         6737.5        185.185        102.438
         6738.0        184.400        103.800
         6738.5        176.557        109.894
         6739.0        170.009        111.977
         6739.5        175.284        111.752
         6740.0        196.375        106.472
         6740.5        217.111        104.739
         6741.0        229.145        102.378
         6741.5        240.940        101.222
         6742.0        244.491        100.926
         6742.5        232.472        100.993
         6743.0        231.410         94.053
         6743.5        267.551         91.072
         6744.0        325.602         91.407
         6744.5        339.975         97.550
         6745.0        302.755        101.071
         6745.5        240.584        101.071
         6746.0        222.030         97.664
         6746.5        221.647         96.305
         6747.0        224.798         98.560
         6747.5        231.092         99.822
         6748.0        233.679        100.996
         6748.5        228.752        103.429
         6749.0        222.413        106.105
         6749.5        214.382        108.172
         6750.0        207.524        109.886
         6750.5        202.811        107.692
         6751.0        197.661        108.082
         6751.5        202.591        106.919
         6752.0        206.571        104.216
         6752.5        204.207        103.775
         6753.0        202.484        107.363
         6753.5        203.141        115.973
         6754.0        186.786        121.319
         6754.5        173.682        123.077
         6755.0        168.564        121.315
         6755.5        162.146        119.164
         6756.0        160.270        118.580
         6756.5        170.125        118.038
         6757.0        167.088        120.140
         6757.5        156.387        118.634
         6758.0        151.337        119.675
         6758.5        142.985        121.006
         6759.0        130.302        125.769
         6759.5        121.519        132.362
         6760.0        121.378        127.881
         6760.5        129.523        125.954
         6761.0        133.368        124.364
         6761.5        135.118        124.051
         6762.0        131.207        127.476
         6762.5        120.897        130.605
         6763.0        114.030        132.425
         6763.5        114.832        125.780
         6764.0        118.659        118.041
         6764.5        122.225        106.794
         6765.0        125.393        105.479
         6765.5        122.356        108.276
         6766.0        114.020        113.864
         6766.5        109.714        123.089
         6767.0        107.012        128.120
         6767.5         99.175        143.140
         6768.0         82.053        149.618
         6768.5         81.578        147.752
         6769.0        108.781        143.795
         6769.5        152.450        132.274
         6770.0        199.584        115.106
         6770.5        213.849        108.269
         6771.0        215.786        108.866
         6771.5        230.287        107.196
         6772.0        237.406        103.592
         6772.5        233.853         92.567
         6773.0        235.783         93.186
         6773.5        237.092         96.481
         6774.0        216.697         94.806
         6774.5        182.767         95.626
         6775.0        166.804        108.608
         6775.5        187.792         83.595
         6776.0        205.344        130.959
         6776.5        174.767        131.583
         6777.0        126.922        118.981
         6777.5        110.572        100.768
         6778.0        110.103         95.813
         6778.5        115.030         94.667
         6779.0        130.469         89.526
         6779.5        152.640         96.891
         6780.0        155.348        108.770
         6780.5        142.598        116.231
         6781.0        120.220        115.045
         6781.5        108.529        104.874
         6782.0        113.554         88.192
         6782.5        129.924         83.366
         6783.0        158.560         84.503
         6783.5        164.133         86.855
         6784.0        157.256         84.239
         6784.5        155.166         81.246
         6785.0        157.050         77.150
         6785.5        157.895         72.117
         6786.0        159.413         69.521
         6786.5        157.535         76.017
         6787.0        154.413         80.777
         6787.5        156.715         78.879
         6788.0        164.917         72.636
         6788.5        159.592         67.356
         6789.0        142.647         65.044
         6789.5        137.272         68.133
         6790.0        146.913         75.002
         6790.5        152.075         81.742
         6791.0        148.011         83.133
         6791.5        132.963         86.552
         6792.0        127.875         81.742
         6792.5        134.750         75.894
         6793.0        149.271         79.133
         6793.5        161.979         85.245
         6794.0        177.144         94.523
         6794.5        174.612        109.063
         6795.0        152.373        115.177
         6795.5        142.120        115.347
         6796.0        144.925        111.491
         6796.5        154.569        101.841
         6797.0        165.062         98.452
         6797.5        167.479        107.579
         6798.0        168.421        110.733
         6798.5        164.842        111.003
         6799.0        145.460        110.939
         6799.5        133.955        114.114
         6800.0        135.179        112.093
         6800.5        137.140        107.392
         6801.0        144.976        108.471
         6801.5        156.587        108.471
         6802.0        160.624        108.637
