###############################################
##         ENVERUS                           ##
##         ESS - Open Hole                   ##
##         PERMIAN / DELAWARE                ##
##         Nov 03 2023  V4.0                 ##
##         42-109-32978-00-00                ##
###############################################
## Copyright 2017-2023  ENVERUS.  All Rights Reserved. 
## Confidential - Property of ENVERUS, use governed by terms and 
## conditions found within the existing Information Services Subscription Agreement 
## (as may be amended, the “ISSA”) between Customer and ENVERUS. 
## 
~VERSION INFORMATION
# MNEM.UNIT                               DATA : DESCRIPTION OF MNEMONIC
#-----.-----     ----------------------------- : -----------------------------
VERS.                                     2.00 : CWLS LOG ASCII STANDARD - VERSION 2.00
WRAP.                                       NO : MULTIPLE LINES PER DEPTH STEP
VEND.                                  ENVERUS : VENDOR
TYPE.                          ESS - OPEN HOLE : ENVERUS ESSENTIAL CURVES – ACCESSIBLE THROUGH ENVERUS PRISM(TM)
DOC.                                  43644371 : ENVERUS HEADER RAW DOCUMENT ID
#___________________________________________________________________________________________________ 
~WELL INFORMATION 
# sF+t5dzO8TjfhJXm5BhYJSGKqyGjnVcKAr1GJS+XHP+EILfiOmlFF7qBSMjafOrEHsreRpz+nmfYFwcq0MlVOA== 
# MNEM.UNIT                                              DATA : DESCRIPTION OF MNEMONIC 
#-----.-----                    ----------------------------- : ----------------------------- 
CNTY.                                               CULBERSON : COUNTY 
STATE.                                                  TEXAS : STATE 
CNTRY.                                                    USA : COUNTRY 
API.                                             42-109-32978 : API (10 Digit) 
API_14.                                    42-109-32978-00-00 : API (14 Digits) 
API_14_std.                                 42-109-32978-0000 : API (14 Digits Standard) 
UWI.                                           42109329780000 : UNIQUE WELL ID 
WELL.                                    42109329780000_API14 : WELL NAME
STRT.FT                                                 179.0 : START DEPTH
STOP.FT                                                9893.5 : STOP DEPTH
STEP.FT                                                   0.5 : STEP BETWEEN DEPTHS
NULL.                                                 -999.25 : NULL VALUE
#___________________________________________________________________________________________________ 
~PARAMETER INFORMATION 
# MNEM.UNIT                                              DATA : DESCRIPTION OF MNEMONIC 
#-----.-----                    ----------------------------- : ----------------------------- 
EKB.FT                                                   3282 : ELEVATION ABOVE MSL
#___________________________________________________________________________________________________ 
~CURVE INFORMATION 
# MNEM.UNIT           : CURVE DESCRIPTION 
#-----.-----          : ----------------------------- 
 DEPT.FT               : MEASURED DEPTH 
 GR.API                : GAMMA RAY (GAMMA RAY) 
 DT.US/FT              : SONIC DELTA TRANSIT TIME (SONIC) 
 #___________________________________________________________________________________________________ 
~A         DEPT             GR             DT
# ...
         7922.0         36.351        277.994
         7922.5         36.769        277.994
         7923.0         36.169        277.994
         7923.5         34.665        277.994
         7924.0         34.680        277.994
         7924.5         36.031        277.994
         7925.0         39.069        277.994
         7925.5         40.256        277.994
         7926.0         38.000        277.994
         7926.5         36.085        277.994
         7927.0         37.064        277.994
         7927.5         39.276        277.994
         7928.0         38.440        277.994
         7928.5         37.172        277.994
         7929.0         36.351        277.994
         7929.5         36.769        277.994
         7930.0         37.536        277.994
         7930.5         39.431        277.994
         7931.0         41.806        279.129
         7931.5         43.489        280.223
         7932.0         43.355        280.223
         7932.5         42.269        280.223
         7933.0         40.282        280.223
         7933.5         37.365        280.223
         7934.0         35.249        279.868
         7934.5         34.680        277.994
         7935.0         33.912        277.994
         7935.5         31.507        277.994
         7936.0         28.815        277.995
         7936.5         28.679        277.994
         7937.0         30.183        277.994
         7937.5         28.582        277.994
         7938.0         26.140        277.994
         7938.5         25.070        277.994
         7939.0         25.488        277.994
         7939.5         24.970        277.994
         7940.0         24.234        277.994
         7940.5         26.755        277.994
         7941.0         30.750        277.994
         7941.5         34.511        277.994
         7942.0         36.868        277.994
         7942.5         37.254        277.994
         7943.0         36.952        277.994
         7943.5         37.605        277.994
         7944.0         40.076        277.994
         7944.5         42.519        277.994
         7945.0         41.014        277.994
         7945.5         37.890        277.994
         7946.0         34.663        277.994
         7946.5         33.844        277.994
         7947.0         35.506        277.994
         7947.5         38.339        277.994
         7948.0         39.877        277.994
         7948.5         40.513        277.994
         7949.0         40.111        277.994
         7949.5         39.593        277.994
         7950.0         37.914        277.994
         7950.5         35.866        277.994
         7951.0         34.028        277.994
         7951.5         32.591        277.994
         7952.0         30.150        277.994
         7952.5         25.654        277.994
         7953.0         21.986        277.994
         7953.5         21.335        277.994
         7954.0         22.563        277.994
         7954.5         22.145        277.994
         7955.0         19.804        277.994
         7955.5         17.549        277.994
         7956.0         18.628        277.994
         7956.5         21.770        277.994
         7957.0         25.062        277.994
         7957.5         26.741        277.994
         7958.0         26.557        277.994
         7958.5         25.470        277.994
         7959.0         23.548        277.994
         7959.5         23.499        277.994
         7960.0         25.004        277.994
         7960.5         26.508        277.994
         7961.0         26.306        277.994
         7961.5         23.847        277.994
         7962.0         21.208        277.994
         7962.5         19.704        277.994
         7963.0         19.823        277.994
         7963.5         20.038        277.994
         7964.0         19.638        277.994
         7964.5         21.303        277.994
         7965.0         22.211        277.994
         7965.5         21.727        277.994
         7966.0         19.593        277.994
         7966.5         17.967        277.994
         7967.0         18.904        277.994
         7967.5         22.124        277.994
         7968.0         26.995        278.552
         7968.5         29.266        278.552
         7969.0         29.666        278.552
         7969.5         30.603        279.109
         7970.0         32.845        279.109
         7970.5         35.793        280.470
         7971.0         38.041        281.337
         7971.5         38.171        280.780
         7972.0         36.667        280.780
         7972.5         37.859        280.780
         7973.0         41.109        281.337
         7973.5         43.473        281.337
         7974.0         43.603        279.864
         7974.5         43.138        278.552
         7975.0         43.454        278.081
         7975.5         41.713        277.437
         7976.0         40.511        277.437
         7976.5         39.694        277.437
         7977.0         39.276        277.437
         7977.5         38.923        276.967
         7978.0         39.880        276.880
         7978.5         40.947        277.437
         7979.0         39.363        277.437
         7979.5         35.677        277.437
         7980.0         34.615        277.437
         7980.5         35.098        277.437
         7981.0         33.607        277.437
         7981.5         32.321        277.437
         7982.0         30.974        277.437
         7982.5         30.084        277.437
         7983.0         27.946        277.437
         7983.5         27.397        277.437
         7984.0         31.446        277.437
         7984.5         36.920        277.437
         7985.0         40.851        277.437
         7985.5         42.014        277.437
         7986.0         42.638        277.437
         7986.5         43.724        277.437
         7987.0         44.811        277.437
         7987.5         44.354        277.437
         7988.0         41.921        277.994
         7988.5         40.549        277.994
         7989.0         41.365        277.994
         7989.5         45.224        277.994
         7990.0         50.638        278.552
         7990.5         51.112        278.552
         7991.0         47.354        278.552
         7991.5         42.225        278.552
         7992.0         41.781        278.552
         7992.5         43.454        278.552
         7993.0         44.059        278.552
         7993.5         42.568        278.552
         7994.0         39.705        278.552
         7994.5         36.928        278.552
         7995.0         35.098        278.552
         7995.5         34.680        278.552
         7996.0         33.824        278.552
         7996.5         31.286        278.552
         7997.0         28.048        278.552
         7997.5         27.513        278.552
         7998.0         30.668        278.552
         7998.5         34.960        278.552
         7999.0         38.293        278.552
         7999.5         36.718        278.552
         8000.0         34.680        278.552
         8000.5         35.285        278.552
         8001.0         38.731        278.552
         8001.5         44.613        278.552
         8002.0         47.215        278.552
         8002.5         49.533        278.552
         8003.0         49.972        278.552
         8003.5         48.468        278.552
         8004.0         45.502        278.552
         8004.5         41.261        278.552
         8005.0         40.529        278.552
         8005.5         40.717        278.552
         8006.0         41.804        278.552
         8006.5         41.793        278.552
         8007.0         40.007        278.552
         8007.5         37.374        278.552
         8008.0         34.909        278.552
         8008.5         34.262        278.552
