~Version Information
 VERS.                  2.0:   CWLS log ASCII Standard -VERSION 2.0
 WRAP.                   NO:   One line per depth step
~Well Information Block
#MNEM.UNIT     VALUE/NAME     DESCRIPTION
#---------     -----------    ---------------------------
 STRT.F              8683.0000: START DEPTH
 STOP.F             14089.5000: STOP DEPTH
 STEP.F                 0.5000: STEP DEPTH
 NULL.                 -999.25: NULL VALUE
 LOC .       API  42-109-32906:  LOCATION
 FL1 .       API  42-109-32906:  LOCATIONLINE1
 DMF .                      KB:  DRILL MEAS FROM
 PDAT.                      GL:  PERMANENT DATUM
 PROV.                   TEXAS:  PROVINCE
 STAT.                   TEXAS:  STATE NAME
 CNTY.               CULBERSON:  COUNTY NAME
 LUL .                  ODESSA:  LOGGINGUNITLOC
 FLD .     FORD, WEST (WOLFCAMP):  FIELD NAME
 WELL.     SHELLY FEE 40 No. 2H:  WELL NAME
 COMP.     CAPITAN ENERGY, INC.:  COMPANY
 DATE.             08-Jun-2018:  DATE
 SVCO.             Halliburton:  SERVICECONAME
 HIDE.                        :  WELLNAMEOPERAT
 BASI.                   BACIA:  BASIN
 UWI .            42-109-32906Lat:  UNIQUE WELL IDENTIFIER
 API .            42-109-32906Lat:  API NUMBER
 RANG.                     N/A:  RANGE
 TOWN.                     N/A:  TOWNSHIP
 SECT.                     N/A:  SECTION
 SON .               902848974:  JOB NUMBER
 CTRY.                        :  COUNTRY
 SRVC.             Halliburton:  SERVICE COMPANY
 LMF .                      KB:  LOG MEASURED FROM
 BAP .ft                0.0000:  GL ELEV ONSHORE
 GVFD.g                 1.0000:  GRAVITY FIELD
~Curve Information Block
#MNEM.UNIT                 API CODE     Curve Description
#---------               -----------    ---------------------------
 DEPT.F                 00 000 000 000:  Depth
 CCL .mV                00 000 000 000:  Casing Collar Locator
 DTC_CHI.uspf           00 000 000 000:  DTC_CHI
 DTC_OH.uspf            00 000 000 000:  DTC_OH
 GR_CHI.api             00 000 000 000:  GR_CHI
 GR_OH.api              00 000 000 000:  GR_OH
 LLD_CHI.ohmm           00 000 000 000:  LLD_CHI
 LLD_OH.ohmm            00 000 000 000:  LLD_OH
 LLS_CHI.ohmm           00 000 000 000:  LLS_CHI
 LLS_OH.ohmm            00 000 000 000:  LLS_OH
 MSFL_CHI.ohmm          00 000 000 000:  MSFL_CHI
 MSFL_OH.ohmm           00 000 000 000:  MSFL_OH
 NPHI_CHI.pu            00 000 000 000:  NPHI_CHI
 NPHI_OH.pu             00 000 000 000:  NPHI_OH
 PE_CHI.b/e             00 000 000 000:  PE_CHI
 PE_OH.NONE             00 000 000 000:  Pe_OH
 RHOB_CHI.g/cc          00 000 000 000:  RHOB_CHI
 RHOB_OH.g/cc           00 000 000 000:  RHOB_OH
 SPHI_CHI.pu            00 000 000 000:  SPHI_CHI
#Other Information
#
#WARRANTY: Halliburton will use its best efforts to furnish customers with 
#accurate information and interpretations that are part of, and incident to, the services 
#provided.  However, Halliburton cannot and does not warrant the accuracy 
#or correctness of such information and interpretations.  Under no circumstances should any 
#such information or interpretation be relied upon as the sole basis for any drilling, 
#completion, production, or financial decision or any procedure involving any risk to the 
#safety of any drilling venture, drilling rig or its crew or any other third party.  The 
#Customer has full responsibility for all drilling, completion and production operation.  
#Halliburton makes no representations or warranties, either expressed or 
#implied, including, but not limited to, the implied warranties of merchantability or fitness 
#for a particular purpose, with respect to the services rendered.  In no event will 
#Halliburton be liable for failure to obtain any particular results or for 
#any damages, including, but not limited to, indirect, special or consequential damages, 
#resulting from the use of any information or interpretation provided by Halliburton.
#
~A    DEPT       CCL    DTC_CHI DTC_OH   GR_CHI   GR_OH   LLD_CHI   LLD_OH   LLS_CHI   LLS_OH   MSFL_CHI  MSFL_OH     NPHI_CHI   NPHI_OH   PE_CHI    PE_OH   RHOB_CHI  RHOB_OH SPHI_CHI 
# ...
   10113.0000  -34.2127 62.5806 -999.25  68.0445  -999.25 121.7712   -999.25 110.3348   -999.25  62.1799    -999.25       5.0666 -999.25     4.5527 -999.25     2.6702 -999.25 10.5900
   10113.5000    0.0000 62.5814 -999.25  71.2245  -999.25 117.4838   -999.25 106.1873   -999.25  60.3866    -999.25       5.0678 -999.25     4.5101 -999.25     2.6690 -999.25 10.6000
   10114.0000    0.0000 62.3873 -999.25  71.1616  -999.25 114.8128   -999.25 103.1996   -999.25  59.5151    -999.25       4.8899 -999.25     4.4835 -999.25     2.6710 -999.25 10.4600
   10114.5000   37.4756 62.3211 -999.25  71.6523  -999.25 113.2173   -999.25 101.5321   -999.25  58.9146    -999.25       4.8338 -999.25     4.4677 -999.25     2.6715 -999.25 10.4100
   10115.0000    0.0000 62.7501 -999.25  76.6014  -999.25 111.2625   -999.25 100.6598   -999.25  57.8037    -999.25       5.2284 -999.25     4.4640 -999.25     2.6652 -999.25 10.7100
   10115.5000    0.0000 62.8330 -999.25  76.7923  -999.25 111.6070   -999.25 101.2084   -999.25  57.7451    -999.25       5.3424 -999.25     4.4717 -999.25     2.6650 -999.25 10.7700
   10116.0000  -26.9113 63.4510 -999.25  80.7368  -999.25 111.2700   -999.25 102.4926   -999.25  57.1272    -999.25       5.9822 -999.25     4.5060 -999.25     2.6584 -999.25 11.2100
   10116.5000    0.0000 63.3693 -999.25  74.3542  -999.25 116.9288   -999.25 108.0251   -999.25  59.2379    -999.25       5.9949 -999.25     4.5693 -999.25     2.6636 -999.25 11.1500
   10117.0000   20.9963 63.6049 -999.25  81.2317  -999.25 112.1363   -999.25 103.6948   -999.25  57.0635    -999.25       6.1947 -999.25     4.5154 -999.25     2.6574 -999.25 11.3200
   10117.5000    0.0000 63.8103 -999.25  85.5467  -999.25 107.5720   -999.25  99.7623   -999.25  55.1803    -999.25       6.4229 -999.25     4.4899 -999.25     2.6538 -999.25 11.4600
   10118.0000   21.7139 63.4219 -999.25  82.7330  -999.25 104.8490   -999.25  96.3803   -999.25  54.4001    -999.25       6.1121 -999.25     4.4680 -999.25     2.6602 -999.25 11.1900
   10118.5000    0.0000 63.3962 -999.25  83.9037  -999.25  99.9691   -999.25  91.8297   -999.25  52.8081    -999.25       6.1203 -999.25     4.4529 -999.25     2.6609 -999.25 11.1700
   10119.0000   11.5752 63.4002 -999.25  84.9837  -999.25  94.1392   -999.25  86.5483   -999.25  51.0101    -999.25       6.1532 -999.25     4.4462 -999.25     2.6616 -999.25 11.1700
   10119.5000   10.1865 63.5199 -999.25  84.9725  -999.25  90.8518   -999.25  83.9749   -999.25  50.1088    -999.25       6.2977 -999.25     4.4676 -999.25     2.6618 -999.25 11.2600
   10120.0000  -29.9150 63.3292 -999.25  77.1950  -999.25  92.9167   -999.25  86.0980   -999.25  51.3926    -999.25       6.1871 -999.25     4.5347 -999.25     2.6696 -999.25 11.1200
   10120.5000  -17.8506 63.4050 -999.25  75.5691  -999.25  93.1731   -999.25  86.7356   -999.25  51.6613    -999.25       6.2871 -999.25     4.5662 -999.25     2.6704 -999.25 11.1800
   10121.0000  -70.0681 64.0573 -999.25  87.0752  -999.25  89.0524   -999.25  83.7208   -999.25  49.5836    -999.25       6.8650 -999.25     4.5237 -999.25     2.6564 -999.25 11.6400
   10121.5000    0.0000 64.0239 -999.25  89.2990  -999.25  87.6680   -999.25  82.1304   -999.25  48.9661    -999.25       6.8059 -999.25     4.4937 -999.25     2.6551 -999.25 11.6200
   10122.0000    0.0000 63.9362 -999.25  90.3885  -999.25  88.0017   -999.25  82.0598   -999.25  48.9507    -999.25       6.6858 -999.25     4.4672 -999.25     2.6546 -999.25 11.5500
   10122.5000    0.0000 63.9509 -999.25  93.7398  -999.25  89.9704   -999.25  83.5229   -999.25  49.3132    -999.25       6.6130 -999.25     4.4281 -999.25     2.6505 -999.25 11.5600
   10123.0000  -21.0900 63.9447 -999.25  93.5896  -999.25  95.4122   -999.25  88.3916   -999.25  50.9114    -999.25       6.5620 -999.25     4.4228 -999.25     2.6491 -999.25 11.5600
   10123.5000    0.0000 63.5898 -999.25  86.0896  -999.25 101.2466   -999.25  93.3274   -999.25  53.0993    -999.25       6.2650 -999.25     4.4539 -999.25     2.6570 -999.25 11.3100
   10124.0000  -22.9559 63.2802 -999.25  80.2642  -999.25 103.0289   -999.25  94.5575   -999.25  53.7441    -999.25       6.0932 -999.25     4.4726 -999.25     2.6648 -999.25 11.0900
   10124.5000    0.0000 63.1469 -999.25  73.7059  -999.25 103.7380   -999.25  95.4838   -999.25  54.2517    -999.25       6.1206 -999.25     4.5268 -999.25     2.6722 -999.25 10.9900
   10125.0000    0.0000 63.4159 -999.25  79.2130  -999.25  99.3552   -999.25  91.7499   -999.25  52.2862    -999.25       6.4250 -999.25     4.4919 -999.25     2.6669 -999.25 11.1900
   10125.5000    0.0000 63.7335 -999.25  85.1083  -999.25  95.1444   -999.25  88.2332   -999.25  50.3282    -999.25       6.8082 -999.25     4.4590 -999.25     2.6609 -999.25 11.4100
   10126.0000   18.0387 64.0994 -999.25  92.2493  -999.25  90.9751   -999.25  84.7354   -999.25  48.3640    -999.25       7.2394 -999.25     4.4224 -999.25     2.6533 -999.25 11.6700
   10126.5000    0.0000 64.0477 -999.25  92.3854  -999.25  89.0748   -999.25  82.8246   -999.25  47.6176    -999.25       7.2688 -999.25     4.4104 -999.25     2.6544 -999.25 11.6300
   10127.0000  -23.4671 63.8200 -999.25  90.1347  -999.25  89.1502   -999.25  82.3996   -999.25  47.4675    -999.25       7.1377 -999.25     4.3931 -999.25     2.6585 -999.25 11.4700
   10127.5000    0.0000 63.8565 -999.25  92.9275  -999.25  87.7293   -999.25  80.8399   -999.25  46.5247    -999.25       7.2585 -999.25     4.3548 -999.25     2.6564 -999.25 11.5000
   10128.0000    0.0000 63.6790 -999.25  91.1376  -999.25  89.1445   -999.25  81.6199   -999.25  46.5472    -999.25       7.1924 -999.25     4.3250 -999.25     2.6589 -999.25 11.3700
   10128.5000    0.0000 63.5578 -999.25  88.3221  -999.25  89.2959   -999.25  81.4636   -999.25  46.1570    -999.25       7.2743 -999.25     4.3032 -999.25     2.6619 -999.25 11.2900
   10129.0000    0.0000 63.2100 -999.25  80.8376  -999.25  90.4460   -999.25  81.8320   -999.25  45.8882    -999.25       7.2560 -999.25     4.2672 -999.25     2.6690 -999.25 11.0400
   10129.5000  -44.0818 63.9604 -999.25  89.3187  -999.25  84.6335   -999.25  77.1598   -999.25  42.8593    -999.25       8.3689 -999.25     4.1730 -999.25     2.6528 -999.25 11.5700
   10130.0000    0.0000 64.0719 -999.25  89.7715  -999.25  81.6103   -999.25  73.8662   -999.25  40.7518    -999.25       8.8396 -999.25     4.0533 -999.25     2.6463 -999.25 11.6500
   10130.5000    0.0000 64.1784 -999.25  89.2878  -999.25  76.9994   -999.25  68.9014   -999.25  37.8354    -999.25       9.3510 -999.25     3.8809 -999.25     2.6373 -999.25 11.7200
   10131.0000   13.4384 64.9405 -999.25 100.1170  -999.25  68.7212   -999.25  60.8554   -999.25  33.3575    -999.25      10.4965 -999.25     3.6349 -999.25     2.6115 -999.25 12.2600
   10131.5000    0.0000 65.3564 -999.25 100.2210  -999.25  64.9985   -999.25  57.5703   -999.25  31.5721    -999.25      11.1679 -999.25     3.5294 -999.25     2.5997 -999.25 12.5600
   10132.0000    0.0000 65.1590 -999.25  91.9595  -999.25  59.4194   -999.25  52.1609   -999.25  28.9773    -999.25      11.1755 -999.25     3.4075 -999.25     2.5998 -999.25 12.4200
   10132.5000    0.0000 65.7128 -999.25  95.0325  -999.25  54.7202   -999.25  47.9993   -999.25  26.9118    -999.25      12.0261 -999.25     3.2923 -999.25     2.5853 -999.25 12.8100
   10133.0000  -38.9271 66.0858 -999.25  93.1808  -999.25  51.7192   -999.25  45.4827   -999.25  25.7077    -999.25      12.6780 -999.25     3.2261 -999.25     2.5772 -999.25 13.0700
   10133.5000    0.0000 66.0213 -999.25  88.9904  -999.25  47.9991   -999.25  41.9971   -999.25  24.2310    -999.25      12.9545 -999.25     3.1675 -999.25     2.5775 -999.25 13.0300
   10134.0000  -15.5122 66.3316 -999.25  95.0934  -999.25  42.2114   -999.25  36.3934   -999.25  21.6425    -999.25      13.7659 -999.25     3.0309 -999.25     2.5664 -999.25 13.2500
   10134.5000   30.0367 66.5434 -999.25  98.3656  -999.25  39.2556   -999.25  33.4896   -999.25  20.3899    -999.25      14.4891 -999.25     2.9562 -999.25     2.5599 -999.25 13.4000
