###############################################
##         ENVERUS                           ##
##         ESS - Open Hole                   ##
##         PERMIAN / DELAWARE                ##
##         Nov 03 2023  V4.0                 ##
##         42-109-32507-90-00                ##
###############################################
## Copyright 2017-2023  ENVERUS.  All Rights Reserved. 
## Confidential - Property of ENVERUS, use governed by terms and 
## conditions found within the existing Information Services Subscription Agreement 
## (as may be amended, the “ISSA”) between Customer and ENVERUS. 
## 
~VERSION INFORMATION
# MNEM.UNIT                               DATA : DESCRIPTION OF MNEMONIC
#-----.-----     ----------------------------- : -----------------------------
VERS.                                     2.00 : CWLS LOG ASCII STANDARD - VERSION 2.00
WRAP.                                       NO : MULTIPLE LINES PER DEPTH STEP
VEND.                                  ENVERUS : VENDOR
TYPE.                          ESS - OPEN HOLE : ENVERUS ESSENTIAL CURVES – ACCESSIBLE THROUGH ENVERUS PRISM(TM)
DOC.                                  51094130 : ENVERUS HEADER RAW DOCUMENT ID
#___________________________________________________________________________________________________ 
~WELL INFORMATION 
# OeTAuI96vYP/1gAnXdiC+b2e5mg9bdq0rVS4GA6NX+ctg1PKQ5RhcqUsdOd2aOUDNf5EtC5635oDT1THDUi6iw== 
# MNEM.UNIT                                              DATA : DESCRIPTION OF MNEMONIC 
#-----.-----                    ----------------------------- : ----------------------------- 
CNTY.                                               CULBERSON : COUNTY 
STATE.                                                  TEXAS : STATE 
CNTRY.                                                    USA : COUNTRY 
API.                                             42-109-32507 : API (10 Digit) 
API_14.                                    42-109-32507-90-00 : API (14 Digits) 
API_14_std.                                 42-109-32507-9000 : API (14 Digits Standard) 
UWI.                                           42109325079000 : UNIQUE WELL ID 
WELL.                               42109325070000_PREV_API14 : WELL NAME
STRT.FT                                                2104.5 : START DEPTH
STOP.FT                                                9085.0 : STOP DEPTH
STEP.FT                                                   0.5 : STEP BETWEEN DEPTHS
NULL.                                                 -999.25 : NULL VALUE
PREV_APII.                                     42109325070000 : WELL IDENTIFIER
#___________________________________________________________________________________________________ 
~PARAMETER INFORMATION 
# MNEM.UNIT                                              DATA : DESCRIPTION OF MNEMONIC 
#-----.-----                    ----------------------------- : ----------------------------- 
EKB.FT                                                 3578.5 : ELEVATION ABOVE MSL
#___________________________________________________________________________________________________ 
~CURVE INFORMATION 
# MNEM.UNIT           : CURVE DESCRIPTION 
#-----.-----          : ----------------------------- 
 DEPT.FT               : MEASURED DEPTH 
 GR__A.API             : GAMMA RAY (GAMMA RAY) 
 DT__A.US/FT           : SONIC DELTA TRANSIT TIME (SONIC) 
 #___________________________________________________________________________________________________ 
~A         DEPT          GR__A          DT__A
# ...
         5758.5         59.648        160.169
         5759.0         61.100        161.523
         5759.5         59.770        164.955
         5760.0         61.341        167.217
         5760.5         66.370        165.033
         5761.0         70.175        161.480
         5761.5         75.330        155.932
         5762.0         89.068        153.367
         5762.5        101.954        152.195
         5763.0         86.490        152.743
         5763.5         78.943        155.131
         5764.0         68.390        156.101
         5764.5         68.701        157.665
         5765.0         73.409        156.340
         5765.5         84.539        152.184
         5766.0         89.941        153.285
         5766.5         98.038        152.313
         5767.0        114.829        145.808
         5767.5        129.013        143.315
         5768.0        133.812        141.860
         5768.5        143.017        138.603
         5769.0        168.748        131.569
         5769.5        198.352        121.962
         5770.0        202.732        122.091
         5770.5        163.309        125.597
         5771.0        132.948        126.777
         5771.5        138.899        127.367
         5772.0        145.442        128.450
         5772.5        138.358        137.380
         5773.0        122.714        144.883
         5773.5        109.983        146.013
         5774.0        105.193        144.544
         5774.5        104.996        144.653
         5775.0        110.594        143.265
         5775.5        132.926        137.653
         5776.0        150.069        129.730
         5776.5        191.144        115.715
         5777.0        210.666        111.642
         5777.5        206.465        114.103
         5778.0        200.661        118.258
         5778.5        182.496        122.268
         5779.0        184.364        124.237
         5779.5        190.695        129.524
         5780.0        180.687        137.660
         5780.5        124.014        148.889
         5781.0         86.320        158.052
         5781.5         77.599        159.299
         5782.0         75.767        158.586
         5782.5         72.952        158.849
         5783.0         69.895        162.126
         5783.5         67.546        165.481
         5784.0         64.717        166.461
         5784.5         67.862        164.333
         5785.0         75.672        164.769
         5785.5         78.820        160.016
         5786.0         73.180        156.757
         5786.5         62.851        161.052
         5787.0         55.580        163.855
         5787.5         56.914        166.113
         5788.0         63.176        164.540
         5788.5         71.179        160.745
         5789.0         71.689        159.478
         5789.5         67.751        159.104
         5790.0         65.107        160.508
         5790.5         64.717        161.669
         5791.0         64.405        161.675
         5791.5         68.672        161.374
         5792.0         74.882        158.639
         5792.5         83.686        157.685
         5793.0         87.205        157.352
         5793.5         81.291        157.546
         5794.0         73.705        157.231
         5794.5         71.194        156.900
         5795.0         77.563        155.179
         5795.5         87.695        152.358
         5796.0         88.889        150.245
         5796.5         91.376        145.828
         5797.0        108.852        142.127
         5797.5        131.834        140.088
         5798.0        144.825        135.689
         5798.5        150.087        130.245
         5799.0        165.388        124.009
         5799.5        184.272        118.690
         5800.0        178.659        118.352
         5800.5        159.036        121.085
         5801.0        133.419        120.935
         5801.5        122.484        124.796
         5802.0        116.959        126.165
         5802.5        116.959        131.440
         5803.0        127.880        135.290
         5803.5        131.364        137.463
         5804.0        116.967        141.277
         5804.5         98.801        144.890
         5805.0         95.734        141.663
         5805.5        109.161        135.245
         5806.0        129.882        127.537
         5806.5        162.653        112.520
         5807.0        186.655        102.992
         5807.5        193.019        100.945
         5808.0        183.540        110.081
         5808.5        165.011        117.453
         5809.0        169.214        121.736
         5809.5        176.069        125.077
         5810.0        177.448        126.876
         5810.5        174.413        128.796
         5811.0        186.466        128.102
         5811.5        224.928        120.601
         5812.0        271.524        112.309
         5812.5        366.763        100.275
         5813.0        455.794         93.180
         5813.5        480.541         94.965
         5814.0        442.181         97.484
         5814.5        376.912        104.085
         5815.0        306.745        109.404
         5815.5        240.793        112.919
         5816.0        229.865        114.060
         5816.5        227.502        116.155
         5817.0        219.560        117.994
         5817.5        213.290        118.368
         5818.0        221.372        117.075
         5818.5        248.958        114.927
         5819.0        227.782        118.332
         5819.5        203.155        122.077
         5820.0        193.348        122.310
         5820.5        246.942        117.700
         5821.0        304.642        107.403
         5821.5        336.887        110.091
         5822.0        306.020        120.030
         5822.5        233.549        126.766
         5823.0        163.325        132.666
         5823.5        198.167        122.069
         5824.0        261.668        108.516
         5824.5        324.824        104.530
         5825.0        330.118        112.773
         5825.5        271.708        125.053
         5826.0        213.372        122.954
         5826.5        249.139        113.875
         5827.0        349.718        104.818
         5827.5        351.799        115.606
         5828.0        265.419        134.132
         5828.5        203.287        146.320
         5829.0         83.504        154.032
         5829.5         66.544        152.432
         5830.0         75.155        150.221
         5830.5         88.874        149.283
         5831.0         92.782        150.457
         5831.5         77.265        150.730
         5832.0         58.622        151.120
         5832.5         51.251        151.905
         5833.0         42.824        155.282
         5833.5         41.666        157.936
         5834.0         57.423        157.395
         5834.5         67.219        149.715
         5835.0        117.763        135.091
         5835.5        173.386        125.957
         5836.0        252.646        121.938
         5836.5        258.344        121.596
         5837.0        223.764        123.069
         5837.5        198.108        121.230
         5838.0        215.689        116.438
         5838.5        253.032        109.014
         5839.0        399.468        103.259
         5839.5        466.832        111.437
         5840.0        420.424        121.741
         5840.5        296.431        130.644
         5841.0        201.261        137.233
         5841.5        161.715        140.671
         5842.0        129.068        143.186
         5842.5        106.233        147.658
         5843.0         85.282        148.783
         5843.5         76.143        147.008
         5844.0         95.412        136.122
         5844.5        115.051        127.569
         5845.0        264.218        112.426
