###############################################
##         ENVERUS                           ##
##         EPlus - Open Hole                 ##
##         PERMIAN / DELAWARE                ##
##         Copyright ©                       ##
##         Enverus Version - V4.0            ##
##         Sep 24 2024                       ##
##         42-109-32966-00-00                ##
###############################################
## Copyright 2017-2024  ENVERUS.  All Rights Reserved. 
## Confidential - Property of ENVERUS, use governed by terms and 
## conditions found within the existing Information Services Subscription Agreement 
## (as may be amended, the “ISSA”) between Customer and ENVERUS. 
## 
#___________________________________________________________________________________________________
~VERSION INFORMATION
# MNEM.UNIT                               DATA : DESCRIPTION OF MNEMONIC
#-----.-----     ----------------------------- : -----------------------------
VERS.                                     2.00 : CWLS LOG ASCII STANDARD - VERSION 2.00
WRAP.                                       NO : MULTIPLE LINES PER DEPTH STEP
VEND.                                  ENVERUS : VENDOR
ENV_TYPE.                    EPLUS - OPEN HOLE : Enverus Essential Plus Curves – Accessible through Enverus Core(TM)
ENV_VERS.                                 V4.0 : EPlus - Open Hole Version number 
ENV_DOC.                              56286132 : ENVERUS Header Document id
ENV_REF.                         UNITED_STATES : ENVERUS BASIN OR PLAY APPLIED REFERENCE LIMITS 
#___________________________________________________________________________________________________ 
~WELL INFORMATION 
# uyaQ8P8kQDJ9DXFS5hR1PxmExEOYaAUkY5f3/tnOS+scoPAUWgXA1zCIHGRbWCuSuUcwDzaESCjqjWQ81XhadA== 
# MNEM.UNIT                                              DATA : DESCRIPTION OF MNEMONIC 
#-----.-----                    ----------------------------- : ----------------------------- 
CNTY.                                               CULBERSON : COUNTY 
STATE.                                                  TEXAS : STATE 
CNTRY.                                                    USA : COUNTRY 
API.                                             42-109-32966 : API (10 Digit) 
API_14.                                    42-109-32966-00-00 : API (14 Digits) 
API_14_std.                                 42-109-32966-0000 : API (14 Digits Standard) 
UWI.                                           42109329660000 : UNIQUE WELL ID
STRT.FT                                                  8650 : START DEPTH
STOP.FT                                                 10430 : STOP DEPTH
STEP.FT                                                   0.5 : STEP DEPTH
NULL.                                               -999.2500 : NULL VALUE
WELL.                                    COTTONWOOD WEST 2202 : WELL NAME 
GR_ELEV.                                                 3579 : GROUND ELEVATION 
SLAT.                                               31.578474 : SURFACE LATITUDE 
SLONG.                                            -104.147646 : SURFACE LONGITUDE
#___________________________________________________________________________________________________ 
~CURVE INFORMATION 
# MNEM.UNIT           : CURVE DESCRIPTION 
#-----.-----          : ----------------------------- 
DEPT.FT               : MEASURED DEPTH 
CALI_E.IN             : ENVERUS CALIPER - CLEANED BLENDED AND LUMPED 
CALI_F.               : ENVERUS CALIPER - OUTLIER INDICATOR - 0=(IN BOUNDS) 1=(OUT OF BOUNDS) 2=(REPEATING) 
CALI_S.               : ENVERUS CALIPER - SOURCE INDICATOR 
CALI_U.               : ENVERUS CALIPER - OPTION INDICATOR - 0=(NO OPTION) 1=(OTHER OPTIONS) 
GR_E.API              : ENVERUS GAMMA RAY - CLEANED BLENDED AND LUMPED 
GR_F.                 : ENVERUS GAMMA RAY - OUTLIER INDICATOR - 0=(IN BOUNDS) 1=(OUT OF BOUNDS) 2=(REPEATING) 
GR_S.                 : ENVERUS GAMMA RAY - SOURCE INDICATOR 
GR_U.                 : ENVERUS GAMMA RAY - OPTION INDICATOR - 0=(NO OPTION) 1=(OTHER OPTIONS) 
DRHO_E.G/CC           : ENVERUS DENSITY CORRECTION  - CLEANED BLENDED AND LUMPED 
DRHO_F.               : ENVERUS DENSITY CORRECTION - OUTLIER INDICATOR - 0=(IN BOUNDS) 1=(OUT OF BOUNDS) 2=(REPEATING) 
DRHO_S.               : ENVERUS DENSITY CORRECTION - SOURCE INDICATOR 
DRHO_U.               : ENVERUS DENSITY CORRECTION - OPTION INDICATOR - 0=(NO OPTION) 1=(OTHER OPTIONS) 
RESS_LL_E.OHMM        : ENVERUS OPEN HOLE SHALLOW RESISTIVITY LATERAL LOG 
RESS_LL_F.            : ENVERUS OPEN HOLE SHALLOW RESISTIVITY LATERAL LOG - OUTLIER INDICATOR - 0=(IN BOUNDS) 1=(OUT OF BOUNDS) 2=(REPEATING) 
RESS_LL_S.            : ENVERUS OPEN HOLE SHALLOW RESISTIVITY LATERAL LOG - SOURCE INDICATOR 
RESS_LL_U.            : ENVERUS OPEN HOLE SHALLOW RESISTIVITY LATERAL LOG - OPTION INDICATOR - 0=(NO OPTION) 1=(OTHER OPTIONS) 
RESD_LL_E.OHMM        : ENVERUS OPEN HOLE DEEP RESISTIVITY LATERAL LOG 
RESD_LL_F.            : ENVERUS OPEN HOLE DEEP RESISTIVITY LATERAL LOG - OUTLIER INDICATOR - 0=(IN BOUNDS) 1=(OUT OF BOUNDS) 2=(REPEATING) 
RESD_LL_S.            : ENVERUS OPEN HOLE DEEP RESISTIVITY LATERAL LOG - SOURCE INDICATOR 
RESD_LL_U.            : ENVERUS OPEN HOLE DEEP RESISTIVITY LATERAL LOG - OPTION INDICATOR - 0=(NO OPTION) 1=(OTHER OPTIONS) 
NPHI_E.V/V            : ENVERUS NEUTRON POROSITY - CLEANED BLENDED AND LUMPED 
NPHI_F.               : ENVERUS NEUTRON POROSITY - OUTLIER INDICATOR - 0=(IN BOUNDS) 1=(OUT OF BOUNDS) 2=(REPEATING) 
NPHI_S.               : ENVERUS NEUTRON POROSITY - SOURCE INDICATOR 
NPHI_U.               : ENVERUS NEUTRON POROSITY - OPTION INDICATOR - 0=(NO OPTION) 1=(OTHER OPTIONS) 
RHOB_E.G/CC           : ENVERUS BULK DENSITY - CLEANED BLENDED AND LUMPED 
RHOB_F.               : ENVERUS BULK DENSITY - OUTLIER INDICATOR - 0=(IN BOUNDS) 1=(OUT OF BOUNDS) 2=(REPEATING) 
RHOB_S.               : ENVERUS BULK DENSITY - SOURCE INDICATOR 
RHOB_U.               : ENVERUS BULK DENSITY - OPTION INDICATOR - 0=(NO OPTION) 1=(OTHER OPTIONS) 
DPHI_265_E.V/V        : ENVERUS DENSITY POROSITY WITH MATRIX OF 2.65 G/CC - CLEANED BLENDED AND LUMPED 
DPHI_271_E.V/V        : ENVERUS DENSITY POROSITY WITH MATRIX OF 2.71 G/CC  - CLEANED BLENDED AND LUMPED 
DPHI_F.               : ENVERUS DENSITY POROSITY - OUTLIER INDICATOR - 0=(IN BOUNDS) 1=(OUT OF BOUNDS) 2=(REPEATING) 
DPHI_S.               : ENVERUS DENSITY POROSITY - SOURCE INDICATOR 
DPHI_U.               : ENVERUS DENSITY POROSITY - OPTION INDICATOR - 0=(NO OPTION) 1=(OTHER OPTIONS) 
PE_E.B/E              : ENVERUS PHOTOELECTRIC - CLEANED BLENDED AND LUMPED 
PE_F.                 : ENVERUS PHOTOELECTRIC - OUTLIER INDICATOR - 0=(IN BOUNDS) 1=(OUT OF BOUNDS) 2=(REPEATING) 
PE_S.                 : ENVERUS PHOTOELECTRIC - SOURCE INDICATOR 
PE_U.                 : ENVERUS PHOTOELECTRIC - OPTION INDICATOR - 0=(NO OPTION) 1=(OTHER OPTIONS) 
DT_E.US/FT            : ENVERUS SONIC TRAVEL TIME - CLEANED BLENDED AND LUMPED 
DT_F.                 : ENVERUS SONIC TRAVEL TIME - OUTLIER INDICATOR - 0=(IN BOUNDS) 1=(OUT OF BOUNDS) 2=(REPEATING) 
DT_S.                 : ENVERUS SONIC TRAVEL TIME - SOURCE INDICATOR 
DT_U.                 : ENVERUS SONIC TRAVEL TIME - OPTION INDICATOR - 0=(NO OPTION) 1=(OTHER OPTIONS)
#___________________________________________________________________________________________________ 
~A         DEPT         CALI_E         CALI_F         CALI_S         CALI_U           GR_E           GR_F           GR_S           GR_U         DRHO_E         DRHO_F         DRHO_S         DRHO_U      RESS_LL_E      RESS_LL_F      RESS_LL_S      RESS_LL_U      RESD_LL_E      RESD_LL_F      RESD_LL_S      RESD_LL_U         NPHI_E         NPHI_F         NPHI_S         NPHI_U         RHOB_E         RHOB_F         RHOB_S         RHOB_U     DPHI_265_E     DPHI_271_E         DPHI_F         DPHI_S         DPHI_U           PE_E           PE_F           PE_S           PE_U           DT_E           DT_F           DT_S           DT_U
# ...
       10346.50          8.617           0.00           0.00           0.00       -999.250        -999.25        -999.25        -999.25        0.01610           0.00           0.00           0.00       138.5701           0.00           0.00           0.00        96.5181           0.00           0.00           0.00     -999.25000        -999.25        -999.25        -999.25        2.62005           2.00         271.00           0.00        0.01810        0.05260           2.00         271.00           0.00         3.3732           0.00           0.00           0.00       64.84200           0.00           0.00           0.00
       10347.00          8.626           0.00           0.00           0.00       -999.250        -999.25        -999.25        -999.25        0.01810           0.00           0.00           0.00       182.3461           0.00           0.00           0.00       127.7778           0.00           0.00           0.00     -999.25000        -999.25        -999.25        -999.25        2.62005           2.00         271.00           0.00        0.01810        0.05260           2.00         271.00           0.00         3.3114           0.00           0.00           0.00       61.61800           0.00           0.00           0.00
       10347.50          8.635           0.00           0.00           0.00       -999.250        -999.25        -999.25        -999.25        0.01880           0.00           0.00           0.00       226.1221           0.00           0.00           0.00       159.0375           0.00           0.00           0.00     -999.25000        -999.25        -999.25        -999.25        2.62005           2.00         271.00           0.00        0.01810        0.05260           2.00         271.00           0.00         3.3242           0.00           0.00           0.00       59.24600           0.00           0.00           0.00
       10348.00          8.640           0.00           0.00           0.00       -999.250        -999.25        -999.25        -999.25        0.01670           0.00           0.00           0.00       279.8341           0.00           0.00           0.00       179.9640           0.00           0.00           0.00     -999.25000        -999.25        -999.25        -999.25        2.62005           2.00         271.00           0.00        0.01810        0.05260           2.00         271.00           0.00         3.3389           0.00           0.00           0.00       58.54500           0.00           0.00           0.00
       10348.50          8.640           0.00           0.00           0.00       -999.250        -999.25        -999.25        -999.25        0.01510           0.00           0.00           0.00       279.6653           0.00           0.00           0.00       184.4733           0.00           0.00           0.00     -999.25000        -999.25        -999.25        -999.25        2.62005           2.00         271.00           0.00        0.01810        0.05260           2.00         271.00           0.00         3.3506           0.00           0.00           0.00       59.86800           0.00           0.00           0.00
       10349.00          8.637           0.00           0.00           0.00       -999.250        -999.25        -999.25        -999.25        0.01450           0.00           0.00           0.00       267.9818           0.00           0.00           0.00       171.8814           0.00           0.00           0.00     -999.25000        -999.25        -999.25        -999.25        2.62074           2.00         271.00           0.00        0.01770        0.05220           2.00         271.00           0.00         3.4273           0.00           0.00           0.00       61.56700           0.00           0.00           0.00
       10349.50       -999.250        -999.25        -999.25        -999.25       -999.250        -999.25        -999.25        -999.25        0.01520           0.00           0.00           0.00       239.6974           0.00           0.00           0.00       156.3900           0.00           0.00           0.00     -999.25000        -999.25        -999.25        -999.25        2.63100           0.00         271.00           0.00        0.01150        0.04620           0.00         271.00           0.00         3.5041           0.00           0.00           0.00       63.24500           0.00           0.00           0.00
       10350.00       -999.250        -999.25        -999.25        -999.25       -999.250        -999.25        -999.25        -999.25        0.01920           0.00           0.00           0.00       211.4130           0.00           0.00           0.00       140.8985           0.00           0.00           0.00     -999.25000        -999.25        -999.25        -999.25        2.64656           0.00         271.00           0.00        0.00210        0.03710           0.00         271.00           0.00         3.6012           0.00           0.00           0.00       64.07200           0.00           0.00           0.00
       10350.50       -999.250        -999.25        -999.25        -999.25       -999.250        -999.25        -999.25        -999.25        0.02160           0.00           0.00           0.00       183.1286           0.00           0.00           0.00       125.4071           0.00           0.00           0.00     -999.25000        -999.25        -999.25        -999.25        2.64468           0.00         271.00           0.00        0.00320        0.03820           0.00         271.00           0.00         3.6201           0.00           0.00           0.00       63.77900           0.00           0.00           0.00
       10351.00       -999.250        -999.25        -999.25        -999.25       -999.250        -999.25        -999.25        -999.25        0.02900           0.00           0.00           0.00       171.6544           0.00           0.00           0.00       122.0635           0.00           0.00           0.00     -999.25000        -999.25        -999.25        -999.25        2.63254           0.00         271.00           0.00        0.01060        0.04530           0.00         271.00           0.00         3.5997           0.00           0.00           0.00       62.83000           0.00           0.00           0.00
       10351.50       -999.250        -999.25        -999.25        -999.25       -999.250        -999.25        -999.25        -999.25     -999.25000        -999.25        -999.25        -999.25       176.1569           0.00           0.00           0.00       121.4767           0.00           0.00           0.00     -999.25000        -999.25        -999.25        -999.25     -999.25000        -999.25        -999.25        -999.25     -999.25000     -999.25000        -999.25        -999.25           0.00      -999.2500        -999.25        -999.25        -999.25       62.34400           0.00           0.00           0.00
       10352.00       -999.250        -999.25        -999.25        -999.25       -999.250        -999.25        -999.25        -999.25     -999.25000        -999.25        -999.25        -999.25       181.9009           0.00           0.00           0.00       120.7704           0.00           0.00           0.00     -999.25000        -999.25        -999.25        -999.25     -999.25000        -999.25        -999.25        -999.25     -999.25000     -999.25000        -999.25        -999.25           0.00      -999.2500        -999.25        -999.25        -999.25       62.99800           0.00           0.00           0.00
       10352.50       -999.250        -999.25        -999.25        -999.25       -999.250        -999.25        -999.25        -999.25     -999.25000        -999.25        -999.25        -999.25       186.4292           0.00           0.00           0.00       120.0641           0.00           0.00           0.00     -999.25000        -999.25        -999.25        -999.25     -999.25000        -999.25        -999.25        -999.25     -999.25000     -999.25000        -999.25        -999.25           0.00      -999.2500        -999.25        -999.25        -999.25       63.70300           0.00           0.00           0.00
