~VERSION INFORMATION
VERS. 2.0 : CWLS Log ASCII Standard - version 2.0
WRAP.  NO : One line per depth step
#--------------------------------------------------#
#----------------DRILLING INFO, INC.---------------#
#---------------WWW.DRILLINGINFO.COM---------------#
#------------------COPYRIGHT 2015------------------#
#--------------------------------------------------#
#THIS FILE MAY BE USED ONLY IN ACCORDANCE WITH A CURRENT SUBSCRIPTION AGREEMENT BETWEEN
#THE USER AND DRILLING INFO, INC. NO PART OF THIS FILE MAY BE REPRODUCED, USED, COPIED,
#MODIFIED, PROPAGATED, OR DISTRIBUTED EXCEPT IN ACCORDANCE WITH THE SUBSCRIPTION
#AGREEMENT. UNAUTHORIZED USE OR DISTRIBUTION OF ALL OR ANY PART OF THIS FILE MAY VIOLATE
#COPYRIGHT, TRADEMARK, AND/OR OTHER LAWS AND IS SUBJECT TO CIVIL AS WELL AS CRIMINAL
#SANCTIONS.
#--------------------------------------------------#
#THIS FILE IS PROVIDED "AS-IS" AND ALL WARRANTIES ARE EXPRESSLY DISCLAIMED, WHETHER
#EXPRESS, ORAL, IMPLIED, STATUTORY OR OTHERWISE, INCLUDING ANY IMPLIED WARRANTY OF FITNESS
#FOR A PARTICULAR PURPOSE, MERCHANTABILITY, TITLE OR NON-INFRINGEMENT, AND ANY WARRANTIES
#ARISING BY VIRTUE OF CUSTOM OF TRADE OR COURSE OF DEALING.  FURTHER, DRILLING INFO,
#INC. AND ITS LICENSORS DO NOT REPRESENT OR WARRANT THAT THIS FILE WILL MEET USER'S
#REQUIREMENTS OR ARE SUITABLE FOR USER'S NEEDS OR THAT THE DATA OR RESULTS PROVIDED IN
#CONJUNCTION THEREWITH ARE CORRECT, ACCURATE, TIMELY OR RELIABLE. THESE DISCLAIMERS SHALL
#APPLY REGARDLESS OF ANY FAILURE OF ESSENTIAL PURPOSE OF ANY LIMITED REMEDY.  SOME
#JURISDICTIONS DO NOT ALLOW THE EXCLUSION OF CERTAIN WARRANTIES SO SOME OF THE ABOVE
#EXCLUSIONS MAY NOT APPLY. IN NO EVENT SHALL DRILLING INFO, INC. OR ANY OF ITS AFFILIATES
#BE LIABLE UNDER ANY LEGAL THEORY, WHETHER IN TORT (INCLUDING WITHOUT LIMITATION
#NEGLIGENCE), CONTRACT, STRICT LIABILITY, STATUTORY OR OTHERWISE, FOR ANY SPECIAL,
#INCIDENTAL, CONSEQUENTIAL, EXEMPLARY, PUNITIVE OR INDIRECT DAMAGE OF ANY KIND, INCLUDING
#WITHOUT LIMITATION LOSS OF REVENUE, PROFITS, GOODWILL, USE, AND/OR DATA OR THE COST OF
#PROCUREMENT OF SUBSTITUTE GOODS OR SERVICES, EVEN IF APPRISED OF THE POSSIBILITY OF SUCH
#DAMAGES IN ADVANCE.
#--------------------------------------------------#
~WELL INFORMATION
#MNEMONIC     .UNIT              VALUE :DESCRIPTION
#--------------------------------------------------#
STRT       .FT                181 :START DEPTH
STOP       .FT                12231 :STOP DEPTH
STEP       .FT                   0.500 :STEP
NULL       .                  -999.250 :NULL
API        .                421093228700 :API NUMBER
COMP       .         CHESAPEAKE OPERATING  INC. :COMPANY
WELL       .        UNIVERSITY LANDS 4627  1 :WELL
DATE       .                06-May-2007 :LOG DATE
~CURVE INFORMATION
#MNEMONIC     .UNIT      API CODE :CURVE DESCRIPTION
#--------------------------------------------------#
DEPTH       .FT                      :Measured Depth
ILS.OHM        UNKNOWN   :ILS
GR.API        UNKNOWN   :GR
ILD.OHM        UNKNOWN   :ILD
CAL.INCH        UNKNOWN   :CAL
DT.US/FT        UNKNOWN   :DT
~A    DEPTH    ILS    GR    ILD    CAL    DT
# ...
 5000.5     144.875   68.848   145.304   11.261   -999.250
 5001     159.461   63.677   140.254   11.297   -999.250
 5001.5     240.174   52.209   170.212   11.332   -999.250
 5002     451.491   46.929   355.204   11.368   -999.250
 5002.5     349.639   50.3   279.401   11.404   -999.250
 5003     206.7   59.452   142.232   11.431   -999.250
 5003.5     148.722   70.185   137.197   11.423   -999.250
 5004     181.063   80.992   137.962   11.416   -999.250
 5004.5     401.628   91.97   272.413   11.408   -999.250
 5005     125.388   99.608   193.85   11.4   -999.250
 5005.5     288.919   101.147   270.566   11.393   -999.250
 5006     511.252   100.92   581.658   11.385   -999.250
 5006.5     660.336   98.946   669.052   11.377   -999.250
 5007     668.154   93.047   673.51   11.37   -999.250
 5007.5     675.972   82.051   676.947   11.362   -999.250
 5008     673.889   61.4   670.719   11.354   -999.250
 5008.5     667.631   41.475   664.492   11.347   -999.250
 5009     613.552   29.201   658.264   11.339   -999.250
 5009.5     569.179   22.772   596.679   11.331   -999.250
 5010     602.536   20.903   599.157   11.282   -999.250
 5010.5     589.963   21.646   650.494   11.226   -999.250
 5011     467.598   29.362   546.862   11.17   -999.250
 5011.5     506.033   35.664   557.64   11.115   -999.250
 5012     418.149   43.9   393.602   11.059   -999.250
 5012.5     103.237   54.43   139.26   11.003   -999.250
 5013     82.948   67.986   79.12   10.948   -999.250
 5013.5     93.051   77.831   97.212   10.912   -999.250
 5014     96.747   82.295   103.004   10.923   -999.250
 5014.5     78.47   86.759   82.48   10.933   -999.250
 5015     63.963   91.223   61.956   10.944   -999.250
 5015.5     54.35   89.054   46.746   10.954   -999.250
 5016     47.362   81.088   44.602   10.964   -999.250
 5016.5     47.362   73.122   44.793   10.975   -999.250
 5017     42.974   68.317   38.831   10.985   -999.250
 5017.5     42.477   67.657   39.014   10.996   -999.250
 5018     55.394   67.769   52.608   11.006   -999.250
 5018.5     86.09   67.139   97.525   11.013   -999.250
 5019     116.787   65.511   142.442   11.016   -999.250
 5019.5     158.093   64.739   187.359   11.019   -999.250
 5020     164.266   67.402   217.921   11.022   -999.250
 5020.5     127.947   80.078   160.437   11.025   -999.250
 5021     91.627   89.463   102.953   11.029   -999.250
 5021.5     131.426   87.308   118.231   11.032   -999.250
 5022     179.159   86.875   217.905   11.035   -999.250
 5022.5     126.039   91.004   145.495   11.038   -999.250
 5023     59.567   95.133   65.438   11.041   -999.250
 5023.5     50.378   89.334   53.714   11.044   -999.250
 5024     56.169   74.216   55.359   11.047   -999.250
 5024.5     210.249   50.33   168.884   11.051   -999.250
 5025     477.107   45.459   407.894   11.054   -999.250
 5025.5     391.351   48.691   427.646   11.057   -999.250
 5026     128.609   72.298   135.246   11.06   -999.250
 5026.5     106.383   82.744   114.132   11.063   -999.250
 5027     109.589   90.035   117.01   11.066   -999.250
 5027.5     110.151   89.448   119.888   11.069   -999.250
 5028     110.151   85.775   122.767   11.073   -999.250
 5028.5     126.424   82.101   126.1   11.084   -999.250
 5029     146.09   78.994   148.603   11.14   -999.250
 5029.5     152.665   78.369   159.519   11.197   -999.250
 5030     145.025   77.743   153.086   11.253   -999.250
 5030.5     110.26   75.426   109.031   11.309   -999.250
 5031     85.037   72.426   86.348   11.366   -999.250
 5031.5     94.768   69.543   86.908   11.401   -999.250
 5032     73.249   67.614   71.284   11.375   -999.250
 5032.5     48.457   67.661   41.994   11.35   -999.250
 5033     38.777   69.752   35.497   11.324   -999.250
 5033.5     39.098   71.842   34.642   11.299   -999.250
 5034     39.355   74.898   34.549   11.864   -999.250
 5034.5     39.051   79.471   34.455   12.36   -999.250
 5035     41.895   84.162   36.062   12.414   -999.250
 5035.5     65.567   86.234   54.475   12.49   -999.250
 5036     83.782   80.331   79.699   13.968   -999.250
 5036.5     75.355   67.416   60.867   14.002   -999.250
 5037     129.565   57.527   129.274   14.036   -999.250
 5037.5     211.711   56.914   198.822   14.07   -999.250
 5038     171.666   63.568   164.814   14.104   -999.250
 5038.5     128   69.816   115.663   12.292   -999.250
 5039     122.57   68.303   120.717   12.099   -999.250
 5039.5     179.83   57.588   181.664   11.945   -999.250
 5040     520.333   44.74   532.27   11.948   -999.250
 5040.5     683.655   34.002   697.296   11.952   -999.250
 5041     560.425   32.78   574.732   11.956   -999.250
 5041.5     534.827   46.839   517.396   11.959   -999.250
 5042     285.063   58.276   313.524   11.963   -999.250
 5042.5     84.452   69.353   105.087   11.967   -999.250
 5043     58.096   79.752   70.322   11.943   -999.250
 5043.5     51.492   81.807   51.506   11.852   -999.250
 5044     70.333   77.862   62.543   11.76   -999.250
 5044.5     158.145   64.115   179.024   11.668   -999.250
 5045     287.135   53.019   306.868   11.438   -999.250
 5045.5     346.74   52.003   365.372   10.824   -999.250
 5046     115.326   60.415   135.854   10.648   -999.250
 5046.5     103.329   68.857   103.012   10.602   -999.250
 5047     161.236   58.23   117.276   10.601   -999.250
 5047.5     339.079   49.392   351.216   10.601   -999.250
 5048     653.832   45.109   648.403   10.6   -999.250
 5048.5     614.905   49.964   486.035   10.599   -999.250
 5049     291.646   59.406   197.276   10.598   -999.250
 5049.5     194.318   64.638   182.85   10.598   -999.250
 5050     170.861   68.873   203.356   10.597   -999.250
 5050.5     93.764   74.05   120.346   10.596   -999.250
 5051     53.444   74.707   56.893   10.595   -999.250
 5051.5     53.444   61.471   53.353   10.595   -999.250
 5052     156.843   54.842   83.57   10.594   -999.250
 5052.5     405.952   49.466   373.519   10.593   -999.250
 5053     740.256   48.362   766.429   10.592   -999.250
 5053.5     455.441   53.506   480.097   10.592   -999.250
 5054     90.981   62.38   167.136   10.591   -999.250
 5054.5     90.981   66.956   91.825   10.59   -999.250
 5055     114.336   65.321   109.533   10.63   -999.250
 5055.5     106.965   69.208   101.911   10.678   -999.250
 5056     56.438   76.711   56.449   10.725   -999.250
 5056.5     37.34   86.238   35.264   10.772   -999.250
 5057     31.816   95.765   32.252   10.82   -999.250
 5057.5     31.993   100.548   30.403   10.867   -999.250
 5058     33.234   100.35   29.933   10.915   -999.250
 5058.5     33.338   99.496   29.666   10.962   -999.250
 5059     33.442   99.46   30.57   11.009   -999.250
 5059.5     37.218   100.435   31.474   11.057   -999.250
 5060     37.218   99.875   32.005   11.101   -999.250
 5060.5     35.966   99.066   31.377   11.094   -999.250
 5061     36.453   99.997   30.748   11.087   -999.250
 5061.5     36.939   102.713   31.717   11.08   -999.250
 5062     36.46   105.892   34.277   11.073   -999.250
 5062.5     45.555   109.072   49.153   11.066   -999.250
 5063     65.076   109.636   60.367   11.098   -999.250
 5063.5     68.593   109.637   62.198   11.163   -999.250
 5064     70.267   109.086   64.028   11.228   -999.250
 5064.5     75.393   107.351   70.546   11.292   -999.250
 5065     87.234   104.428   84.719   11.253   -999.250
 5065.5     66.696   100.155   68.513   11.214   -999.250
 5066     57.452   88.338   56.982   11.175   -999.250
 5066.5     68.996   76.483   64.364   11.136   -999.250
 5067     104.722   64.623   206.646   11.097   -999.250
 5067.5     175.841   63.221   184.924   11.058   -999.250
 5068     119.362   71.408   104.522   11.02   -999.250
 5068.5     57.13   81.175   58.917   11.017   -999.250
 5069     119.517   79.74   105.694   11.055   -999.250
 5069.5     123.689   73.557   115.37   11.093   -999.250
 5070     76.584   73.11   56.127   11.131   -999.250
 5070.5     39.373   78.049   37.978   11.162   -999.250
