~Version Information
 VERS.                  2.0:   CWLS log ASCII Standard -VERSION 2.0
 WRAP.                   NO:   One line per depth step
~Well Information Block
#MNEM.UNIT     VALUE/NAME     DESCRIPTION
#---------     -----------    ---------------------------
 STRT.F              8830.0000: START DEPTH
 STOP.F             14230.0000: STOP DEPTH
 STEP.F                 0.5000: STEP DEPTH
 NULL.                 -999.25: NULL VALUE
 LOC .       API  42-109-33374Lat:  LOCATION
 FL1 .       API  42-109-33374Lat:  LOCATIONLINE1
 DMF .                      KB:  DRILL MEAS FROM
 PDAT.                      GL:  PERMANENT DATUM
 CTRY.                     USA:  COUNTRY NAME
 CNTY.               CULBERSON:  COUNTY NAME
 FLD .     FORD, WEST (WOLFCAMP):  FIELD NAME
 WELL.        MOTHER FEE 28 4H:  WELL NAME
 COMP.          CAPITAN ENERGY:  COMPANY
 DATE.             02-May-2019:  DATE
 SVCO.             Halliburton:  SERVICECONAME
 PROV.                   TEXAS:  PROVINCE
 STAT.                   TEXAS:  STATE NAME
 HIDE.                        :  WELLNAMEOPERAT
 BASI.                 PERMIAN:  BASIN
 UWI .            42-109-33374Lat:  UNIQUE WELL IDENTIFIER
 API .            42-109-33374Lat:  API NUMBER
 RANG.                     N/A:  RANGE
 TOWN.                     N/A:  TOWNSHIP
 SECT.                     N/A:  SECTION
 SON .               905631317:  JOB NUMBER
 SRVC.             Halliburton:  SERVICE COMPANY
 LMF .                      KB:  LOG MEASURED FROM
 BAP .ft                0.0000:  GL ELEV ONSHORE
 GVFD.g                 1.0000:  GRAVITY FIELD
~Curve Information Block
#MNEM.UNIT                 API CODE     Curve Description
#---------               -----------    ---------------------------
 DEPT.F                 00 000 000 000:  Depth
 CCL .V                 00 000 000 000:  Casing Collar Locator
 NPHI_OH.pu             00 000 000 000:  NPHI_OH
 NPHI_CHI.pu            00 000 000 000:  NPHI_CHI
 GR_OH.api              00 000 000 000:  GR_OH
 GR_CHI.api             00 000 000 000:  GR_CHI
 RHOB_OH.g/cc           00 000 000 000:  RHOB_OH
 RHOB_CHI.g/cc          00 000 000 000:  RHOB_CHI
 PE_OH.b/e              00 000 000 000:  PE_OH
 PE_CHI.b/e             00 000 000 000:  PE_CHI
 RT10_OH.ohmm           00 000 000 000:  RT10_OH
 RT10_CHI.ohmm          00 000 000 000:  RT10_CHI
 RT30_OH.ohmm           00 000 000 000:  RT30_OH
 RT30_CHI.ohmm          00 000 000 000:  RT30_CHI
 RT90_OH.ohmm           00 000 000 000:  RT90_OH
 RT90_CHI.ohmm          00 000 000 000:  RT90_CHI
 SPHI_CHI.pu            00 000 000 000:  SPHI_CHI
 DTC_CHI.uspf           00 000 000 000:  DTC_CHI
 DTC_OH.uspf            00 000 000 000:  DTC_OH
 SGF .cu                00 000 000 000:  Formation Sigma
 CRNF.NONE              00 000 000 000:  CM GrsCaptRatio
 RIN .NONE              00 000 000 000:  CM GrsInelRatio
#Other Information
#
#WARRANTY: Halliburton will use its best efforts to furnish customers with 
#accurate information and interpretations that are part of, and incident to, the services 
#provided.  However, Halliburton cannot and does not warrant the accuracy 
#or correctness of such information and interpretations.  Under no circumstances should any 
#such information or interpretation be relied upon as the sole basis for any drilling, 
#completion, production, or financial decision or any procedure involving any risk to the 
#safety of any drilling venture, drilling rig or its crew or any other third party.  The 
#Customer has full responsibility for all drilling, completion and production operation.  
#Halliburton makes no representations or warranties, either expressed or 
#implied, including, but not limited to, the implied warranties of merchantability or fitness 
#for a particular purpose, with respect to the services rendered.  In no event will 
#Halliburton be liable for failure to obtain any particular results or for 
#any damages, including, but not limited to, indirect, special or consequential damages, 
#resulting from the use of any information or interpretation provided by Halliburton.
#
~A    DEPT      CCL   NPHI_OH NPHI_CHI  GR_OH    GR_CHI  RHOB_OH RHOB_CHI  PE_OH  PE_CHI RT10_OH RT10_CHI RT30_OH RT30_CHI RT90_OH  RT90_CHI SPHI_CHI DTC_CHI DTC_OH    SGF    CRNF   RIN   
# ...
    9539.5000 17.4425 -999.25   9.5855  -999.25  55.1533 -999.25   2.5849 -999.25 3.2116 -999.25  70.9148 -999.25  72.8524  -999.25  77.5026  16.0200 70.2544 -999.25 22.4709 1.1693 1.2191
    9540.0000 17.4416 -999.25   9.4812  -999.25  57.1379 -999.25   2.5868 -999.25 3.2248 -999.25  72.1969 -999.25  74.1695  -999.25  78.9037  15.9100 70.0972 -999.25 22.1284 1.1859 1.2157
    9540.5000 17.4686 -999.25   9.2402  -999.25  58.8075 -999.25   2.5933 -999.25 3.2710 -999.25  73.6525 -999.25  75.6648  -999.25  80.4945  15.6100 69.6705 -999.25 22.0316 1.2236 1.2129
    9541.0000 17.4094 -999.25   8.9715  -999.25  60.3282 -999.25   2.6002 -999.25 3.3168 -999.25  74.7246 -999.25  76.7663  -999.25  81.6662  15.2700 69.1904 -999.25 22.0562 1.2654 1.2134
    9541.5000 17.4466 -999.25   8.9517  -999.25  62.3311 -999.25   2.6024 -999.25 3.3392 -999.25  75.2997 -999.25  77.3571  -999.25  82.2948  15.2200 69.1267 -999.25 22.3626 1.2963 1.2170
    9542.0000 17.4602 -999.25   9.4014  -999.25  64.8060 -999.25   2.5976 -999.25 3.3411 -999.25  75.3262 -999.25  77.3843  -999.25  82.3237  15.7100 69.8123 -999.25 22.4837 1.2740 1.2163
    9542.5000 17.4426 -999.25  10.2193  -999.25  66.6416 -999.25   2.5853 -999.25 3.3031 -999.25  75.0257 -999.25  77.0756  -999.25  81.9953  16.6300 71.1195 -999.25 22.3658 1.2188 1.2109
    9543.0000 17.4423 -999.25  10.9163  -999.25  67.4581 -999.25   2.5763 -999.25 3.2872 -999.25  75.2813 -999.25  77.3381  -999.25  82.2746  17.3900 72.1964 -999.25 21.7052 1.1531 1.2006
    9543.5000 17.4646 -999.25  11.0904  -999.25  67.1251 -999.25   2.5728 -999.25 3.2789 -999.25  76.8819 -999.25  78.9825  -999.25  84.0240  17.6200 72.5134 -999.25 20.6847 1.1101 1.1936
    9544.0000 17.4626 -999.25  10.3048  -999.25  65.3919 -999.25   2.5779 -999.25 3.2643 -999.25  80.3863 -999.25  82.5826  -999.25  87.8538  16.8700 71.4609 -999.25 19.8644 1.0904 1.1919
    9544.5000 17.4945 -999.25   9.5554  -999.25  61.8565 -999.25   2.5833 -999.25 3.2533 -999.25  85.2173 -999.25  87.5457  -999.25  93.1337  16.1600 70.4436 -999.25 19.2716 1.0841 1.1965
    9545.0000 17.4165 -999.25   9.0259  -999.25  57.2427 -999.25   2.5876 -999.25 3.2570 -999.25  89.9586 -999.25  92.4164  -999.25  98.3154  15.6400 69.7172 -999.25 18.9808 1.0878 1.2057
    9545.5000 17.3766 -999.25   8.8803  -999.25  52.2393 -999.25   2.5873 -999.25 3.2544 -999.25  93.8884 -999.25  96.4537  -999.25 102.6103  15.5400 69.5723 -999.25 18.8752 1.1031 1.2137
    9546.0000 17.4097 -999.25   8.7597  -999.25  49.4500 -999.25   2.5884 -999.25 3.2626 -999.25  95.9482 -999.25  98.5698  -999.25 104.8614  15.4300 69.4120 -999.25 19.1793 1.1280 1.2210
    9546.5000 17.4152 -999.25   8.6796  -999.25  49.8782 -999.25   2.5900 -999.25 3.2714 -999.25  96.1147 -999.25  98.7407  -999.25 105.0433  15.3300 69.2777 -999.25 19.6985 1.1652 1.2265
    9547.0000 17.4454 -999.25   8.5730  -999.25  52.1146 -999.25   2.5933 -999.25 3.2871 -999.25  94.3917 -999.25  96.9707  -999.25 103.1603  15.1700 69.0554 -999.25 20.3742 1.1988 1.2273
    9547.5000 17.4150 -999.25   8.4638  -999.25  54.6775 -999.25   2.5995 -999.25 3.3265 -999.25  91.0192 -999.25  93.5061  -999.25  99.4746  14.9600 68.7480 -999.25 21.2769 1.2202 1.2255
    9548.0000 17.4288 -999.25   8.7535  -999.25  57.4247 -999.25   2.5999 -999.25 3.3468 -999.25  86.6439 -999.25  89.0112  -999.25  94.6927  15.1800 69.0675 -999.25 21.8920 1.2184 1.2207
    9548.5000 17.4506 -999.25   9.1023  -999.25  60.3751 -999.25   2.5988 -999.25 3.3554 -999.25  82.0472 -999.25  84.2889  -999.25  89.6690  15.4800 69.4883 -999.25 22.3199 1.2129 1.2160
    9549.0000 17.4518 -999.25   9.6878  -999.25  62.7890 -999.25   2.5923 -999.25 3.3361 -999.25  78.2623 -999.25  80.4006  -999.25  85.5325  16.0800 70.3346 -999.25 22.3899 1.2044 1.2153
    9549.5000 17.4873 -999.25   9.8825  -999.25  64.4174 -999.25   2.5882 -999.25 3.2991 -999.25  75.4661 -999.25  77.5280  -999.25  82.4766  16.2900 70.6330 -999.25 22.6927 1.2030 1.2205
    9550.0000 17.3868 -999.25   9.9730  -999.25  65.8608 -999.25   2.5858 -999.25 3.2707 -999.25  73.2640 -999.25  75.2658  -999.25  80.0700  16.3900 70.7686 -999.25 23.3067 1.2206 1.2265
    9550.5000 17.4332 -999.25  10.1313  -999.25  68.8564 -999.25   2.5819 -999.25 3.2289 -999.25  70.5916 -999.25  72.5203  -999.25  77.1493  16.5600 71.0160 -999.25 24.3095 1.2615 1.2349
    9551.0000 17.4320 -999.25  10.2442  -999.25  73.2268 -999.25   2.5812 -999.25 3.2081 -999.25  67.0709 -999.25  68.9034  -999.25  73.3015  16.6400 71.1233 -999.25 25.7850 1.3155 1.2409
    9551.5000 17.4386 -999.25  10.3570  -999.25  79.7678 -999.25   2.5828 -999.25 3.1973 -999.25  61.6165 -999.25  63.3000  -999.25  67.3404  16.6500 71.1421 -999.25 27.7625 1.3711 1.2446
    9552.0000 17.4766 -999.25  10.7574  -999.25  87.5439 -999.25   2.5825 -999.25 3.1880 -999.25  55.2128 -999.25  56.7213  -999.25  60.3418  16.9300 71.5415 -999.25 29.6877 1.3910 1.2466
    9552.5000 17.4415 -999.25  11.5283  -999.25  94.7727 -999.25   2.5759 -999.25 3.1429 -999.25  48.5317 -999.25  49.8577  -999.25  53.0401  17.6200 72.5169 -999.25 30.9904 1.3766 1.2462
    9553.0000 17.4084 -999.25  12.4743  -999.25  99.0909 -999.25   2.5655 -999.25 3.0771 -999.25  42.9316 -999.25  44.1046  -999.25  46.9198  18.5100 73.7801 -999.25 31.5428 1.3389 1.2441
    9553.5000 17.4358 -999.25  13.3492  -999.25  99.9425 -999.25   2.5542 -999.25 3.0095 -999.25  39.3829 -999.25  40.4590  -999.25  43.0415  19.3800 75.0057 -999.25 30.9580 1.2830 1.2414
    9554.0000 17.4408 -999.25  13.4116  -999.25  98.4910 -999.25   2.5513 -999.25 2.9797 -999.25  38.2253 -999.25  39.2697  -999.25  41.7763  19.4600 75.1221 -999.25 29.7062 1.2316 1.2383
    9554.5000 17.3967 -999.25  13.0312  -999.25  95.6736 -999.25   2.5524 -999.25 2.9734 -999.25  39.4719 -999.25  40.5504  -999.25  43.1387  19.1500 74.6748 -999.25 27.9536 1.1852 1.2347
    9555.0000 17.4405 -999.25  12.2459  -999.25  91.9708 -999.25   2.5586 -999.25 2.9943 -999.25  42.9910 -999.25  44.1656  -999.25  46.9847  18.4300 73.6658 -999.25 26.1195 1.1558 1.2309
    9555.5000 17.4405 -999.25  11.3976  -999.25  86.6196 -999.25   2.5662 -999.25 3.0347 -999.25  48.5250 -999.25  49.8508  -999.25  53.0328  17.6600 72.5690 -999.25 23.8322 1.1384 1.2261
    9556.0000 17.4447 -999.25  10.6454  -999.25  79.7934 -999.25   2.5723 -999.25 3.0687 -999.25  54.9988 -999.25  56.5015  -999.25  60.1080  16.9900 71.6214 -999.25 22.3735 1.1369 1.2203
    9556.5000 17.4125 -999.25   9.9839  -999.25  72.3596 -999.25   2.5793 -999.25 3.1252 -999.25  62.5098 -999.25  64.2177  -999.25  68.3167  16.3800 70.7597 -999.25 21.6462 1.1404 1.2155
    9557.0000 17.3999 -999.25   9.6538  -999.25  66.2892 -999.25   2.5824 -999.25 3.1693 -999.25  69.6966 -999.25  71.6008  -999.25  76.1711  16.1100 70.3815 -999.25 21.3868 1.1465 1.2144
    9557.5000 17.4046 -999.25   9.3403  -999.25  63.7836 -999.25   2.5870 -999.25 3.2128 -999.25  74.9601 -999.25  77.0082  -999.25  81.9236  15.8100 69.9546 -999.25 21.4687 1.1532 1.2136
    9558.0000 17.4073 -999.25   9.5395  -999.25  65.3939 -999.25   2.5833 -999.25 3.2099 -999.25  77.8622 -999.25  79.9896  -999.25  85.0953  16.0700 70.3293 -999.25 21.6835 1.1477 1.2162
    9558.5000 17.3890 -999.25   9.8672  -999.25  69.1475 -999.25   2.5778 -999.25 3.1896 -999.25  78.9827 -999.25  81.1407  -999.25  86.3199  16.4700 70.8855 -999.25 21.6400 1.1416 1.2191
    9559.0000 17.4267 -999.25  10.3339  -999.25  71.9728 -999.25   2.5702 -999.25 3.1613 -999.25  79.2627 -999.25  81.4284  -999.25  86.6259  17.0100 71.6514 -999.25 21.4596 1.1272 1.2199
    9559.5000 17.4071 -999.25  10.2748  -999.25  72.2774 -999.25   2.5709 -999.25 3.1638 -999.25  79.8702 -999.25  82.0524  -999.25  87.2898  16.9500 71.5683 -999.25 21.0226 1.1185 1.2161
    9560.0000 17.4227 -999.25  10.0055  -999.25  70.7646 -999.25   2.5753 -999.25 3.1877 -999.25  81.2105 -999.25  83.4293  -999.25  88.7546  16.6500 71.1460 -999.25 20.5898 1.1117 1.2098
    9560.5000 17.4485 -999.25   9.6298  -999.25  68.9742 -999.25   2.5809 -999.25 3.2147 -999.25  83.3136 -999.25  85.5900  -999.25  91.0532  16.2400 70.5680 -999.25 20.2000 1.1115 1.2009
