~Version Information
 VERS.                  2.0:   CWLS log ASCII Standard -VERSION 2.0
 WRAP.                   NO:   One line per depth step
~Well Information Block
#MNEM.UNIT     VALUE/NAME     DESCRIPTION
#---------     -----------    ---------------------------
 STRT.F              8400.0000: START DEPTH
 STOP.F             14130.0000: STOP DEPTH
 STEP.F                 0.5000: STEP DEPTH
 NULL.                 -999.25: NULL VALUE
 LOC .            42-109-33596:  LOCATION
 FL1 .            42-109-33596:  LOCATIONLINE1
 PROV.                      TX:  PROVINCE
 STAT.                      TX:  STATE NAME
 CNTY.               CULBERSON:  COUNTY NAME
 FLD .              WOLFCAMP B:  FIELD NAME
 WELL.           DALE STATE 5H:  WELL NAME
 COMP.     CAPITAN ENERGY INC.:  COMPANY
 DMF .             Drill Floor:  DRILL MEAS FROM
 PDAT.                      GL:  PERMANENT DATUM
 DATE.             11-Feb-2020:  DATE
 SVCO.             Halliburton:  SERVICECONAME
 HIDE.                        :  WELLNAMEOPERAT
 BASI.                 PERMIAN:  BASIN
 UWI .            42-109-33596:  UNIQUE WELL IDENTIFIER
 API .            42-109-33596:  API NUMBER
 RANG.                     N/A:  RANGE
 TOWN.                     N/A:  TOWNSHIP
 SECT.                     N/A:  SECTION
 SON .               906289953:  JOB NUMBER
 CTRY.                        :  COUNTRY
 SRVC.             Halliburton:  SERVICE COMPANY
 LMF .             Drill Floor:  LOG MEASURED FROM
 TVDS.ft             3291.0000:  TVDSS CORRECTN
 EGL .ft             3266.0000:  GROUND ELEVATION
 APD .ft               25.0000:  DEPTH ABOVE PD
 EPD .ft             3266.0000:  ELEVATION
 BAP .ft                0.0000:  GL ELEV ONSHORE
 GVFD.g                 1.0000:  GRAVITY FIELD
 EKB .ft             3291.0000:  KB ELEVATION
 EDF .ft             3291.0000:  DF ELEVATION
~Curve Information Block
#MNEM.UNIT                 API CODE     Curve Description
#---------               -----------    ---------------------------
 DEPT.F                 00 000 000 000:  Depth
 CCL .V                 00 000 000 000:  Casing Collar Locator
 NPHI_OH.pu             00 000 000 000:  NPHI_OH
 NPHI_CHI.decp          00 000 000 000:  NPHI_CHI
 GR_OH.api              00 000 000 000:  GR_OH
 GR_CHI.api             00 000 000 000:  GR_CHI
 RHOB_OH.g/cc           00 000 000 000:  RHOB_OH
 RHOB_CHI.g/cc          00 000 000 000:  RHOB_CHI
 PE_OH.NONE             00 000 000 000:  PE_OH
 PE_CHI.NONE            00 000 000 000:  PE_CHI
 LLS_CHI.ohmm           00 000 000 000:  LLS_CHI
 LLS_OH.ohmm            00 000 000 000:  LLS_OH
 LLD_OH.ohmm            00 000 000 000:  LLD_OH
 LLD_CHI.ohmm           00 000 000 000:  LLD_CHI
 DTC_OH.uspf            00 000 000 000:  DTC_OH
 DTC_CHI.uspf           00 000 000 000:  DTC_CHI
 SPHW_CHI.decp          00 000 000 000:  SPHW_CHI
#Other Information
#
#WARRANTY: Halliburton will use its best efforts to furnish customers with 
#accurate information and interpretations that are part of, and incident to, the services 
#provided.  However, Halliburton cannot and does not warrant the accuracy 
#or correctness of such information and interpretations.  Under no circumstances should any 
#such information or interpretation be relied upon as the sole basis for any drilling, 
#completion, production, or financial decision or any procedure involving any risk to the 
#safety of any drilling venture, drilling rig or its crew or any other third party.  The 
#Customer has full responsibility for all drilling, completion and production operation.  
#Halliburton makes no representations or warranties, either expressed or 
#implied, including, but not limited to, the implied warranties of merchantability or fitness 
#for a particular purpose, with respect to the services rendered.  In no event will 
#Halliburton be liable for failure to obtain any particular results or for 
#any damages, including, but not limited to, indirect, special or consequential damages, 
#resulting from the use of any information or interpretation provided by Halliburton.
#
~A    DEPT      CCL   NPHI_OH NPHI_CHI  GR_OH    GR_CHI  RHOB_OH RHOB_CHI  PE_OH  PE_CHI LLS_CHI   LLS_OH    LLD_OH    LLD_CHI  DTC_OH  DTC_CHI SPHW_CHI 
# ...
   13329.0000 -0.0177 -999.25   0.1331  -999.25 110.1763 -999.25   2.5681 -999.25 2.9841  22.7911   -999.25   -999.25   26.9964 -999.25 73.7560 0.1850
   13329.5000  0.0070 -999.25   0.1299  -999.25 103.0773 -999.25   2.5737 -999.25 2.9809  21.0483   -999.25   -999.25   25.4137 -999.25 72.9908 0.1796
   13330.0000  0.0314 -999.25   0.1301  -999.25 104.1532 -999.25   2.5763 -999.25 2.9960  21.6934   -999.25   -999.25   25.5795 -999.25 72.6823 0.1774
   13330.5000 -0.0068 -999.25   0.1327  -999.25 111.5457 -999.25   2.5757 -999.25 3.0298  24.1609   -999.25   -999.25   27.2120 -999.25 73.0068 0.1797
   13331.0000  0.0075 -999.25   0.1267  -999.25  99.3490 -999.25   2.5791 -999.25 2.9954  21.1846   -999.25   -999.25   24.5341 -999.25 72.4168 0.1755
   13331.5000  0.0061 -999.25   0.1304  -999.25 108.5794 -999.25   2.5744 -999.25 3.0168  23.5104   -999.25   -999.25   26.1777 -999.25 73.1707 0.1808
   13332.0000  0.0011 -999.25   0.1330  -999.25 115.5001 -999.25   2.5722 -999.25 3.0498  26.3844   -999.25   -999.25   28.5231 -999.25 73.6440 0.1842
   13332.5000  0.0291 -999.25   0.1304  -999.25 109.0811 -999.25   2.5744 -999.25 3.0485  26.1201   -999.25   -999.25   28.8688 -999.25 73.0992 0.1803
   13333.0000  0.0119 -999.25   0.1246  -999.25  95.6749 -999.25   2.5797 -999.25 3.0320  23.4998   -999.25   -999.25   27.4570 -999.25 72.2725 0.1745
   13333.5000 -0.0139 -999.25   0.1286  -999.25 102.5966 -999.25   2.5757 -999.25 3.0445  25.4822   -999.25   -999.25   29.5708 -999.25 72.7425 0.1778
   13334.0000 -0.0100 -999.25   0.1377  -999.25 121.7064 -999.25   2.5664 -999.25 3.0829  31.4032   -999.25   -999.25   34.8074 -999.25 74.2667 0.1886
   13334.5000 -0.0091 -999.25   0.1375  -999.25 120.0988 -999.25   2.5641 -999.25 3.0595  30.2942   -999.25   -999.25   34.3702 -999.25 74.3845 0.1894
   13335.0000 -0.0122 -999.25   0.1371  -999.25 119.3043 -999.25   2.5644 -999.25 3.0682  31.4408   -999.25   -999.25   35.9089 -999.25 74.2015 0.1881
   13335.5000 -0.0116 -999.25   0.1364  -999.25 118.9400 -999.25   2.5663 -999.25 3.0881  33.0051   -999.25   -999.25   37.3799 -999.25 73.8811 0.1859
   13336.0000 -0.0018 -999.25   0.1369  -999.25 121.7639 -999.25   2.5677 -999.25 3.1223  36.1290   -999.25   -999.25   39.8847 -999.25 73.7732 0.1851
   13336.5000  0.0329 -999.25   0.1336  -999.25 116.4947 -999.25   2.5701 -999.25 3.1206  35.4730   -999.25   -999.25   39.2648 -999.25 73.2114 0.1811
   13337.0000 -0.0041 -999.25   0.1350  -999.25 121.1356 -999.25   2.5685 -999.25 3.1405  38.0285   -999.25   -999.25   40.9453 -999.25 73.5566 0.1836
   13337.5000 -0.0173 -999.25   0.1352  -999.25 122.4763 -999.25   2.5674 -999.25 3.1427  38.5646   -999.25   -999.25   41.1580 -999.25 73.7288 0.1848
   13338.0000  0.0191 -999.25   0.1323  -999.25 114.2399 -999.25   2.5694 -999.25 3.1106  34.3101   -999.25   -999.25   37.8419 -999.25 73.3443 0.1821
   13338.5000 -0.0025 -999.25   0.1290  -999.25 104.6970 -999.25   2.5731 -999.25 3.0804  29.5528   -999.25   -999.25   34.1182 -999.25 72.8955 0.1789
   13339.0000 -0.0026 -999.25   0.1306  -999.25 105.2761 -999.25   2.5736 -999.25 3.0733  28.3212   -999.25   -999.25   32.9913 -999.25 73.0130 0.1797
   13339.5000 -0.0006 -999.25   0.1326  -999.25 108.5911 -999.25   2.5737 -999.25 3.0871  29.5457   -999.25   -999.25   34.0113 -999.25 73.0872 0.1802
   13340.0000  0.0021 -999.25   0.1352  -999.25 116.2969 -999.25   2.5725 -999.25 3.1257  34.2181   -999.25   -999.25   37.9178 -999.25 73.3202 0.1819
   13340.5000 -0.0229 -999.25   0.1369  -999.25 123.0653 -999.25   2.5710 -999.25 3.1593  38.6937   -999.25   -999.25   41.4685 -999.25 73.6425 0.1842
   13341.0000 -0.0124 -999.25   0.1321  -999.25 115.0691 -999.25   2.5728 -999.25 3.1315  35.6328   -999.25   -999.25   38.8167 -999.25 72.8794 0.1788
   13341.5000 -0.0079 -999.25   0.1302  -999.25 112.7433 -999.25   2.5722 -999.25 3.0945  32.3733   -999.25   -999.25   35.6574 -999.25 72.7092 0.1776
   13342.0000 -0.0168 -999.25   0.1313  -999.25 115.7315 -999.25   2.5700 -999.25 3.0743  31.4285   -999.25   -999.25   34.6307 -999.25 72.9571 0.1793
   13342.5000  0.0092 -999.25   0.1323  -999.25 118.1081 -999.25   2.5680 -999.25 3.0571  30.6920   -999.25   -999.25   33.8559 -999.25 73.2069 0.1811
   13343.0000  0.0003 -999.25   0.1328  -999.25 117.9294 -999.25   2.5666 -999.25 3.0491  30.4177   -999.25   -999.25   33.9112 -999.25 73.4015 0.1825
   13343.5000 -0.0022 -999.25   0.1339  -999.25 119.1620 -999.25   2.5651 -999.25 3.0541  31.2066   -999.25   -999.25   34.7743 -999.25 73.6890 0.1845
   13344.0000  0.0487 -999.25   0.1350  -999.25 119.7699 -999.25   2.5641 -999.25 3.0551  31.2875   -999.25   -999.25   34.9853 -999.25 73.9363 0.1863
   13344.5000 -0.0074 -999.25   0.1313  -999.25 110.3914 -999.25   2.5672 -999.25 3.0353  28.1832   -999.25   -999.25   32.7902 -999.25 73.4990 0.1832
   13345.0000  0.0272 -999.25   0.1304  -999.25 106.8384 -999.25   2.5688 -999.25 3.0258  26.3129   -999.25   -999.25   31.2725 -999.25 73.4211 0.1826
   13345.5000 -0.0253 -999.25   0.1324  -999.25 109.8137 -999.25   2.5681 -999.25 3.0331  26.9660   -999.25   -999.25   31.7548 -999.25 73.5907 0.1838
   13346.0000  0.0090 -999.25   0.1315  -999.25 107.9294 -999.25   2.5700 -999.25 3.0336  26.4504   -999.25   -999.25   31.2926 -999.25 73.3092 0.1818
   13346.5000  0.0247 -999.25   0.1339  -999.25 114.4656 -999.25   2.5691 -999.25 3.0610  29.5419   -999.25   -999.25   33.7860 -999.25 73.4295 0.1827
   13347.0000 -0.0313 -999.25   0.1333  -999.25 114.8981 -999.25   2.5697 -999.25 3.0772  31.1672   -999.25   -999.25   35.1723 -999.25 73.2376 0.1813
   13347.5000  0.0076 -999.25   0.1295  -999.25 108.6864 -999.25   2.5724 -999.25 3.0663  29.5910   -999.25   -999.25   33.7022 -999.25 72.6724 0.1773
   13348.0000  0.0102 -999.25   0.1279  -999.25 106.6149 -999.25   2.5733 -999.25 3.0496  28.0265   -999.25   -999.25   31.9854 -999.25 72.4801 0.1760
   13348.5000 -0.0216 -999.25   0.1282  -999.25 107.3817 -999.25   2.5734 -999.25 3.0301  26.4366   -999.25   -999.25   30.1785 -999.25 72.4916 0.1760
   13349.0000 -0.0051 -999.25   0.1276  -999.25 106.8910 -999.25   2.5748 -999.25 3.0150  25.0803   -999.25   -999.25   28.6693 -999.25 72.2410 0.1743
   13349.5000 -0.0108 -999.25   0.1311  -999.25 115.7599 -999.25   2.5734 -999.25 3.0406  27.3904   -999.25   -999.25   30.3585 -999.25 72.5788 0.1767
   13350.0000  0.0047 -999.25   0.1291  -999.25 112.2327 -999.25   2.5752 -999.25 3.0289  26.2855   -999.25   -999.25   29.3892 -999.25 72.1473 0.1736
   13350.5000 -0.0089 -999.25   0.1219  -999.25  97.0115 -999.25   2.5800 -999.25 2.9801  21.8250   -999.25   -999.25   25.7790 -999.25 71.3168 0.1677
   13351.0000  0.0098 -999.25   0.1294  -999.25 112.2525 -999.25   2.5733 -999.25 2.9990  24.4292   -999.25   -999.25   27.5525 -999.25 72.4378 0.1757
   13351.5000  0.0596 -999.25   0.1299  -999.25 112.4135 -999.25   2.5711 -999.25 2.9733  22.9944   -999.25   -999.25   26.1373 -999.25 72.7931 0.1782
   13352.0000 -0.0207 -999.25   0.1287  -999.25 109.4163 -999.25   2.5706 -999.25 2.9582  22.1687   -999.25   -999.25   25.5066 -999.25 72.8333 0.1785
   13352.5000  0.0229 -999.25   0.1325  -999.25 118.1991 -999.25   2.5681 -999.25 3.0056  25.6872   -999.25   -999.25   28.4012 -999.25 73.4621 0.1829
   13353.0000  0.0817 -999.25   0.1351  -999.25 125.4250 -999.25   2.5678 -999.25 3.0767  31.2641   -999.25   -999.25   33.1840 -999.25 73.8009 0.1853
   13353.5000  0.0169 -999.25   0.1294  -999.25 112.3091 -999.25   2.5725 -999.25 3.0765  30.4731   -999.25   -999.25   33.3505 -999.25 72.6875 0.1774
   13354.0000  0.0297 -999.25   0.1272  -999.25 108.0371 -999.25   2.5749 -999.25 3.1055  32.6215   -999.25   -999.25   35.8857 -999.25 72.2107 0.1741
   13354.5000 -0.0197 -999.25   0.1270  -999.25 108.6312 -999.25   2.5749 -999.25 3.1329  35.6225   -999.25   -999.25   38.9299 -999.25 72.0872 0.1732
   13355.0000 -0.0090 -999.25   0.1238  -999.25 103.4264 -999.25   2.5768 -999.25 3.1422  36.0125   -999.25   -999.25   39.8338 -999.25 71.6377 0.1700
