###############################################
##         ENVERUS                           ##
##         ESS - Open Hole                   ##
##         PERMIAN / DELAWARE                ##
##         Nov 02 2023  V4.0                 ##
##         42-109-32255-00-00                ##
###############################################
## Copyright 2017-2023  ENVERUS.  All Rights Reserved. 
## Confidential - Property of ENVERUS, use governed by terms and 
## conditions found within the existing Information Services Subscription Agreement 
## (as may be amended, the “ISSA”) between Customer and ENVERUS. 
## 
~VERSION INFORMATION
# MNEM.UNIT                               DATA : DESCRIPTION OF MNEMONIC
#-----.-----     ----------------------------- : -----------------------------
VERS.                                     2.00 : CWLS LOG ASCII STANDARD - VERSION 2.00
WRAP.                                       NO : MULTIPLE LINES PER DEPTH STEP
VEND.                                  ENVERUS : VENDOR
TYPE.                          ESS - OPEN HOLE : ENVERUS ESSENTIAL CURVES – ACCESSIBLE THROUGH ENVERUS PRISM(TM)
DOC.                                  31869427 : ENVERUS HEADER RAW DOCUMENT ID
#___________________________________________________________________________________________________ 
~WELL INFORMATION 
# Kns/CyAZPDgS4fEM5w0azv9tYcXlBSx1nHSqICrpKgQv6F2hlFUFpw+R1SAxYfM92i4ks6BDNpB+WhJDZXFO5Q== 
# MNEM.UNIT                                              DATA : DESCRIPTION OF MNEMONIC 
#-----.-----                    ----------------------------- : ----------------------------- 
CNTY.                                               CULBERSON : COUNTY 
STATE.                                                  TEXAS : STATE 
CNTRY.                                                    USA : COUNTRY 
API.                                             42-109-32255 : API (10 Digit) 
API_14.                                    42-109-32255-00-00 : API (14 Digits) 
API_14_std.                                 42-109-32255-0000 : API (14 Digits Standard) 
UWI.                                           42109322550000 : UNIQUE WELL ID 
WELL.                             MELISSA TAYLOR STATE 27  1H : WELL NAME
STRT.FT                                                  94.0 : START DEPTH
STOP.FT                                               13828.0 : STOP DEPTH
STEP.FT                                                   0.5 : STEP BETWEEN DEPTHS
NULL.                                                 -999.25 : NULL VALUE
COMP.                              CHESAPEAKE OPERATING  INC. : COMPANY 
DATE.                                             29-NOV-2005 : LOG DATE
#___________________________________________________________________________________________________ 
~CURVE INFORMATION 
# MNEM.UNIT           : CURVE DESCRIPTION 
#-----.-----          : ----------------------------- 
 DEPT.FT               : MEASURED DEPTH 
 CALI__B.IN            : CALIPER (CAL - CAL) 
 GR__B.API             : GAMMA RAY (GR) 
 DT__B.US/FT           : SONIC DELTA TRANSIT TIME (DT) 
 DPHI__B.V/V           : DENSITY POROSITY (DPHI) 
 NPHI__B.V/V           : NEUTRON POROSITY (NPHI) 
 RHOB__B.G/CC          : BULK DENSITY (RHOB) 
 #___________________________________________________________________________________________________ 
~A         DEPT        CALI__B          GR__B          DT__B        DPHI__B        NPHI__B        RHOB__B
# ...
         8454.0         10.389         78.165         65.252        0.04085        0.13040         2.6370
         8454.5         10.399         75.232         62.866        0.04992        0.12985         2.6240
         8455.0         10.395         72.414         61.769        0.18143        0.12085         2.5570
         8455.5         10.390         70.388         61.049        0.27399        0.11147         2.2120
         8456.0         10.386         66.633         56.956        0.33624        0.10069         2.1810
         8456.5         10.400         57.277         53.339        0.38216        0.08525         2.2870
         8457.0         10.413         47.920         50.495        0.34223        0.06980         2.3350
         8457.5         10.427         40.298         49.665        0.16738        0.05435         2.3830
         8458.0         10.470         35.330         49.950        0.06220        0.03891         2.4800
         8458.5         10.516         31.819         51.119        0.03284        0.03560         2.6750
         8459.0         10.575         29.059         52.289        0.02182        0.03692         2.6550
         8459.5         10.808         37.749         53.458        0.03661        0.04725         2.6360
         8460.0         11.041         43.527         53.411        0.05732        0.05759         2.6160
         8460.5         11.375         42.401         52.582        0.05982        0.05876         2.6220
         8461.0         12.048         38.199         51.207        0.04546        0.04929         2.6600
         8461.5         12.722         31.516         50.028        0.01411        0.03705         2.6920
         8462.0         12.618         28.327         49.064        0.01134        0.02481         2.6900
         8462.5         11.977         27.814         48.101        0.01065        0.01695         2.6890
         8463.0         11.464         27.251         47.559        0.00884        0.01806         2.6890
         8463.5         11.066         26.688         47.069        0.01028        0.02376         2.6980
         8464.0         10.762         26.125         49.745        0.00213        0.02946         2.6960
         8464.5         10.784         25.562         54.842        0.00477        0.03515         2.6730
         8465.0         10.814         31.218         62.017        0.03669        0.05007         2.6500
         8465.5         10.897         40.558         69.023        0.16300        0.07985         2.4030
         8466.0         10.981         53.168         74.574        0.20471        0.13310         2.4320
         8466.5         10.981         65.777         79.501        0.16912        0.16759         2.4620
         8467.0         10.671         78.386         80.840        0.12308        0.16328         2.5140
         8467.5         10.467         90.995         80.066        0.09878        0.15768         2.5600
         8468.0         10.320         98.586         79.468        0.08455        0.17167         2.5700
         8468.5         10.173         98.742         78.990        0.08503        0.18566         2.5700
         8469.0         10.148         95.479         78.511        0.09223        0.19153         2.5640
         8469.5         10.141         94.665         78.002        0.10411        0.19245         2.5530
         8470.0         10.141         93.851         76.976        0.12857        0.19022         2.5000
         8470.5         10.141         93.036         75.361        0.17716        0.18293         2.4520
         8471.0         10.203         92.222         73.782        0.22509        0.17526         2.3120
         8471.5         10.535         88.636         72.825        0.26324        0.17135         2.2830
         8472.0         10.843         84.417         71.868        0.28057        0.16725         2.3260
         8472.5         10.855         80.199         70.910        0.23517        0.16294         2.3810
         8473.0         10.744         81.025         69.646        0.17914        0.16278         2.4540
         8473.5         10.488         87.495         68.336        0.14371        0.16480         2.5030
         8474.0         10.231         95.523         65.823        0.12363        0.16196         2.5210
         8474.5         10.059         86.925         62.932        0.11383        0.13412         2.5380
         8475.0          9.933         69.374         61.024        0.07415        0.09633         2.5560
         8475.5          9.905         51.822         60.664        0.04309        0.06803         2.5730
         8476.0          9.883         28.783         61.645        0.01347        0.03973         2.6480
         8476.5          9.883         26.587         62.788        0.01302        0.03494         2.6920
         8477.0          9.885         29.966         63.125        0.02062        0.04046         2.6830
         8477.5          9.887         39.560         63.203        0.03041        0.05889         2.6660
         8478.0          9.888         64.516         62.805        0.05276        0.08604         2.6200
         8478.5          9.890         91.312         61.560        0.07453        0.12187         2.6000
         8479.0          9.892         89.319         60.145        0.07535        0.12603         2.5930
         8479.5          9.893         85.041         59.836        0.05168        0.10871         2.6120
         8480.0          9.895         62.723         60.469        0.03451        0.08240         2.6310
         8480.5          9.895         48.653         63.380        0.02399        0.06823         2.6500
         8481.0          9.888         54.300         72.828        0.03507        0.09324         2.6690
         8481.5          9.881         68.199         76.816        0.06421        0.14145         2.6240
         8482.0          9.874         90.371         78.520        0.08451        0.18022         2.5710
         8482.5          9.867        103.277         77.307        0.09217        0.18527         2.5620
         8483.0          9.860        105.441         74.546        0.09257        0.18553         2.5530
         8483.5          9.854        107.149         72.511        0.10540        0.16959         2.5440
         8484.0          9.882        106.914         71.208        0.10773        0.14897         2.5380
         8484.5          9.911        100.885         71.170        0.09009        0.12339         2.5660
         8485.0          9.939         91.424         71.860        0.06764        0.10244         2.5940
         8485.5          9.927         87.196         74.174        0.06263        0.10604         2.6190
         8486.0          9.869         94.082         77.178        0.09218        0.12459         2.5950
         8486.5          9.811        105.748         78.283        0.10862        0.14314         2.5700
         8487.0          9.779        117.461         78.456        0.11613        0.15880         2.5460
         8487.5          9.775        122.519         78.453        0.10753        0.16526         2.5270
         8488.0          9.771        123.343         78.310        0.09737        0.16718         2.5530
         8488.5          9.767        123.597         77.079        0.09069        0.16395         2.5660
         8489.0          9.763        123.850         75.848        0.08630        0.15788         2.5690
         8489.5          9.759        117.967         74.544        0.08301        0.15828         2.5730
         8490.0          9.755        109.732         72.985        0.08358        0.15869         2.5760
         8490.5          9.757        102.757         71.140        0.08155        0.15580         2.5790
         8491.0          9.764         96.321         69.490        0.07794        0.15655         2.5810
         8491.5          9.772         96.161         69.397        0.07541        0.15731         2.5830
