###############################################
##         ENVERUS                           ##
##         ESS - Open Hole                   ##
##         PERMIAN / DELAWARE                ##
##         Nov 02 2023  V4.0                 ##
##         42-109-31408-00-00                ##
###############################################
## Copyright 2017-2023  ENVERUS.  All Rights Reserved. 
## Confidential - Property of ENVERUS, use governed by terms and 
## conditions found within the existing Information Services Subscription Agreement 
## (as may be amended, the “ISSA”) between Customer and ENVERUS. 
## 
~VERSION INFORMATION
# MNEM.UNIT                               DATA : DESCRIPTION OF MNEMONIC
#-----.-----     ----------------------------- : -----------------------------
VERS.                                     2.00 : CWLS LOG ASCII STANDARD - VERSION 2.00
WRAP.                                       NO : MULTIPLE LINES PER DEPTH STEP
VEND.                                  ENVERUS : VENDOR
TYPE.                          ESS - OPEN HOLE : ENVERUS ESSENTIAL CURVES – ACCESSIBLE THROUGH ENVERUS PRISM(TM)
DOC.                                  31850517 : ENVERUS HEADER RAW DOCUMENT ID
#___________________________________________________________________________________________________ 
~WELL INFORMATION 
# bqLd+XSZJOn45CI61XVoQu+UOVndmKoY6sdO6/bnbKn7IExcVbobTFa2ZjWyWmdO1mIol927X6bTh1nHm93KmQ== 
# MNEM.UNIT                                              DATA : DESCRIPTION OF MNEMONIC 
#-----.-----                    ----------------------------- : ----------------------------- 
CNTY.                                               CULBERSON : COUNTY 
STATE.                                                  TEXAS : STATE 
CNTRY.                                                    USA : COUNTRY 
API.                                             42-109-31408 : API (10 Digit) 
API_14.                                    42-109-31408-00-00 : API (14 Digits) 
API_14_std.                                 42-109-31408-0000 : API (14 Digits Standard) 
UWI.                                           42109314080000 : UNIQUE WELL ID 
WELL.                                           CASTILE 48  1 : WELL NAME
STRT.FT                                                2207.0 : START DEPTH
STOP.FT                                               11710.0 : STOP DEPTH
STEP.FT                                                   0.5 : STEP BETWEEN DEPTHS
NULL.                                                 -999.25 : NULL VALUE
COMP.                                         TENNECO OIL CO. : COMPANY 
DATE.                                             28-APR-1980 : LOG DATE
#___________________________________________________________________________________________________ 
~CURVE INFORMATION 
# MNEM.UNIT           : CURVE DESCRIPTION 
#-----.-----          : ----------------------------- 
 DEPT.FT               : MEASURED DEPTH 
 CALI.IN               : CALIPER (CAL - CAL) 
 GR.API                : GAMMA RAY (GR) 
 DT.US/FT              : SONIC DELTA TRANSIT TIME (DT) 
 RESS.OHMM             : SHALLOW INDUCTION RESISTIVITY (ILS - ILS) 
 RESD.OHMM             : DEEP INDUCTION RESISTIVITY (ILD - ILD) 
 #___________________________________________________________________________________________________ 
~A         DEPT           CALI             GR             DT           RESS           RESD
# ...
        11667.0         10.321         10.931         47.389        516.022       1288.230
        11667.5         10.311         10.794         47.712        459.456       1041.943
        11668.0         10.301         10.657         48.035        311.868        715.617
        11668.5         10.291         10.520         48.092        294.570        570.644
        11669.0         10.281         10.383         47.803        306.089        567.112
        11669.5         10.271         10.246         47.515        317.607        749.123
        11670.0         10.261         10.109         47.226        383.398       1056.480
        11670.5         10.251          9.972         46.937        505.464       1363.837
        11671.0         10.241          9.835         47.079        627.530       1671.193
        11671.5         10.231          9.698         47.237        749.596       1978.550
        11672.0         10.221          9.561         47.394        871.662       3458.486
        11672.5         10.211          9.423         47.551        802.135       5163.445
        11673.0         10.201          9.286         47.708        730.729       4384.657
        11673.5         10.191          9.149         47.865        659.323       3605.868
        11674.0         10.181          9.012         48.022        587.917       2827.080
        11674.5         10.171          8.875         48.179        516.511       2048.292
        11675.0         10.161          8.940         48.336        445.105       1654.255
        11675.5         10.151          9.630         48.436        373.699       1262.339
        11676.0         10.141         10.320         48.283        302.293        870.424
        11676.5         10.131         11.011         48.130        231.131        618.050
        11677.0         10.121         11.701         47.977        228.384        625.940
        11677.5         10.111         12.391         47.824        234.710        747.736
        11678.0         10.101         13.082         47.671        256.863        936.385
        11678.5         10.091         13.772         47.519        255.027       1077.302
        11679.0         10.081         14.462         47.706        252.220        975.412
        11679.5         10.071         15.153         48.000        249.413        873.523
        11680.0         10.061         15.843         48.295        251.426        771.633
        11680.5         10.051         16.533         48.589        263.792        728.594
        11681.0         10.041         17.224         48.840        276.159        870.637
        11681.5         10.031         17.509         49.020        288.525        958.408
        11682.0         10.021         17.302         49.200        281.449        899.845
        11682.5         10.011         17.096         49.379        244.285        811.714
        11683.0         10.005         16.889         49.958        207.121        657.468
        11683.5          9.999         16.684         50.554        169.956        503.222
        11684.0          9.992         17.247         51.041        132.792        388.314
        11684.5          9.986         17.811         50.127        120.319        363.195
        11685.0          9.979         18.374         49.214        121.465        374.546
        11685.5          9.973         18.937         48.300        122.612        385.896
        11686.0          9.967         19.501         47.386        123.758        382.152
        11686.5          9.960         20.064         46.868        117.597        359.448
        11687.0          9.954         20.628         46.751        108.597        336.743
        11687.5          9.947         21.191         47.012         99.597        314.039
        11688.0          9.941         21.754         47.274         90.596        284.153
        11688.5          9.936         22.318         47.535         81.596        277.920
        11689.0          9.956         22.881         47.796         79.869        293.928
        11689.5          9.976         23.445         48.057         81.485        386.038
        11690.0          9.996         23.560         48.318         94.741        635.889
        11690.5         10.016         21.955         48.418        166.555        885.740
        11691.0         10.036         20.350         47.867        174.389        889.138
        11691.5         10.056         18.745         47.315        164.939        848.936
        11692.0         10.075         17.915         46.764        145.127        808.735
        11692.5         10.095         18.797         46.213        141.012        722.842
        11693.0         10.115         19.678         45.662        137.751        632.156
        11693.5         10.135         20.560         45.390        134.490        541.470
        11694.0         10.155         21.441         46.367        127.819        476.346
        11694.5         10.175         21.671         47.343        118.747        439.497
        11695.0         10.148         20.423         48.320        109.676        402.649
        11695.5         10.115         19.175         49.296        100.604        366.403
        11696.0         10.082         17.927         49.094         92.830        365.022
        11696.5         10.049         18.638         48.769         95.442        411.165
        11697.0         10.016         19.413         48.444         98.054        457.308
        11697.5          9.982         20.189         48.119        111.669        600.120
        11698.0          9.976         20.860         47.794        143.194        807.826
        11698.5         10.000         20.206         47.469        142.470        877.652
        11699.0         10.024         19.553         47.144        141.746        863.864
        11699.5         10.048         18.900         46.820        146.510        777.547
        11700.0         10.072         18.440         46.495        160.321        588.116
        11700.5         10.096         18.858         46.624        161.932        485.274
        11701.0         10.120         19.277         47.296        163.221        485.050
        11701.5         10.144         19.695         47.621        164.510        484.933
        11702.0         10.168         20.114         47.646        199.042        606.788
        11702.5         10.172         20.431         47.671        198.120        728.643
        11703.0         10.157         20.267         47.696        197.198       1219.767
        11703.5         10.141         20.102         47.721        433.862       3618.639
        11704.0         10.125         19.937         48.011        696.203       6790.465
        11704.5         10.109       -999.250       -999.250        675.516       8985.308
        11705.0         10.094       -999.250       -999.250        654.830       8870.724
        11705.5       -999.250       -999.250       -999.250        634.143       6982.651
        11706.0       -999.250       -999.250       -999.250        591.961       5670.972
        11706.5       -999.250       -999.250       -999.250        542.211       4731.442
        11707.0       -999.250       -999.250       -999.250        489.823       3791.913
        11707.5       -999.250       -999.250       -999.250        434.814       2852.383
        11708.0       -999.250       -999.250       -999.250        379.806       1912.853
        11708.5       -999.250       -999.250       -999.250        281.281       1545.279
        11709.0       -999.250       -999.250       -999.250        177.844       1161.939
        11709.5       -999.250       -999.250       -999.250        120.303       -999.250
        11710.0       -999.250       -999.250       -999.250        114.665       -999.250
