###############################################
##         ENVERUS                           ##
##         ESS - Open Hole                   ##
##         PERMIAN / DELAWARE                ##
##         Nov 02 2023  V4.0                 ##
##         42-109-00406-00-00                ##
###############################################
## Copyright 2017-2023  ENVERUS.  All Rights Reserved. 
## Confidential - Property of ENVERUS, use governed by terms and 
## conditions found within the existing Information Services Subscription Agreement 
## (as may be amended, the “ISSA”) between Customer and ENVERUS. 
## 
~VERSION INFORMATION
# MNEM.UNIT                               DATA : DESCRIPTION OF MNEMONIC
#-----.-----     ----------------------------- : -----------------------------
VERS.                                     2.00 : CWLS LOG ASCII STANDARD - VERSION 2.00
WRAP.                                       NO : MULTIPLE LINES PER DEPTH STEP
VEND.                                  ENVERUS : VENDOR
TYPE.                          ESS - OPEN HOLE : ENVERUS ESSENTIAL CURVES – ACCESSIBLE THROUGH ENVERUS PRISM(TM)
DOC.                                  31976272 : ENVERUS HEADER RAW DOCUMENT ID
#___________________________________________________________________________________________________ 
~WELL INFORMATION 
# f03iSNYnaQ7mQXX2RIaOYtiytuBBABKYYIB1smJtyZkBcGMChrfvYQpeE0DESEj4BN+caz3q2IoGlEPFhwFUwg== 
# MNEM.UNIT                                              DATA : DESCRIPTION OF MNEMONIC 
#-----.-----                    ----------------------------- : ----------------------------- 
CNTY.                                               CULBERSON : COUNTY 
STATE.                                                  TEXAS : STATE 
CNTRY.                                                    USA : COUNTRY 
API.                                             42-109-00406 : API (10 Digit) 
API_14.                                    42-109-00406-00-00 : API (14 Digits) 
API_14_std.                                 42-109-00406-0000 : API (14 Digits Standard) 
UWI.                                           42109004060000 : UNIQUE WELL ID 
WELL.                                                  DRD_55 : WELL NAME
STRT.FT                                                 100.5 : START DEPTH
STOP.FT                                               12629.5 : STOP DEPTH
STEP.FT                                                   0.5 : STEP BETWEEN DEPTHS
NULL.                                                 -999.25 : NULL VALUE
#___________________________________________________________________________________________________ 
~PARAMETER INFORMATION 
# MNEM.UNIT                                              DATA : DESCRIPTION OF MNEMONIC 
#-----.-----                    ----------------------------- : -----------------------------
#___________________________________________________________________________________________________ 
~CURVE INFORMATION 
# MNEM.UNIT           : CURVE DESCRIPTION 
#-----.-----          : ----------------------------- 
 DEPT.FT               : MEASURED DEPTH 
 GR__A.API             : GAMMA RAY (GAMMA RAY) 
 DT__A.US/FT           : SONIC DELTA TRANSIT TIME (SONIC) 
 #___________________________________________________________________________________________________ 
~A         DEPT          GR__A          DT__A
# ...
         5059.5         51.562         81.078
         5060.0         53.866         80.720
         5060.5         53.706         82.212
         5061.0         53.571         81.099
         5061.5         54.165         78.151
         5062.0         55.733         78.813
         5062.5         57.753         79.641
         5063.0         59.076         81.849
         5063.5         60.085         93.184
         5064.0         59.237        102.106
         5064.5         55.915         92.828
         5065.0         44.215         90.441
         5065.5         42.229         80.759
         5066.0         41.964         76.666
         5066.5         41.964         76.767
         5067.0         41.435         77.215
         5067.5         40.078         72.013
         5068.0         38.723         75.007
         5068.5         38.890         79.526
         5069.0         40.777         83.715
         5069.5         43.060         75.296
         5070.0         44.041         75.716
         5070.5         41.413         75.674
         5071.0         38.351         72.755
         5071.5         35.396         69.543
         5072.0         34.727         69.061
         5072.5         35.684         68.875
         5073.0         35.580         68.623
         5073.5         35.116         68.863
         5074.0         34.356         68.795
         5074.5         33.297         68.489
         5075.0         32.738         68.182
         5075.5         33.036         67.904
         5076.0         33.271         67.690
         5076.5         32.635         66.585
         5077.0         31.874         66.125
         5077.5         31.709         65.933
         5078.0         31.543         65.387
         5078.5         31.250         64.928
         5079.0         30.952         63.607
         5079.5         30.452         62.771
         5080.0         29.571         62.316
         5080.5         30.979         64.737
         5081.0         33.610         66.642
         5081.5         37.213         68.844
         5082.0         43.412         72.494
         5082.5         51.534         75.950
         5083.0         55.339         78.449
         5083.5         56.289         78.120
         5084.0         56.548         77.519
         5084.5         56.177         77.874
         5085.0         55.417         78.180
         5085.5         54.656         78.366
         5086.0         53.895         78.552
         5086.5         53.274         78.683
         5087.0         52.976         78.440
         5087.5         53.274         78.134
         5088.0         54.079         77.964
         5088.5         55.323         77.881
         5089.0         57.142         77.470
         5089.5         58.275         76.693
         5090.0         58.631         76.527
         5090.5         58.358         76.133
         5091.0         56.368         74.693
         5091.5         51.868         71.202
         5092.0         47.194         67.192
         5092.5         42.625         64.107
         5093.0         37.921         61.816
         5093.5         31.174         60.946
         5094.0         29.067         62.390
         5094.5         32.500         66.325
         5095.0         38.151         70.354
         5095.5         47.659         74.281
         5096.0         51.673         76.379
         5096.5         53.152         77.771
         5097.0         52.932         77.844
         5097.5         51.814         77.760
         5098.0         50.402         77.438
         5098.5         48.771         76.979
         5099.0         47.806         76.027
         5099.5         47.619         75.458
         5100.0         48.214         75.196
         5100.5         48.226         76.132
         5101.0         48.987         76.958
         5101.5         49.770         77.393
         5102.0         51.166         78.141
         5102.5         53.243         79.068
         5103.0         53.869         77.761
         5103.5         53.459         75.926
         5104.0         50.973         73.936
         5104.5         44.371         71.685
         5105.0         41.498         70.468
         5105.5         40.953         69.829
         5106.0         42.551         70.863
         5106.5         44.600         72.985
         5107.0         48.169         75.436
         5107.5         51.701         77.193
         5108.0         53.685         77.531
         5108.5         53.888         77.717
         5109.0         52.237         78.768
         5109.5         50.126         81.183
         5110.0         49.224         79.313
         5110.5         49.948         75.329
         5111.0         51.576         74.935
         5111.5         53.058         74.066
         5112.0         51.840         73.563
         5112.5         50.250         72.934
         5113.0         47.678         72.934
         5113.5         46.578         73.174
         5114.0         47.520         74.039
         5114.5         49.802         74.974
         5115.0         52.233         75.779
         5115.5         53.489         76.238
         5116.0         54.548         76.527
         5116.5         55.308         76.527
         5117.0         56.069         76.480
         5117.5         55.968         76.521
         5118.0         54.164         76.586
         5118.5         52.633         76.407
         5119.0         51.488         76.527
         5119.5         51.837         76.465
         5120.0         53.113         75.514
         5120.5         53.869         74.278
         5121.0         53.321         73.442
         5121.5         50.746         72.647
         5122.0         46.965         72.341
         5122.5         43.598         72.106
         5123.0         43.750         73.277
         5123.5         44.603         74.572
         5124.0         46.885         75.470
         5124.5         48.909         75.821
         5125.0         50.619         76.442
         5125.5         51.740         76.859
         5126.0         52.381         76.934
         5126.5         52.381         77.006
         5127.0         52.381         77.307
         5127.5         52.997         77.677
         5128.0         54.280         78.039
         5128.5         56.793         77.964
         5129.0         59.440         77.876
         5129.5         61.002         77.534
         5130.0         58.339         76.811
         5130.5         53.791         75.181
         5131.0         47.992         73.142
         5131.5         44.024         71.938
         5132.0         41.301         71.248
         5132.5         39.113         71.062
         5133.0         37.565         70.756
         5133.5         37.570         70.405
         5134.0         39.897         70.731
         5134.5         42.155         71.403
         5135.0         44.057         72.015
         5135.5         45.964         72.569
         5136.0         48.315         73.813
         5136.5         49.900         74.611
         5137.0         51.083         74.616
         5137.5         51.853         73.846
         5138.0         49.145         72.515
         5138.5         44.750         71.410
         5139.0         39.830         70.404
         5139.5         37.760         71.303
         5140.0         39.267         73.155
         5140.5         41.475         74.446
         5141.0         44.759         75.431
         5141.5         46.864         74.778
         5142.0         47.678         74.012
         5142.5         47.877         72.526
         5143.0         41.952         70.578
         5143.5         36.339         68.643
         5144.0         33.722         66.762
         5144.5         31.709         65.811
         5145.0         30.952         66.108
         5145.5         31.751         66.424
         5146.0         33.369         67.612
