# Exported from Transform Software 5.2.0 on 25-May-2018 by user brian.umlang
# DI Transform - A Product of Drillinginfo, Inc. - www.drillinginfo.com
#
~VERSION INFORMATION
 VERS.        2.0 : LAS ASCII STANDARD - VERSION 2.0
 WRAP.         NO : ONE LINE PER DEPTH STEP

~WELL INFORMATION
#MNEM.UNIT       DATA TYPE       INFORMATION
#---------       ---------       -----------
# Enverus has updated the API/UWI.  The previous names are renamed to  PREV_API / PREV_UWI
API.         42-109-32508-00-00 : API (14 Digits with Dashes)
UWI.             42109325080000 : UNIQUE WELL ID

 STRT.ft                1970 : Start Depth
 STOP.ft                8730 : Stop Depth
 STEP.ft                 0.5 : Step Length
 NULL.               -999.25 : Null Value
 COMP.                       : Company
 WELL.  42109325080000_API14 : Well Name
 FLD.                        : Field Name
 LOC.                        : Well Location
 CNTY.                       : County
 STAT.                       : State or Province
 CTRY.                       : Country
 SRVC.                       : Service Company
 DATE.                       : Date
PREV_APII.         42109325080000 : Well Identifier

~CURVE INFORMATION
#MNEM.UNIT       API CODE       CURVE DESCRIPTION
#---------       --------       -----------------
 DEPT.ft        : <Measured Depth>
 CAL.in         : Caliper
 DT.us/ft       : Pressure Wave Sonic
 GR.gAPI        : Gamma Ray

~PARAMETER INFORMATION
#MNEM.UNIT       VALUE       DESCRIPTION
#---------       -----       -----------
 EKB.ft      3552 : Elevation above MSL

~A      DEPT         CAL          DT          GR
# ...
        5086      8.9102      63.178     48.0672
      5086.5      8.9102     63.6806      46.161
        5087      8.9102      63.714     55.5285
      5087.5      8.8906     63.4789     62.7079
        5088      8.8802     63.2127     61.4072
      5088.5      8.8711     62.2361     57.7404
        5089      8.8711       61.37     58.7891
      5089.5      8.8711     61.3213     59.7233
        5090      8.8711     61.9343     63.3714
      5090.5      8.9102     63.2695     75.7089
        5091      8.9297     63.7427     70.7307
      5091.5      8.9492     63.1559     52.1438
        5092      8.9824     62.1405     41.4668
      5092.5      9.0078     62.3485     32.9219
        5093      9.0273     64.5138      33.442
      5093.5      9.0273     66.9034     36.0863
        5094      9.0273     66.8548     37.2623
      5094.5      9.0078     65.8824     43.3321
        5095      8.9722     64.9533     55.5512
      5095.5      8.8741     62.5417     74.0523
        5096      8.8151     62.5068     76.1979
      5096.5      8.7734     62.5278     75.9326
        5097      8.7539     61.8821     77.1842
      5097.5      8.7539     60.5759     57.2709
        5098      8.7539     59.3654     52.1776
      5098.5      8.7539     60.5814     45.6525
        5099      8.7733     61.8704     60.3133
      5099.5      8.8089     62.5746     78.3484
        5100      8.8089     62.6729     82.0379
      5100.5      8.7724     61.4077      83.583
        5101      8.7148     59.8742     77.7666
      5101.5      8.7148     58.5852     64.1946
        5102      8.7148     58.4211     46.9553
      5102.5      8.6953     58.4795     40.9828
        5103      8.6758      58.538     37.7265
      5103.5      8.6758     58.4105     58.4174
        5104      8.6758     58.3626     50.9766
      5104.5      8.6758     59.1294     58.4648
        5105      8.6758      60.422     84.3705
      5105.5      8.6758     61.5514    101.7801
        5106      8.6758      61.888    107.5608
      5106.5      8.6758     61.9298    115.8044
        5107      8.6758     61.9883    122.1944
      5107.5      8.6758     61.9654    120.4398
        5108      8.6758     60.9942    116.5598
      5108.5      8.6758     61.8813    109.4279
        5109      8.6953     62.4113    106.3408
      5109.5      8.6953     63.9606    111.2215
        5110      8.7148     64.9487    108.1332
      5110.5      8.7056     64.6199     96.2072
        5111      8.6758     60.8686     73.3644
      5111.5      8.7148     60.0701     54.7519
        5112      8.7344     59.7121     50.9766
      5112.5      8.7344     60.1237     56.0995
        5113      8.7344     60.8617     59.2103
      5113.5      8.7344     61.2281     68.3965
        5114      8.7344     61.3953     79.1681
      5114.5      8.7344     62.0258     83.2582
        5115      8.7344     62.4751       90.68
      5115.5      8.7344     63.3362    111.8378
        5116      8.7344     64.3471    147.7584
      5116.5      8.7539     65.3318    184.2747
        5117      8.7734     65.2195    177.0793
      5117.5      8.8125     65.1014    145.1566
        5118      8.8125     63.4897    104.1916
      5118.5       8.832     61.4371     74.8712
        5119      8.8516     60.1768     52.8389
      5119.5      8.8516     58.6725     34.8348
        5120      8.8906     58.0267      40.625
      5120.5      8.8906     57.8237     41.5595
        5121      8.9102     58.5228     45.6183
      5121.5      8.9102     60.9048      51.511
        5122      8.9102     64.1711     61.4444
      5122.5      8.9297     65.1462     81.6171
        5123      8.9492     64.5618     98.6274
      5123.5      8.9492     62.8028     96.8297
        5124      8.9492     61.3224     84.6142
      5124.5      8.9492     60.1685     63.6252
        5125      8.9688     60.3697     53.3518
      5125.5      8.9883     61.9595      65.982
        5126      8.9883     62.9576       87.52
      5126.5      8.9883     62.4978     94.3072
        5127      8.9883     61.5597     82.2668
      5127.5      8.9883     61.5421     68.9597
        5128      8.9883     62.6093      68.601
      5128.5      8.9883     63.3918     73.9969
        5129      8.9883      62.749     72.1218
      5129.5      8.9635      61.606     56.6258
        5130      8.9492     61.2598     56.8926
      5130.5      8.9492     62.2586     62.0567
        5131      8.9492     63.9179     74.1504
      5131.5      8.9492     64.4444     86.9595
        5132      8.9492     64.1964     89.5734
      5132.5      8.9492     62.8547     75.4371
        5133      8.9492     62.3392     58.9085
      5133.5      8.9492     62.4487     55.9446
        5134      8.9492     63.4136      64.158
      5134.5      8.9492     64.4139     76.6305
        5135      8.9492     64.4152      86.816
      5135.5      8.9492     63.2093     89.4058
        5136      8.9336     60.0344     80.0874
      5136.5      8.9297     58.0044     60.8291
        5137      8.9297      57.846     47.7219
      5137.5      8.9297     59.3579     48.2613
        5138      8.9688     62.2294     67.8217
      5138.5      9.0273     63.1542     75.8137
        5139      9.0273     63.1189     65.2343
      5139.5      9.0273     63.0227     57.6172
        5140      9.0469     63.3577     64.2824
      5140.5      9.0469     64.3227     70.1908
        5141      9.0469     65.4533     76.4647
      5141.5      9.0469     65.7895     69.8271
        5142      9.0469     65.7773      57.787
      5142.5      9.0469     65.7895      53.378
        5143      9.0469      65.341     58.1707
      5143.5      9.0469     65.0377      67.213
        5144      9.0273     65.0292     74.7821
      5144.5      9.0078     64.6844     77.4988
        5145      9.0078     64.3908     74.1517
      5145.5      9.0078     63.9838     65.1705
        5146      9.0078     64.0327     57.2187
      5146.5      9.0078     64.5591     68.1075
        5147      9.0078     64.7954     99.0253
      5147.5      9.0078     65.0306    125.4259
        5148      9.0078     64.6758    146.6882
      5148.5      9.0091     65.2197    144.4054
        5149      9.0664     67.2429    132.2552
      5149.5      9.1075     69.3355    113.0661
        5150      9.2056     70.7677     77.0173
      5150.5      9.2451     70.9357     60.4528
        5151      9.3041     71.0526     43.9755
      5151.5      9.3631     70.7491     39.2676
        5152       9.418     70.5725     36.0916
      5152.5       9.457     69.3881     35.5016
        5153      9.5156     68.4789     34.0809
      5153.5      9.5156      67.012     33.0078
        5154      9.5352     66.4134     34.4571
      5154.5      9.5352     67.9008     41.1285
        5155      9.6003     70.5269     42.5781
      5155.5      9.6593     72.1262     41.6572
        5156      9.6988      71.944      40.625
      5156.5      9.7109     71.4386     41.7962
        5157        9.75      71.062     44.0274
      5157.5      9.7695     70.7344     45.2034
        5158      9.7695     70.7244     45.8836
      5158.5      9.7695     71.8976      43.467
        5159      9.7794     72.8664     40.7234
      5159.5      9.7891     73.7734     43.2763
        5160      9.7891      74.067     43.2528
      5160.5      9.7891     74.3275     41.5755
        5161      9.7891     74.4226     40.8203
      5161.5      9.7891     74.2919     41.4062
        5162      9.7182     72.9738     41.9198
      5162.5      9.6201     69.9881     47.6184
        5163      9.3885     66.9967      59.523
      5163.5      9.2677     65.1822     65.9555
        5164      9.2031     65.2881     64.5091
      5164.5      9.1836     66.1677     69.0272
        5165      9.1298     66.4471     99.5259
      5165.5       9.125     65.5233     129.122
        5166       9.125     64.6674    129.8828
      5166.5        9.07      63.647    116.9224
        5167      9.0469     63.1088     92.0106
      5167.5      9.0469     62.7567       72.93
