#--------------------------------------------------#
#----------------DRILLING INFO, INC.---------------#
#---------------WWW.DRILLINGINFO.COM---------------#
#------------------COPYRIGHT 2018------------------#
#--------------------------------------------------#
#THIS FILE MAY BE USED ONLY IN ACCORDANCE WITH A CURRENT SUBSCRIPTION AGREEMENT BETWEEN
#THE USER AND DRILLING INFO, INC. NO PART OF THIS FILE MAY BE REPRODUCED, USED, COPIED,
#MODIFIED, PROPAGATED, OR DISTRIBUTED EXCEPT IN ACCORDANCE WITH THE SUBSCRIPTION
#AGREEMENT. UNAUTHORIZED USE OR DISTRIBUTION OF ALL OR ANY PART OF THIS FILE MAY VIOLATE
#COPYRIGHT, TRADEMARK, AND/OR OTHER LAWS AND IS SUBJECT TO CIVIL AS WELL AS CRIMINAL
#SANCTIONS.
#--------------------------------------------------#
#THIS FILE IS PROVIDED "AS-IS" AND ALL WARRANTIES ARE EXPRESSLY DISCLAIMED, WHETHER
#EXPRESS, ORAL, IMPLIED, STATUTORY OR OTHERWISE, INCLUDING ANY IMPLIED WARRANTY OF FITNESS
#FOR A PARTICULAR PURPOSE, MERCHANTABILITY, TITLE OR NON-INFRINGEMENT, AND ANY WARRANTIES
#ARISING BY VIRTUE OF CUSTOM OF TRADE OR COURSE OF DEALING.  FURTHER, DRILLING INFO,
#INC. AND ITS LICENSORS DO NOT REPRESENT OR WARRANT THAT THIS FILE WILL MEET USER'S
#REQUIREMENTS OR ARE SUITABLE FOR USER'S NEEDS OR THAT THE DATA OR RESULTS PROVIDED IN
#CONJUNCTION THEREWITH ARE CORRECT, ACCURATE, TIMELY OR RELIABLE. THESE DISCLAIMERS SHALL
#APPLY REGARDLESS OF ANY FAILURE OF ESSENTIAL PURPOSE OF ANY LIMITED REMEDY.  SOME
#JURISDICTIONS DO NOT ALLOW THE EXCLUSION OF CERTAIN WARRANTIES SO SOME OF THE ABOVE
#EXCLUSIONS MAY NOT APPLY. IN NO EVENT SHALL DRILLING INFO, INC. OR ANY OF ITS AFFILIATES
#BE LIABLE UNDER ANY LEGAL THEORY, WHETHER IN TORT (INCLUDING WITHOUT LIMITATION
#NEGLIGENCE), CONTRACT, STRICT LIABILITY, STATUTORY OR OTHERWISE, FOR ANY SPECIAL,
#INCIDENTAL, CONSEQUENTIAL, EXEMPLARY, PUNITIVE OR INDIRECT DAMAGE OF ANY KIND, INCLUDING
#WITHOUT LIMITATION LOSS OF REVENUE, PROFITS, GOODWILL, USE, AND/OR DATA OR THE COST OF
#PROCUREMENT OF SUBSTITUTE GOODS OR SERVICES, EVEN IF APPRISED OF THE POSSIBILITY OF SUCH
#DAMAGES IN ADVANCE.
#--------------------------------------------------#
# Exported from DI Transform
# DI Transform - A Product of Drillinginfo, Inc. - www.drillinginfo.com
#--------------------------------------------------#
#
~VERSION INFORMATION
 VERS.        2.0 : LAS ASCII STANDARD - VERSION 2.0
 WRAP.         NO : ONE LINE PER DEPTH STEP

~WELL INFORMATION
#MNEM.UNIT       DATA TYPE       INFORMATION
#---------       ---------       -----------
 STRT.ft          9043 : Start Depth
 STOP.ft         16870 : Stop Depth
 STEP.ft           0.5 : Step Length
 NULL.         -999.25 : Null Value
 COMP.                 : Company
 WELL.          DRD_55 : Well Name
 FLD.                  : Field Name
 LOC.                  : Well Location
 CNTY.                 : County
 STAT.                 : State or Province
 CTRY.                 : Country
 SRVC.                 : Service Company
 DATE.                 : Date
 API.   42109326310000 : Well Identifier

~CURVE INFORMATION
#MNEM.UNIT       API CODE       CURVE DESCRIPTION
#---------       --------       -----------------
 DEPT.ft          : <Measured Depth>
 CAL.in           : Caliper
 DPHI.%           : Density Porosity
 DT.us/ft         : Sonic
 GR.gAPI          : Gamma Ray
 ILD.ohmm         : Deep Resistivity
 ILS.ohmm         : Shallow Resistivity
 RHOB.g/cm3       : Density

~PARAMETER INFORMATION
#MNEM.UNIT       VALUE       DESCRIPTION
#---------       -----       -----------
 EKB.ft      3382 : Elevation above MSL

~A       DEPT         CAL        DPHI          DT          GR         ILD         ILS        RHOB
# ...
        13471      6.0732      6.7345     65.2245    557.4859     27.1385     11.3429      2.5934
      13471.5      6.0732      6.8033     65.3469    584.1301     22.8063      9.0239      2.5935
        13472      6.0732      6.8033     65.4694    613.3994     20.7918      8.6006      2.5956
      13472.5      6.0732      6.6081     65.6018         615     21.8506      8.7211      2.5977
        13473      6.0732       6.402     65.7187         615     23.4298      9.4851      2.5996
      13473.5      6.0732      6.3115     65.8341    586.7792     24.5209      9.9404      2.5961
        13474      6.0732      6.4691     65.8367    580.1887     24.1545      9.6469      2.5899
      13474.5      6.0732       6.752     65.7143    580.1887     23.2968      9.3312      2.5829
        13475      6.0732      7.1252     65.7143    590.8034     22.2192      9.0525      2.5789
      13475.5      6.0732      7.4343     65.5918    602.9412     21.5683      8.7274      2.5774
        13476      6.0732       7.623     65.5112    602.9412     20.9875      8.3238      2.5858
      13476.5      6.0732      7.2759     65.4694    574.8874     20.0154      7.9382      2.5917
        13477      6.0732      6.8846     65.3469    549.1071     19.6261      7.9321      2.5938
      13477.5      6.0732      6.7641     65.2213    567.2646     19.9946      8.0818      2.5848
        13478      6.0732      7.0945     65.3105    621.9003     21.2626      8.6721      2.5819
      13478.5      6.0732      7.3401     65.3469    662.0703     23.0432       9.576      2.5832
        13479      6.0732      7.2899     65.5227    698.8637     24.8654     10.1712      2.5832
      13479.5      6.0732      7.1658     65.4694    683.3333     27.0763     11.2099      2.5834
        13480      6.0732      7.2131     65.4257    683.3333     30.3401     12.4043      2.5849
      13480.5      6.0732      7.3447     65.5009    659.8659     31.8604     12.0044      2.5832
        13481      6.0732       7.377     65.6859    639.0622     26.9739     10.4766      2.5829
      13481.5      6.0732       7.377     65.8367         615     23.6727      9.0849      2.5811
        13482      6.0732      7.2951     65.8164    629.4803     22.7049      9.0525      2.5811
      13482.5      6.0732      7.2951     65.7999    619.2475     23.2994      9.1617      2.5808
        13483      6.0732      7.3095     65.7143    602.9412      23.974      9.3775      2.5787
      13483.5      6.0732      7.4336     65.5523    591.3461     24.1545       9.801       2.577
        13484      6.0732       7.623     65.3673    591.3461     24.1545      9.8663      2.5774
      13484.5      6.0744      7.7637     65.3047    591.3461     24.7451      9.8372      2.5796
        13485      6.0732      7.7679     65.2245    605.7347     22.2041      8.8969      2.5831
      13485.5      6.0732      7.5313      65.214         615     21.0598      8.5449      2.5885
        13486      6.0732      7.1099     65.2245    611.8685      20.372       8.349      2.5941
      13486.5      6.0732      6.7267     65.3469    591.3461      21.056      8.3864      2.5969
        13487      6.0732      6.4754     65.3469    591.3461     20.7047      8.6038      2.5975
      13487.5      6.0732      6.6231     65.5197    602.9412      20.372      8.6886      2.5975
        13488      6.0732      6.6135     65.5918         615     20.1814      8.2636      2.5975
      13488.5      6.0732      6.4754     65.7143    602.9412      20.149      8.3211      2.5971
        13489      6.0732      6.3934     65.7143    587.5105      20.149      8.4788      2.5955
      13489.5      6.0732      6.5457     65.7143    560.5633      20.149      8.4326       2.596
        13490      6.0732      6.6393     65.7143    536.0154      19.997      8.4326       2.597
      13490.5      6.0732      6.5574     65.7143    522.2125     19.8478      8.3698       2.596
        13491      6.0732      6.5082     65.7143    521.1865     19.9284      8.3698      2.5976
      13491.5      6.0732      6.5574     65.5918    529.3983     19.9284      8.3609      2.5964
        13492      6.0732      6.5223     65.5918    521.1865     19.9284      8.3074      2.5908
      13492.5      6.0732      6.5092     65.5918       512.5     19.7857      8.2455      2.5848
        13493      6.0732      6.9377     65.4694    525.2831     19.7103      8.2455      2.5822
      13493.5      6.0732      7.2926      65.403    548.8173      19.746      8.3801      2.5874
        13494      6.0732      7.3374     65.3404     585.588     19.6748      8.4326       2.591
      13494.5      6.0732      7.0494     65.0329    614.9751      19.809      8.7084      2.5912
        13495      6.0732      6.8433     64.8571         615     19.3103      8.2716      2.5867
      13495.5      6.0732      6.8065     64.7365    614.6868      18.899      8.0626      2.5846
        13496      6.0732      7.0934      64.869    585.3213     19.2369      8.2311      2.5838
      13496.5      6.0732      7.2995     65.1765    558.5518      19.773      8.4825      2.5852
        13497      6.0732      7.3305     65.3615    539.4737     20.3444      8.5596      2.5852
      13497.5      6.0732      7.2064     65.4694    549.1071     20.3811      8.5596      2.5859
        13498      6.0732      7.0003     65.4694    565.2621     20.3811      8.5596      2.5873
      13498.5      6.0732      7.0492     65.4694    592.6223     20.3811      8.5596      2.5866
        13499      6.0732      7.1003     65.4694     595.705     20.3811      8.4992      2.5852
      13499.5      6.1138      7.0605     65.4694    589.8054     20.3811      8.5251      2.5847
        13500      6.1138      7.2666     65.2018    569.4444     20.7694      8.7498      2.5848
      13500.5      6.1138      7.3087     64.8944    580.1887     20.7694      8.8833      2.5882
        13501      6.1138      7.3213     64.7263    572.8812     20.7694      8.9524      2.5919
      13501.5      6.1138      6.9274     64.8571    547.2368     20.8546      8.9524      2.5938
        13502      6.1138      6.5113     65.0076    539.4737     20.7694      8.8857      2.5938
      13502.5      6.1138      6.3987     65.1926     541.614     20.7694       8.906      2.5942
        13503      6.1138      6.5044     65.3469     575.976     21.1651      8.9395      2.5919
      13503.5      6.1138      6.4809     65.5627    605.9584     21.1651      8.9731      2.5863
        13504      6.1138      6.3743     65.8367     627.551     21.1651      9.0069      2.5857
      13504.5      6.1138      6.7555     65.9592         615     21.5683      9.0408      2.5873
        13505      6.1138      7.0322     65.8007     593.755     21.5683      9.0748      2.5885
      13505.5      6.1138       7.106     65.4439    576.8981     21.5683      9.0873      2.5916
        13506      6.1138      6.7581     64.8529    578.2577     21.5683      9.0806      2.5943
      13506.5      6.1138       6.448     64.5534    591.3461     21.9793      9.2242      2.5946
        13507      6.1138      6.2419     64.4858    613.1708     21.9793      9.2242      2.5934
      13507.5      6.1138      6.4231     64.7683    623.0035     21.9793      9.1681      2.5934
        13508      6.1138      6.4754     65.1903    604.4324     21.9793      9.1555      2.5925
      13508.5      6.1138      6.6393     65.6985    575.9946     22.2528      9.1555      2.5905
        13509      6.1138      6.5652      66.006    569.4444     22.3981      9.1555      2.5893
      13509.5      6.1138      6.5574     66.0933    559.0909     22.3981      9.1555      2.5893
        13510      6.1138      6.6338     65.9097     558.416     22.3981      9.2242      2.5882
      13510.5      6.1138      6.8399     65.6022    549.1071     22.3981      9.2242      2.5879
        13511      6.1138      6.9672      65.148    569.0347     22.3981      9.2242      2.5903
      13511.5      6.1138      6.8269     64.9623    569.4444     22.7045      9.2638      2.5928
