###############################################
##         ENVERUS                           ##
##         ESS - Open Hole                   ##
##         PERMIAN / DELAWARE                ##
##         Nov 03 2023  V4.0                 ##
##         42-109-32508-00-00                ##
###############################################
## Copyright 2017-2023  ENVERUS.  All Rights Reserved. 
## Confidential - Property of ENVERUS, use governed by terms and 
## conditions found within the existing Information Services Subscription Agreement 
## (as may be amended, the “ISSA”) between Customer and ENVERUS. 
## 
~VERSION INFORMATION
# MNEM.UNIT                               DATA : DESCRIPTION OF MNEMONIC
#-----.-----     ----------------------------- : -----------------------------
VERS.                                     2.00 : CWLS LOG ASCII STANDARD - VERSION 2.00
WRAP.                                       NO : MULTIPLE LINES PER DEPTH STEP
VEND.                                  ENVERUS : VENDOR
TYPE.                          ESS - OPEN HOLE : ENVERUS ESSENTIAL CURVES – ACCESSIBLE THROUGH ENVERUS PRISM(TM)
DOC.                                  51093165 : ENVERUS HEADER RAW DOCUMENT ID
#___________________________________________________________________________________________________ 
~WELL INFORMATION 
# 1l9uGBxUQQhBCtjIwzslcirW42fLV8cokTOAxV7sfA093x4JFuWG6+twQwU/7oNL7vvW02EVanlAmdL+peO2nw== 
# MNEM.UNIT                                              DATA : DESCRIPTION OF MNEMONIC 
#-----.-----                    ----------------------------- : ----------------------------- 
CNTY.                                               CULBERSON : COUNTY 
STATE.                                                  TEXAS : STATE 
CNTRY.                                                    USA : COUNTRY 
API.                                             42-109-32508 : API (10 Digit) 
API_14.                                    42-109-32508-00-00 : API (14 Digits) 
API_14_std.                                 42-109-32508-0000 : API (14 Digits Standard) 
UWI.                                           42109325080000 : UNIQUE WELL ID 
WELL.                                  LT. GIBSON 12 STATE 1H : WELL NAME
STRT.FT                                                1970.5 : START DEPTH
STOP.FT                                                8727.0 : STOP DEPTH
STEP.FT                                                   0.5 : STEP BETWEEN DEPTHS
NULL.                                                 -999.25 : NULL VALUE
PREV_APII.                                     42109325080000 : WELL IDENTIFIER
#___________________________________________________________________________________________________ 
~PARAMETER INFORMATION 
# MNEM.UNIT                                              DATA : DESCRIPTION OF MNEMONIC 
#-----.-----                    ----------------------------- : ----------------------------- 
EKB.FT                                                   3552 : ELEVATION ABOVE MSL
#___________________________________________________________________________________________________ 
~CURVE INFORMATION 
# MNEM.UNIT           : CURVE DESCRIPTION 
#-----.-----          : ----------------------------- 
 DEPT.FT               : MEASURED DEPTH 
 GR__A.API             : GAMMA RAY (GAMMA RAY) 
 DT__A.US/FT           : SONIC DELTA TRANSIT TIME (SONIC) 
 #___________________________________________________________________________________________________ 
~A         DEPT          GR__A          DT__A
# ...
         5537.5        248.047         73.694
         5538.0        226.461         81.474
         5538.5        186.803         84.287
         5539.0        134.440         87.663
         5539.5         97.969         92.346
         5540.0         64.353         97.235
         5540.5         12.909        111.589
         5541.0        -54.097        130.205
         5541.5       -115.112        143.100
         5542.0       -113.406        145.390
         5542.5        -65.890        139.978
         5543.0         10.808        122.013
         5543.5        113.427         92.553
         5544.0        120.285         90.333
         5544.5         80.782        101.057
         5545.0         31.412        113.055
         5545.5          1.542        114.999
         5546.0          4.478        116.707
         5546.5         18.002        116.748
         5547.0         30.851        109.068
         5547.5         35.643        105.743
         5548.0         18.198        103.509
         5548.5         -1.043        106.201
         5549.0         32.675        101.757
         5549.5         72.526        101.336
         5550.0         76.719        102.704
         5550.5         62.068        103.488
         5551.0         43.726        104.289
         5551.5         19.568        104.094
         5552.0         15.183        102.577
         5552.5         62.218         89.119
         5553.0        116.014         77.004
         5553.5        113.889         75.832
         5554.0         74.699         78.363
         5554.5        -24.808         92.998
         5555.0        -96.415        130.321
         5555.5       -114.103        141.151
         5556.0       -106.502        140.670
         5556.5        -79.727        123.468
         5557.0        -32.298        120.500
         5557.5         -2.589        121.479
         5558.0        -26.668        127.004
         5558.5        -78.036        138.068
         5559.0       -104.393        143.860
         5559.5       -108.773        143.807
         5560.0       -107.422        143.470
         5560.5       -109.985        144.724
         5561.0       -123.437        153.671
         5561.5       -142.928        157.611
         5562.0       -154.981        159.235
         5562.5       -146.419        152.441
         5563.0       -126.659        150.715
         5563.5       -133.984        153.582
         5564.0       -146.599        157.936
         5564.5       -150.594        160.140
         5565.0       -146.288        159.844
         5565.5       -142.171        162.387
         5566.0       -144.274        164.149
         5566.5       -154.396        166.996
         5567.0       -151.755        166.943
         5567.5       -138.321        165.964
         5568.0       -133.542        164.790
         5568.5       -133.456        164.396
         5569.0       -136.850        163.418
         5569.5       -143.386        162.829
         5570.0       -145.939        161.850
         5570.5       -140.865        160.196
         5571.0       -132.516        159.454
         5571.5       -138.015        160.190
         5572.0       -147.334        161.753
         5572.5       -148.655        163.122
         5573.0       -146.158        164.101
         5573.5       -146.428        164.689
         5574.0       -153.077        165.668
         5574.5       -154.767        165.946
         5575.0       -139.081        163.189
         5575.5       -125.875        161.805
         5576.0       -123.685        161.598
         5576.5       -134.710        162.378
         5577.0       -142.968        164.912
         5577.5       -141.388        164.912
         5578.0       -139.045        164.709
         5578.5       -133.856        163.925
         5579.0       -125.289        161.743
         5579.5       -123.005        158.375
         5580.0       -118.889        157.920
         5580.5       -104.162        149.230
         5581.0        -84.814        144.735
         5581.5        -66.723        142.725
         5582.0        -65.393        144.064
         5582.5       -112.958        146.482
         5583.0       -115.364        146.209
         5583.5       -108.554        144.532
         5584.0        -98.352        143.217
         5584.5        -86.967        145.020
         5585.0       -102.767        148.349
         5585.5       -128.466        157.285
         5586.0       -139.562        160.391
         5586.5       -140.938        160.351
         5587.0       -148.480        159.649
         5587.5       -152.171        158.978
         5588.0       -144.464        158.194
         5588.5       -133.038        156.631
         5589.0       -131.641        155.161
         5589.5       -131.661        152.231
         5590.0       -134.095        148.873
         5590.5       -112.797        143.554
         5591.0        -95.816        143.665
         5591.5        -91.864        144.402
         5592.0       -114.152        143.737
         5592.5       -113.399        145.343
         5593.0       -110.149        143.136
         5593.5       -109.646        145.045
         5594.0       -116.073        150.237
         5594.5       -134.243        152.867
         5595.0       -135.385        155.413
         5595.5       -133.612        156.292
         5596.0       -129.465        157.856
         5596.5       -126.230        159.029
         5597.0       -123.551        159.259
         5597.5       -130.153        159.427
         5598.0       -132.349        160.968
         5598.5       -135.946        161.033
         5599.0       -146.153        159.469
         5599.5       -141.883        159.454
         5600.0       -135.236        159.649
         5600.5       -133.540        161.204
         5601.0       -137.894        161.204
         5601.5       -139.855        159.059
         5602.0       -139.434        158.275
         5602.5       -139.090        157.700
         5603.0       -142.223        158.710
         5603.5       -143.750        159.476
         5604.0       -142.474        159.688
         5604.5       -136.808        156.695
         5605.0       -136.650        156.496
         5605.5       -138.358        155.127
         5606.0       -141.016        154.386
         5606.5       -138.188        154.386
         5607.0       -134.664        153.455
         5607.5       -133.203        150.714
         5608.0       -128.163        145.340
         5608.5       -120.088        137.566
         5609.0       -107.534        136.452
         5609.5       -114.879        136.984
         5610.0       -129.958        139.406
         5610.5       -145.313        142.653
         5611.0       -144.256        145.307
         5611.5       -138.107        146.004
         5612.0       -136.902        146.680
         5612.5       -130.668        147.174
         5613.0       -131.649        147.858
         5613.5       -138.074        148.733
         5614.0       -128.703        148.236
         5614.5       -105.298        148.260
         5615.0       -104.822        149.628
         5615.5       -121.120        153.666
         5616.0       -134.587        158.338
         5616.5       -141.797        160.572
         5617.0       -137.865        160.251
         5617.5       -122.662        155.908
         5618.0        -97.532        148.305
         5618.5        -82.625        142.070
         5619.0        -88.912        138.838
         5619.5       -103.667        141.588
         5620.0       -111.251        143.431
         5620.5        -97.837        143.928
         5621.0        -74.824        139.678
         5621.5        -62.162        130.878
         5622.0        -62.021        128.655
         5622.5        -70.487        130.550
         5623.0        -82.646        138.639
         5623.5        -99.686        147.524
         5624.0       -116.694        151.227
