#--------------------------------------------------#
#----------------DRILLING INFO, INC.---------------#
#---------------WWW.DRILLINGINFO.COM---------------#
#------------------COPYRIGHT 2018------------------#
#--------------------------------------------------#
#THIS FILE MAY BE USED ONLY IN ACCORDANCE WITH A CURRENT SUBSCRIPTION AGREEMENT BETWEEN
#THE USER AND DRILLING INFO, INC. NO PART OF THIS FILE MAY BE REPRODUCED, USED, COPIED,
#MODIFIED, PROPAGATED, OR DISTRIBUTED EXCEPT IN ACCORDANCE WITH THE SUBSCRIPTION
#AGREEMENT. UNAUTHORIZED USE OR DISTRIBUTION OF ALL OR ANY PART OF THIS FILE MAY VIOLATE
#COPYRIGHT, TRADEMARK, AND/OR OTHER LAWS AND IS SUBJECT TO CIVIL AS WELL AS CRIMINAL
#SANCTIONS.
#--------------------------------------------------#
#THIS FILE IS PROVIDED "AS-IS" AND ALL WARRANTIES ARE EXPRESSLY DISCLAIMED, WHETHER
#EXPRESS, ORAL, IMPLIED, STATUTORY OR OTHERWISE, INCLUDING ANY IMPLIED WARRANTY OF FITNESS
#FOR A PARTICULAR PURPOSE, MERCHANTABILITY, TITLE OR NON-INFRINGEMENT, AND ANY WARRANTIES
#ARISING BY VIRTUE OF CUSTOM OF TRADE OR COURSE OF DEALING.  FURTHER, DRILLING INFO,
#INC. AND ITS LICENSORS DO NOT REPRESENT OR WARRANT THAT THIS FILE WILL MEET USER'S
#REQUIREMENTS OR ARE SUITABLE FOR USER'S NEEDS OR THAT THE DATA OR RESULTS PROVIDED IN
#CONJUNCTION THEREWITH ARE CORRECT, ACCURATE, TIMELY OR RELIABLE. THESE DISCLAIMERS SHALL
#APPLY REGARDLESS OF ANY FAILURE OF ESSENTIAL PURPOSE OF ANY LIMITED REMEDY.  SOME
#JURISDICTIONS DO NOT ALLOW THE EXCLUSION OF CERTAIN WARRANTIES SO SOME OF THE ABOVE
#EXCLUSIONS MAY NOT APPLY. IN NO EVENT SHALL DRILLING INFO, INC. OR ANY OF ITS AFFILIATES
#BE LIABLE UNDER ANY LEGAL THEORY, WHETHER IN TORT (INCLUDING WITHOUT LIMITATION
#NEGLIGENCE), CONTRACT, STRICT LIABILITY, STATUTORY OR OTHERWISE, FOR ANY SPECIAL,
#INCIDENTAL, CONSEQUENTIAL, EXEMPLARY, PUNITIVE OR INDIRECT DAMAGE OF ANY KIND, INCLUDING
#WITHOUT LIMITATION LOSS OF REVENUE, PROFITS, GOODWILL, USE, AND/OR DATA OR THE COST OF
#PROCUREMENT OF SUBSTITUTE GOODS OR SERVICES, EVEN IF APPRISED OF THE POSSIBILITY OF SUCH
#DAMAGES IN ADVANCE.
#--------------------------------------------------#
# Exported from DI Transform
# DI Transform - A Product of Drillinginfo, Inc. - www.drillinginfo.com
#--------------------------------------------------#
#
~VERSION INFORMATION
 VERS.        2.0 : LAS ASCII STANDARD - VERSION 2.0
 WRAP.         NO : ONE LINE PER DEPTH STEP

~WELL INFORMATION
#MNEM.UNIT       DATA TYPE       INFORMATION
#---------       ---------       -----------
 STRT.ft          9043 : Start Depth
 STOP.ft         16870 : Stop Depth
 STEP.ft           0.5 : Step Length
 NULL.         -999.25 : Null Value
 COMP.                 : Company
 WELL.          DRD_55 : Well Name
 FLD.                  : Field Name
 LOC.                  : Well Location
 CNTY.                 : County
 STAT.                 : State or Province
 CTRY.                 : Country
 SRVC.                 : Service Company
 DATE.                 : Date
 API.   42109326310000 : Well Identifier

~CURVE INFORMATION
#MNEM.UNIT       API CODE       CURVE DESCRIPTION
#---------       --------       -----------------
 DEPT.ft          : <Measured Depth>
 CAL.in           : Caliper
 DPHI.%           : Density Porosity
 DT.us/ft         : Sonic
 GR.gAPI          : Gamma Ray
 ILD.ohmm         : Deep Resistivity
 ILS.ohmm         : Shallow Resistivity
 RHOB.g/cm3       : Density

~PARAMETER INFORMATION
#MNEM.UNIT       VALUE       DESCRIPTION
#---------       -----       -----------
 EKB.ft      3382 : Elevation above MSL

~A       DEPT         CAL        DPHI          DT          GR         ILD         ILS        RHOB
# ...
        15398      6.0325      6.6272     65.4694    474.1677     22.8248       8.266      2.5959
      15398.5      6.0325      6.8333     65.4694    470.4503      22.564      8.1602      2.5937
        15399      6.0325      6.8131     65.5715    453.0127     21.5683      8.0144      2.5917
      15399.5      6.0325       6.689     65.6341    445.6522     21.5683      7.9118      2.5869
        15400      6.0732      6.6345     65.8191    458.3376     21.5683      7.8104      2.5817
      15400.5      6.1138      6.9308     65.9592       476.2     21.5683      7.5593      2.5865
        15401      6.1138      7.3596     65.9592    480.4688     20.7052      7.2992      2.5873
      15401.5      6.1138      7.1762     66.0068    477.1385     19.7471      7.1629      2.5891
        15402      6.1138      6.9701     66.1918    466.1632     19.2591      7.1492      2.5912
      15402.5      6.1138      6.8425     66.4993    469.6466     19.2591      6.9673      2.5895
        15403      6.1138      7.0486     66.6939    458.9552     19.2591      6.9772      2.5865
      15403.5      6.1138      7.2546     66.8163    458.9552     19.2591      7.0133      2.5825
        15404      6.1138      7.4607     66.8163    459.0985     19.2591      7.1629      2.5793
      15404.5      6.1138      7.6668     66.8163    477.0288     19.5311      7.1629      2.5772
        15405      6.1138      7.8697     66.8148    488.4782     19.6261      7.2742      2.5751
      15405.5      6.1138      7.5435     66.8163    500.5425     20.2907       7.416       2.573
        15406      6.1138      6.9546     66.8163     503.475     21.2755      7.5122      2.5854
      15406.5      6.1138      6.6729     66.8163    483.5904     22.3078       7.633      2.5892
        15407      6.1138      6.6393     66.8175    458.2486     22.3981      7.7223      2.5913
      15407.5      6.1138      6.6393     67.0612    441.7132     23.1754      7.7723      2.5933
        15408      6.1138      6.5465     67.0651    445.6522     24.3004      7.8951      2.5954
      15408.5      6.1138      6.3404     67.2501     456.571     25.4793      8.1022      2.5975
        15409      6.1138      6.3115     67.3127    481.6948     26.5449      8.1394      2.5995
      15409.5      6.1138      6.2295     67.4977    501.4541     26.5449      8.2216      2.6016
        15410      6.1138      6.0501     67.5603       512.5     27.2364      8.3283      2.6037
      15410.5      6.1138      5.9836     67.7453       512.5     28.5576      8.4363      2.6057
        15411      6.1138      6.1742     67.9303    510.6784     30.5146       8.651      2.6037
      15411.5      6.1138      6.4533     68.1633    490.2143     31.9947      8.9346      2.6006
        15412      6.1138      6.4553     68.2857    473.0769     33.5482      9.2919      2.5975
      15412.5      6.1138      6.2735     68.2744     460.632     35.1753       9.639      2.5934
        15413      6.1138      6.6543     68.2684    452.2059     36.8834      9.9787      2.5892
      15413.5      6.1138      7.3159     68.1633    458.9552     38.6721     10.3596       2.582
        15414      6.1138      7.7206     68.1633    475.3012     39.4559     10.6303      2.5751
      15414.5      6.1138      7.6047     68.2857     474.445     39.4559     10.9078      2.5792
        15415      6.1138      7.2137     68.5533    456.7351     40.2076     10.9125      2.5833
      15415.5      6.1138      6.9801     68.7383    446.6814      39.479     10.8388      2.5874
        15416      6.1138       6.856     68.7755    454.6152     37.6459     10.6778      2.5894
      15416.5      6.1138      6.6499     68.5651    465.9091     35.9019     10.4737      2.5915
        15417      6.1138      6.5574     68.2577    473.0769     35.5753     11.0396      2.5935
      15417.5      6.1138      6.5574     68.0408    465.9091     37.3002     11.7943      2.5938
        15418      6.1138      6.6393     67.9775     449.499     38.3318     12.0149      2.5938
      15418.5      6.1138      6.5574     68.0444      433.55     37.2839     12.0149      2.5938
        15419      6.1138      6.4393     67.8954     424.503     37.2839     12.0149      2.5939
      15419.5      6.1138      6.2332     67.4683    410.2489     38.0423     12.2592       2.595
        15420      6.1138      6.0079     67.0683     396.949     39.8898     12.8546       2.598
      15420.5      6.1138      5.7391     66.6683    404.5165     41.8244      13.478      2.6096
        15421      6.1138      5.8604     66.2407    399.3506     44.1062     14.1325      2.6064
      15421.5      6.1138      6.1485     66.0816    404.6053     47.8528     14.8336      2.6023
        15422      6.1138      6.3545     65.9592         410        52.8     15.8393      2.5994
      15422.5      6.1138      6.3902     65.8367    415.5405     51.6856     15.3182       2.598
        15423      6.1138      6.1842     65.8047    424.4692     48.1414     14.6095      2.6019
      15423.5      6.1138      5.9781     65.5918    427.4875     46.0203      13.928       2.604
        15424      6.1138       5.772     65.5203    429.6025     48.2545     14.6941      2.6055
      15424.5      6.1138      5.9094     65.7143     415.013     51.1611     15.7536      2.6034
        15425      6.1138      6.1405     65.9592     401.404     54.0623     16.3148      2.6012
      15425.5      6.1138      6.4035     65.9667    410.6829     49.6803     15.4166      2.5981
        15426      6.1138      6.5574      65.636    417.6054     44.9406     14.1305      2.5952
      15426.5      6.1138      6.7337     64.8801    415.5405     40.0438     13.4006      2.5931
        15427      6.1138      6.8852     63.9915    406.4109     38.1906     12.7805      2.5914
      15427.5      6.1138      6.7066     62.8517    399.3506     36.5869     12.1889      2.5914
        15428      6.1138      6.5005     62.2318    402.9938      35.399     11.6248      2.5917
      15428.5      6.1138      6.3934     61.6168    416.7208     33.7607     11.1395      2.5938
        15429      6.1138      6.5345     60.9718    427.0833     33.7819     11.3051      2.5955
      15429.5      6.1138      6.6393      59.835    437.8295     35.4215     11.8538      2.5955
        15430      6.1138      6.6393     58.1733    431.5911     37.1402      12.429      2.5955
      15430.5      6.1138      6.4538     56.9284    419.7335      38.943     13.0322      2.5959
        15431      6.1138      6.2478     54.5209    419.9658     41.1492     13.6645       2.598
      15431.5      6.1138      6.0656     52.5107    428.8364     45.7386     14.3279         2.6
        15432      6.1138      6.0401     50.9379     438.082     50.1985     15.0229      2.6007
      15432.5      6.1138      6.7048     50.0894    434.1796     52.0269     15.3316      2.5952
        15433      6.1138        7.22     49.7249    430.6294     48.7565     14.5496      2.5856
      15433.5      6.1138      7.5695     49.3506    430.3956     44.7174     13.8765      2.5791
        15434      6.1138      7.5523     48.9138    429.1944     42.6468      13.234      2.5767
      15434.5      6.1138       7.377     48.0609    427.6158     39.4824     12.5759      2.5796
        15435      6.1138      7.2222     47.6379    426.3914     36.0379     11.8122      2.5816
      15435.5      6.1138      7.0161     47.3371    418.4219     33.6644     11.2658      2.5837
        15436      6.1138        6.81     47.3036    411.8752     34.4753     11.5283      2.5858
      15436.5      6.1138      7.0026      47.611    408.0347     38.7923     12.9818      2.5873
        15437      6.1138      7.0492     47.9185    409.7065     39.8923     14.0841      2.5878
      15437.5      6.1138      6.9927     48.4031    412.5464     37.6701     13.9398      2.5899
        15438      6.1138      6.6027     49.1457     426.929     34.6276     12.2592       2.592
      15438.5      6.1138      6.3535      49.698    442.3902     32.3777     12.0149       2.594
