###############################################
##         ENVERUS                           ##
##         ESS - Open Hole                   ##
##         PERMIAN / DELAWARE                ##
##         Nov 02 2023  V4.0                 ##
##         42-109-32255-00-00                ##
###############################################
## Copyright 2017-2023  ENVERUS.  All Rights Reserved. 
## Confidential - Property of ENVERUS, use governed by terms and 
## conditions found within the existing Information Services Subscription Agreement 
## (as may be amended, the “ISSA”) between Customer and ENVERUS. 
## 
~VERSION INFORMATION
# MNEM.UNIT                               DATA : DESCRIPTION OF MNEMONIC
#-----.-----     ----------------------------- : -----------------------------
VERS.                                     2.00 : CWLS LOG ASCII STANDARD - VERSION 2.00
WRAP.                                       NO : MULTIPLE LINES PER DEPTH STEP
VEND.                                  ENVERUS : VENDOR
TYPE.                          ESS - OPEN HOLE : ENVERUS ESSENTIAL CURVES – ACCESSIBLE THROUGH ENVERUS PRISM(TM)
DOC.                                  22531479 : ENVERUS HEADER RAW DOCUMENT ID
#___________________________________________________________________________________________________ 
~WELL INFORMATION 
# hWe/832LbRsDOXT7erJRLf+k/AYA64twV/RtTeeHm/CkPExvlrAQ0qJE/El28xU0WYmlktkqeCNHArF5iUyCGg== 
# MNEM.UNIT                                              DATA : DESCRIPTION OF MNEMONIC 
#-----.-----                    ----------------------------- : ----------------------------- 
CNTY.                                               CULBERSON : COUNTY 
STATE.                                                  TEXAS : STATE 
CNTRY.                                                    USA : COUNTRY 
API.                                             42-109-32255 : API (10 Digit) 
API_14.                                    42-109-32255-00-00 : API (14 Digits) 
API_14_std.                                 42-109-32255-0000 : API (14 Digits Standard) 
UWI.                                           42109322550000 : UNIQUE WELL ID 
WELL.                               MELISSA TAYLOR STATE 27-1 : WELL NAME
STRT.FT                                                7612.0 : START DEPTH
STOP.FT                                               13645.5 : STOP DEPTH
STEP.FT                                                   0.5 : STEP BETWEEN DEPTHS
NULL.                                                 -999.25 : NULL VALUE
COMP.                                         PETRO-HUNT,LLC. : COMPANY 
FLD.                                                  WILDCAT : FIELD 
SRVC.                                            SCHLUMBERGER : SERVICE COMPANY 
DATE.                                              04/06/2006 : DATE 
TVD.                                                       NO : TVD FLAG
#___________________________________________________________________________________________________ 
~PARAMETER INFORMATION 
# MNEM.UNIT                                              DATA : DESCRIPTION OF MNEMONIC 
#-----.-----                    ----------------------------- : ----------------------------- 
RUN.                                                      ONE : RUN NUMBER 
PDAT.                                                      GL : PERMANENT DATUM 
EPD.FT                                               000.0000 : ELEVATION OF PERM. DATUM 
LMF.                                            KELLY BUSHING : LOG MEASURED FROM 
EKB.FT                                                 3796.6 : ELEVATION OF KELLY BUSHING 
DF.FT                                                  3773.0 : ELEVATION OF DERRICK FLOOR 
GL.FT                                                  3795.6 : ELEVATION OF GROUND LEVEL 
TD.FT                                              13716.0000 : TOTAL DEPTH 
BHT.DEGF                                               224.00 : BOTTOM HOLE TEMPERATURE 
BLI.FT                                             13716.0000 : BOTTOM LOG INTERVAL 
CSGSIZE.IN                                             9.6250 : CASING SIZE 
BITSIZE.IN                                              8.750 : BITSIZE 
CSGD.FT                                               12804.0 : CASING BOTTOM (DRILLER) 1 
CSGL.FT                                               12802.0 : CASING BOTTOM (LOGGER) 1 
MUD.                                                    BRINE : DRILLING FLUID TYPE 
MUDV.CP                                                  45.0 : DRILLING FLUID VISCOSITY 
MUDD.LB/USG                                               9.5 : DRILLING FLUID DENSITY 
PH.                                                      10.0 : DRILLING FLUID PH 
FL.ML/30MIN                                               5.0 : DRILLING FLUID LOSS 
MUDS.                                               CIRC TANK : MUD SAMPLE SOURCE 
RM.OHMM                                                 0.064 : RESISTIVITY OF MUD SAMPLE 
RMT.DEGF                                                66.00 : MUD SAMPLE TEMPERATURE 
RMF.OHMM                                                0.048 : MUD FILTRATE RESISTIVITY 
RMFT.DEGF                                               66.00 : MUD FILTRATE SAMPLE TEMPERATURE 
RMC.OHMM                                                0.095 : MUD CAKE RESISTIVITY 
RMCT.DEGF                                               66.00 : MUD CAKE SAMPLE TEMPERATURE 
RMB.OHMM                                                0.015 : MUD RESISTIVITY AT BHT 
TMAX.DEGF                                              224.00 : BOTTOM HOLE TEMPERATURE
#___________________________________________________________________________________________________ 
~CURVE INFORMATION 
# MNEM.UNIT           : CURVE DESCRIPTION 
#-----.-----          : ----------------------------- 
 DEPT.FT               : MEASURED DEPTH 
 DT__A.US/FT           : SONIC DELTA TRANSIT TIME (DELTA T COMP) 
 SPHI__A.V/V           : SONIC POROSITY (SONIC POROSITY) 
 #___________________________________________________________________________________________________ 
~A         DEPT          DT__A        SPHI__A
         7612.0         69.819        0.17100
         7612.5         70.768        0.17100
         7613.0         71.747        0.17200
         7613.5         72.229        0.17300
         7614.0         71.145        0.17200
         7614.5         70.795        0.16800
         7615.0         70.431        0.16300
         7615.5         70.355        0.16100
         7616.0         69.879        0.15700
         7616.5         69.525        0.15400
         7617.0         69.110        0.15300
         7617.5         69.586        0.15700
         7618.0         70.156        0.16000
         7618.5         70.727        0.16500
         7619.0         71.087        0.16500
         7619.5         70.953        0.16600
         7620.0         68.588        0.15200
         7620.5         65.017        0.12200
         7621.0         61.447        0.07900
         7621.5         57.877        0.06600
         7622.0         54.398        0.04900
         7622.5         54.398        0.05400
         7623.0         55.843        0.06300
         7623.5         57.380        0.06900
         7624.0         61.731        0.11000
         7624.5         67.046        0.14600
         7625.0         72.361        0.18200
         7625.5         78.614        0.21300
         7626.0         78.735        0.22100
         7626.5         77.804        0.21400
         7627.0         76.908        0.20700
         7627.5         76.012        0.20000
         7628.0         75.115        0.19300
         7628.5         74.467        0.19100
         7629.0         74.711        0.19400
         7629.5         75.283        0.19800
         7630.0         75.964        0.20100
         7630.5         76.205        0.20400
         7631.0         75.590        0.19900
         7631.5         74.659        0.19100
         7632.0         73.716        0.18300
         7632.5         73.196        0.18100
         7633.0         72.754        0.17800
         7633.5         72.596        0.17800
         7634.0         73.491        0.18500
         7634.5         74.420        0.19300
         7635.0         75.027        0.19500
         7635.5         75.059        0.19500
         7636.0         74.647        0.19100
         7636.5         73.697        0.18500
         7637.0         72.745        0.17900
         7637.5         71.609        0.17000
         7638.0         66.348        0.13300
         7638.5         59.843        0.09400
         7639.0         54.094        0.05400
         7639.5         51.555        0.03900
         7640.0         52.226        0.03200
         7640.5         51.718        0.02600
         7641.0         50.276        0.01800
         7641.5         49.784        0.01700
         7642.0         51.195        0.03300
         7642.5         55.949        0.06000
         7643.0         65.813        0.12900
         7643.5         75.602        0.18500
         7644.0         77.108        0.21700
         7644.5         78.373        0.21800
         7645.0         76.860        0.21800
         7645.5         74.337        0.19900
         7646.0         71.815        0.18300
         7646.5         70.133        0.16700
         7647.0         69.690        0.15400
         7647.5         69.410        0.15400
         7648.0         69.328        0.15300
         7648.5         68.808        0.15200
         7649.0         68.023        0.14900
         7649.5         65.600        0.12400
         7650.0         62.570        0.10400
         7650.5         59.540        0.08400
         7651.0         57.025        0.07000
         7651.5         56.178        0.06100
         7652.0         52.357        0.04400
         7652.5         47.047        0.01000
         7653.0         43.906       -0.02700
         7653.5         47.349       -0.00600
         7654.0         53.871        0.03300
         7654.5         56.812        0.06500
         7655.0         56.501        0.06600
         7655.5         55.366        0.05000
         7656.0         54.227        0.04600
         7656.5         53.520        0.04100
         7657.0         53.089        0.04200
         7657.5         53.918        0.04900
         7658.0         56.187        0.06500
         7658.5         58.757        0.08100
         7659.0         60.904        0.09400
         7659.5         62.947        0.13800
         7660.0         69.074        0.18300
         7660.5         78.253        0.21400
         7661.0         78.630        0.21900
         7661.5         78.976        0.22100
         7662.0         78.133        0.20900
         7662.5         76.542        0.19700
         7663.0         74.554        0.18500
         7663.5         72.566        0.17300
         7664.0         70.181        0.15900
         7664.5         69.974        0.15800
         7665.0         69.716        0.15700
         7665.5         69.458        0.15700
         7666.0         69.578        0.15700
         7666.5         69.458        0.15700
         7667.0         69.538        0.15700
         7667.5         69.672        0.15700
         7668.0         69.806        0.15700
         7668.5         69.940        0.15700
         7669.0         69.801        0.15700
         7669.5         69.662        0.15600
         7670.0         69.523        0.15500
         7670.5         69.384        0.15300
         7671.0         69.217        0.15400
         7671.5         69.337        0.15500
         7672.0         69.639        0.15600
         7672.5         69.940        0.15700
         7673.0         70.181        0.15700
         7673.5         70.181        0.15800
         7674.0         70.141        0.15900
         7674.5         70.076        0.16000
         7675.0         70.010        0.15900
         7675.5         69.945        0.15900
         7676.0         69.880        0.15800
         7676.5         69.814        0.15800
         7677.0         69.749        0.15700
         7677.5         69.683        0.15700
         7678.0         69.618        0.15700
         7678.5         69.578        0.15900
         7679.0         70.084        0.16300
         7679.5         70.928        0.16800
         7680.0         71.265        0.17100
         7680.5         70.440        0.16300
         7681.0         69.560        0.15100
         7681.5         68.679        0.14500
         7682.0         67.799        0.13700
         7682.5         66.918        0.13200
         7683.0         66.205        0.13400
         7683.5         66.549        0.13700
         7684.0         66.979        0.13900
         7684.5         67.410        0.14200
         7685.0         67.771        0.14500
         7685.5         67.831        0.14500
         7686.0         67.892        0.14200
         7686.5         66.807        0.13300
         7687.0         65.904        0.12600
         7687.5         65.000        0.11800
         7688.0         63.916        0.11600
         7688.5         63.916        0.11800
         7689.0         63.916        0.11900
         7689.5         64.277        0.12300
         7690.0         64.518        0.12900
         7690.5         66.235        0.13500
         7691.0         67.205        0.14200
         7691.5         67.867        0.15000
         7692.0         71.446        0.17600
         7692.5         74.880        0.19300
         7693.0         73.163        0.18400
         7693.5         71.446        0.17000
         7694.0         69.729        0.15600
         7694.5         68.012        0.14100
         7695.0         66.807        0.12800
         7695.5         65.602        0.13000
         7696.0         66.253        0.13700
         7696.5         67.337        0.14400
         7697.0         68.697        0.15200
         7697.5         70.241        0.16100
         7698.0         71.785        0.17000
         7698.5         72.922        0.17900
