# Exported from Transform Software 5.2.0 on 21-Oct-2019 by user kathryn.gehrke
# DI Transform - A Product of Drillinginfo, Inc. - www.drillinginfo.com
#
~VERSION INFORMATION
 VERS.        2.0 : LAS ASCII STANDARD - VERSION 2.0
 WRAP.         NO : ONE LINE PER DEPTH STEP

~WELL INFORMATION
#MNEM.UNIT       DATA TYPE       INFORMATION
#---------       ---------       -----------
 STRT.ft                  30 : Start Depth
 STOP.ft                9000 : Stop Depth
 STEP.ft                 0.5 : Step Length
 NULL.               -999.25 : Null Value
 COMP.                       : Company
 WELL.  42109330470000_API14 : Well Name
 FLD.                        : Field Name
 LOC.                        : Well Location
 CNTY.                       : County
 STAT.                       : State or Province
 CTRY.                       : Country
 SRVC.                       : Service Company
 DATE.                       : Date
 API.         42109330470000 : Well Identifier

~CURVE INFORMATION
#MNEM.UNIT       API CODE       CURVE DESCRIPTION
#---------       --------       -----------------
 DEPT.ft        : <Measured Depth>
 DT.us/ft       : Sonic
 GR.gAPI        : Gamma Ray

~PARAMETER INFORMATION
#MNEM.UNIT       VALUE       DESCRIPTION
#---------       -----       -----------
 EKB.ft      3201 : Elevation above MSL

~A      DEPT          DT          GR
# ...
        2417    337.0455     58.1075
      2417.5    337.0455     41.7937
        2418    337.0455     38.5924
      2418.5    337.0455     42.1512
        2419    337.0455     42.1028
      2419.5    337.0455     42.0918
        2420    337.0455     47.3355
      2420.5    337.0455     51.8727
        2421    337.0455     53.5902
      2421.5    337.0455      52.741
        2422    337.0455     51.7513
      2422.5    337.0455     50.9017
        2423    337.0455      49.194
      2423.5    337.0455     48.0116
        2424    337.0455     44.9354
      2424.5    337.0455     38.1668
        2425    336.9163     37.6907
      2425.5    336.8704     43.4705
        2426    336.8704     47.8683
      2426.5    336.8704     54.8935
        2427    336.8704     59.6322
      2427.5    336.8704      52.747
        2428    336.8704     44.4035
      2428.5    336.8704     40.4553
        2429    336.8704     42.4226
      2429.5    336.8704     42.6909
        2430    336.8704     37.9619
      2430.5    336.8704     37.1051
        2431    336.8704     44.1303
      2431.5    336.8704      51.619
        2432    336.8704     48.5341
      2432.5    336.8704     40.7183
        2433    336.8704     32.7711
      2433.5    336.8704     29.9475
        2434    336.8704     34.6782
      2434.5    336.8704     40.3919
        2435    336.8704     43.2803
      2435.5    336.8704     42.4901
        2436    336.8704     42.4926
      2436.5    336.8704     47.5544
        2437    336.8704     54.1866
      2437.5    336.8704     57.5983
        2438    336.8704     58.2552
      2438.5    336.8704     61.0818
        2439    336.8704     67.8493
      2439.5    336.8704     69.8089
        2440    336.8704     66.7877
      2440.5    336.8704     64.7484
        2441    336.8704     54.6137
      2441.5    336.8704     46.0961
        2442    336.8704      45.122
      2442.5    336.8704     47.3552
        2443    336.8704     47.0842
      2443.5    336.8704      44.781
        2444    336.8704     44.7991
      2444.5    336.8704     47.9519
        2445    336.8704     50.3772
      2445.5    336.8704     52.0849
        2446    336.8704     47.9094
      2446.5    336.8704      37.877
        2447    336.8704     35.1416
      2447.5    336.8704     39.0227
        2448    336.8704     42.7008
      2448.5    336.8704     43.7261
        2449    336.8704     37.2762
      2449.5    336.8704     32.5744
        2450    336.8704     38.0023
      2450.5    336.8704       50.54
        2451    336.8704     54.6109
      2451.5    336.8704     43.2407
        2452    336.8704     39.9616
      2452.5    336.8704     49.9036
        2453    336.8704     59.4029
      2453.5    336.8704     60.3461
        2454    336.8704     54.0237
      2454.5    336.8704     53.1394
        2455    336.8704     56.8357
      2455.5    336.8704     53.8155
        2456    336.8704     46.4591
      2456.5    336.8704     41.6934
        2457    336.8704     39.1976
      2457.5    336.8704      37.303
        2458    336.8704     39.2387
      2458.5    336.8704     48.5311
        2459    336.8704     57.8365
      2459.5    336.8704      63.726
        2460    336.8704     67.6669
      2460.5    336.8704     64.0524
        2461    336.8704     54.3859
      2461.5    336.8704     48.9694
        2462    336.8704     45.8166
      2462.5    336.8704     45.1839
        2463    336.8704     45.2371
      2463.5    336.8704     43.6077
        2464    336.8704     50.6991
      2464.5    336.8704     59.7897
        2465    336.8704     63.9408
      2465.5    336.8704     71.8492
        2466    336.8704     78.2317
      2466.5    336.8704     77.7583
        2467    336.8704     79.0202
      2467.5    336.8704      77.884
        2468    336.8704     64.7191
      2468.5    336.8704     55.7134
        2469    336.8704     52.5394
      2469.5    336.8704     59.4903
        2470    336.8704     74.8291
      2470.5    336.8704     81.8803
        2471    336.8704     71.1152
      2471.5    336.8704     61.5706
        2472    336.8704     59.9445
      2472.5    336.8704     53.8863
        2473    336.8704     45.3313
      2473.5    336.8704     44.7409
        2474    336.8704     48.9781
      2474.5    336.8704     51.4886
        2475    336.8704     48.2185
      2475.5    336.8704     43.2618
        2476    336.8704     43.2492
      2476.5    336.8704     51.4651
        2477    336.8704     66.2975
      2477.5    336.8704     80.0175
        2478    336.8704     90.6106
      2478.5    336.8704    104.0094
        2479    336.8704    109.1593
      2479.5    336.8704     96.6119
        2480    336.8704     81.1883
      2480.5    336.8704     74.3501
        2481    336.8704     63.1973
      2481.5    336.8704     49.0443
        2482    336.6953     49.2052
      2482.5    336.6953     56.1267
        2483    336.6953     50.7081
      2483.5    336.6953     43.4347
        2484    336.6953     47.8504
      2484.5    336.6953     57.7026
        2485    336.6953     64.8419
      2485.5    336.6953     64.0107
        2486    336.6953     62.7846
      2486.5    336.6953     60.2448
        2487    336.6953      53.195
      2487.5    336.6953     53.9428
        2488    336.6953     63.6634
      2488.5    336.6953     63.7438
        2489    336.6953     51.2613
      2489.5    336.6953     45.0059
        2490    336.6953     43.0823
      2490.5    336.6953     43.5238
        2491    336.6953     49.2618
      2491.5    336.6953     49.5599
        2492    336.6953     50.7978
      2492.5    336.6953     58.9422
        2493    336.6953     61.3312
      2493.5    336.6953     53.2277
        2494    336.6953     48.5989
      2494.5    336.6953     52.9035
        2495    336.6953     58.0159
      2495.5    336.6953     48.3929
        2496    336.6953     37.6848
      2496.5    336.6953      38.813
        2497    336.6953     51.6996
      2497.5    336.6953     68.2371
        2498    336.6953     80.0059
      2498.5    336.6953     79.6746
        2499    336.6953     75.7337
      2499.5    336.6953      74.699
        2500    336.6953     78.9195
      2500.5    336.6953     77.7406
        2501    336.6953     65.6375
      2501.5    336.6953     50.3999
        2502    336.6953     38.8027
      2502.5    336.6953     35.7268
        2503    336.6953     37.2293
      2503.5    336.6953      42.053
        2504    336.6953      48.227
      2504.5    336.6953     49.2919
        2505    336.6953     49.8404
      2505.5    336.6953     55.6201
        2506    336.6953     55.2732
      2506.5    336.6953     47.1644
        2507    336.6953     41.0511
      2507.5    336.6953     38.2574
        2508    336.6953      37.303
      2508.5    336.6953     38.5473
        2509    336.6953     42.9792
      2509.5    336.6953      49.056
        2510    336.6953     49.9464
      2510.5    336.6953     45.2514
        2511    336.6953     38.7171
      2511.5    336.6953     36.9736
        2512    336.6953     45.8062
      2512.5    336.6953     55.1005
        2513    336.6953     50.0761
      2513.5    336.6953     41.8339
        2514    336.6953     41.4738
      2514.5    336.6953     45.3823
        2515    336.6953     49.8486
      2515.5    336.6953     54.3148
        2516    336.6953     59.3065
      2516.5    336.6953     58.7441
        2517    336.6953     57.0053
      2517.5    336.6953     57.0053
        2518    336.6953     53.9757
      2518.5    336.6953     45.7304
        2519    336.6953     37.1311
      2519.5    336.6953     35.5654
        2520    336.6953     40.3657
      2520.5    336.6953     44.7602
        2521    336.6953     48.2773
      2521.5    336.6953     51.8534
        2522    336.6953     52.3348
      2522.5    336.6953     50.2776
        2523    336.6953     57.3588
      2523.5    336.6953      65.092
        2524    336.6953     69.8209
      2524.5    336.6953     70.5452
        2525    336.6953     52.2922
