###############################################
##         ENVERUS                           ##
##         ESS - Open Hole                   ##
##         PERMIAN / DELAWARE                ##
##         Nov 03 2023  V4.0                 ##
##         42-109-32978-00-00                ##
###############################################
## Copyright 2017-2023  ENVERUS.  All Rights Reserved. 
## Confidential - Property of ENVERUS, use governed by terms and 
## conditions found within the existing Information Services Subscription Agreement 
## (as may be amended, the “ISSA”) between Customer and ENVERUS. 
## 
~VERSION INFORMATION
# MNEM.UNIT                               DATA : DESCRIPTION OF MNEMONIC
#-----.-----     ----------------------------- : -----------------------------
VERS.                                     2.00 : CWLS LOG ASCII STANDARD - VERSION 2.00
WRAP.                                       NO : MULTIPLE LINES PER DEPTH STEP
VEND.                                  ENVERUS : VENDOR
TYPE.                          ESS - OPEN HOLE : ENVERUS ESSENTIAL CURVES – ACCESSIBLE THROUGH ENVERUS PRISM(TM)
DOC.                                  43644371 : ENVERUS HEADER RAW DOCUMENT ID
#___________________________________________________________________________________________________ 
~WELL INFORMATION 
# sF+t5dzO8TjfhJXm5BhYJSGKqyGjnVcKAr1GJS+XHP+EILfiOmlFF7qBSMjafOrEHsreRpz+nmfYFwcq0MlVOA== 
# MNEM.UNIT                                              DATA : DESCRIPTION OF MNEMONIC 
#-----.-----                    ----------------------------- : ----------------------------- 
CNTY.                                               CULBERSON : COUNTY 
STATE.                                                  TEXAS : STATE 
CNTRY.                                                    USA : COUNTRY 
API.                                             42-109-32978 : API (10 Digit) 
API_14.                                    42-109-32978-00-00 : API (14 Digits) 
API_14_std.                                 42-109-32978-0000 : API (14 Digits Standard) 
UWI.                                           42109329780000 : UNIQUE WELL ID 
WELL.                                    42109329780000_API14 : WELL NAME
STRT.FT                                                 179.0 : START DEPTH
STOP.FT                                                9893.5 : STOP DEPTH
STEP.FT                                                   0.5 : STEP BETWEEN DEPTHS
NULL.                                                 -999.25 : NULL VALUE
#___________________________________________________________________________________________________ 
~PARAMETER INFORMATION 
# MNEM.UNIT                                              DATA : DESCRIPTION OF MNEMONIC 
#-----.-----                    ----------------------------- : ----------------------------- 
EKB.FT                                                   3282 : ELEVATION ABOVE MSL
#___________________________________________________________________________________________________ 
~CURVE INFORMATION 
# MNEM.UNIT           : CURVE DESCRIPTION 
#-----.-----          : ----------------------------- 
 DEPT.FT               : MEASURED DEPTH 
 GR.API                : GAMMA RAY (GAMMA RAY) 
 DT.US/FT              : SONIC DELTA TRANSIT TIME (SONIC) 
 #___________________________________________________________________________________________________ 
~A         DEPT             GR             DT
          179.0         12.869       -999.250
          179.5         14.541       -999.250
          180.0         15.292       -999.250
          180.5         13.788       -999.250
          181.0         12.158       -999.250
          181.5         10.446       -999.250
          182.0         11.281       -999.250
          182.5         11.281       -999.250
          183.0         11.281       -999.250
          183.5         10.864       -999.250
          184.0         12.243        281.894
          184.5         14.123        281.894
          185.0         15.627        281.894
          185.5         16.713        281.894
          186.0         16.547        281.894
          186.5         16.629        281.894
          187.0         15.125        281.894
          187.5         15.460        281.894
          188.0         16.296        281.894
          188.5         17.549        281.894
          189.0         17.464        281.894
          189.5         15.960        281.894
          190.0         14.874        281.894
          190.5         14.625        281.894
          191.0         16.673        281.894
          191.5         18.802        282.451
          192.0         18.049        281.894
          192.5         16.963        281.894
          193.0         16.296        281.894
          193.5         18.219        281.894
          194.0         17.882        281.894
          194.5         16.001        281.894
          195.0         14.206        281.894
          195.5         15.040        281.894
          196.0         14.206        281.894
          196.5         13.371        281.894
          197.0         12.535        281.894
          197.5         13.539        281.894
          198.0         15.043        281.894
          198.5         16.548        281.894
          199.0         16.798        281.894
          199.5         17.213        281.894
          200.0         14.873        281.894
          200.5         13.369        281.894
          201.0         11.865        281.894
          201.5         12.202        281.894
          202.0         13.707        281.894
          202.5         14.793        281.894
          203.0         16.297        281.894
          203.5         17.801        281.894
          204.0         18.802        281.894
          204.5         18.384        281.894
          205.0         17.797        281.894
          205.5         16.713        281.894
          206.0         16.878        281.894
          206.5         16.295        281.894
          207.0         16.295        282.900
          207.5         16.295        285.463
          208.0         16.295        286.348
          208.5         16.295        284.680
          209.0         15.791        284.123
          209.5         15.210        284.572
          210.0         16.505        285.237
          210.5         16.716        283.562
          211.0         20.227        282.114
          211.5         22.059        281.894
          212.0         20.177        281.337
          212.5         17.836        281.337
          213.0         14.621        281.337
          213.5         13.117        281.337
          214.0         12.117        281.337
          214.5         11.699        281.337
          215.0         11.177        281.337
          215.5         12.948        281.337
          216.0         14.727        281.675
          216.5         15.877        281.894
          217.0         15.042        281.894
          217.5         16.466        281.894
          218.0         17.970        281.894
          218.5         19.474        281.894
          219.0         19.638        281.894
          219.5         18.465        281.894
          220.0         17.967        281.894
          220.5         17.549        281.894
          221.0         18.384        281.894
          221.5         19.220        281.894
          222.0         18.465        281.894
          222.5         17.302        281.894
          223.0         18.381        281.894
          223.5         17.131        281.894
          224.0         17.044        281.963
          224.5         15.540        281.963
          225.0         14.206        281.963
          225.5         14.206        281.963
          226.0         14.588        281.963
          226.5         16.800        281.963
          227.0         18.305        281.963
          227.5         19.049        281.963
          228.0         17.332        281.963
          228.5         14.451        281.963
          229.0         12.865        281.963
          229.5         12.953        281.963
          230.0         13.371        281.963
          230.5         13.371        281.963
          231.0         12.953        281.963
          231.5         12.535        281.963
          232.0         12.117        281.963
          232.5         11.871        281.963
          233.0         12.113        281.963
          233.5         11.954        281.963
          234.0         15.053        281.963
          234.5         18.983        281.894
          235.0         22.355        281.894
          235.5         19.207        281.894
          236.0         14.822        281.894
          236.5         12.029        281.894
          237.0         11.620        281.894
          237.5         13.210        281.894
          238.0         15.884        281.894
          238.5         18.141        281.894
          239.0         19.550        281.894
          239.5         18.802        281.894
          240.0         19.810        281.894
          240.5         20.896        281.894
          241.0         21.727        281.894
          241.5         20.759        281.894
          242.0         18.881        281.894
          242.5         18.384        281.894
          243.0         17.549        281.894
          243.5         17.131        281.894
          244.0         17.935        281.894
          244.5         21.531        281.894
          245.0         24.910        281.894
          245.5         25.689        281.894
          246.0         23.223        281.894
          246.5         20.758        281.894
          247.0         18.881        281.894
          247.5         18.975        281.894
          248.0         19.643        281.894
          248.5         19.254        281.894
          249.0         16.744        281.894
          249.5         14.702        281.894
          250.0         14.797        283.239
          250.5         15.042        285.244
          251.0         14.624        285.237
          251.5         13.237        284.680
          252.0         12.117        284.123
          252.5         13.126        285.467
          253.0         14.630        285.504
          253.5         16.134        283.223
          254.0         17.549        282.451
          254.5         17.471        281.894
          255.0         18.140        281.745
          255.5         19.647        281.894
          256.0         21.566        281.894
          256.5         22.055        281.894
          257.0         20.551        281.894
          257.5         17.865        281.894
          258.0         15.877        281.894
          258.5         15.877        281.894
          259.0         15.967        281.894
          259.5         16.373        281.894
          260.0         15.877        281.894
          260.5         16.302        281.894
          261.0         17.131        281.894
          261.5         17.041        281.894
          262.0         16.295        281.894
          262.5         16.295        281.894
          263.0         16.713        281.894
          263.5         16.874        281.894
          264.0         16.205        281.894
          264.5         15.801        281.894
          265.0         15.704        281.894
          265.5         15.466        281.894
