# Exported from Transform Software 5.2.0 on 30-Oct-2019 by user kathryn.gehrke
# DI Transform - A Product of Drillinginfo, Inc. - www.drillinginfo.com
#
~VERSION INFORMATION
 VERS.        2.0 : LAS ASCII STANDARD - VERSION 2.0
 WRAP.         NO : ONE LINE PER DEPTH STEP

~WELL INFORMATION
#MNEM.UNIT       DATA TYPE       INFORMATION
#---------       ---------       -----------
 STRT.ft                  40 : Start Depth
 STOP.ft                9358 : Stop Depth
 STEP.ft                 0.5 : Step Length
 NULL.               -999.25 : Null Value
 COMP.                       : Company
 WELL.  42109330610000_API14 : Well Name
 FLD.                        : Field Name
 LOC.                        : Well Location
 CNTY.                       : County
 STAT.                       : State or Province
 CTRY.                       : Country
 SRVC.                       : Service Company
 DATE.                       : Date
 API.         42109330610000 : Well Identifier

~CURVE INFORMATION
#MNEM.UNIT       API CODE       CURVE DESCRIPTION
#---------       --------       -----------------
 DEPT.ft        : <Measured Depth>
 DT.us/ft       : Sonic
 GR.gAPI        : Gamma Ray

~PARAMETER INFORMATION
#MNEM.UNIT       VALUE       DESCRIPTION
#---------       -----       -----------
 EKB.ft      3200.5 : Elevation above MSL

~A      DEPT          DT          GR
# ...
      1233.5    242.6854     20.3792
        1234     244.992     20.9527
      1234.5    245.7936     19.5716
        1235    245.8918     16.4762
      1235.5    245.8918     15.6313
        1236    245.8918     16.5932
      1236.5    245.8918     18.7266
        1237    243.5854     19.0289
      1237.5    242.6854     18.7885
        1238    242.6854     19.2075
      1238.5    242.6854     20.2004
        1239    242.6854     19.5099
      1239.5    242.6854     17.6171
        1240    242.6854     17.5551
      1240.5    242.6854     16.3837
        1241    242.6854     14.2504
      1241.5    242.6854     14.3978
        1242    242.6854     16.5621
      1242.5    242.6854     17.0741
        1243    242.6854     16.6243
      1243.5    242.6854     17.2835
        1244    242.6854     17.7956
      1244.5    242.6854     16.1745
        1245    242.6854     13.7697
      1245.5    242.6854      12.505
        1246    242.6854     14.3665
      1246.5    242.6854     17.4928
        1247    242.6854     17.7956
      1247.5    242.6854     17.0741
        1248    241.8838     17.5239
      1248.5    241.8838     17.8268
        1249    241.8838     15.9342
      1249.5    241.8838     14.1884
        1250    241.8838     15.7779
      1250.5    241.8838     20.1066
        1251    241.8838     22.3334
      1251.5    241.8838     21.9151
        1252    241.8838     18.4018
      1252.5    241.8838     15.4848
        1253    242.5855     14.9098
      1253.5    242.6854     16.5618
        1254    242.6854     17.5551
      1254.5    242.6854      17.346
        1255     243.387     17.2832
      1255.5     243.487     18.4856
        1256     243.487     18.5485
      1256.5     243.487     17.3461
        1257     243.487     16.8337
      1257.5     243.487     16.1122
        1258     243.487     16.5617
      1258.5     243.487     17.5551
        1259     243.487      18.726
      1259.5     243.487      18.517
        1260     243.487     19.9284
      1260.5    242.6854     20.4409
        1261    242.6854     19.5105
      1261.5    242.6854     16.6563
        1262    242.6854     16.2895
      1262.5    242.6854     18.9032
        1263    242.6854     20.6814
      1263.5    242.6854     19.9915
        1264    242.6854     18.7891
      1264.5    242.6854     18.0361
        1265    242.6854     17.5551
      1265.5    242.6854     18.2449
        1266    242.6854     18.7575
      1266.5    242.6854      18.998
        1267    242.6854     19.4473
      1267.5    242.6854     19.7512
        1268    242.6854     18.0995
      1268.5    242.6854     17.3464
        1269    242.6854     17.5551
      1269.5    242.6854     17.5869
        1270    242.6854     17.3464
      1270.5    241.8838      16.144
        1271    241.8838     13.2583
      1271.5    241.8838     13.4351
        1272    241.1836     17.9087
      1272.5    241.0822     20.2004
        1273    241.0822      18.404
      1273.5    241.0822      17.106
        1274    241.0822     16.8337
      1274.5    241.8838     16.1122
        1275     243.487     16.5613
      1275.5     243.487     18.0041
        1276     243.487     18.2766
      1276.5     243.487      18.068
        1277     243.487     18.0361
      1277.5     243.487     16.5932
        1278    241.9858     18.4531
      1278.5    240.3826     21.3708
        1279    240.2806     20.5049
      1279.5    240.2806     17.8276
        1280    240.2806     16.8337
      1280.5    240.2806     17.0741
        1281    241.0822     17.0741
      1281.5    241.0822     17.5551
        1282    241.0822     15.4871
      1282.5    241.0822     14.9098
        1283    241.0822     16.7373
      1283.5    241.8838      18.517
        1284    241.8838     16.6253
      1284.5    241.8838     15.6313
        1285    241.8838      16.224
      1285.5    241.8838     19.1741
        1286    241.8838     21.1301
      1286.5    241.8838     20.2326
        1287    241.8838     17.4113
      1287.5    241.8838     16.1445
        1288    241.8838     15.6313
      1288.5    241.8838     15.3908
        1289    241.0822     14.2529
      1289.5    241.0822     12.5373
        1290    241.0822     12.9537
      1290.5    241.0822     15.3262
        1291    241.0822     17.0418
      1291.5    241.0822     16.1769
        1292    241.0822     15.3908
      1292.5    241.0822     15.8394
        1293    241.0822     16.3527
      1293.5    241.0822     15.3908
        1294    241.0822     16.0474
      1294.5    241.0822     17.0741
        1295    241.0822     16.6256
      1295.5    240.2806     16.5607
        1296    240.2806     18.4846
      1296.5    240.2806     19.9599
        1297    240.2806     19.5114
      1297.5    240.2806     17.5876
        1298    240.2806     17.3146
      1298.5    240.2806     18.6925
        1299    240.2806     19.2385
      1299.5    240.2806     19.7194
        1300    240.2806     19.7194
      1300.5    240.2806     19.0306
        1301    240.2806     19.9273
      1301.5    240.2806     21.1297
        1302    240.2806     19.9925
      1302.5    240.2806     18.0687
        1303    240.2806     18.0034
      1303.5    240.2806     19.2385
        1304    240.2806     21.5453
      1304.5    240.2806     23.0862
        1305    240.2806     22.8784
      1305.5    240.2806     20.2331
        1306    240.2806     18.0688
      1306.5    240.2806     16.4182
        1307    240.2806     15.8717
      1307.5    240.2806     16.3527
        1308    240.2806     16.3527
      1308.5    240.2806      15.664
        1309     239.479      15.839
      1309.5     239.479     16.5604
        1310     239.479     16.3855
      1310.5     239.479     16.1122
        1311     239.479     14.9098
      1311.5     239.479     13.4669
        1312     239.479     14.8769
      1312.5     239.479     18.2108
        1313     239.479      19.479
      1313.5     239.479      19.479
        1314     239.479     18.8234
      1314.5     239.479      18.069
        1315     239.479     16.3857
      1315.5     239.479     14.2213
        1316    240.1753     12.7785
      1316.5    240.2806      12.505
        1317    241.7784      12.986
      1317.5    242.6854     14.1554
        1318    244.2886     16.0792
      1318.5    244.2886     16.3527
        1319    244.2886     16.3527
      1319.5    244.2886     16.5601
        1320    243.5926     17.5551
      1320.5     242.791     17.3146
        1321    241.8838     17.1073
      1321.5    241.8838     16.3527
        1322    241.8838     16.1122
      1322.5    241.8838     15.6644
        1323    241.8838     15.6313
      1323.5    241.0822     16.3527
        1324    241.0822      18.658
      1324.5    241.0822     18.8239
        1325    241.0822      16.726
      1325.5    241.0822     14.7358
        1326    241.0822     14.6693
      1326.5    241.0822     14.6361
        1327    241.0822     17.0076
      1327.5    241.0822      18.517
        1328    241.0822     17.3479
      1328.5    241.0822     16.0789
        1329    241.0822     17.4885
      1329.5    241.0822     18.7575
        1330    240.2806     16.9003
      1330.5    240.2806     16.1456
        1331    240.2806     16.5598
      1331.5    240.2806     15.9051
        1332    240.2806     14.7027
      1332.5    240.2806     14.4289
        1333    240.2806     15.8383
      1333.5    240.2806     18.2097
        1334    240.2806     19.2719
      1334.5    240.2806     17.1745
        1335    240.2806     15.4577
      1335.5    240.2806     15.5978
        1336    240.2806     16.5597
      1336.5    240.2806     16.6267
        1337    240.2806     15.4243
      1337.5    240.2806     15.1838
        1338    241.0822     17.0406
      1338.5    241.0822     17.5551
        1339    241.0822     16.3863
      1339.5    241.0822     15.8717
        1340    241.0822     17.4543
      1340.5    241.0822     20.1332
        1341    241.0822     20.4745
      1341.5    241.8838     18.5507
