~VERSION INFORMATION
VERS. 2.0 : CWLS Log ASCII Standard - version 2.0
WRAP.  NO : One line per depth step
#--------------------------------------------------#
#----------------DRILLING INFO, INC.---------------#
#---------------WWW.DRILLINGINFO.COM---------------#
#------------------COPYRIGHT 2015------------------#
#--------------------------------------------------#
#THIS FILE MAY BE USED ONLY IN ACCORDANCE WITH A CURRENT SUBSCRIPTION AGREEMENT BETWEEN
#THE USER AND DRILLING INFO, INC. NO PART OF THIS FILE MAY BE REPRODUCED, USED, COPIED,
#MODIFIED, PROPAGATED, OR DISTRIBUTED EXCEPT IN ACCORDANCE WITH THE SUBSCRIPTION
#AGREEMENT. UNAUTHORIZED USE OR DISTRIBUTION OF ALL OR ANY PART OF THIS FILE MAY VIOLATE
#COPYRIGHT, TRADEMARK, AND/OR OTHER LAWS AND IS SUBJECT TO CIVIL AS WELL AS CRIMINAL
#SANCTIONS.
#--------------------------------------------------#
#THIS FILE IS PROVIDED "AS-IS" AND ALL WARRANTIES ARE EXPRESSLY DISCLAIMED, WHETHER
#EXPRESS, ORAL, IMPLIED, STATUTORY OR OTHERWISE, INCLUDING ANY IMPLIED WARRANTY OF FITNESS
#FOR A PARTICULAR PURPOSE, MERCHANTABILITY, TITLE OR NON-INFRINGEMENT, AND ANY WARRANTIES
#ARISING BY VIRTUE OF CUSTOM OF TRADE OR COURSE OF DEALING.  FURTHER, DRILLING INFO,
#INC. AND ITS LICENSORS DO NOT REPRESENT OR WARRANT THAT THIS FILE WILL MEET USER'S
#REQUIREMENTS OR ARE SUITABLE FOR USER'S NEEDS OR THAT THE DATA OR RESULTS PROVIDED IN
#CONJUNCTION THEREWITH ARE CORRECT, ACCURATE, TIMELY OR RELIABLE. THESE DISCLAIMERS SHALL
#APPLY REGARDLESS OF ANY FAILURE OF ESSENTIAL PURPOSE OF ANY LIMITED REMEDY.  SOME
#JURISDICTIONS DO NOT ALLOW THE EXCLUSION OF CERTAIN WARRANTIES SO SOME OF THE ABOVE
#EXCLUSIONS MAY NOT APPLY. IN NO EVENT SHALL DRILLING INFO, INC. OR ANY OF ITS AFFILIATES
#BE LIABLE UNDER ANY LEGAL THEORY, WHETHER IN TORT (INCLUDING WITHOUT LIMITATION
#NEGLIGENCE), CONTRACT, STRICT LIABILITY, STATUTORY OR OTHERWISE, FOR ANY SPECIAL,
#INCIDENTAL, CONSEQUENTIAL, EXEMPLARY, PUNITIVE OR INDIRECT DAMAGE OF ANY KIND, INCLUDING
#WITHOUT LIMITATION LOSS OF REVENUE, PROFITS, GOODWILL, USE, AND/OR DATA OR THE COST OF
#PROCUREMENT OF SUBSTITUTE GOODS OR SERVICES, EVEN IF APPRISED OF THE POSSIBILITY OF SUCH
#DAMAGES IN ADVANCE.
#--------------------------------------------------#
~WELL INFORMATION
#MNEMONIC     .UNIT              VALUE :DESCRIPTION
#--------------------------------------------------#
STRT       .FT                4 :START DEPTH
STOP       .FT                10042 :STOP DEPTH
STEP       .FT                   0.500 :STEP
NULL       .                  -999.250 :NULL
API        .                421093139500 :API NUMBER
COMP       .         MOBIL OIL CORPORATION :COMPANY
WELL       .        MADERA-BROMAN  1 :WELL
DATE       .                27-Jun-1979 :LOG DATE
~CURVE INFORMATION
#MNEMONIC     .UNIT      API CODE :CURVE DESCRIPTION
#--------------------------------------------------#
DEPTH       .FT                      :Measured Depth
DT.US/FT        UNKNOWN   :DT
GR.API        UNKNOWN   :GR
CAL.INCH        UNKNOWN   :CAL
~A    DEPTH    DT    GR    CAL
# ...
 1938.5     69.539   66.519   13.04
 1939     71.115   71.783   13.04
 1939.5     71.554   70.645   13.04
 1940     71.519   69.771   13.04
 1940.5     71.483   78.491   13.04
 1941     70.904   80.169   13.04
 1941.5     70.278   77.942   13.04
 1942     69.652   75.714   13.04
 1942.5     69.112   74.329   13.04
 1943     68.988   75.603   13.04
 1943.5     68.864   76.876   13.041
 1944     67.112   75.234   13.041
 1944.5     64.969   71.634   13.041
 1945     62.826   68.034   13.041
 1945.5     60.998   64.851   13.041
 1946     60.43   65.908   13.041
 1946.5     59.863   66.966   13.041
 1947     59.656   63.947   13.041
 1947.5     61.06   55.679   13.041
 1948     62.464   47.411   13.041
 1948.5     63.869   40.015   13.041
 1949     65.273   37.8   13.041
 1949.5     66.595   35.585   13.041
 1950     66.682   39.21   13.041
 1950.5     66.768   43.768   13.042
 1951     67.02   48.325   13.042
 1951.5     67.78   50.915   13.042
 1952     68.54   50.721   13.042
 1952.5     69.121   50.527   13.042
 1953     69.068   50.333   13.042
 1953.5     69.015   50.363   13.042
 1954     69.161   54.027   13.042
 1954.5     69.558   57.69   13.042
 1955     69.955   61.353   13.042
 1955.5     71.438   61.826   13.042
 1956     72.834   59.528   13.042
 1956.5     72.568   62.414   13.042
 1957     72.302   66.399   13.042
 1957.5     72.037   70.385   13.042
 1958     71.234   74.37   13.043
 1958.5     70.015   72.253   13.043
 1959     68.688   69.035   13.043
 1959.5     66.074   70.544   13.043
 1960     63.459   72.053   13.043
 1960.5     64.344   73.562   13.043
 1961     65.757   63.827   13.043
 1961.5     67.17   52.872   13.043
 1962     68.583   43.133   13.043
 1962.5     69.996   46.629   13.043
 1963     69.054   50.126   13.043
 1963.5     67.31   53.622   13.043
 1964     65.565   54.461   13.043
 1964.5     63.83   53.153   13.043
 1965     62.649   51.846   13.043
 1965.5     62.109   48.777   13.043
 1966     63.649   45.155   13.042
 1966.5     65.19   41.534   13.042
 1967     66.731   41.728   13.042
 1967.5     68.271   42.785   13.041
 1968     68.572   43.843   13.041
 1968.5     67.657   44.9   13.04
 1969     66.867   45.958   13.04
 1969.5     66.351   47.015   13.04
 1970     66.946   48.072   13.039
 1970.5     69.089   48.87   13.039
 1971     71.232   49.261   13.039
 1971.5     73.105   51.738   13.038
 1972     74.495   60.955   13.038
 1972.5     75.846   70.172   13.038
 1973     76.201   79.39   13.037
 1973.5     76.158   88.607   13.037
 1974     76.013   97.824   13.036
 1974.5     74.999   104.102   13.036
 1975     72.86   109.278   13.036
 1975.5     70.722   114.454   13.035
 1976     69.527   107.972   13.035
 1976.5     69.332   92.815   13.035
 1977     69.138   77.657   13.034
 1977.5     68.943   72.508   13.034
 1978     67.08   69.68   13.034
 1978.5     65.153   66.852   13.033
 1979     65.925   63.357   13.033
 1979.5     68.296   59.814   13.032
 1980     70.668   56.29   13.032
 1980.5     70.236   61.266   13.032
 1981     66.673   66.242   13.031
 1981.5     65.27   71.219   13.031
 1982     64.726   75.706   13.031
 1982.5     65.059   71.954   13.03
 1983     65.577   68.202   13.03
 1983.5     66.095   64.45   13.029
 1984     66.613   60.698   13.029
 1984.5     67.131   62.424   13.029
 1985     66.754   64.487   13.028
 1985.5     64.71   66.549   13.028
 1986     62.666   60.033   13.028
 1986.5     60.689   51.564   13.027
 1987     60.091   43.094   13.027
 1987.5     59.492   38.311   13.027
 1988     58.893   37.202   13.026
 1988.5     58.869   36.094   13.026
 1989     60.27   36.149   13.025
 1989.5     61.671   36.67   13.025
 1990     65.835   37.504   13.025
 1990.5     72.046   49.238   13.024
 1991     71.377   60.971   13.024
 1991.5     70.707   72.705   13.024
 1992     70.038   77.293   13.023
 1992.5     70.223   75.708   13.023
 1993     70.706   74.124   13.022
 1993.5     71.188   72.943   13.022
 1994     70.377   73.729   13.022
 1994.5     69.249   74.315   13.021
 1995     68.122   68.284   13.021
 1995.5     66.782   62.254   13.021
 1996     65.429   56.224   13.02
 1996.5     64.076   51.152   13.02
 1997     63.043   48.249   13.02
 1997.5     62.428   45.346   13.019
 1998     61.813   42.443   13.019
 1998.5     61.095   41.934   13.018
 1999     60.351   41.933   13.018
 1999.5     59.607   41.932   13.018
 2000     58.863   39.274   13.017
 2000.5     60.707   34.545   13.017
 2001     63.517   31.137   13.017
 2001.5     66.326   36.74   13.016
 2002     69.135   42.343   13.016
 2002.5     70.098   47.946   13.016
 2003     70.628   53.549   13.015
 2003.5     71.158   56.151   13.015
 2004     70.382   57.859   13.014
 2004.5     69.388   59.068   13.014
 2005     68.395   57.293   13.014
 2005.5     67.401   55.519   13.013
 2006     66.407   53.744   13.013
 2006.5     66.745   52.63   13.013
 2007     67.444   54.366   13.012
 2007.5     68.144   56.103   13.012
 2008     67.885   57.839   13.011
 2008.5     67.353   59.575   13.011
 2009     66.822   57.64   13.011
 2009.5     66.346   55.662   13.01
 2010     65.964   53.684   13.01
 2010.5     65.545   52.318   13.01
 2011     64.637   51.391   13.009
 2011.5     63.729   50.463   13.009
 2012     62.82   48.919   13.009
 2012.5     62.089   45.52   13.008
 2013     61.406   42.12   13.008
 2013.5     60.724   38.721   13.007
 2014     60.213   35.321   13.007
 2014.5     62.667   35.158   13.007
 2015     65.121   37.728   13.006
 2015.5     64.157   40.297   13.006
 2016     62.902   42.866   13.006
 2016.5     61.647   39.479   13.005
 2017     60.391   35.702   13.005
 2017.5     59.136   31.925   13.004
 2018     62.042   37.505   13.004
 2018.5     67.496   43.423   13.004
 2019     69.228   49.341   13.003
 2019.5     70.075   55.259   13.003
 2020     70.923   61.177   13.003
 2020.5     69.739   61.888   13.002
 2021     67.878   59.851   13.002
 2021.5     66.08   57.815   13.002
 2022     65.139   55.779   13.001
 2022.5     63.777   53.384   13.001
 2023     62.148   47.94   13
 2023.5     60.519   42.497   13
 2024     60.038   37.053   13
 2024.5     59.714   31.61   12.999
 2025     59.39   31.043   12.999
 2025.5     59.515   31.905   12.999
 2026     60.304   32.767   12.998
 2026.5     61.093   33.629   12.998
 2027     61.499   34.491   12.998
 2027.5     61.24   35.353   12.997
 2028     60.98   36.215   12.997
 2028.5     60.72   36.389   12.996
 2029     60.46   34.894   12.996
 2029.5     60.2   35.722   12.996
 2030     59.99   38.094   12.995
 2030.5     60.063   40.466   12.995
 2031     60.073   42.837   12.995
 2031.5     59.69   42.96   12.994
 2032     59.308   40.447   12.994
 2032.5     58.925   37.933   12.993
 2033     59.818   35.419   12.993
 2033.5     61.301   38.776   12.993
 2034     62.785   42.148   12.992
 2034.5     64.268   45.519   12.992
 2035     65.751   48.891   12.992
 2035.5     64.228   52.262   12.991
 2036     60.103   45.19   12.991
 2036.5     58.175   37.223   12.991
 2037     56.247   29.255   12.99
 2037.5     54.32   21.288   12.99
 2038     55.304   24.045   12.989
 2038.5     56.959   27.493   12.989
 2039     58.614   31.836   12.989
 2039.5     59.954   37.435   12.988
 2040     60.895   43.034   12.988
 2040.5     62.119   47.509   12.988
 2041     63.478   50.898   12.988
 2041.5     64.837   54.288   12.988
 2042     66.196   57.678   12.989
 2042.5     66.181   54.494   12.989
 2043     64.785   50.963   12.989
 2043.5     63.389   47.432   12.99
 2044     61.994   43.9   12.99
 2044.5     60.598   40.369   12.99
 2045     59.202   36.838   12.99
 2045.5     57.98   33.307   12.991
 2046     57.365   29.775   12.991
 2046.5     56.75   26.244   12.991
 2047     56.502   22.713   12.992
 2047.5     56.798   21.524   12.992
 2048     57.169   25.92   12.992
 2048.5     57.54   31.984   12.993
 2049     61.84   41.66   12.993
 2049.5     65.706   51.336   12.993
 2050     67.69   61.011   12.993
 2050.5     69.674   67.487   12.994
