###############################################
##         ENVERUS                           ##
##         ESS - Open Hole                   ##
##         PERMIAN / DELAWARE                ##
##         Nov 02 2023  V4.0                 ##
##         42-109-32297-90-00                ##
###############################################
## Copyright 2017-2023  ENVERUS.  All Rights Reserved. 
## Confidential - Property of ENVERUS, use governed by terms and 
## conditions found within the existing Information Services Subscription Agreement 
## (as may be amended, the “ISSA”) between Customer and ENVERUS. 
## 
~VERSION INFORMATION
# MNEM.UNIT                               DATA : DESCRIPTION OF MNEMONIC
#-----.-----     ----------------------------- : -----------------------------
VERS.                                     2.00 : CWLS LOG ASCII STANDARD - VERSION 2.00
WRAP.                                       NO : MULTIPLE LINES PER DEPTH STEP
VEND.                                  ENVERUS : VENDOR
TYPE.                          ESS - OPEN HOLE : ENVERUS ESSENTIAL CURVES – ACCESSIBLE THROUGH ENVERUS PRISM(TM)
DOC.                                  52921007 : ENVERUS HEADER RAW DOCUMENT ID
#___________________________________________________________________________________________________ 
~WELL INFORMATION 
# EM3SY5Bwx6x9YoJmjxbMXtwK21/gMzSEmeWIZ71LA4UD3Y8PQw/mHJ0IHc4n7dRi3zAL189RIdETacnakexX1Q== 
# MNEM.UNIT                                              DATA : DESCRIPTION OF MNEMONIC 
#-----.-----                    ----------------------------- : ----------------------------- 
CNTY.                                               CULBERSON : COUNTY 
STATE.                                                  TEXAS : STATE 
CNTRY.                                                    USA : COUNTRY 
API.                                             42-109-32297 : API (10 Digit) 
API_14.                                    42-109-32297-90-00 : API (14 Digits) 
API_14_std.                                 42-109-32297-9000 : API (14 Digits Standard) 
UWI.                                           42109322979000 : UNIQUE WELL ID 
WELL.                          MELISSA TAYLOR STATE 105-3  1H : WELL NAME
STRT.FT                                                 200.0 : START DEPTH
STOP.FT                                               10260.0 : STOP DEPTH
STEP.FT                                                   0.5 : STEP BETWEEN DEPTHS
NULL.                                                 -999.25 : NULL VALUE
PREV_API.                                        421093229700 : API NUMBER 
COMP.                              CHESAPEAKE OPERATING  INC. : COMPANY 
DATE.                                             17-JUN-2008 : LOG DATE
#___________________________________________________________________________________________________ 
~CURVE INFORMATION 
# MNEM.UNIT           : CURVE DESCRIPTION 
#-----.-----          : ----------------------------- 
 DEPT.FT               : MEASURED DEPTH 
 CALI.IN               : CALIPER (CAL - CAL) 
 GR.API                : GAMMA RAY (GR) 
 DT.US/FT              : SONIC DELTA TRANSIT TIME (DT) 
 RESS.OHMM             : SHALLOW INDUCTION RESISTIVITY (ILS - ILS) 
 RESD.OHMM             : DEEP INDUCTION RESISTIVITY (ILD - ILD) 
 DPHI.V/V              : DENSITY POROSITY (DPHI) 
 NPHI.V/V              : NEUTRON POROSITY (NPHI) 
 RHOB.G/CC             : BULK DENSITY (RHOB) 
 #___________________________________________________________________________________________________ 
~A         DEPT           CALI             GR             DT           RESS           RESD           DPHI           NPHI           RHOB
# ...
         5451.0         12.374         67.243         62.225        116.761        116.567        0.02521        0.08224         2.6730
         5451.5         12.414         68.135         62.985         97.887        108.037        0.02514        0.08551         2.6640
         5452.0         12.390         73.584         64.433        107.152        112.286        0.02378        0.08878         2.6280
         5452.5         12.319         80.489         65.881        116.417        120.191        0.03295        0.09206         2.6200
         5453.0         12.247         87.393         66.034        130.868        129.346        0.04862        0.12153         2.6170
         5453.5         12.242         85.619         64.815        173.955        173.972        0.05951        0.12587         2.6190
         5454.0         12.249         75.563         62.923        210.156        247.010        0.05835        0.11320         2.6320
         5454.5         12.257         69.507         61.031        158.858        161.867        0.04778        0.10054         2.6520
         5455.0         12.264         65.884         60.281        107.560         94.325        0.03540        0.09285         2.6720
         5455.5         12.271         69.639         61.778         97.739        103.563        0.02078        0.09398         2.6600
         5456.0         12.278         80.152         63.998         99.540        105.552        0.02591        0.10454         2.6250
         5456.5         12.284         89.580         66.218        109.016        106.698        0.04741        0.12071         2.6040
         5457.0         12.288         98.605         67.165        118.493        122.097        0.06311        0.13687         2.6110
         5457.5         12.292         98.654         66.036        100.889         85.331        0.06443        0.14669         2.6190
         5458.0         12.296         93.925         65.573         78.816         50.528        0.05909        0.14171         2.6260
         5458.5         12.300         88.508         65.389         56.743         40.132        0.04899        0.13674         2.6330
         5459.0         12.304         83.091         65.671         34.670         37.856        0.04694        0.13352         2.6370
         5459.5         12.308         82.528         65.954         42.530         41.071        0.04562        0.13505         2.6410
         5460.0         12.312         84.186         66.025         52.619         53.486        0.04369        0.14483         2.6450
         5460.5         12.315         85.845         65.762         62.708         67.819        0.04074        0.15369         2.6420
         5461.0         12.317         87.152         65.856         68.312         63.756        0.03933        0.14773         2.6380
         5461.5         12.319         94.353         67.340         54.771         59.485        0.04295        0.14177         2.6290
         5462.0         12.321        100.393         68.393         41.230         48.554        0.05629        0.14364         2.6160
         5462.5         12.324         99.868         68.805         53.971         47.417        0.06044        0.14798         2.6160
         5463.0         12.326         96.632         68.877         69.164         56.690        0.05821        0.15011         2.6200
         5463.5         12.327         94.128         68.774         82.091         82.016        0.04943        0.14824         2.6250
         5464.0         12.327         93.745         68.644         88.155         88.446        0.05248        0.14635         2.6230
         5464.5         12.327         90.780         68.967        102.391         96.255        0.06202        0.14417         2.6090
         5465.0         12.328         86.280         69.171        116.628        113.112        0.06754        0.14200         2.5950
         5465.5         12.291         82.122         69.009        130.865        142.172        0.07254        0.13983         2.5800
         5466.0         12.253         80.363         68.848        120.379        153.775        0.07734        0.13765         2.5780
         5466.5         12.263         79.919         68.686        133.870        153.103        0.08214        0.13725         2.5830
         5467.0         12.273         79.780         68.193        107.735        157.963        0.08374        0.13708         2.5880
         5467.5         12.283         78.235         67.116        115.736        151.131        0.07417        0.13003         2.5930
         5468.0         12.261         75.852         65.819        123.737        120.448        0.07072        0.12279         2.5990
         5468.5         12.264         72.061         64.290        131.738        104.170        0.06571        0.11555         2.6040
         5469.0         12.268         66.867         62.762        139.541        127.043        0.06477        0.10800         2.6090
         5469.5         12.272         61.169         61.233         87.159         93.733        0.05761        0.10044         2.6650
         5470.0         12.275         57.300         60.399         69.622         80.844        0.04799        0.09288         2.6650
         5470.5         12.279         60.990         61.086         79.387         87.538        0.03176        0.08532         2.6340
         5471.0         12.283         71.232         63.821         89.152         99.527        0.01229        0.09127         2.6030
         5471.5         12.287         81.492         66.219         98.917        111.397        0.03671        0.10988         2.6200
         5472.0         12.290         84.837         66.753         77.329         80.945        0.05863        0.12395         2.6380
         5472.5         12.294         81.827         66.223         36.005         50.492        0.05813        0.12035         2.6560
         5473.0         12.298         79.522         65.633         34.020         36.836        0.03583        0.11675         2.6750
         5473.5         12.301         79.758         65.571         33.702         34.688        0.02295        0.12192         2.6710
         5474.0         12.305         83.578         66.097         36.449         35.402        0.01946        0.14050         2.6660
         5474.5         12.309         87.399         66.623         39.196         38.504        0.02913        0.15735         2.6600
         5475.0         12.312         89.682         67.125         52.456         50.471        0.02913        0.15433         2.6420
         5475.5         12.311         88.963         67.635         68.068         69.738        0.03365        0.15131         2.6250
         5476.0         12.306         87.806         68.512         47.490         54.174        0.04592        0.14972         2.6070
         5476.5         12.302         86.650         69.389         38.445         40.811        0.06161        0.15190         2.6340
         5477.0         12.297         85.836         69.419         35.561         36.916        0.06414        0.15410         2.6700
         5477.5         12.293         86.023         69.097         41.461         40.667        0.05355        0.15725         2.6690
         5478.0         12.288         86.210         68.818         72.928         61.206        0.03217        0.16041         2.6560
         5478.5         12.284         84.381         68.538        104.396         92.635        0.02499        0.15865         2.6430
         5479.0         12.279         82.064         68.273        122.211        130.255        0.03721        0.15079         2.6280
         5479.5         12.275         79.748         68.030        108.116        115.079        0.04987        0.14293         2.6180
         5480.0         12.270         77.604         67.787        117.412        129.672        0.05973        0.13507         2.6170
