###############################################
##         ENVERUS                           ##
##         ESS - Open Hole                   ##
##         PERMIAN / DELAWARE                ##
##         Nov 02 2023  V4.0                 ##
##         42-109-31448-00-00                ##
###############################################
## Copyright 2017-2023  ENVERUS.  All Rights Reserved. 
## Confidential - Property of ENVERUS, use governed by terms and 
## conditions found within the existing Information Services Subscription Agreement 
## (as may be amended, the “ISSA”) between Customer and ENVERUS. 
## 
~VERSION INFORMATION
# MNEM.UNIT                               DATA : DESCRIPTION OF MNEMONIC
#-----.-----     ----------------------------- : -----------------------------
VERS.                                     2.00 : CWLS LOG ASCII STANDARD - VERSION 2.00
WRAP.                                       NO : MULTIPLE LINES PER DEPTH STEP
VEND.                                  ENVERUS : VENDOR
TYPE.                          ESS - OPEN HOLE : ENVERUS ESSENTIAL CURVES – ACCESSIBLE THROUGH ENVERUS PRISM(TM)
DOC.                                  31981796 : ENVERUS HEADER RAW DOCUMENT ID
#___________________________________________________________________________________________________ 
~WELL INFORMATION 
# ZFHslD71edIju97HcKZ52TF5U8X6gSJhIkoGhJkY8ckYnZzQD/y6zifgDis2Hn4asra90GxYkgpqCQaJUi2DCw== 
# MNEM.UNIT                                              DATA : DESCRIPTION OF MNEMONIC 
#-----.-----                    ----------------------------- : ----------------------------- 
CNTY.                                               CULBERSON : COUNTY 
STATE.                                                  TEXAS : STATE 
CNTRY.                                                    USA : COUNTRY 
API.                                             42-109-31448 : API (10 Digit) 
API_14.                                    42-109-31448-00-00 : API (14 Digits) 
API_14_std.                                 42-109-31448-0000 : API (14 Digits Standard) 
UWI.                                           42109314480000 : UNIQUE WELL ID 
WELL.                                               TRIKEN  1 : WELL NAME
STRT.FT                                                   4.0 : START DEPTH
STOP.FT                                               13097.0 : STOP DEPTH
STEP.FT                                                   0.5 : STEP BETWEEN DEPTHS
NULL.                                                 -999.25 : NULL VALUE
COMP.                                             MARALO  LLC : COMPANY 
DATE.                                             04-NOV-1984 : LOG DATE
#___________________________________________________________________________________________________ 
~CURVE INFORMATION 
# MNEM.UNIT           : CURVE DESCRIPTION 
#-----.-----          : ----------------------------- 
 DEPT.FT               : MEASURED DEPTH 
 CALI.IN               : CALIPER (CAL - CAL) 
 GR.API                : GAMMA RAY (GR) 
 DT.US/FT              : SONIC DELTA TRANSIT TIME (DT) 
 #___________________________________________________________________________________________________ 
~A         DEPT           CALI             GR             DT
# ...
         5614.0         12.940         90.761         60.806
         5614.5         12.943         74.596         60.808
         5615.0         12.946         82.883         59.676
         5615.5         12.949         91.169         58.545
         5616.0         12.953         93.805         57.413
         5616.5         12.956         90.327         58.231
         5617.0         12.959         86.849         59.238
         5617.5         12.962         83.371         60.245
         5618.0         12.961         79.893         60.813
         5618.5         12.952         74.852         60.837
         5619.0         12.943         65.606         60.862
         5619.5         12.934         56.361         60.886
         5620.0         12.925         50.831         61.039
         5620.5         12.916         48.448         61.605
         5621.0         12.907         46.065         62.171
         5621.5         12.899         51.298         62.737
         5622.0         12.890         56.831         63.303
         5622.5         12.881         62.364         63.869
         5623.0         12.872         67.897         64.161
         5623.5         12.863         72.513         63.649
         5624.0         12.854         69.663         63.137
         5624.5         12.845         66.813         62.625
         5625.0         12.836         63.963         62.114
         5625.5         12.829         61.113         61.602
         5626.0         12.826         58.264         61.249
         5626.5         12.823         55.414         61.097
         5627.0         12.820         56.688         60.944
         5627.5         12.818         60.301         60.816
         5628.0         12.815         63.915         60.938
         5628.5         12.812         67.529         61.060
         5629.0         12.809         71.143         61.181
         5629.5         12.807         85.541         61.303
         5630.0         12.804        104.250         61.425
         5630.5         12.801        122.959         61.546
         5631.0         12.798        115.887         61.668
         5631.5         12.796        107.885         61.790
         5632.0         12.793         99.883         61.326
         5632.5         12.790         91.880         60.548
         5633.0         12.787         83.878         59.770
         5633.5         12.785         75.876         58.992
         5634.0         12.782         67.874         58.214
         5634.5         12.779         53.042         57.436
         5635.0         12.776         37.603         56.752
         5635.5         12.775         38.438         57.536
         5636.0         12.775         39.274         58.320
         5636.5         12.775         40.110         59.104
         5637.0         12.775         40.945         59.888
         5637.5         12.775         42.302         60.672
         5638.0         12.775         63.370         61.445
         5638.5         12.775         84.438         61.956
         5639.0         12.775        105.506         62.467
         5639.5         12.775        104.824         62.978
         5640.0         12.775         97.662         62.917
         5640.5         12.775         90.501         62.517
         5641.0         12.775         83.339         62.117
         5641.5         12.775         76.528         61.716
         5642.0         12.775         74.206         61.316
         5642.5         12.775         71.884         60.916
         5643.0         12.774         69.563         60.515
         5643.5         12.774         67.241         60.542
         5644.0         12.774         64.920         60.583
         5644.5         12.774         71.357         60.624
         5645.0         12.774         78.598         60.664
         5645.5         12.774         85.838         60.705
         5646.0         12.774         80.287         60.746
         5646.5         12.774         73.661         60.787
         5647.0         12.774         67.035         60.557
         5647.5         12.774         60.410         59.901
         5648.0         12.774         56.226         59.245
         5648.5         12.774         52.258         58.589
         5649.0         12.774         54.784         57.934
         5649.5         12.774         57.569         57.278
         5650.0         12.774         60.354         57.485
         5650.5         12.774         63.139         58.261
         5651.0         12.774         65.924         59.037
         5651.5         12.774         68.709         59.813
         5652.0         12.774         71.494         60.588
         5652.5         12.774         73.837         60.896
         5653.0         12.774         75.784         60.620
         5653.5         12.774         77.381         60.343
         5654.0         12.774         69.816         60.067
         5654.5         12.774         62.251         59.791
         5655.0         12.774         54.686         59.515
         5655.5         12.774         47.121         59.238
         5656.0         12.774         41.403         58.809
         5656.5         12.774         39.387         58.333
         5657.0         12.774         37.372         57.856
         5657.5         12.779         37.376         57.380
         5658.0         12.795         38.004         56.904
         5658.5         12.812         38.631         56.427
         5659.0         12.829         39.259         58.258
         5659.5         12.845         39.886         60.203
         5660.0         12.862         40.689         62.148
         5660.5         12.879         43.118         64.093
         5661.0         12.896         44.846         66.038
         5661.5         12.912         44.264         66.858
         5662.0         12.929         43.682         67.004
         5662.5         12.946         43.100         67.149
         5663.0         12.962         42.517         67.295
         5663.5         12.979         45.923         67.361
         5664.0         12.996         50.418         67.309
         5664.5         13.013         54.913         67.257
         5665.0         13.002         58.658         67.205
         5665.5         12.986         56.643         67.153
         5666.0         12.970         54.629         67.101
         5666.5         12.953         52.614         66.544
         5667.0         12.937         50.600         65.526
         5667.5         12.921         52.250         64.509
         5668.0         12.904         56.161         63.491
         5668.5         12.888         60.072         62.474
         5669.0         12.872         63.982         61.456
         5669.5         12.855         69.243         60.439
         5670.0         12.839         77.406         60.726
         5670.5         12.822         85.568         61.053
         5671.0         12.806         93.730         61.380
         5671.5         12.790        101.892         61.706
         5672.0         12.773        110.054         62.033
         5672.5         12.757        103.100         62.359
         5673.0         12.741         95.636         62.686
         5673.5         12.724         88.172         63.013
         5674.0         12.708         80.707         62.879
         5674.5         12.692         73.243         62.259
         5675.0         12.675         65.778         61.639
         5675.5         12.659         60.918         61.020
         5676.0         12.643         63.881         60.400
         5676.5         12.637         66.844         59.780
         5677.0         12.636         69.807         59.160
         5677.5         12.635         72.770         58.540
         5678.0         12.634         75.733         58.227
         5678.5         12.632         74.386         59.038
         5679.0         12.631         71.033         59.849
         5679.5         12.630         67.681         60.661
