###############################################
##         ENVERUS                           ##
##         ESS - Open Hole                   ##
##         PERMIAN / DELAWARE                ##
##         Nov 03 2023  V4.0                 ##
##         42-109-32709-00-00                ##
###############################################
## Copyright 2017-2023  ENVERUS.  All Rights Reserved. 
## Confidential - Property of ENVERUS, use governed by terms and 
## conditions found within the existing Information Services Subscription Agreement 
## (as may be amended, the “ISSA”) between Customer and ENVERUS. 
## 
~VERSION INFORMATION
# MNEM.UNIT                               DATA : DESCRIPTION OF MNEMONIC
#-----.-----     ----------------------------- : -----------------------------
VERS.                                     2.00 : CWLS LOG ASCII STANDARD - VERSION 2.00
WRAP.                                       NO : MULTIPLE LINES PER DEPTH STEP
VEND.                                  ENVERUS : VENDOR
TYPE.                          ESS - OPEN HOLE : ENVERUS ESSENTIAL CURVES – ACCESSIBLE THROUGH ENVERUS PRISM(TM)
DOC.                                  32116645 : ENVERUS HEADER RAW DOCUMENT ID
#___________________________________________________________________________________________________ 
~WELL INFORMATION 
# 8SOIrMNgLSTosdYTMQVb7KPebVRgGb4NQOaGG3/cpRvPeoxWQd7So5pZ7XPWbXIrV4d26no2f3ffGwkTWQV8GA== 
# MNEM.UNIT                                              DATA : DESCRIPTION OF MNEMONIC 
#-----.-----                    ----------------------------- : ----------------------------- 
CNTY.                                               CULBERSON : COUNTY 
STATE.                                                  TEXAS : STATE 
CNTRY.                                                    USA : COUNTRY 
API.                                             42-109-32709 : API (10 Digit) 
API_14.                                    42-109-32709-00-00 : API (14 Digits) 
API_14_std.                                 42-109-32709-0000 : API (14 Digits Standard) 
UWI.                                           42109327090000 : UNIQUE WELL ID 
WELL.                                    42109327090000_API14 : WELL NAME
STRT.FT                                                  26.5 : START DEPTH
STOP.FT                                                5244.0 : STOP DEPTH
STEP.FT                                                   0.5 : STEP BETWEEN DEPTHS
NULL.                                                 -999.25 : NULL VALUE
#___________________________________________________________________________________________________ 
~PARAMETER INFORMATION 
# MNEM.UNIT                                              DATA : DESCRIPTION OF MNEMONIC 
#-----.-----                    ----------------------------- : ----------------------------- 
EKB.FT                                                   3124 : ELEVATION ABOVE MSL
#___________________________________________________________________________________________________ 
~CURVE INFORMATION 
# MNEM.UNIT           : CURVE DESCRIPTION 
#-----.-----          : ----------------------------- 
 DEPT.FT               : MEASURED DEPTH 
 CALI.IN               : CALIPER (CAL - CALIPER) 
 GR.API                : GAMMA RAY (GAMMA RAY) 
 DT.US/FT              : SONIC DELTA TRANSIT TIME (SONIC) 
 PE.B/E                : PHOTOELECTRIC EFFECT/FACTOR (PHOTOELECTRIC FACTOR) 
 RESS.OHMM             : SHALLOW INDUCTION RESISTIVITY (ILS - SHALLOW RESISTIVITY) 
 RESS_LL.OHMM          : SHALLOW LATEROLOG (LLS - SHALLOW RESISTIVITY) 
 RESD_LL.OHMM          : DEEP LATEROLOG (LLD - DEEP RESISTIVITY) 
 DPHI.V/V              : DENSITY POROSITY (DENSITY POROSITY) 
 NPHI.V/V              : NEUTRON POROSITY (NEUTRON POROSITY) 
 RHOB.G/CC             : BULK DENSITY (DENSITY) 
 #___________________________________________________________________________________________________ 
~A         DEPT           CALI             GR             DT             PE           RESS        RESS_LL        RESD_LL           DPHI           NPHI           RHOB
# ...
          443.0       -999.250         41.426        257.621      -999.2500       -999.250      -999.2500      -999.2500     -999.25000        0.08314      -999.2500
          443.5       -999.250         40.151        257.360      -999.2500       -999.250      -999.2500      -999.2500     -999.25000        0.07293      -999.2500
          444.0       -999.250         41.906        257.099      -999.2500       -999.250      -999.2500      -999.2500     -999.25000        0.34027      -999.2500
          444.5       -999.250         39.294        257.099         9.1523       -999.250      -999.2500      -999.2500        0.45638        0.57596      -999.2500
          445.0       -999.250         35.348        257.555         9.7389       -999.250      -999.2500      -999.2500        0.45643        0.55555      -999.2500
          445.5       -999.250         32.969        257.621         9.7303       -999.250      -999.2500      -999.2500        0.45983        0.50060      -999.2500
          446.0       -999.250         31.723        257.621         9.5831       -999.250      -999.2500      -999.2500        0.46179        0.44285      -999.2500
          446.5       -999.250         34.441        257.107         9.6820       -999.250      -999.2500      -999.2500        0.45450        0.43860      -999.2500
          447.0       -999.250         37.224        257.360         9.9350       -999.250      -999.2500      -999.2500        0.45319        0.51894      -999.2500
          447.5       -999.250         37.990        257.360         9.9601       -999.250      -999.2500      -999.2500        0.45494        0.52782      -999.2500
          448.0       -999.250         37.370        257.360         9.9334       -999.250      -999.2500      -999.2500        0.45890        0.52798      -999.2500
          448.5       -999.250         34.254        257.360         9.7272       -999.250      -999.2500      -999.2500        0.46831        0.45606      -999.2500
          449.0       -999.250         31.711        257.360         9.6889       -999.250      -999.2500      -999.2500        0.47841        0.49826      -999.2500
          449.5       -999.250         26.532        257.360         9.6058       -999.250      -999.2500      -999.2500        0.48620        0.48914      -999.2500
          450.0       -999.250         25.452        257.360         9.3586       -999.250      -999.2500      -999.2500        0.48827        0.46915      -999.2500
          450.5          8.162         32.613        257.360         9.1396       -999.250      -999.2500      -999.2500        0.48532        0.54146      -999.2500
          451.0          8.162         40.060        257.360         9.5365       -999.250      -999.2500      -999.2500        0.47623        0.48701      -999.2500
          451.5          8.162         42.970        257.621         9.4939       -999.250      -999.2500      -999.2500        0.48064        0.46484      -999.2500
          452.0          8.162         43.473        257.360         9.2711       -999.250      -999.2500      -999.2500        0.48339        0.44045      -999.2500
          452.5          8.162         43.864        257.360         9.1927       -999.250      -999.2500      -999.2500        0.48646        0.45382      -999.2500
          453.0          8.141         41.559        257.360         9.3812       -999.250      -999.2500      -999.2500        0.49065        0.43888      -999.2500
          453.5          8.141         34.039        257.360         9.5691       -999.250      -999.2500      -999.2500        0.49591        0.47238      -999.2500
          454.0          8.141         24.210        257.360         9.3895       -999.250      -999.2500      -999.2500        0.50761        0.50875      -999.2500
          454.5          8.199         22.715        257.360         8.3609       -999.250      -999.2500      -999.2500        0.53158        0.43140      -999.2500
          455.0          8.203         24.863        257.360         7.2755       -999.250      -999.2500      -999.2500        0.54898        0.40630      -999.2500
          455.5          8.203         28.714        257.360         6.7156       -999.250      -999.2500      -999.2500        0.55963        0.39162      -999.2500
          456.0          8.203         30.940        257.360         6.3985       -999.250      -999.2500      -999.2500        0.55473        0.37096      -999.2500
          456.5          8.203         30.548        257.360         6.7742       -999.250      -999.2500      -999.2500        0.54279        0.36453      -999.2500
          457.0          8.142         29.765        257.360         7.0896       -999.250      -999.2500      -999.2500        0.51033        0.36539      -999.2500
          457.5          8.141         31.273        257.360         7.1357       -999.250      -999.2500      -999.2500        0.44909        0.37799      -999.2500
          458.0          8.141         35.669        257.360         6.7160       -999.250      -999.2500      -999.2500        0.38488        0.34437      -999.2500
          458.5          8.141         41.631        257.360         5.6636       -999.250      -999.2500      -999.2500        0.35613        0.30395      -999.2500
          459.0          8.229         44.648        257.360         4.6111       -999.250      -999.2500      -999.2500        0.34265        0.33068      -999.2500
          459.5          8.327         43.897        257.360         4.3662       -999.250      -999.2500      -999.2500        0.34534        0.33947      -999.2500
          460.0          8.327         43.864        257.360         4.8116       -999.250      -999.2500      -999.2500        0.35794        0.33641      -999.2500
          460.5          8.395         45.431        257.360         5.0156       -999.250      -999.2500      -999.2500        0.34174        0.32067      -999.2500
          461.0          8.671         45.823        257.360         4.8020       -999.250      -999.2500      -999.2500        0.32685        0.33036      -999.2500
          461.5          8.857         42.045        257.099         4.5404       -999.250      -999.2500      -999.2500        0.32796        0.33757      -999.2500
          462.0          8.978         31.547        257.099         4.2630       -999.250      -999.2500      -999.2500        0.37173        0.34331      -999.2500
          462.5          9.063         21.609        257.099         3.7262       -999.250      -999.2500      -999.2500        0.48720        0.39047      -999.2500
          463.0          9.130         13.191        257.099         3.0288       -999.250      -999.2500      -999.2500        0.58263        0.37004      -999.2500
          463.5          9.663          8.996        256.838         2.5467       -999.250      -999.2500      -999.2500        0.59131        0.36652      -999.2500
          464.0         10.225          4.860        256.838         2.6036       -999.250      -999.2500      -999.2500        0.42335        0.37535      -999.2500
          464.5          9.715          3.525        257.012         2.8598       -999.250      -999.2500      -999.2500        0.26996        0.32586      -999.2500
          465.0          9.597          3.916        257.099         2.9541       -999.250      -999.2500      -999.2500        0.22208        0.24006      -999.2500
          465.5          9.492          4.700        256.838         3.0046       -999.250      -999.2500      -999.2500        0.20444        0.20951      -999.2500
          466.0          9.459          5.483        256.838         3.0451       -999.250      -999.2500      -999.2500        0.15395        0.18586      -999.2500
          466.5          9.441          7.036        257.099         3.1164       -999.250      -999.2500      -999.2500        0.12517        0.18425      -999.2500
          467.0          9.518          9.023        257.099         3.0966       -999.250      -999.2500      -999.2500        0.11372        0.18846      -999.2500
