###############################################
##         ENVERUS                           ##
##         ESS - Open Hole                   ##
##         PERMIAN / DELAWARE                ##
##         Nov 02 2023  V4.0                 ##
##         42-109-31391-00-00                ##
###############################################
## Copyright 2017-2023  ENVERUS.  All Rights Reserved. 
## Confidential - Property of ENVERUS, use governed by terms and 
## conditions found within the existing Information Services Subscription Agreement 
## (as may be amended, the “ISSA”) between Customer and ENVERUS. 
## 
~VERSION INFORMATION
# MNEM.UNIT                               DATA : DESCRIPTION OF MNEMONIC
#-----.-----     ----------------------------- : -----------------------------
VERS.                                     2.00 : CWLS LOG ASCII STANDARD - VERSION 2.00
WRAP.                                       NO : MULTIPLE LINES PER DEPTH STEP
VEND.                                  ENVERUS : VENDOR
TYPE.                          ESS - OPEN HOLE : ENVERUS ESSENTIAL CURVES – ACCESSIBLE THROUGH ENVERUS PRISM(TM)
DOC.                                  31999167 : ENVERUS HEADER RAW DOCUMENT ID
#___________________________________________________________________________________________________ 
~WELL INFORMATION 
# BOC9FSWoKCUsCFcWObZ1iTDYvHtSUwfaSl9bEava01AYiR20s/sWwY1hBaxvFz+VJj0aOQNxXrzxY9t5EPBGbg== 
# MNEM.UNIT                                              DATA : DESCRIPTION OF MNEMONIC 
#-----.-----                    ----------------------------- : ----------------------------- 
CNTY.                                               CULBERSON : COUNTY 
STATE.                                                  TEXAS : STATE 
CNTRY.                                                    USA : COUNTRY 
API.                                             42-109-31391 : API (10 Digit) 
API_14.                                    42-109-31391-00-00 : API (14 Digits) 
API_14_std.                                 42-109-31391-0000 : API (14 Digits Standard) 
UWI.                                           42109313910000 : UNIQUE WELL ID 
WELL.                                            TRES ALAS  1 : WELL NAME
STRT.FT                                                     0 : START DEPTH
STOP.FT                                               15494.0 : STOP DEPTH
STEP.FT                                                   0.5 : STEP BETWEEN DEPTHS
NULL.                                                 -999.25 : NULL VALUE
COMP.                           AMERICAN QUASAR PETROLEUM CO. : COMPANY
#___________________________________________________________________________________________________ 
~CURVE INFORMATION 
# MNEM.UNIT           : CURVE DESCRIPTION 
#-----.-----          : ----------------------------- 
 DEPT.FT               : MEASURED DEPTH 
 CALI.IN               : CALIPER (CAL - CAL) 
 GR.API                : GAMMA RAY (GR) 
 DT.US/FT              : SONIC DELTA TRANSIT TIME (DT) 
 #___________________________________________________________________________________________________ 
~A         DEPT           CALI             GR             DT
# ...
         5940.0         12.643         71.433         63.497
         5940.5         12.642         71.427         63.901
         5941.0         12.642         67.825         64.304
         5941.5         12.642         63.950         64.554
         5942.0         12.647         60.076         64.626
         5942.5         12.674         57.578         64.698
         5943.0         12.701         55.633         64.770
         5943.5         12.729         53.689         64.841
         5944.0         12.756         53.201         64.913
         5944.5         12.784         53.814         64.985
         5945.0         12.811         57.494         64.871
         5945.5         12.838         67.042         64.673
         5946.0         12.862         73.487         64.475
         5946.5         12.863         73.057         64.277
         5947.0         12.864         72.627         64.079
         5947.5         12.865         72.197         63.880
         5948.0         12.866         77.666         64.248
         5948.5         12.867         80.521         64.867
         5949.0         12.868         82.433         65.486
         5949.5         12.869         81.089         66.106
         5950.0         12.870         70.823         66.273
         5950.5         12.871         60.557         66.162
         5951.0         12.872         50.291         65.145
         5951.5         12.873         41.321         64.129
         5952.0         12.874         34.037         63.112
         5952.5         12.875         32.406         62.455
         5953.0         12.876         30.776         61.961
         5953.5         12.877         29.146         61.467
         5954.0         12.878         28.763         60.974
         5954.5         12.879         30.506         60.718
         5955.0         12.881         33.637         61.392
         5955.5         12.892         36.768         62.997
         5956.0         12.903         39.900         64.602
         5956.5         12.913         43.415         64.872
         5957.0         12.924         47.590         64.960
         5957.5         12.935         54.417         65.047
         5958.0         12.946         65.979         65.135
         5958.5         12.950         69.139         64.791
         5959.0         12.947         71.256         64.293
         5959.5         12.944         70.101         63.796
         5960.0         12.941         66.082         63.298
         5960.5         12.938         65.275         62.854
         5961.0         12.935         65.379         62.559
         5961.5         12.932         65.909         63.019
         5962.0         12.929         67.566         64.170
         5962.5         12.926         69.089         65.320
         5963.0         12.923         68.883         65.738
         5963.5         12.920         62.133         66.124
         5964.0         12.917         50.768         65.436
         5964.5         12.914         41.525         64.472
         5965.0         12.911         38.199         63.931
         5965.5         12.908         34.872         63.550
         5966.0         12.905         32.954         63.460
         5966.5         12.902         33.042         63.370
         5967.0         12.899         33.939         63.280
         5967.5         12.896         36.389         63.190
         5968.0         12.893         42.441         63.242
         5968.5         12.890         48.492         63.298
         5969.0         12.887         54.431         63.354
         5969.5         12.884         56.998         63.377
         5970.0         12.881         59.566         63.335
         5970.5         12.878         61.219         63.293
         5971.0         12.875         61.419         63.251
         5971.5         12.872         61.268         63.209
         5972.0         12.869         61.117         63.806
         5972.5         12.866         62.217         64.638
         5973.0         12.863         64.003         64.744
         5973.5         12.860         65.789         64.851
         5974.0         12.857         64.833         64.069
         5974.5         12.854         60.999         63.047
         5975.0         12.851         55.512         62.024
         5975.5         12.848         50.455         61.001
         5976.0         12.845         49.248         59.979
         5976.5         12.842         60.088         59.405
         5977.0         12.839         72.093         61.143
         5977.5         12.839         86.925         63.102
         5978.0         12.844         97.745         65.062
         5978.5         12.850         97.878         66.292
         5979.0         12.855         93.743         66.220
         5979.5         12.860         88.986         65.679
         5980.0         12.866         81.519         64.966
         5980.5         12.871         74.052         64.254
         5981.0         12.876         66.585         63.542
         5981.5         12.882         59.159         62.829
         5982.0         12.887         53.141         62.254
         5982.5         12.893         47.124         61.795
         5983.0         12.898         42.813         61.336
         5983.5         12.903         39.593         60.685
         5984.0         12.909         36.374         59.944
         5984.5         12.914         38.318         59.482
         5985.0         12.919         43.353         60.039
         5985.5         12.925         54.061         61.719
         5986.0         12.930         67.274         64.256
         5986.5         12.941         74.120         66.794
         5987.0         12.952         71.949         67.003
         5987.5         12.963         67.432         66.301
         5988.0         12.974         56.188         65.244
         5988.5         12.985         46.407         64.187
         5989.0         12.996         42.717         64.005
         5989.5         13.007         39.435         63.976
         5990.0         13.018         37.430         64.044
         5990.5         13.029         35.806         64.452
         5991.0         13.040         35.102         64.861
         5991.5         13.051         35.079         65.269
         5992.0         13.062         35.552         65.677
         5992.5         13.073         36.009         66.085
         5993.0         13.084         36.243         66.485
         5993.5         13.095         37.766         66.884
         5994.0         13.106         40.420         67.284
         5994.5         13.117         44.751         67.683
         5995.0         13.120         46.965         67.941
         5995.5         13.113         47.142         67.753
         5996.0         13.107         45.043         67.566
         5996.5         13.100         44.898         66.717
         5997.0         13.094         45.717         65.196
         5997.5         13.087         47.203         63.674
         5998.0         13.081         52.899         63.191
         5998.5         13.074         59.597         63.160
         5999.0         13.068         65.504         63.274
         5999.5         13.061         70.108         63.998
         6000.0         13.055         67.207         64.721
         6000.5         13.048         62.509         65.176
         6001.0         13.042         58.664         64.903
         6001.5         13.035         56.655         64.630
         6002.0         13.028         53.272         64.357
         6002.5         13.022         48.970         64.085
         6003.0         13.017         47.116         63.812
         6003.5         13.014         46.949         63.539
         6004.0         13.012         49.075         63.494
         6004.5         13.009         52.679         64.010
         6005.0         13.007         57.489         64.525
         6005.5         13.005         62.680         64.741
