~VERSION INFORMATION
 VERS.                2.0:   CWLS LOG ASCII STANDARD - VERSION 2.0
 WRAP.                 NO:   ONE LINE PER DEPTH STEP
~WELL INFORMATION
#MNEM.UNIT      DATA TYPE    INFORMATION
#----------   ------------   ------------------------------
 STRT.FT          68.0000:   START DEPTH
 STOP.FT        1517.0000:   STOP DEPTH
 STEP.FT           0.5000:   STEP LENGTH
 NULL.          -999.2500:   NULL VALUE
 COMP. LINCOLN ROCK CORPORATION:   COMPANY
 WELL.        HOLLER #602:   WELL
 FLD .            UNNAMED:   FIELD
 LOC .                   :   LOCATION
 CNTY.          CULBERSON:   COUNTY
 STAT.              TEXAS:   STATE
 CTRY. UNITED STATES OF AMERICA:   COUNTRY
 SRVC.           Gearhart:   SERVICE COMPANY
 DATE.        24-Jun-1984:   LOGDATE
 API .     42109317410000:   API NUMBER
~CURVE INFORMATION
#MNEM.UNIT       API CODE    CURVE DESCRIPTION
#----------   ------------   ------------------------------
 DEPT.F                  :   
 CALXS.IN    60 280 13 00:   CALIPER FROM X AXIS OF X-Y CALIPER(S) FROM SONIC LOG
 GRD .GAPI   45 310 01 00:   GAMMA RAY FROM DENSITY LOG
 GRS .GAPI   60 310 01 00:   GAMMA RAY FROM SONIC LOG
 TEND.LB     45 635 00 00:   TENSION FROM DENSITY LOG
 TENR.LB     11 635 00 00:   TENSION FROM RESISTIVITY LOG
 TENS.LB     60 635 00 00:   TENSION FROM SONIC LOG
 CALYD.IN    45 280 24 00:   CALIPER FROM X AXIS OF X-Y CALIPER(S) FROM DENSITY LOG
 CNS_LS.DEC  42 890 01 00:   COMPENSATED NEUTRON POROSITY
 CDL_LS.DEC  45 890 10 00:   COMPENSATED DENSITY POROSITY LIMESTONE
 RHOB.G/C3   45 350 01 00:   BULK DENSITY
 DRHO.G/C3   45 356 01 00:   BULK DENSITY CORRECTION
 GRR .GAPI   11 310 01 00:   GAMMA RAY FROM RESISTIVITY LOG
 RLLD.OHMM   11 220 10 00:   RAW LATEROLOG DEEP RESISTIVITY
 RLLS.OHMM   11 220 09 00:   RAW LATEROLOG SHALLOW RESISTIVITY
 DT  .US/F   60 500 00 00:   DELTA-T (INTERVAL TRANSIT TIME)
 SPHI.DEC    60 890 00 00:   SONIC POROSITY
~PARAMETER INFORMATION
#MNEM.UNIT          VALUE    DESCRIPTION
#----------   ------------   ------------------------------
 PD  .                 GL:   PERMANENT DATUM
 EPD .FT             3532:   ELEVATION PERMANENT DATUM
 LMF .                 GL:   LOG MEASURED FROM
 DMF .                RKB:   DRILLING MEASURED FROM
 EKB .FT             3544:   KELLY BUSHING
 EDF .FT             3543:   DRILLING FLOOR
 EGL .FT             3532:   GROUND LEVEL
 DATE.           06/24/84:   RUN DATE
 RUN .                  1:   RUN NUMBER
 DD  .FT             1502:   DEPTH DRILLER
 DL  .FT             1506:   DEPTH LOGGER
 BLI .FT             1505:   BOTTOM LOG INTERVAL
 TLI .FT               90:   TOP LOG INTERVAL
 CS  .IN              4.5:   CASING SIZE
 CBD .FT              101:   CASING BOTTOM DRILLER
 CBL .FT             1502:   CASING BOTTOM LOGGER
 BS  .IN            7.875:   BIT SIZE
 BSD .FT             1502:   BIT SIZE AT DEPTH
 DFT .          FRESH H2O:   DRILLING FLUID TYPE
 DFD .                8.4:   DRILLING FLUID DENSITY
 DFV .                 27:   DRILLING FLUID VISCOSITY
 DFPH.                 12:   DRILLING FLUID PH
 MSS .                PIT:   MUD SAMPLE SOURCE
 RMS .OHMM           2.32:   RESISTIVITY MUD SAMPLE
 MST .DEGF             77:   MUD SAMPLE TEMPERATURE
 RMF .OHMM           2.32:   RESISTIVITY MUD FILTRATE SAMPLE
 MFST.DEGF             77:   MUD FILTRATE SAMPLE TEMPERATURE
 MFSS.               MEAS:   MUD FILTRATE SAMPLE SOURCE
 TCS .HRS            0940:   TIME CIRCULATED STOPPED
 TLAB.HRS            1319:   TIME LOGGER AT BOTTOM
 MRT .DEGF            770:   MAXIMUM RECORDED TEMPERATURE
 LUN .               7583:   LOGGING UNIT NUMBER
 LUL .              HOBBS:   LOGGING UNIT LOCATION
 ENGI.             BRYANT:   RECORDING ENGINEER
 WITN.             BURROW:   WITNESSED BY
 CLNT.            :   CLIENT CODE
 ORIG.      1" 2.5" PRINT:   ORIGIN OF DATA
 UWI .     42109317410000:   UNIQUE WELL ID
 
~OTHER INFORMATION
~A   DEPT    CALXS        GRD        GRS       TEND       TENR       TENS      CALYD      CNS_LS     CDL_LS      RHOB       DRHO          GRR     RLLD       RLLS         DT       SPHI   
# ...
 1207.5000     8.2365     9.2011    10.7585  1062.0406   727.3635   976.9708     8.1300    -0.0072     0.2697     2.9313    -0.0327     7.9257 25354.9082 69700.0156    51.1073    -0.0092
 1208.0000     8.2361    10.0107     9.6701  1063.7999   736.5406   975.1481     8.1286    -0.0076     0.2668     2.9322    -0.0265     7.8071 25306.9570 64673.6484    52.1301     0.0002
 1208.5000     8.2356    10.7978     8.5815  1070.7118   735.1413   973.3259     8.1313    -0.0080     0.2624     2.9376    -0.0276     7.6885 25259.0059 58687.8438    51.0414    -0.0046
 1209.0000     8.2352    10.7929     7.2885  1077.6224   737.4991   971.5044     8.1340    -0.0083     0.2589     2.9426    -0.0286     7.5699 25413.8086 54861.5625    49.6819    -0.0145
 1209.5000     8.2347     9.5269     6.7024  1082.0994   736.0991   969.6822     8.1327    -0.0084     0.2597     2.9475    -0.0276     7.2439 25406.1621 58050.1211    49.5093    -0.0184
 1210.0000     8.2342     7.6364     6.5485  1078.4958   734.9322   967.7704     8.1313    -0.0081     0.2605     2.9524    -0.0265     6.4879 25663.8887 63596.0781    49.5709    -0.0179
 1210.5000     8.2318     6.3123     6.7926  1078.4291   775.9854   967.5477     8.1330    -0.0077     0.2603     2.9484    -0.0265     5.7318 25921.6172 70448.7656    49.5653    -0.0175
 1211.0000     8.2332     5.2656     6.7224  1080.3872   776.6238   964.7117     8.1327    -0.0069     0.2600     2.9545    -0.0265     4.9757 28361.1426 71016.3984    49.5597    -0.0179
 1211.5000     8.2328     5.7640     5.7538  1079.3087   777.2627   962.0669     8.1353    -0.0040     0.2597     2.9545    -0.0265     4.2196 23087.7871 58523.4688    49.5612    -0.0179
 1212.0000     8.2285     6.4875     4.2729  1082.2773   777.9017   963.4860     8.1340    -0.0015     0.2709     2.9478    -0.0204     3.8462 14557.3086 43629.3672    49.5733    -0.0186
 1212.5000     8.2318     8.8511     4.0910  1081.1989   778.5406   958.6167     8.1367     0.0009     0.2897     2.9405    -0.0143     5.2126  1962.1477 28735.2656    49.5854    -0.0173
 1213.0000     8.2351    12.0327     6.4202  1084.1699   779.1796   953.7465     8.1354     0.0028     0.3150     2.9322    -0.0228     9.7490  1102.7987 13841.1641    49.7138    -0.0162
 1213.5000     8.2837    15.4455    10.4096  1083.0914   779.8189   955.1644     8.1380     0.0012     0.3388     2.8949    -0.0313    14.2854   454.5238  1914.0559    49.8325    -0.0158
 1214.0000     8.5922    17.7388    14.9910  1086.0588   780.4578   956.5811     8.1367    -0.0008     0.3507     2.8508    -0.0398    18.4211   321.8664   878.0363    49.7448    -0.0154
 1214.5000     8.1957    18.2297    17.8065  1084.9803   781.0968   951.7105     8.1394    -0.0028     0.3371     2.8029    -0.0469    18.0162   479.6133  2049.0249    49.6524    -0.0157
 1215.0000     8.1935    16.5956    17.5190  1087.9501   781.7358   953.1262     8.1380    -0.0037     0.3280     2.8148    -0.0426    16.6307  1175.4166 16735.3809    49.4880    -0.0174
 1215.5000     8.2179    15.0020    16.0408  1086.8716   782.3747   948.2557     8.1407    -0.0045     0.3090     2.8385    -0.0382    15.0625  1871.2198 28993.3730    49.1551    -0.0204
 1216.0000     8.2244    13.5551    13.7648  1089.8427   783.0137   943.3852     8.1393    -0.0053     0.2963     2.8621    -0.0347    13.4944 12818.9248 65737.4609    48.9953    -0.0237
 1216.5000     8.2226    12.2243    11.4098  1093.1139   783.6526   944.7994     8.1421    -0.0053     0.2739     2.8858    -0.0224    11.9262 16082.1973 74324.6641    49.0350    -0.0219
 1217.0000     8.2357    11.5609     9.0685  1098.7238   795.0926   946.2126     8.1406    -0.0055     0.2515     2.9095    -0.0122    10.3581 16768.8496 67299.8125    49.2115    -0.0186
 1217.5000     8.3276    10.7132     8.0844  1094.7928   783.5723   941.3408     8.1434    -0.0057     0.2515     2.9332    -0.0085     8.7899 16279.7021 45741.6055    49.4223    -0.0185
 1218.0000     8.8669     9.4878     9.1330  1094.9114   782.9906   936.4690     8.1420    -0.0059     0.2530     2.9569    -0.0146     7.2218 15366.5820 38041.6758    49.1040    -0.0214
 1218.5000     9.1537     8.4015    10.3299  1090.9792   782.4090   937.8820     8.1447    -0.0062     0.2555     2.9633    -0.0206     6.7895 14453.4629 35312.6836    48.9167    -0.0227
 1219.0000     8.7046     8.2774    11.5443  1091.0978   781.8273   939.2925     8.1433    -0.0064     0.2580     2.9576    -0.0266     7.2215 14323.4365 35900.6758    48.8180    -0.0228
 1219.5000     8.4966     8.8047    11.6895  1087.1669   781.2450   934.4197     8.1460    -0.0066     0.2605     2.9520    -0.0327     7.6536 16637.8047 38304.5469    49.0956    -0.0213
 1220.0000     8.7054     9.7973     9.3549  1085.2595   780.6159   914.9830     8.1467    -0.0068     0.2638     2.9464    -0.0310     7.7463 16956.6621 42112.6484    49.1882    -0.0210
 1220.5000     8.1446    10.5216     7.5212  1079.9227   780.3787   912.1411     8.1473    -0.0070     0.2671     2.9407    -0.0293     7.4103 15894.7686 39449.8789    49.1572    -0.0211
 1221.0000     8.3397    10.9472     8.5084  1069.4395   779.7964   911.3331     8.1480    -0.0072     0.2711     2.9351    -0.0276     7.0850 16910.4785 36009.8945    49.0952    -0.0212
 1221.5000     8.4932    10.7094     9.9907  1058.9561   778.3569   907.4736     8.1487    -0.0075     0.2716     2.9294    -0.0268     7.2389 18461.3477 34557.4531    48.9977    -0.0221
 1222.0000     8.1448     9.8798     9.6756  1048.4727   776.7545   908.2220     8.1494    -0.0077     0.2702     2.9261    -0.0276     7.8947 18463.4316 34656.8945    48.8467    -0.0232
 1222.5000     8.1447     9.1409     8.1817  1056.2839   777.3548   905.7195     8.1500    -0.0077     0.2674     2.9281    -0.0283     7.7379 18293.7871 33392.0898    48.6958    -0.0242
 1223.0000     8.1406     8.7977     8.5781  1068.6697   777.9552   907.2826     8.1507    -0.0074     0.2646     2.9334    -0.0224     7.4858 17262.0605 31689.5059    48.6880    -0.0246
 1223.5000     8.1405     8.2076     9.6248  1081.0543   776.3528   904.7805     8.1514    -0.0067     0.2642     2.9387    -0.0224     7.2338 16184.5596 29600.0605    48.7757    -0.0235
 1224.0000     8.1364     7.8149    10.0191  1093.4401   776.9531   906.3423     8.1521    -0.0061     0.2674     2.9407    -0.0240     7.2686 15180.3555 27080.7129    48.8961    -0.0219
 1224.5000     8.1364     7.8691     9.4709  1105.8259   775.3501   903.8373     8.1527    -0.0055     0.2705     2.9354    -0.0265     7.7166 13555.0850 24917.2676    49.1473    -0.0212
 1225.0000     8.1323     8.3243     9.0252  1089.1484   775.9505   905.3995     8.1534    -0.0049     0.2743     2.9302    -0.0311     8.1646 12976.3643 25424.8828    49.1482    -0.0208
 1225.5000     8.1322     9.1101    10.0720  1075.3148   774.3475   902.8971     8.1541    -0.0043     0.2731     2.9261    -0.0357     8.6127 13069.7578 27143.8184    49.1011    -0.0213
 1226.0000     8.1281     9.6344    10.6695  1088.5814   772.7444   904.4605     8.1547    -0.0037     0.2719     2.9261    -0.0403     8.7045 13316.6094 28597.6465    48.8778    -0.0219
 1226.5000     8.1280     9.1102     9.9568  1105.7802   773.3435   902.4269     8.1554    -0.0031     0.2756     2.9261    -0.0449     8.7045 13563.4609 29487.2930    48.9775    -0.0226
 1227.0000     8.1240     8.9087     8.5916  1088.5950   771.7403   904.4592     8.1561    -0.0033     0.2768     2.9200    -0.0426     7.4899 13831.2900 31851.0234    49.1581    -0.0207
 1227.5000     8.1239     8.8684     8.2608  1052.8743   772.3394   902.4269     8.1568    -0.0053     0.2732     2.9200    -0.0403     8.3704 17381.3594 36705.3125    49.5693    -0.0184
 1228.0000     8.1198     9.8408     8.7023  1046.0983   772.9381   900.3963     8.1574    -0.0069     0.2703     2.9275    -0.0379     9.7517 20406.9434 44094.0586    49.6891    -0.0164
 1228.5000     8.1197    11.7678     9.1166  1071.0355   771.3348   897.2847     8.1581    -0.0069     0.2673     2.9340    -0.0356    10.3239 24047.5410 43265.7969    49.8903    -0.0154
