~Version Information Block
 VERS.                2.00:     CWLS LOG ASCII STANDARD - VERSION 2.000000
 WRAP.                  NO:     One Line Per Depth Step
#
~Well Information Block
#MNEM.UNIT                     Data                         Information
#----------   ------------------------------------------   ----------------
 STRT.F                                        31.0000:     START DEPTH
 STOP.F                                     15936.0000:     STOP DEPTH
 STEP.F                                         0.5000:     STEP
 NULL.                                       -999.2500:     NULL VALUE
 COMP.                             AMERCN QUASAR PETRO:     COMPANY
 WELL.                                    SCOTT UNIT 1:     WELL
 FLD .                                         WILDCAT:     FIELD
 LOC .        Survey  PSL              - Abs  6331     - Blk  45   - Section  19:     LOCATION
 CNTY.                                              TX:     COUNTY
 STAT.                                              TX:     STATE
 CTRY.                        UNITED STATES OF AMERICA:     COUNTRY
 SRVC.                                      GEOGRAPHIX:     SERVICE COMPANY
 DATE.                                                :     DATE
 API .                                  42109313620000:     API NUMBER
 UWI .                                  42109313620000:     UWI NUMBER
 TVD .                                              NO:     TVD flag
 WSTA.                                             LOC:     Well status
#
~Curve Information Block
#MNEM.UNIT       API CODE      Curve Description
#----------    -------------   -------------------
 DEPT.F                    :   Depth in Feet
 LLD .OHMM                 :   LATEROLOG DEEP
 GRS .GAPI                 :   GAMMA RAY FROM SONIC LOG
 CALS.IN                   :   CALIPER FROM SONIC LOG
 MSFL.OHMM                 :   MICRO SPHERICALLY FOCUSED
 LLS .OHMM                 :   LATEROLOG SHALLOW
 DT  .US/F                 :   DELTA TIME
#
~Parameter Information Block
#MNEM.UNIT            Value               Description
#----------    --------------------    -------------------
 RUN .                         ONE:    Run Number
 PDAT.                          GL:    Permanent Datum
 EPD .FT                          :    Elevation Of Perm. Datum
 LMF .               KELLY BUSHING:    Log Measured From
 EKB .FT                          :    Elevation Of Kelly Bushing
 DF .FT                           :    Elevation Of Derrick Floor
 GL .FT                           :    Elevation Of Ground Level
 TD  .FT                          :    Total Depth
 CSGD.FT                          :    Casing Bottom (Driller) 1
 CSGL.FT                          :    Casing Bottom (Logger) 1
 MUD .                            :    Drilling Fluid Type
 MUDV .CP                         :    Drilling Fluid Viscosity
 MUDD .LB/USG                     :    Drilling Fluid Density
 FL .ML/30MIN                     :    Drilling Fluid Loss
 PH.                              :    Drilling Fluid Ph
 MUDS .                           :    Mud Sample Source
 RM .OHMM                         :    Resistivity Of Mud Sample
 RMT .DEGF                        :    Mud Sample Temperature
 RMF .OHMM                        :    Mud Filtrate Resistivity
 RMFT.DEGF                        :    Mud Filtrate Sample Temperature
 RMC .OHMM                        :    Mud Cake Resistivity
 RMCT.DEGF                        :    Mud Cake Sample Temperature
 RMB .OHMM                        :    Mud Resistivity At Bht
 TMAX .DEGF                       :    Bottom Hole Temperature
#
~Other Information Block
<DescLogPlotStart>   NEURALOG PLOT DEFINITION
PLOTDEFVERSION: 3
LASFILE: E:\Nair Innovations\42_TEXAS\109_Culberson\42109313620000_1.las
DEPTHSCALE: 239.999996
RESOLUTION: 200
DEPTHLABELFREQ: 100.000000
HEAVYGRIDFREQ: 50.000000
MEDIUMGRIDFREQ: 50.000000
LIGHTGRIDFREQ: 10.000000
#
#   TRACK 1
#
STARTTRACK: 
 LEFTX: 0.500000 inch
 RIGHTX: 3.000000 inch
 SCALETYPE: Linear
 NUMCHARTDIVISIONS: 10
CURVE: GRS   1.504600   250.000000 (0,0,255)      Solid             2     N    
CURVE: CALS  6.474400   14.873500  (0,131,131)    Solid             2     N    
ENDTRACK: 
#
#   TRACK 2
#
STARTTRACK: 
 LEFTX: 3.500000 inch
 RIGHTX: 6.000000 inch
 SCALETYPE: Log
 NUMCYCLES: 4
 STARTCYCLE: 2
CURVE: LLS   0.200000   2000.000000 (255,0,0)      Solid             4     Y   
BACKUP: 2000.000000 20000000.000000 (255,0,0)      Solid             4    
BACKUP: 0.000020   0.200000   (255,0,0)      Solid             4    
CURVE: MSFL  0.200000   2000.000000 (0,131,131)    Solid             2     N   
ENDTRACK: 
#
#   TRACK 3
#
STARTTRACK: 
 LEFTX: 6.500000 inch
 RIGHTX: 9.000000 inch
 SCALETYPE: Linear
 NUMCHARTDIVISIONS: 10
CURVE: LLD   0.200000   2000.000000 (255,0,255)    Solid             4     N   
CURVE: DT    190.000000 50.000000  (255,0,131)    Solid             2     N    
ENDTRACK: 
<DescLogPlotEnd>
<DepthTrack type='Reference' track='1' Label='0' color='0' hor='0' />
<Reference font='144,0,-900,0,500,0,16777216,Arial' />
~A DEPTH     LLD              GRS              CALS             MSFL             LLS              DT              
# ...
    5141.000 119.49950000     88.87690000      11.52550000      -999.25000000    106.39720000     63.98450000     
    5141.500 128.61590000     80.66200000      11.49550000      -999.25000000    103.10820000     63.89410000     
    5142.000 129.56320000     70.62470000      11.49550000      -999.25000000    102.03740000     63.64450000     
    5142.500 125.89000000     69.11680000      11.49550000      -999.25000000    102.02320000     63.18930000     
    5143.000 121.61690000     68.73850000      11.46550000      -999.25000000    105.39180000     62.43760000     
    5143.500 121.60060000     69.86610000      11.37050000      -999.25000000    117.25680000     61.63460000     
    5144.000 137.75080000     75.88840000      11.33250000      -999.25000000    133.27890000     60.60880000     
    5144.500 147.62370000     83.79320000      11.24730000      -999.25000000    140.21480000     61.52480000     
    5145.000 153.87730000     92.07450000      11.18570000      -999.25000000    142.15120000     62.98950000     
    5145.500 156.00500000     96.97860000      11.13510000      -999.25000000    150.22850000     64.08840000     
    5146.000 158.16180000     99.60100000      11.10510000      -999.25000000    174.92810000     65.00440000     
    5146.500 183.33110000     87.99080000      11.10510000      -999.25000000    230.72890000     63.08500000     
    5147.000 259.78830000     78.12570000      11.10510000      -999.25000000    287.92830000     61.44000000     
    5147.500 330.16840000     73.15520000      11.10510000      -999.25000000    308.67210000     60.69710000     
    5148.000 401.67110000     76.87020000      11.10510000      -999.25000000    322.28770000     60.25360000     
    5148.500 447.31890000     84.15930000      11.10510000      -999.25000000    336.52180000     61.25360000     
    5149.000 405.32220000     89.11090000      11.07510000      -999.25000000    325.05640000     62.33320000     
    5149.500 364.64700000     92.10300000      11.07510000      -999.25000000    275.79430000     63.35100000     
    5150.000 327.32540000     97.32680000      11.07510000      -999.25000000    242.09520000     63.67380000     
    5150.500 296.18480000     101.00380000     11.10510000      -999.25000000    232.21310000     63.86350000     
    5151.000 271.28690000     103.34680000     11.13510000      -999.25000000    225.85010000     64.01190000     
    5151.500 246.15110000     101.83890000     11.19520000      -999.25000000    207.78840000     64.10470000     
    5152.000 211.28970000     96.94250000      11.22640000      -999.25000000    168.70330000     63.71380000     
    5152.500 160.08040000     87.90450000      11.25800000      -999.25000000    140.82900000     62.64430000     
    5153.000 107.04860000     82.63160000      11.28530000      -999.25000000    93.21220000      61.91390000     
    5153.500 81.10370000      82.25330000      11.29110000      -999.25000000    65.93290000      62.00670000     
    5154.000 64.84800000      83.75750000      11.31530000      -999.25000000    58.41620000      62.55680000     
    5154.500 60.59240000      86.01470000      11.31530000      -999.25000000    60.74690000      62.55820000     
    5155.000 82.50880000      71.87460000      11.32580000      -999.25000000    76.23170000      61.73630000     
    5155.500 99.64390000      56.99270000      11.34530000      -999.25000000    95.25500000      60.27420000     
    5156.000 105.48890000     40.08890000      11.43260000      -999.25000000    101.71050000     59.15890000     
    5156.500 96.65590000      37.81440000      11.46550000      -999.25000000    86.38690000      59.36510000     
    5157.000 54.53450000      38.79690000      11.49550000      -999.25000000    59.16250000      60.95370000     
    5157.500 38.70810000      46.81050000      11.46550000      -999.25000000    35.10540000      62.01150000     
    5158.000 34.27720000      53.20930000      11.46550000      -999.25000000    32.46210000      62.71290000     
    5158.500 34.75120000      47.69410000      11.46550000      -999.25000000    34.14350000      62.93470000     
    5159.000 35.23170000      45.90360000      11.46550000      -999.25000000    31.41290000      62.36550000     
    5159.500 25.96180000      45.94790000      11.46550000      -999.25000000    26.22270000      61.84510000     
    5160.000 22.59620000      61.89720000      11.49550000      -999.25000000    20.99650000      63.02420000     
    5160.500 21.07940000      78.46170000      11.49550000      -999.25000000    20.13940000      64.76990000     
    5161.000 21.37090000      92.39050000      11.49550000      -999.25000000    22.08730000      65.77740000     
    5161.500 24.54740000      104.06040000     11.52620000      -999.25000000    29.73480000      66.32750000     
    5162.000 45.49290000      110.83570000     11.55560000      -999.25000000    42.33020000      66.32880000     
    5162.500 85.49890000      108.19830000     11.58560000      -999.25000000    85.81880000      66.05580000     
    5163.000 126.46750000     101.41940000     11.58560000      -999.25000000    115.86630000     65.41680000     
    5163.500 167.08340000     94.64040000      11.58560000      -999.25000000    120.87240000     65.23520000     
    5164.000 173.42500000     89.99950000      11.58560000      -999.25000000    117.76550000     64.68140000     
    5164.500 141.97680000     79.26480000      11.59560000      -999.25000000    106.03270000     63.85920000     
    5165.000 102.47580000     67.39360000      11.63870000      -999.25000000    85.65750000      63.76370000     
    5165.500 74.04820000      60.35430000      11.70570000      -999.25000000    58.69510000      63.54140000     
    5166.000 50.68830000      52.12600000      11.76490000      -999.25000000    39.78070000      62.95480000     
    5166.500 39.83240000      41.46390000      11.82580000      -999.25000000    29.71500000      62.32210000     
    5167.000 34.66870000      37.87310000      11.82580000      -999.25000000    26.96150000      61.75800000     
    5167.500 30.17430000      36.48350000      11.85590000      -999.25000000    26.22270000      61.53580000     
    5168.000 26.62950000      37.18360000      11.85590000      -999.25000000    24.80530000      62.36070000     
    5168.500 22.23260000      39.70620000      11.85590000      -999.25000000    18.00890000      63.67270000     
    5169.000 20.74020000      41.68660000      11.91590000      -999.25000000    16.06230000      64.42740000     
    5169.500 19.06340000      40.77720000      11.94590000      -999.25000000    14.75300000      64.61160000     
    5170.000 18.00010000      40.77530000      12.00600000      -999.25000000    13.80240000      64.88740000     
    5170.500 16.79890000      42.27950000      12.06610000      -999.25000000    13.22710000      65.07160000     
    5171.000 15.82610000      44.16020000      12.06610000      -999.25000000    12.67630000      65.25590000     
    5171.500 15.00310000      45.66440000      12.06610000      -999.25000000    12.14830000      65.34870000     
    5172.000 14.50650000      46.41560000      12.06610000      -999.25000000    11.80480000      65.44150000     
    5172.500 14.05130000      46.41380000      12.06610000      -999.25000000    11.55370000      64.88780000     
    5173.000 14.54210000      45.28240000      12.06610000      -999.25000000    11.64750000      64.41270000     
    5173.500 16.45280000      44.84050000      12.06610000      -999.25000000    12.38470000      63.89820000     
    5174.000 21.00020000      43.23960000      12.06610000      -999.25000000    15.04350000      62.67750000     
    5174.500 24.12160000      41.36380000      12.06610000      -999.25000000    16.81180000      61.92270000     
    5175.000 25.49440000      39.81510000      12.06610000      -999.25000000    16.57990000      62.09630000     
    5175.500 22.49930000      38.64250000      12.06610000      -999.25000000    14.03410000      63.06950000     
