###############################################
##         ENVERUS                           ##
##         ESS - Open Hole                   ##
##         PERMIAN / DELAWARE                ##
##         Nov 02 2023  V4.0                 ##
##         42-109-00406-00-00                ##
###############################################
## Copyright 2017-2023  ENVERUS.  All Rights Reserved. 
## Confidential - Property of ENVERUS, use governed by terms and 
## conditions found within the existing Information Services Subscription Agreement 
## (as may be amended, the “ISSA”) between Customer and ENVERUS. 
## 
~VERSION INFORMATION
# MNEM.UNIT                               DATA : DESCRIPTION OF MNEMONIC
#-----.-----     ----------------------------- : -----------------------------
VERS.                                     2.00 : CWLS LOG ASCII STANDARD - VERSION 2.00
WRAP.                                       NO : MULTIPLE LINES PER DEPTH STEP
VEND.                                  ENVERUS : VENDOR
TYPE.                          ESS - OPEN HOLE : ENVERUS ESSENTIAL CURVES – ACCESSIBLE THROUGH ENVERUS PRISM(TM)
DOC.                                  31976272 : ENVERUS HEADER RAW DOCUMENT ID
#___________________________________________________________________________________________________ 
~WELL INFORMATION 
# f03iSNYnaQ7mQXX2RIaOYtiytuBBABKYYIB1smJtyZkBcGMChrfvYQpeE0DESEj4BN+caz3q2IoGlEPFhwFUwg== 
# MNEM.UNIT                                              DATA : DESCRIPTION OF MNEMONIC 
#-----.-----                    ----------------------------- : ----------------------------- 
CNTY.                                               CULBERSON : COUNTY 
STATE.                                                  TEXAS : STATE 
CNTRY.                                                    USA : COUNTRY 
API.                                             42-109-00406 : API (10 Digit) 
API_14.                                    42-109-00406-00-00 : API (14 Digits) 
API_14_std.                                 42-109-00406-0000 : API (14 Digits Standard) 
UWI.                                           42109004060000 : UNIQUE WELL ID 
WELL.                                                  DRD_55 : WELL NAME
STRT.FT                                                 100.5 : START DEPTH
STOP.FT                                               12629.5 : STOP DEPTH
STEP.FT                                                   0.5 : STEP BETWEEN DEPTHS
NULL.                                                 -999.25 : NULL VALUE
#___________________________________________________________________________________________________ 
~PARAMETER INFORMATION 
# MNEM.UNIT                                              DATA : DESCRIPTION OF MNEMONIC 
#-----.-----                    ----------------------------- : -----------------------------
#___________________________________________________________________________________________________ 
~CURVE INFORMATION 
# MNEM.UNIT           : CURVE DESCRIPTION 
#-----.-----          : ----------------------------- 
 DEPT.FT               : MEASURED DEPTH 
 GR__A.API             : GAMMA RAY (GAMMA RAY) 
 DT__A.US/FT           : SONIC DELTA TRANSIT TIME (SONIC) 
 #___________________________________________________________________________________________________ 
~A         DEPT          GR__A          DT__A
# ...
         9235.5         24.821         50.320
         9236.0         24.350         50.320
         9236.5         23.794         50.273
         9237.0         21.294         50.085
         9237.5         20.231         50.476
         9238.0         18.424         51.115
         9238.5         17.978         51.577
         9239.0         17.769         52.137
         9239.5         17.769         52.694
         9240.0         17.769         53.183
         9240.5         18.007         53.940
         9241.0         18.327         53.058
         9241.5         18.668         52.411
         9242.0         19.712         53.152
         9242.5         20.926         53.660
         9243.0         22.859         53.597
         9243.5         24.567         52.804
         9244.0         26.167         52.600
         9244.5         27.920         52.549
         9245.0         28.800         51.704
         9245.5         28.749         50.987
         9246.0         26.736         49.983
         9246.5         27.300         50.623
         9247.0         27.975         50.890
         9247.5         28.567         50.920
         9248.0         25.066         51.348
         9248.5         23.284         51.980
         9249.0         20.845         52.541
         9249.5         19.156         52.471
         9250.0         18.109         52.240
         9250.5         17.009         52.287
         9251.0         15.970         51.548
         9251.5         14.901         51.094
         9252.0         15.600         52.491
         9252.5         16.996         53.943
         9253.0         19.378         54.040
         9253.5         24.962         54.146
         9254.0         29.980         55.178
         9254.5         32.832         54.554
         9255.0         28.866         53.475
         9255.5         23.333         52.498
         9256.0         20.663         52.199
         9256.5         21.000         53.371
         9257.0         23.398         54.111
         9257.5         25.265         54.673
         9258.0         25.491         55.321
         9258.5         23.443         55.509
         9259.0         22.559         55.925
         9259.5         22.310         56.244
         9260.0         23.080         56.606
         9260.5         23.549         55.482
         9261.0         23.382         54.014
         9261.5         21.017         52.937
         9262.0         18.278         51.726
         9262.5         15.593         51.113
         9263.0         13.506         50.322
         9263.5         12.635         50.021
         9264.0         13.035         50.641
         9264.5         14.111         51.042
         9265.0         16.184         51.280
         9265.5         18.280         51.177
         9266.0         19.713         51.570
         9266.5         17.072         51.487
         9267.0         14.822         51.179
         9267.5         13.408         51.112
         9268.0         12.310         50.804
         9268.5         11.700         50.680
         9269.0         11.429         50.680
         9269.5         12.547         50.800
         9270.0         14.270         50.920
         9270.5         16.106         50.920
         9271.0         17.207         50.920
         9271.5         17.400         50.634
         9272.0         15.554         50.044
         9272.5         11.663         50.440
         9273.0         10.316         50.440
         9273.5         10.003         50.104
         9274.0         12.896         50.692
         9274.5         14.874         51.197
         9275.0         17.155         51.505
         9275.5         19.425         52.413
         9276.0         21.001         52.781
         9276.5         21.430         52.532
         9277.0         20.660         52.224
         9277.5         19.278         51.671
         9278.0         17.993         51.157
         9278.5         16.852         51.218
         9279.0         16.800         50.070
         9279.5         16.800         49.605
         9280.0         17.100         50.498
         9280.5         16.462         49.935
         9281.0         15.060         49.108
         9281.5         13.854         48.379
         9282.0         12.583         49.199
         9282.5         10.795         48.640
         9283.0          9.641         48.445
         9283.5          7.895         49.505
         9284.0          7.731         49.971
         9284.5          7.821         50.512
         9285.0          8.055         50.900
         9285.5          8.400         51.368
         9286.0          9.689         51.520
         9286.5          9.900         51.623
         9287.0          9.172         51.931
         9287.5          8.403         52.239
         9288.0          7.933         52.177
         9288.5          7.164         51.760
         9289.0          6.900         51.558
         9289.5          6.525         51.250
         9290.0          6.000         50.785
         9290.5          5.586         50.395
         9291.0          5.400         50.320
         9291.5          5.700         50.200
         9292.0          6.022         50.191
         9292.5          6.491         49.845
         9293.0          6.961         49.544
         9293.5          6.670         50.158
         9294.0          6.201         50.605
         9294.5          5.431         50.212
         9295.0          5.400         49.950
         9295.5          5.700         50.385
         9296.0          5.877         50.846
         9296.5          6.647         51.068
         9297.0          7.674         51.486
         9297.5          8.485         51.948
         9298.0          9.382         52.342
         9298.5         10.324         52.675
         9299.0         11.094         52.493
         9299.5         11.808         51.362
         9300.0         12.300         51.027
         9300.5         12.098         50.277
         9301.0         11.108         49.497
         9301.5          9.569         48.928
         9302.0          8.480         48.591
         9302.5          7.800         49.352
         9303.0          7.800         49.719
         9303.5          7.182         50.391
         9304.0          6.412         50.755
         9304.5          5.700         50.800
         9305.0          5.174         50.891
         9305.5          5.100         51.040
         9306.0          5.100         50.934
         9306.5          5.535         50.800
         9307.0          6.004         50.802
         9307.5          6.600         50.731
         9308.0          7.114         50.009
         9308.5          8.012         50.645
         9309.0          7.677         50.440
         9309.5          6.248         50.440
         9310.0          5.279         50.728
         9310.5          4.215         50.800
         9311.0          3.211         50.920
         9311.5          2.700         50.680
         9312.0          2.898         50.879
         9312.5          3.668         51.067
         9313.0          4.437         51.185
         9313.5          4.907         50.920
         9314.0          4.824         50.690
         9314.5          4.500         50.502
         9315.0          4.200         50.066
         9315.5          4.200         50.394
         9316.0          4.200         50.680
         9316.5          4.423         50.889
         9317.0          4.500         51.160
         9317.5          4.200         51.265
         9318.0          3.900         51.498
         9318.5          3.900         51.160
         9319.0          3.900         51.228
         9319.5          4.200         51.552
         9320.0          4.709         51.807
         9320.5          5.178         51.369
         9321.0          5.948         51.061
         9321.5          6.300         51.087
         9322.0          6.600         51.160
