~VERSION INFORMATION
 VERS.                2.0:   CWLS LOG ASCII STANDARD - VERSION 2.0
 WRAP.                 NO:   ONE LINE PER DEPTH STEP
~WELL INFORMATION
#MNEM.UNIT      DATA TYPE    INFORMATION
#----------   ------------   ------------------------------
 STRT.FT        8672.0000:   START DEPTH
 STOP.FT       14432.0000:   STOP DEPTH
 STEP.FT           0.5000:   STEP LENGTH
 NULL.          -999.2500:   NULL VALUE
 COMP. CAPITAN ENERGY, INCORPORATED:   COMPANY
 WELL.  MOTHER FEE 28 #1H:   WELL
 FLD . FORD, WEST (WOLFCAMP)	:   FIELD
 LOC .                   :   LOCATION
 CNTY.          CULBERSON:   COUNTY
 STAT.              TEXAS:   STATE
 CTRY. UNITED STATES OF AMERICA:   COUNTRY
 SRVC.        HALLIBURTON:   SERVICE COMPANY
 DATE.        16-Nov-2015:   LOGDATE
 API .     42109328880000:   API NUMBER
~CURVE INFORMATION
#MNEM.UNIT       API CODE    CURVE DESCRIPTION
#----------   ------------   ------------------------------
 DEPT.FT                 :   
 CALD_C.IN   45 280 60 00:   CALIPER FROM DENSITY COMPOSITE LOG
 DCOR.G/C3   45 356 01 00:   DENSITY CORRECTION
 DPHI_LS.DEC 45 890 10 00:   DENSITY POROSITY LIMESTONE
 DT_CH.US/F  60 501 00 00:   DELTA FROM THE FULL WAVE SONIC IN CASED HOLE
 GRD .GAPI   45 310 01 00:   GAMMA RAY FROM DENSITY LOG
 LLDC.OHMM   11 220 10 00:   CORRECTED LATEROLOG DEEP RESISTIVITY
 LLSC.OHMM   11 220 09 00:   CORRECTED LATEROLOG SHALLOW RESISTIVITY
 MSFLC.OHMM  11 270 04 00:   CORRECTED MICRO SPHERICALLY FOCUSED RESISTIVITY
 NPHI_LS.DEC 42 890 01 00:   NEUTRON POROSITY LIMESTONE
 PE  .B/E    45 358 01 00:   PHOTO ELECTRIC CROSS SECTION
 RHOB_CH.G/C3 45 350 01 00:   
~PARAMETER INFORMATION
#MNEM.UNIT          VALUE    DESCRIPTION
#----------   ------------   ------------------------------
 DATE.           11/16/15:   RUN DATE
 RUN .                  1:   RUN NUMBER
 BLI .FT            14432:   BOTTOM LOG INTERVAL
 TLI .FT             8672:   TOP LOG INTERVAL
 ORIG.     1" 2" 5" PRINT:   ORIGIN OF DATA
 UWI .     42109328880000:   UNIQUE WELL ID
~OTHER INFORMATION
~A   DEPT         CALD_C      DCOR       DPHI_LS      DT_CH       GRD        LLDC        LLSC        MSFLC       NPHI_LS         PE      RHOB_CH
# ...
 12116.0000   -999.2500   -999.2500      0.0979     72.1836    129.7724     37.8740     30.5235     19.8153      0.1565      3.2457      2.5513
 12116.5000   -999.2500   -999.2500      0.0993     72.1200    126.9104     36.1300     29.3127     18.3152      0.1586      3.2598      2.5513
 12117.0000   -999.2500   -999.2500      0.0941     72.0563    115.3162     32.5681     26.9128     16.3841      0.1581      3.2793      2.5613
 12117.5000   -999.2500   -999.2500      0.0924     72.0432    112.7636     31.9487     26.0880     16.0360      0.1572      3.3198      2.5630
 12118.0000   -999.2500   -999.2500      0.0900     72.0638    109.5748     30.3589     23.8442     15.4255      0.1549      3.2935      2.5691
 12118.5000   -999.2500   -999.2500      0.0893     72.0844    109.3916     30.7728     25.5727     15.4251      0.1541      3.2793      2.5691
 12119.0000   -999.2500   -999.2500      0.0902     72.1050    114.3166     32.1738     26.2565     15.8205      0.1543      3.2429      2.5669
 12119.5000   -999.2500   -999.2500      0.0912     72.1256    114.9344     31.7037     26.2494     15.7494      0.1552      3.2400      2.5669
 12120.0000   -999.2500   -999.2500      0.0914     72.1461    115.7626     31.4336     25.8478     15.6786      0.1564      3.2297      2.5668
 12120.5000   -999.2500   -999.2500      0.0947     72.1667    123.5745     33.8760     27.1343     17.0824      0.1587      3.2146      2.5641
 12121.0000   -999.2500   -999.2500      0.0979     72.1873    130.3313     37.8127     30.7851     18.5127      0.1610      3.1983      2.5589
 12121.5000   -999.2500   -999.2500      0.0998     72.2254    132.1777     36.6256     30.1021     18.1819      0.1618      3.1904      2.5562
 12122.0000   -999.2500   -999.2500      0.0955     72.2728    122.4786     32.9307     26.5592     15.9786      0.1602      3.1823      2.5562
 12122.5000   -999.2500   -999.2500      0.0939     72.2920    114.4625     29.3981     24.4308     14.9690      0.1574      3.1822      2.5598
 12123.0000   -999.2500   -999.2500      0.0939     72.4294    113.3042     28.9589     24.2052     14.8140      0.1554      3.1983      2.5623
 12123.5000   -999.2500   -999.2500      0.0952     72.5407    117.8688     31.6292     24.6584     16.1577      0.1559      3.2091      2.5567
 12124.0000   -999.2500   -999.2500      0.0972     72.5738    123.4502     37.8966     30.1261     18.2791      0.1566      3.2540      2.5534
 12124.5000   -999.2500   -999.2500      0.0963     72.4629    120.6155     37.6941     30.9491     18.2397      0.1565      3.2793      2.5534
 12125.0000   -999.2500   -999.2500      0.0941     72.4197    118.0177     36.1792     30.1468     18.7839      0.1556      3.2793      2.5537
 12125.5000   -999.2500   -999.2500      0.1001     72.3764    135.9358     46.4751     36.6297     22.1482      0.1575      3.2793      2.5549
 12126.0000   -999.2500   -999.2500      0.0976     72.3332    125.3329     33.4364     30.0593     21.2625      0.1569      3.2793      2.5570
 12126.5000   -999.2500   -999.2500      0.0920     72.2899    114.7144     34.6435     27.6967     16.7888      0.1556      3.2645      2.5578
 12127.0000   -999.2500   -999.2500      0.0928     72.1125    121.1208     36.5738     29.4715     17.8062      0.1572      3.2793      2.5597
 12127.5000   -999.2500   -999.2500      0.0905     72.0417    114.5554     35.1598     28.2937     16.9679      0.1573      3.2793      2.5611
 12128.0000   -999.2500   -999.2500      0.0896     72.0481    112.8937     33.7458     25.9088     16.5591      0.1579      3.2793      2.5633
 12128.5000   -999.2500   -999.2500      0.0899     72.0529    113.7761     32.7883     26.3125     16.0806      0.1589      3.2793      2.5644
 12129.0000   -999.2500   -999.2500      0.0922     72.2724    123.8244     35.7255     29.1522     17.6718      0.1602      3.2476      2.5644
 12129.5000   -999.2500   -999.2500      0.0968     72.1775    129.8296     41.9339     33.1794     19.9233      0.1619      3.2388      2.5572
 12130.0000   -999.2500   -999.2500      0.0937     72.0826    119.3762     37.7430     28.6918     18.2756      0.1596      3.2307      2.5538
 12130.5000   -999.2500   -999.2500      0.0911     72.0447    119.3763     37.2788     29.3278     16.7063      0.1581      3.1983      2.5538
 12131.0000   -999.2500   -999.2500      0.0954     71.9608    124.0571     41.3874     33.2820     19.7419      0.1575      3.1983      2.5599
 12131.5000   -999.2500   -999.2500      0.0918     71.8201    118.3430     36.5164     29.5014     17.5970      0.1556      3.1983      2.5605
 12132.0000   -999.2500   -999.2500      0.0920     71.8514    115.1815     35.0341     31.6758     16.1377      0.1554      3.1983      2.5605
 12132.5000   -999.2500   -999.2500      0.0883     72.1201    118.0575     32.0695     24.7347     14.6719      0.1554      3.1983      2.5593
 12133.0000   -999.2500   -999.2500      0.0949     72.1921    125.0248     35.7991     30.7112     18.1238      0.1584      3.1983      2.5588
 12133.5000   -999.2500   -999.2500      0.0940     72.0004    116.6469     35.5693     28.8627     17.4524      0.1568      3.1983      2.5588
 12134.0000   -999.2500   -999.2500      0.0922     71.6945    114.8657     33.1277     28.2764     16.3993      0.1550      3.2388      2.5587
 12134.5000   -999.2500   -999.2500      0.0925     71.3887    118.3493     39.7615     32.2767     18.9657      0.1541      3.2532      2.5604
 12135.0000   -999.2500   -999.2500      0.0914     71.0828    114.5654     43.0287     34.6468     20.4278      0.1531      3.2807      2.5621
 12135.5000   -999.2500   -999.2500      0.0886     71.0153    108.8084     41.5100     32.9747     19.4415      0.1532      3.3333      2.5671
 12136.0000   -999.2500   -999.2500      0.0885     71.2882    108.8084     43.2731     34.5220     20.0514      0.1546      3.3657      2.5709
 12136.5000   -999.2500   -999.2500      0.0916     71.5611    115.7995     44.6551     35.5146     20.7350      0.1560      3.3604      2.5643
 12137.0000   -999.2500   -999.2500      0.0941     71.8340    118.7363     42.6643     33.2369     20.3195      0.1569      3.3198      2.5626
 12137.5000   -999.2500   -999.2500      0.0954     72.0524    116.7879     38.1849     30.9593     18.9410      0.1551      3.2661      2.5570
 12138.0000   -999.2500   -999.2500      0.0935     72.0216    118.4713     35.4675     29.3195     17.1996      0.1537      3.2163      2.5570
 12138.5000   -999.2500   -999.2500      0.0957     71.9123    117.9889     35.9862     28.6033     17.5551      0.1525      3.2029      2.5575
 12139.0000   -999.2500   -999.2500      0.0916     71.8030    108.8877     31.7850     26.0060     15.1340      0.1515      3.2017      2.5620
 12139.5000   -999.2500   -999.2500      0.0903     71.8888    108.6082     28.8249     23.6868     14.2958      0.1511      3.2005      2.5625
 12140.0000   -999.2500   -999.2500      0.0923     72.1023    123.4649     33.5244     24.6238     15.2913      0.1525      3.1993      2.5553
 12140.5000   -999.2500   -999.2500      0.0992     72.3157    132.1621     39.3290     31.1898     18.6212      0.1533      3.1882      2.5519
 12141.0000   -999.2500   -999.2500      0.0999     72.4441    130.8837     39.3290     31.3833     18.7845      0.1525      3.1754      2.5514
 12141.5000   -999.2500   -999.2500      0.0972     72.4782    122.2329     35.9009     29.1399     17.5452      0.1507      3.1983      2.5515
 12142.0000   -999.2500   -999.2500      0.0950     72.4884    124.6875     32.0695     29.2359     16.0979      0.1505      3.1983      2.5518
 12142.5000   -999.2500   -999.2500      0.0994     72.4589    130.4077     43.5535     30.1468     21.0272      0.1523      3.1983      2.5535
 12143.0000   -999.2500   -999.2500      0.0951     72.4294    118.7459     34.2208     27.9045     16.9201      0.1523      3.1983      2.5542
 12143.5000   -999.2500   -999.2500      0.0947     72.3999    122.0138     34.8512     28.3399     17.1777      0.1544      3.1983      2.5543
