###############################################
##         ENVERUS                           ##
##         ESS - Open Hole                   ##
##         PERMIAN / DELAWARE                ##
##         Nov 02 2023  V4.0                 ##
##         42-109-00406-00-00                ##
###############################################
## Copyright 2017-2023  ENVERUS.  All Rights Reserved. 
## Confidential - Property of ENVERUS, use governed by terms and 
## conditions found within the existing Information Services Subscription Agreement 
## (as may be amended, the “ISSA”) between Customer and ENVERUS. 
## 
~VERSION INFORMATION
# MNEM.UNIT                               DATA : DESCRIPTION OF MNEMONIC
#-----.-----     ----------------------------- : -----------------------------
VERS.                                     2.00 : CWLS LOG ASCII STANDARD - VERSION 2.00
WRAP.                                       NO : MULTIPLE LINES PER DEPTH STEP
VEND.                                  ENVERUS : VENDOR
TYPE.                          ESS - OPEN HOLE : ENVERUS ESSENTIAL CURVES – ACCESSIBLE THROUGH ENVERUS PRISM(TM)
DOC.                                  31976272 : ENVERUS HEADER RAW DOCUMENT ID
#___________________________________________________________________________________________________ 
~WELL INFORMATION 
# f03iSNYnaQ7mQXX2RIaOYtiytuBBABKYYIB1smJtyZkBcGMChrfvYQpeE0DESEj4BN+caz3q2IoGlEPFhwFUwg== 
# MNEM.UNIT                                              DATA : DESCRIPTION OF MNEMONIC 
#-----.-----                    ----------------------------- : ----------------------------- 
CNTY.                                               CULBERSON : COUNTY 
STATE.                                                  TEXAS : STATE 
CNTRY.                                                    USA : COUNTRY 
API.                                             42-109-00406 : API (10 Digit) 
API_14.                                    42-109-00406-00-00 : API (14 Digits) 
API_14_std.                                 42-109-00406-0000 : API (14 Digits Standard) 
UWI.                                           42109004060000 : UNIQUE WELL ID 
WELL.                                                  DRD_55 : WELL NAME
STRT.FT                                                 100.5 : START DEPTH
STOP.FT                                               12629.5 : STOP DEPTH
STEP.FT                                                   0.5 : STEP BETWEEN DEPTHS
NULL.                                                 -999.25 : NULL VALUE
#___________________________________________________________________________________________________ 
~PARAMETER INFORMATION 
# MNEM.UNIT                                              DATA : DESCRIPTION OF MNEMONIC 
#-----.-----                    ----------------------------- : -----------------------------
#___________________________________________________________________________________________________ 
~CURVE INFORMATION 
# MNEM.UNIT           : CURVE DESCRIPTION 
#-----.-----          : ----------------------------- 
 DEPT.FT               : MEASURED DEPTH 
 GR__A.API             : GAMMA RAY (GAMMA RAY) 
 DT__A.US/FT           : SONIC DELTA TRANSIT TIME (SONIC) 
 #___________________________________________________________________________________________________ 
~A         DEPT          GR__A          DT__A
# ...
        10888.5          3.900         50.080
        10889.0          4.116         50.286
        10889.5          4.500         50.320
        10890.0          4.500         50.098
        10890.5          4.500         50.030
        10891.0          4.500         49.960
        10891.5          4.500         50.080
        10892.0          4.200         50.213
        10892.5          3.900         50.401
        10893.0          3.600         50.560
        10893.5          3.300         50.560
        10894.0          3.000         50.516
        10894.5          3.021         50.328
        10895.0          2.700         50.141
        10895.5          2.700         49.769
        10896.0          2.700         49.338
        10896.5          2.700         49.623
        10897.0          3.000         49.720
        10897.5          3.000         49.480
        10898.0          3.000         49.108
        10898.5          2.700         49.774
        10899.0          2.096         50.080
        10899.5          1.800         49.891
        10900.0          2.100         49.720
        10900.5          2.100         49.515
        10901.0          2.182         49.480
        10901.5          2.400         49.480
        10902.0          2.400         49.528
        10902.5          2.400         49.484
        10903.0          2.400         49.480
        10903.5          2.371         49.480
        10904.0          2.100         49.480
        10904.5          1.800         49.507
        10905.0          1.563         49.592
        10905.5          1.500         49.840
        10906.0          2.076         50.070
        10906.5          2.400         50.022
        10907.0          2.700         49.714
        10907.5          2.884         49.480
        10908.0          3.000         49.197
        10908.5          3.000         49.201
        10909.0          3.300         49.480
        10909.5          3.300         49.480
        10910.0          3.300         49.773
        10910.5          3.300         49.840
        10911.0          3.000         50.148
        10911.5          2.700         50.200
        10912.0          2.491         50.117
        10912.5          2.400         50.080
        10913.0          2.100         49.960
        10913.5          2.100         49.840
        10914.0          2.386         49.840
        10914.5          2.400         50.080
        10915.0          2.725         50.090
        10915.5          3.195         50.002
        10916.0          3.664         49.694
        10916.5          4.134         49.693
        10917.0          4.603         49.840
        10917.5          5.100         49.949
        10918.0          5.842         50.080
        10918.5          6.611         49.956
        10919.0          6.900         49.768
        10919.5          6.600         49.720
        10920.0          6.081         49.720
        10920.5          5.311         49.720
        10921.0          4.800         49.943
        10921.5          4.928         49.960
        10922.0          5.397         49.960
        10922.5          5.400         49.960
        10923.0          5.100         50.214
        10923.5          5.100         50.440
        10924.0          4.725         50.170
        10924.5          4.200         49.960
        10925.0          3.900         49.840
        10925.5          3.617         49.840
        10926.0          3.600         49.840
        10926.5          3.900         49.711
        10927.0          4.091         49.524
        10927.5          4.200         49.043
        10928.0          4.430         49.452
        10928.5          4.500         49.440
        10929.0          4.231         49.360
        10929.5          3.762         49.342
        10930.0          3.600         49.243
        10930.5          3.600         49.480
        10931.0          3.600         49.739
        10931.5          3.900         50.090
        10932.0          3.815         50.474
        10932.5          3.600         50.542
        10933.0          3.176         50.874
        10933.5          2.700         51.277
        10934.0          2.237         51.585
        10934.5          1.800         52.240
        10935.0          1.800         52.360
        10935.5          2.400         51.678
        10936.0          2.941         50.572
        10936.5          3.710         49.960
        10937.0          3.900         50.072
        10937.5          3.900         50.320
        10938.0          3.600         50.567
        10938.5          3.600         51.205
        10939.0          3.300         52.140
        10939.5          3.300         53.293
        10940.0          3.300         54.452
        10940.5          3.600         55.466
        10941.0          3.900         55.480
        10941.5          4.200         54.873
        10942.0          4.027         53.987
        10942.5          3.900         53.080
        10943.0          3.688         51.678
        10943.5          3.600         50.866
        10944.0          3.600         49.999
        10944.5          3.300         49.544
        10945.0          3.000         50.014
        10945.5          3.000         50.384
        10946.0          2.700         50.429
        10946.5          2.700         50.241
        10947.0          2.700         50.080
        10947.5          2.700         49.985
        10948.0          3.000         49.689
        10948.5          3.276         50.245
        10949.0          3.300         50.736
        10949.5          3.300         51.166
        10950.0          3.600         51.354
        10950.5          3.300         51.520
        10951.0          3.300         51.520
        10951.5          3.300         52.032
        10952.0          3.692         52.494
        10952.5          4.331         52.360
        10953.0          4.800         51.829
        10953.5          4.970         52.538
        10954.0          5.100         52.360
        10954.5          5.100         52.360
        10955.0          5.100         51.922
        10955.5          5.100         51.421
        10956.0          5.100         51.280
        10956.5          5.100         51.166
        10957.0          4.800         50.978
        10957.5          4.500         50.670
        10958.0          4.006         50.560
        10958.5          3.900         50.560
        10959.0          3.600         50.347
        10959.5          3.197         50.080
        10960.0          2.428         49.971
        10960.5          2.400         49.803
        10961.0          2.400         49.716
        10961.5          2.700         49.228
        10962.0          3.525         48.340
        10962.5          4.529         47.565
        10963.0          5.727         47.045
        10963.5          7.395         46.857
        10964.0          9.255         46.960
        10964.5         10.197         47.258
        10965.0          9.651         47.840
        10965.5          8.047         48.294
        10966.0          6.743         48.482
        10966.5          6.188         48.714
        10967.0          5.034         49.338
        10967.5          4.087         49.525
        10968.0          3.600         49.487
        10968.5          3.900         49.480
        10969.0          3.900         49.729
        10969.5          4.200         49.764
        10970.0          4.200         49.624
        10970.5          4.200         49.812
        10971.0          4.101         49.840
        10971.5          3.632         49.733
        10972.0          3.600         49.425
        10972.5          3.300         48.994
        10973.0          3.000         48.640
        10973.5          3.000         48.520
        10974.0          3.516         48.606
        10974.5          4.285         48.674
        10975.0          5.054         49.254
