~VERSION INFORMATION
VERS. 2.0 : CWLS Log ASCII Standard - Version 2.0
WRAP. NO : One line per depth step
#--------------------------------------------------#
#----------------DRILLING INFO, INC.---------------#
#---------------WWW.DRILLINGINFO.COM---------------#
#------------------COPYRIGHT 2015------------------#
#--------------------------------------------------#
#THIS FILE MAY BE USED ONLY IN ACCORDANCE WITH A CURRENT SUBSCRIPTION AGREEMENT BETWEEN
#THE USER AND DRILLING INFO, INC. NO PART OF THIS FILE MAY BE REPRODUCED, USED, COPIED,
#MODIFIED, PROPAGATED, OR DISTRIBUTED EXCEPT IN ACCORDANCE WITH THE SUBSCRIPTION
#AGREEMENT. UNAUTHORIZED USE OR DISTRIBUTION OF ALL OR ANY PART OF THIS FILE MAY VIOLATE
#COPYRIGHT, TRADEMARK, AND/OR OTHER LAWS AND IS SUBJECT TO CIVIL AS WELL AS CRIMINAL
#SANCTIONS.
#--------------------------------------------------#
#THIS FILE IS PROVIDED "AS-IS" AND ALL WARRANTIES ARE EXPRESSLY DISCLAIMED, WHETHER
#EXPRESS, ORAL, IMPLIED, STATUTORY OR OTHERWISE, INCLUDING ANY IMPLIED WARRANTY OF FITNESS
#FOR A PARTICULAR PURPOSE, MERCHANTABILITY, TITLE OR NON-INFRINGEMENT, AND ANY WARRANTIES
#ARISING BY VIRTUE OF CUSTOM OF TRADE OR COURSE OF DEALING.  FURTHER, DRILLING INFO,
#INC. AND ITS LICENSORS DO NOT REPRESENT OR WARRANT THAT THIS FILE WILL MEET USER'S
#REQUIREMENTS OR ARE SUITABLE FOR USER'S NEEDS OR THAT THE DATA OR RESULTS PROVIDED IN
#CONJUNCTION THEREWITH ARE CORRECT, ACCURATE, TIMELY OR RELIABLE. THESE DISCLAIMERS SHALL
#APPLY REGARDLESS OF ANY FAILURE OF ESSENTIAL PURPOSE OF ANY LIMITED REMEDY.  SOME
#JURISDICTIONS DO NOT ALLOW THE EXCLUSION OF CERTAIN WARRANTIES SO SOME OF THE ABOVE
#EXCLUSIONS MAY NOT APPLY. IN NO EVENT SHALL DRILLING INFO, INC. OR ANY OF ITS AFFILIATES
#BE LIABLE UNDER ANY LEGAL THEORY, WHETHER IN TORT (INCLUDING WITHOUT LIMITATION
#NEGLIGENCE), CONTRACT, STRICT LIABILITY, STATUTORY OR OTHERWISE, FOR ANY SPECIAL,
#INCIDENTAL, CONSEQUENTIAL, EXEMPLARY, PUNITIVE OR INDIRECT DAMAGE OF ANY KIND, INCLUDING
#WITHOUT LIMITATION LOSS OF REVENUE, PROFITS, GOODWILL, USE, AND/OR DATA OR THE COST OF
#PROCUREMENT OF SUBSTITUTE GOODS OR SERVICES, EVEN IF APPRISED OF THE POSSIBILITY OF SUCH
#DAMAGES IN ADVANCE.
#--------------------------------------------------#
~WELL INFORMATION
#MNEMONIC     .UNIT              VALUE :DESCRIPTION
#--------------------------------------------------#
STRT       .ft                52.00000 :START DEPTH
STOP       .ft                8797.00000 :STOP DEPTH
STEP       .ft                0.50000 :STEP
NULL       .                -999.25000 :NULL VALUE
COMP       .                 :COMPANY
WELL       .                 :WELL
FLD       .                 :FIELD
LOC       .                 :LOCATION
CNTY       .                 :COUNTY
STAT       .                 :STATE
CTRY       .                 :COUNTRY
SRVC       .                 :SERVICE COMPANY
DATE       .                 :DATE
API       .                42109700290000 :API NUMBER
~CURVE INFORMATION
#MNEMONIC     .UNIT      API CODE :CURVE DESCRIPTION
#--------------------------------------------------#
DEPTH       .ft                      :Measured Depth
DT       .us/ft        UNKNOWN   :DT
GR       .gAPI        UNKNOWN   :GR
ILD       .ohmm        UNKNOWN   :ILD
ILS       .ohmm        UNKNOWN   :ILS
SP       .mV        UNKNOWN   :SP
~A    DEPTH    DT    GR    ILD    ILS    SP
# ...
2482.00000    63.30229    30.16844    355.67794    235.38624    -111.87026
2482.50000    63.65052    28.11911    339.48762    230.98851    -110.66782
2483.00000    63.99876    29.28120    323.29730    226.59078    -110.67456
2483.50000    64.30986    30.44328    307.10698    222.19304    -110.89690
2484.00000    64.45711    31.63126    290.91666    217.79531    -111.11923
2484.50000    64.60437    32.86173    274.72634    213.39757    -111.34156
2485.00000    65.04104    34.09220    258.53602    212.44180    -111.56390
2485.50000    65.59446    35.63893    265.35198    213.07405    -111.78623
2486.00000    66.14789    38.89093    285.34842    213.70630    -112.00856
2486.50000    66.18058    42.14292    305.34486    214.33855    -112.06147
2487.00000    66.03676    45.39493    325.34129    214.97080    -112.06088
2487.50000    65.89295    43.30541    345.33773    217.11761    -112.06030
2488.00000    65.65038    39.03005    365.33417    219.56072    -112.05971
2488.50000    65.37963    33.18932    385.33061    222.00383    -112.05912
2489.00000    65.10888    27.83111    407.68379    224.44694    -112.05854
2489.50000    64.83813    24.79305    431.33700    226.89005    -112.15197
2490.00000    64.56738    21.75500    454.99021    229.33316    -112.44338
2490.50000    63.79785    23.98340    478.64342    231.77627    -112.73479
2491.00000    62.92511    27.40670    502.29663    234.21938    -113.02620
2491.50000    62.05237    30.83000    525.94984    236.66249    -113.31761
2492.00000    61.17963    34.76497    549.60305    239.10560    -113.60903
2492.50000    60.46882    41.06520    573.25626    241.54871    -113.90044
2493.00000    60.03872    47.36543    596.90947    243.99182    -114.19185
2493.50000    59.60862    53.66567    620.56268    246.43493    -114.48326
2494.00000    59.68675    52.43933    575.95298    248.34873    -114.57926
2494.50000    61.14309    45.87619    462.33637    244.28837    -114.20974
2495.00000    63.46692    39.31304    348.71977    240.22800    -113.84023
2495.50000    65.79076    32.74989    288.36398    236.16764    -113.47072
2496.00000    66.29389    26.18674    249.48800    232.10728    -113.10120
2496.50000    66.69326    23.52681    212.80434    228.04692    -112.73169
2497.00000    66.48480    21.91627    206.18990    223.98656    -112.36217
2497.50000    66.25624    20.30572    199.57546    219.92620    -111.99266
2498.00000    66.02768    18.69517    192.96102    215.86584    -111.62315
2498.50000    65.38132    17.00631    186.34658    211.80548    -111.25363
2499.00000    64.32172    14.68120    179.73214    207.74512    -110.88412
2499.50000    63.26212    12.35610    232.42210    203.68476    -110.51460
2500.00000    62.20252    14.10583    292.27112    214.56046    -110.14509
2500.50000    61.14292    17.14689    352.12014    228.92263    -110.32419
2501.00000    60.12041    20.27816    411.96915    243.28479    -111.20767
2501.50000    59.85386    26.38961    471.81817    257.64695    -112.09114
2502.00000    59.58732    32.57650    531.66719    272.00911    -112.97462
2502.50000    59.33548    39.00328    591.51621    286.37127    -113.85810
2503.00000    59.26487    45.43007    651.36522    300.73343    -114.74157
2503.50000    59.19425    51.85685    711.21424    315.09559    -115.62505
2504.00000    59.12364    58.28363    736.28626    328.68337    -116.50853
2504.50000    59.75772    63.81624    737.75657    341.18206    -116.53162
2505.00000    60.84302    66.07016    739.22687    353.68075    -116.15795
2505.50000    61.76473    66.39806    740.69718    366.17944    -115.78428
2506.00000    61.71518    66.51700    742.16749    378.67814    -115.41060
2506.50000    61.66562    64.35319    743.63779    391.17683    -115.03693
2507.00000    61.61607    62.18938    745.10810    403.67552    -114.66326
2507.50000    61.56652    60.02557    746.57841    416.17421    -114.28958
2508.00000    61.66555    51.87227    748.04871    421.40055    -113.86322
2508.50000    62.37959    36.31409    748.58755    423.81596    -113.40346
2509.00000    63.09363    30.60780    748.46611    426.23136    -112.94369
2509.50000    62.63741    28.10206    748.34468    428.64676    -112.48392
2510.00000    61.73777    30.68567    748.22324    431.06217    -112.02415
2510.50000    60.83814    32.61129    748.10181    433.47757    -111.56438
2511.00000    60.62690    34.01950    747.98037    434.06812    -111.10461
2511.50000    60.64702    35.42771    747.85894    431.92458    -110.64484
2512.00000    60.66714    37.26265    747.73750    429.78104    -110.18507
2512.50000    61.29518    39.91992    747.61607    427.63749    -109.72530
2513.00000    61.40614    42.57719    747.49463    425.49395    -109.26553
2513.50000    61.33553    44.87809    747.37320    423.35041    -108.80576
2514.00000    61.26493    45.08353    747.25176    421.20686    -108.34599
2514.50000    60.75505    45.28897    747.13032    418.99183    -107.88622
2515.00000    59.33546    45.49441    747.00889    416.59791    -107.42645
2515.50000    57.91587    47.54161    746.88745    414.20398    -106.96668
2516.00000    59.32672    51.91837    746.76602    411.81006    -106.60756
2516.50000    59.83932    56.29513    746.64458    409.41613    -106.33365
2517.00000    60.35192    60.67189    746.52315    407.02221    -106.05974
2517.50000    61.24609    60.66501    746.40171    404.62829    -105.78583
2518.00000    62.75145    59.69503    746.28028    399.00102    -105.51192
2518.50000    64.25681    58.03707    746.15884    393.07190    -105.23801
2519.00000    64.03851    55.66474    712.14177    387.14279    -104.96410
2519.50000    63.66970    53.29240    676.99578    381.21367    -104.69019
2520.00000    63.30088    50.92007    641.84979    375.28456    -104.41628
2520.50000    62.97571    48.54774    606.70381    369.35545    -104.14237
2521.00000    62.65297    46.03580    571.55782    363.42633    -103.86846
2521.50000    62.33023    43.23603    536.41183    357.49722    -103.59455
2522.00000    62.00749    40.43627    501.26585    351.56811    -103.32064
2522.50000    61.90114    41.49047    466.11986    345.63899    -103.04673
2523.00000    61.79834    42.66291    430.97387    339.70988    -102.77282
2523.50000    61.70129    43.83535    391.57886    333.78076    -102.49891
2524.00000    62.04527    40.53976    350.71304    327.85165    -102.22500
2524.50000    62.38926    35.73463    315.85907    321.92254    -101.99012
2525.00000    62.18353    30.92949    336.12301    315.99342    -101.93858
2525.50000    61.50853    33.37528    356.38695    315.07112    -101.88705
2526.00000    60.83352    36.78253    376.65089    319.70456    -101.83551
2526.50000    60.33109    40.18979    396.91483    324.33800    -101.78398
2527.00000    59.96245    43.59704    417.17878    328.97144    -101.73245
2527.50000    59.59381    45.37556    433.99582    333.60488    -101.68091
2528.00000    59.22518    44.00480    444.99768    338.23832    -101.62938
2528.50000    61.77227    42.58433    455.99955    343.71990    -101.57784
2529.00000    61.50168    30.38463    467.00141    349.90888    -101.52631
2529.50000    61.12285    32.11346    482.64868    356.09786    -101.47477
2530.00000    60.22960    33.84230    502.33401    362.28684    -101.87685
2530.50000    59.45718    36.66996    522.01933    368.47582    -102.34323
2531.00000    58.68476    39.95039    566.44806    377.24983    -102.80961
2531.50000    57.91233    43.23081    611.14540    390.49078    -103.27600
2532.00000    57.13991    46.51124    655.84274    403.73173    -103.74238
2532.50000    58.70725    48.65759    700.54007    416.97268    -104.20876
2533.00000    59.84766    44.96951    745.23741    430.21363    -104.67515
2533.50000    60.26576    41.28142    746.00811    443.45458    -105.14153
2534.00000    60.45741    37.59334    745.66393    456.69553    -105.60792
2534.50000    59.82863    33.90525    745.31974    469.93648    -106.07430
2535.00000    59.19985    30.21717    744.97556    483.17743    -106.54068
