~VERSION INFORMATION
VERS. 2.0 : CWLS Log ASCII Standard - version 2.0
WRAP.  NO : One line per depth step
#--------------------------------------------------#
#----------------DRILLING INFO, INC.---------------#
#---------------WWW.DRILLINGINFO.COM---------------#
#------------------COPYRIGHT 2015------------------#
#--------------------------------------------------#
#THIS FILE MAY BE USED ONLY IN ACCORDANCE WITH A CURRENT SUBSCRIPTION AGREEMENT BETWEEN
#THE USER AND DRILLING INFO, INC. NO PART OF THIS FILE MAY BE REPRODUCED, USED, COPIED,
#MODIFIED, PROPAGATED, OR DISTRIBUTED EXCEPT IN ACCORDANCE WITH THE SUBSCRIPTION
#AGREEMENT. UNAUTHORIZED USE OR DISTRIBUTION OF ALL OR ANY PART OF THIS FILE MAY VIOLATE
#COPYRIGHT, TRADEMARK, AND/OR OTHER LAWS AND IS SUBJECT TO CIVIL AS WELL AS CRIMINAL
#SANCTIONS.
#--------------------------------------------------#
#THIS FILE IS PROVIDED "AS-IS" AND ALL WARRANTIES ARE EXPRESSLY DISCLAIMED, WHETHER
#EXPRESS, ORAL, IMPLIED, STATUTORY OR OTHERWISE, INCLUDING ANY IMPLIED WARRANTY OF FITNESS
#FOR A PARTICULAR PURPOSE, MERCHANTABILITY, TITLE OR NON-INFRINGEMENT, AND ANY WARRANTIES
#ARISING BY VIRTUE OF CUSTOM OF TRADE OR COURSE OF DEALING.  FURTHER, DRILLING INFO,
#INC. AND ITS LICENSORS DO NOT REPRESENT OR WARRANT THAT THIS FILE WILL MEET USER'S
#REQUIREMENTS OR ARE SUITABLE FOR USER'S NEEDS OR THAT THE DATA OR RESULTS PROVIDED IN
#CONJUNCTION THEREWITH ARE CORRECT, ACCURATE, TIMELY OR RELIABLE. THESE DISCLAIMERS SHALL
#APPLY REGARDLESS OF ANY FAILURE OF ESSENTIAL PURPOSE OF ANY LIMITED REMEDY.  SOME
#JURISDICTIONS DO NOT ALLOW THE EXCLUSION OF CERTAIN WARRANTIES SO SOME OF THE ABOVE
#EXCLUSIONS MAY NOT APPLY. IN NO EVENT SHALL DRILLING INFO, INC. OR ANY OF ITS AFFILIATES
#BE LIABLE UNDER ANY LEGAL THEORY, WHETHER IN TORT (INCLUDING WITHOUT LIMITATION
#NEGLIGENCE), CONTRACT, STRICT LIABILITY, STATUTORY OR OTHERWISE, FOR ANY SPECIAL,
#INCIDENTAL, CONSEQUENTIAL, EXEMPLARY, PUNITIVE OR INDIRECT DAMAGE OF ANY KIND, INCLUDING
#WITHOUT LIMITATION LOSS OF REVENUE, PROFITS, GOODWILL, USE, AND/OR DATA OR THE COST OF
#PROCUREMENT OF SUBSTITUTE GOODS OR SERVICES, EVEN IF APPRISED OF THE POSSIBILITY OF SUCH
#DAMAGES IN ADVANCE.
#--------------------------------------------------#
~WELL INFORMATION
#MNEMONIC     .UNIT              VALUE :DESCRIPTION
#--------------------------------------------------#
STRT       .FT                35 :START DEPTH
STOP       .FT                15948 :STOP DEPTH
STEP       .FT                   0.500 :STEP
NULL       .                  -999.250 :NULL
API        .                421093136200 :API NUMBER
COMP       .         ARRINGTON DAVID H. OIL & GAS INC :COMPANY
WELL       .        SCOTT UNIT  1 :WELL
DATE       .                17-Jun-1991 :LOG DATE
~CURVE INFORMATION
#MNEMONIC     .UNIT      API CODE :CURVE DESCRIPTION
#--------------------------------------------------#
DEPTH       .FT                      :Measured Depth
CAL.INCH        UNKNOWN   :CAL
DT.US/FT        UNKNOWN   :DT
GR.API        UNKNOWN   :GR
~A    DEPTH    CAL    DT    GR
# ...
 1886.5     -999.250   -999.250   12.747
 1887     -999.250   -999.250   13.287
 1887.5     -999.250   -999.250   11.633
 1888     -999.250   -999.250   9.98
 1888.5     -999.250   -999.250   8.336
 1889     -999.250   -999.250   8.549
 1889.5     -999.250   -999.250   8.762
 1890     -999.250   -999.250   8.085
 1890.5     -999.250   -999.250   7.208
 1891     -999.250   -999.250   6.536
 1891.5     -999.250   -999.250   6.747
 1892     -999.250   -999.250   6.959
 1892.5     -999.250   -999.250   7.909
 1893     -999.250   -999.250   8.859
 1893.5     -999.250   -999.250   9.809
 1894     -999.250   -999.250   10.759
 1894.5     -999.250   -999.250   10.675
 1895     -999.250   -999.250   9.958
 1895.5     -999.250   -999.250   9.241
 1896     -999.250   -999.250   8.524
 1896.5     -999.250   -999.250   7.807
 1897     -999.250   -999.250   8.45
 1897.5     -999.250   -999.250   9.431
 1898     -999.250   -999.250   10.412
 1898.5     -999.250   -999.250   9.889
 1899     -999.250   -999.250   9.817
 1899.5     -999.250   -999.250   9.899
 1900     -999.250   -999.250   9.982
 1900.5     -999.250   -999.250   10.064
 1901     -999.250   -999.250   10.147
 1901.5     -999.250   -999.250   10.05
 1902     -999.250   -999.250   9.086
 1902.5     -999.250   -999.250   8.122
 1903     -999.250   -999.250   7.157
 1903.5     -999.250   -999.250   6.193
 1904     -999.250   -999.250   5.228
 1904.5     -999.250   -999.250   5.625
 1905     -999.250   -999.250   6.152
 1905.5     -999.250   -999.250   6.68
 1906     -999.250   -999.250   8.177
 1906.5     -999.250   -999.250   9.85
 1907     -999.250   -999.250   10.742
 1907.5     -999.250   -999.250   8.906
 1908     -999.250   -999.250   8.066
 1908.5     -999.250   -999.250   8.375
 1909     -999.250   -999.250   8.684
 1909.5     -999.250   -999.250   8.993
 1910     -999.250   -999.250   9.302
 1910.5     -999.250   -999.250   9.447
 1911     -999.250   -999.250   8.979
 1911.5     -999.250   -999.250   8.512
 1912     -999.250   -999.250   8.044
 1912.5     -999.250   -999.250   7.87
 1913     -999.250   -999.250   8.487
 1913.5     -999.250   -999.250   9.103
 1914     -999.250   -999.250   8.756
 1914.5     -999.250   -999.250   7.879
 1915     -999.250   -999.250   7.008
 1915.5     -999.250   -999.250   6.557
 1916     -999.250   -999.250   6.107
 1916.5     -999.250   -999.250   5.656
 1917     -999.250   -999.250   7.432
 1917.5     -999.250   -999.250   9.329
 1918     -999.250   -999.250   9.394
 1918.5     -999.250   -999.250   8.868
 1919     -999.250   -999.250   8.581
 1919.5     -999.250   -999.250   8.477
 1920     -999.250   -999.250   8.374
 1920.5     -999.250   -999.250   8.27
 1921     -999.250   -999.250   7.962
 1921.5     -999.250   -999.250   6.779
 1922     -999.250   -999.250   6.337
 1922.5     -999.250   -999.250   6.866
 1923     -999.250   -999.250   7.394
 1923.5     -999.250   -999.250   7.923
 1924     -999.250   -999.250   8.417
 1924.5     -999.250   -999.250   8.354
 1925     -999.250   -999.250   8.29
 1925.5     -999.250   -999.250   8.226
 1926     -999.250   -999.250   8.392
 1926.5     -999.250   -999.250   8.745
 1927     -999.250   -999.250   9.098
 1927.5     -999.250   -999.250   9.451
 1928     -999.250   -999.250   8.94
 1928.5     -999.250   -999.250   7.886
 1929     -999.250   -999.250   6.832
 1929.5     -999.250   -999.250   6.67
 1930     -999.250   -999.250   6.521
 1930.5     -999.250   -999.250   6.372
 1931     -999.250   -999.250   6.905
 1931.5     -999.250   -999.250   7.499
 1932     -999.250   48.098   8.093
 1932.5     -999.250   48.098   8.441
 1933     -999.250   48.02   8.442
 1933.5     -999.250   47.904   8.443
 1934     -999.250   47.788   8.444
 1934.5     -999.250   47.816   9.01
 1935     -999.250   47.933   10.198
 1935.5     -999.250   48.05   11.387
 1936     -999.250   48.167   12.575
 1936.5     -999.250   48.134   10.987
 1937     -999.250   48.1   9.32
 1937.5     -999.250   48.066   8.325
 1938     -999.250   48.033   8.618
 1938.5     -999.250   47.999   8.912
 1939     -999.250   47.997   9.206
 1939.5     -999.250   48.006   9.5
 1940     -999.250   48.014   9.794
 1940.5     -999.250   48.023   10.088
 1941     -999.250   48.121   10.382
 1941.5     -999.250   48.236   9.709
 1942     -999.250   48.351   7.904
 1942.5     -999.250   48.466   6.1
 1943     -999.250   48.581   7.485
 1943.5     -999.250   48.696   8.027
 1944     -999.250   48.737   8.291
 1944.5     -999.250   48.746   8.556
 1945     -999.250   48.755   8.821
 1945.5     -999.250   48.764   9.086
 1946     -999.250   48.662   9.35
 1946.5     -999.250   48.534   9.29
 1947     -999.250   48.406   9.098
 1947.5     -999.250   48.278   8.134
 1948     -999.250   48.15   7.169
 1948.5     -999.250   48.021   6.808
 1949     -999.250   47.97   7.204
 1949.5     -999.250   48.012   7.6
 1950     -999.250   48.055   7.996
 1950.5     -999.250   48.097   8.393
 1951     -999.250   48.075   8.709
 1951.5     -999.250   47.887   8.68
 1952     -999.250   47.698   8.652
 1952.5     -999.250   47.51   8.624
 1953     -999.250   47.173   8.596
 1953.5     -999.250   45.858   8.567
 1954     -999.250   44.404   8.539
 1954.5     -999.250   40.069   8.511
 1955     -999.250   40.082   8.809
 1955.5     -999.250   40.095   9.867
 1956     -999.250   40.108   9.357
 1956.5     -999.250   40.122   8.831
 1957     -999.250   40.146   8.305
 1957.5     -999.250   40.305   7.779
 1958     -999.250   40.463   7.898
 1958.5     -999.250   40.368   8.427
 1959     -999.250   40.227   8.955
 1959.5     -999.250   40.098   8.964
 1960     -999.250   40.097   8.965
 1960.5     -999.250   40.096   9.615
 1961     -999.250   40.096   10.437
 1961.5     -999.250   40.095   11.259
 1962     -999.250   40.094   12.082
 1962.5     -999.250   40.094   11.754
 1963     -999.250   40.093   11.228
 1963.5     -999.250   40.092   10.919
 1964     -999.250   40.092   11.359
 1964.5     -999.250   40.091   11.8
 1965     -999.250   40.09   11.349
 1965.5     -999.250   40.09   10.298
 1966     -999.250   40.089   9.935
 1966.5     -999.250   40.088   9.702
 1967     -999.250   40.088   9.469
 1967.5     -999.250   40.087   9.236
 1968     -999.250   40.087   9.477
 1968.5     -999.250   40.086   9.771
 1969     -999.250   40.085   10.065
 1969.5     -999.250   40.085   10.358
 1970     -999.250   40.084   9.363
 1970.5     -999.250   40.083   8.311
 1971     -999.250   40.083   7.259
 1971.5     -999.250   40.082   6.789
 1972     -999.250   40.081   7.027
 1972.5     -999.250   40.081   7.265
 1973     -999.250   40.08   7.503
 1973.5     -999.250   40.079   7.742
 1974     -999.250   40.079   7.98
 1974.5     -999.250   40.078   8.218
 1975     -999.250   40.077   8.456
 1975.5     -999.250   40.077   8.694
 1976     -999.250   40.076   8.715
 1976.5     -999.250   40.075   8.64
 1977     -999.250   40.075   8.566
 1977.5     -999.250   40.074   8.871
 1978     -999.250   40.073   9.399
 1978.5     -999.250   40.073   9.928
 1979     -999.250   40.072   9.862
 1979.5     -999.250   40.072   9.336
 1980     -999.250   40.071   8.81
 1980.5     -999.250   40.07   8.9
 1981     -999.250   40.07   9.167
 1981.5     -999.250   40.069   10.046
 1982     -999.250   40.068   10.925
 1982.5     -999.250   40.068   11.028
 1983     -999.250   40.067   10.502
 1983.5     -999.250   40.066   9.976
 1984     -999.250   40.066   10.077
 1984.5     -999.250   40.065   10.229
 1985     -999.250   40.064   10.381
 1985.5     -999.250   40.064   9.65
 1986     -999.250   40.063   8.773
 1986.5     -999.250   40.062   8.373
 1987     -999.250   40.062   9.579
 1987.5     -999.250   40.061   10.784
 1988     -999.250   40.06   11.776
 1988.5     -999.250   40.06   11.672
 1989     -999.250   40.059   11.567
 1989.5     -999.250   40.058   11.463
 1990     -999.250   40.058   11.358
 1990.5     -999.250   40.057   11.254
 1991     -999.250   40.057   11.15
 1991.5     -999.250   40.056   11.045
 1992     -999.250   40.055   10.941
