# Exported from Transform Software 5.2.0 on 27-Jun-2019 by user brian.umlang
# DI Transform - A Product of Drillinginfo, Inc. - www.drillinginfo.com
#
~VERSION INFORMATION
 VERS.        2.0 : LAS ASCII STANDARD - VERSION 2.0
 WRAP.         NO : ONE LINE PER DEPTH STEP

~WELL INFORMATION
#MNEM.UNIT       DATA TYPE       INFORMATION
#---------       ---------       -----------
 STRT.ft                   0 : Start Depth
 STOP.ft               12430 : Stop Depth
 STEP.ft                 0.5 : Step Length
 NULL.               -999.25 : Null Value
 COMP.                       : Company
 WELL.  42109313590000_API14 : Well Name
 FLD.                        : Field Name
 LOC.                        : Well Location
 CNTY.                       : County
 STAT.                       : State or Province
 CTRY.                       : Country
 SRVC.                       : Service Company
 DATE.                       : Date
 API.         42109313590000 : Well Identifier

~CURVE INFORMATION
#MNEM.UNIT       API CODE       CURVE DESCRIPTION
#---------       --------       -----------------
 DEPT.ft          : <Measured Depth>
 CAL.in           : Caliper
 DPHI.%           : Density Porosity
 DT.us/ft         : Sonic
 GR.gAPI          : Gamma Ray
 ILD.ohmm         : Deep Resistivity
 ILM.ohmm         : Medium Resistivity
 ILS.ohmm         : Shallow Resistivity
 NPHI.%           : Neutron Porosity
 RHOB.g/cm3       : Density
 SP.mV            : Spontaneous Potential

~PARAMETER INFORMATION
#MNEM.UNIT       VALUE       DESCRIPTION
#---------       -----       -----------
 EKB.ft      3771 : Elevation above MSL

~A      DEPT         CAL        DPHI          DT          GR         ILD         ILM         ILS        NPHI        RHOB          SP
# ...
     10888.5     10.1667      4.6354     71.6834    101.7309     -999.25     -999.25     -999.25     19.2312      2.6224     -999.25
       10889     10.1667      4.4329     71.4957     98.3112     -999.25     -999.25     -999.25     18.2541      2.6234     -999.25
     10889.5     10.1468      4.4316     71.1638     98.7194     -999.25     -999.25     -999.25     18.4256      2.6263     -999.25
       10890     10.1468      4.5094     70.6774     98.0888     -999.25     -999.25     -999.25     18.7189      2.6236     -999.25
     10890.5      10.132      4.5094     70.2381     95.4235     -999.25     -999.25     -999.25     19.2567      2.6269     -999.25
       10891      10.127      4.5491     69.4382     94.7421     -999.25     -999.25     -999.25     18.8824      2.6368     -999.25
     10891.5     10.0383      4.7355     68.8892     96.9742     -999.25     -999.25     -999.25     18.6224      2.6394     -999.25
       10892      9.9214      4.9683     68.7976     96.9742     -999.25     -999.25     -999.25     18.7569      2.6394     -999.25
     10892.5      9.8753      5.2626     68.8577     95.8125     -999.25     -999.25     -999.25     17.3664      2.6254     -999.25
       10893      9.9003      5.2626     68.9178     96.1785     -999.25     -999.25     -999.25      16.855      2.6241     -999.25
     10893.5      9.8889      5.2626     69.0906     96.2302     -999.25     -999.25     -999.25     16.6799        2.65     -999.25
       10894      9.8889      5.3422     69.0982      95.984     -999.25     -999.25     -999.25     16.6003      2.6457     -999.25
     10894.5       9.869       5.624     69.0089     97.2508     -999.25     -999.25     -999.25     17.7822      2.6384     -999.25
       10895      9.8492      5.6987     68.8577     96.6709     -999.25     -999.25     -999.25     18.5699      2.6107     -999.25
     10895.5      9.8492      5.6987     68.8577     95.9001     -999.25     -999.25     -999.25     18.2921      2.6074     -999.25
       10896      9.8492       5.721     69.0623     95.1901     -999.25     -999.25     -999.25     18.0549      2.6084     -999.25
     10896.5      9.8492      5.6807     69.4414     90.1754     -999.25     -999.25     -999.25      17.552      2.6167     -999.25
       10897      9.8492      6.2141     69.5792     89.8583     -999.25     -999.25     -999.25     17.4576      2.6145     -999.25
     10897.5      9.8492      6.3632     69.5599     98.3625     -999.25     -999.25     -999.25     18.0485      2.6084     -999.25
       10898      9.8492      6.3726     69.1207      101.25     -999.25     -999.25     -999.25     18.6307      2.6074     -999.25
     10898.5      9.8492        6.57     68.6213     99.9833     -999.25     -999.25     -999.25     18.3458      2.6125     -999.25
       10899      9.8492      6.3296      69.111     95.3302     -999.25     -999.25     -999.25     17.4659      2.6309     -999.25
     10899.5      9.8492      5.4532     71.8447      94.246     -999.25     -999.25     -999.25     15.2642      2.6278     -999.25
       10900      9.8492      5.2507     76.2434       93.75     -999.25     -999.25     -999.25     14.1308      2.6264     -999.25
     10900.5      9.8492      4.9509     82.2675     89.6802     -999.25     -999.25     -999.25     12.3101      2.6255     -999.25
       10901      9.8492        4.37     82.9444     88.5417     -999.25     -999.25     -999.25      10.933      2.6483     -999.25
     10901.5      9.8492      4.1923      81.487     88.5417     -999.25     -999.25     -999.25      10.892      2.6562     -999.25
       10902      9.8492      4.0549     78.0684     87.9794     -999.25     -999.25     -999.25     13.4394      2.6563     -999.25
     10902.5      9.8492      3.6531     74.9445     88.9982     -999.25     -999.25     -999.25     15.1913      2.6354     -999.25
       10903      9.8492      3.6373     74.8096     93.2156     -999.25     -999.25     -999.25     18.2219      2.6354     -999.25
     10903.5      9.8492      4.5812     74.9894      94.515     -999.25     -999.25     -999.25     18.5431      2.6354     -999.25
       10904      9.8492      4.8727      75.747     95.2381     -999.25     -999.25     -999.25     18.2195      2.6534     -999.25
     10904.5      9.8492      4.9058     77.8402     95.9147     -999.25     -999.25     -999.25     17.6675      2.6149     -999.25
       10905      9.8492      4.7322     78.8538     94.8959     -999.25     -999.25     -999.25     17.7914      2.6124     -999.25
     10905.5      9.8492      4.5684     78.9451     93.4446     -999.25     -999.25     -999.25     18.2066      2.6134     -999.25
       10906      9.8492      5.0597     78.0939     92.5099     -999.25     -999.25     -999.25     18.1298      2.6424     -999.25
     10906.5      9.8492      5.5247     74.5133     92.0875     -999.25     -999.25     -999.25     17.4758       2.635     -999.25
       10907      9.8492      6.6823      71.916     90.8206     -999.25     -999.25     -999.25     16.4548      2.6096     -999.25
     10907.5      9.8492      6.4187     71.4806     82.9176     -999.25     -999.25     -999.25     14.4523      2.6144     -999.25
       10908      9.8492      6.2537     70.9464     77.3743     -999.25     -999.25     -999.25     14.1031      2.6084     -999.25
     10908.5      9.8889      6.2087     71.2683      76.191     -999.25     -999.25     -999.25     14.1031      2.6112     -999.25
       10909       9.869      6.1744     73.6078     80.5603     -999.25     -999.25     -999.25     14.4298      2.6113     -999.25
     10909.5       9.869      6.2141       75.87     88.9029     -999.25     -999.25     -999.25      14.446      2.6117     -999.25
       10910       9.869      6.1166      76.667      99.816     -999.25     -999.25     -999.25     16.5395      2.6304     -999.25
     10910.5       9.869      6.1176     77.8307    105.6127     -999.25     -999.25     -999.25      17.199      2.6201     -999.25
       10911      9.8889      6.2141     81.2192    104.9916     -999.25     -999.25     -999.25     19.1266      2.6094     -999.25
     10911.5      9.8889      5.5884     84.1178    104.8566     -999.25     -999.25     -999.25     19.0671      2.6077     -999.25
       10912      9.9661       5.615     85.9998    106.8675     -999.25     -999.25     -999.25     19.5211      2.6254     -999.25
     10912.5     10.0674      5.9365     86.0521    106.3994     -999.25     -999.25     -999.25     19.8117      2.6254     -999.25
       10913     10.1291      6.2141     85.8838    107.4561     -999.25     -999.25     -999.25       19.82      2.6254     -999.25
     10913.5     10.1624      6.2141     86.3781    109.3221     -999.25     -999.25     -999.25     21.1368      2.6254     -999.25
       10914     10.1468      5.6273     87.9687    101.4569     -999.25     -999.25     -999.25     19.7608      2.6236     -999.25
     10914.5     10.1468      5.3249     90.0826      97.948     -999.25     -999.25     -999.25     19.1491      2.6128     -999.25
       10915     10.1468       4.726     89.9392     92.9878     -999.25     -999.25     -999.25     16.6363      2.6419     -999.25
     10915.5     10.1468      4.9173     87.6778      91.854     -999.25     -999.25     -999.25     15.7786      2.6224     -999.25
       10916     10.1468      5.2528     84.4486     91.9525     -999.25     -999.25     -999.25     16.1547      2.6224     -999.25
     10916.5     10.1468      5.3023     81.4372     93.2193     -999.25     -999.25     -999.25     15.9774      2.6414     -999.25
       10917     10.1468       5.145     80.6265     97.7063     -999.25     -999.25     -999.25     15.8001      2.6422     -999.25
     10917.5     10.1468      5.0278     80.6745     98.4623     -999.25     -999.25     -999.25     16.5273      2.6409     -999.25
       10918     10.1468      5.2303      81.363     99.0039     -999.25     -999.25     -999.25     16.4849      2.6384     -999.25
     10918.5     10.1468      5.2626     83.1062       98.39     -999.25     -999.25     -999.25       15.94      2.6338     -999.25
