~VERSION INFORMATION
VERS. 2.0 : CWLS Log ASCII Standard - version 2.0
WRAP.  NO : One line per depth step
#--------------------------------------------------#
#----------------DRILLING INFO, INC.---------------#
#---------------WWW.DRILLINGINFO.COM---------------#
#------------------COPYRIGHT 2015------------------#
#--------------------------------------------------#
#THIS FILE MAY BE USED ONLY IN ACCORDANCE WITH A CURRENT SUBSCRIPTION AGREEMENT BETWEEN
#THE USER AND DRILLING INFO, INC. NO PART OF THIS FILE MAY BE REPRODUCED, USED, COPIED,
#MODIFIED, PROPAGATED, OR DISTRIBUTED EXCEPT IN ACCORDANCE WITH THE SUBSCRIPTION
#AGREEMENT. UNAUTHORIZED USE OR DISTRIBUTION OF ALL OR ANY PART OF THIS FILE MAY VIOLATE
#COPYRIGHT, TRADEMARK, AND/OR OTHER LAWS AND IS SUBJECT TO CIVIL AS WELL AS CRIMINAL
#SANCTIONS.
#--------------------------------------------------#
#THIS FILE IS PROVIDED "AS-IS" AND ALL WARRANTIES ARE EXPRESSLY DISCLAIMED, WHETHER
#EXPRESS, ORAL, IMPLIED, STATUTORY OR OTHERWISE, INCLUDING ANY IMPLIED WARRANTY OF FITNESS
#FOR A PARTICULAR PURPOSE, MERCHANTABILITY, TITLE OR NON-INFRINGEMENT, AND ANY WARRANTIES
#ARISING BY VIRTUE OF CUSTOM OF TRADE OR COURSE OF DEALING.  FURTHER, DRILLING INFO,
#INC. AND ITS LICENSORS DO NOT REPRESENT OR WARRANT THAT THIS FILE WILL MEET USER'S
#REQUIREMENTS OR ARE SUITABLE FOR USER'S NEEDS OR THAT THE DATA OR RESULTS PROVIDED IN
#CONJUNCTION THEREWITH ARE CORRECT, ACCURATE, TIMELY OR RELIABLE. THESE DISCLAIMERS SHALL
#APPLY REGARDLESS OF ANY FAILURE OF ESSENTIAL PURPOSE OF ANY LIMITED REMEDY.  SOME
#JURISDICTIONS DO NOT ALLOW THE EXCLUSION OF CERTAIN WARRANTIES SO SOME OF THE ABOVE
#EXCLUSIONS MAY NOT APPLY. IN NO EVENT SHALL DRILLING INFO, INC. OR ANY OF ITS AFFILIATES
#BE LIABLE UNDER ANY LEGAL THEORY, WHETHER IN TORT (INCLUDING WITHOUT LIMITATION
#NEGLIGENCE), CONTRACT, STRICT LIABILITY, STATUTORY OR OTHERWISE, FOR ANY SPECIAL,
#INCIDENTAL, CONSEQUENTIAL, EXEMPLARY, PUNITIVE OR INDIRECT DAMAGE OF ANY KIND, INCLUDING
#WITHOUT LIMITATION LOSS OF REVENUE, PROFITS, GOODWILL, USE, AND/OR DATA OR THE COST OF
#PROCUREMENT OF SUBSTITUTE GOODS OR SERVICES, EVEN IF APPRISED OF THE POSSIBILITY OF SUCH
#DAMAGES IN ADVANCE.
#--------------------------------------------------#
~WELL INFORMATION
#MNEMONIC     .UNIT              VALUE :DESCRIPTION
#--------------------------------------------------#
STRT       .FT                4 :START DEPTH
STOP       .FT                10042 :STOP DEPTH
STEP       .FT                   0.500 :STEP
NULL       .                  -999.250 :NULL
API        .                421093139500 :API NUMBER
COMP       .         MOBIL OIL CORPORATION :COMPANY
WELL       .        MADERA-BROMAN  1 :WELL
DATE       .                27-Jun-1979 :LOG DATE
~CURVE INFORMATION
#MNEMONIC     .UNIT      API CODE :CURVE DESCRIPTION
#--------------------------------------------------#
DEPTH       .FT                      :Measured Depth
DT.US/FT        UNKNOWN   :DT
GR.API        UNKNOWN   :GR
CAL.INCH        UNKNOWN   :CAL
~A    DEPTH    DT    GR    CAL
# ...
 3849.5     67.876   58.737   13.507
 3850     68.253   60.646   13.549
 3850.5     68.631   62.605   13.59
 3851     69.008   63.219   13.578
 3851.5     69.015   61.058   13.541
 3852     68.101   57.81   13.505
 3852.5     67.187   54.562   13.468
 3853     66.273   51.313   13.432
 3853.5     65.359   50.61   13.395
 3854     64.445   52.512   13.39
 3854.5     64.895   54.413   13.393
 3855     67.088   56.315   13.396
 3855.5     68.355   58.217   13.399
 3856     67.973   59.207   13.402
 3856.5     67.591   57.578   13.405
 3857     67.209   57.843   13.408
 3857.5     66.827   59.904   13.411
 3858     67.989   61.966   13.414
 3858.5     69.699   64.028   13.417
 3859     71.409   66.089   13.42
 3859.5     71.524   65.311   13.423
 3860     71.273   63.917   13.426
 3860.5     71.022   62.522   13.429
 3861     70.77   61.599   13.431
 3861.5     70.569   61.526   13.434
 3862     70.703   61.453   13.435
 3862.5     70.837   61.381   13.435
 3863     70.971   60.51   13.435
 3863.5     69.403   58.757   13.436
 3864     66.07   57.003   13.436
 3864.5     63.029   56.083   13.436
 3865     60.517   55.828   13.437
 3865.5     60.624   52.528   13.437
 3866     60.732   42.911   13.438
 3866.5     60.839   33.294   13.438
 3867     58.355   25.75   13.438
 3867.5     54.131   25.546   13.439
 3868     52.627   25.342   13.439
 3868.5     51.122   25.711   13.439
 3869     49.617   26.821   13.44
 3869.5     49.013   27.932   13.44
 3870     49.889   29.043   13.44
 3870.5     50.766   30.154   13.441
 3871     51.642   31.265   13.441
 3871.5     51.479   27.661   13.442
 3872     51.136   25.147   13.442
 3872.5     50.794   23.673   13.442
 3873     50.452   23.501   13.443
 3873.5     50.82   24.562   13.443
 3874     51.198   25.623   13.443
 3874.5     51.577   26.684   13.444
 3875     51.865   27.745   13.444
 3875.5     51.847   26.626   13.444
 3876     51.83   24.509   13.445
 3876.5     52.033   22.392   13.445
 3877     52.526   23.282   13.446
 3877.5     52.409   25.279   13.446
 3878     52.08   27.277   13.446
 3878.5     51.751   29.274   13.447
 3879     51.422   31.271   13.447
 3879.5     51.093   33.269   13.447
 3880     50.764   32.455   13.446
 3880.5     50.672   28.392   13.439
 3881     50.598   24.328   13.433
 3881.5     50.524   24.72   13.427
 3882     50.45   25.376   13.421
 3882.5     49.897   26.031   13.415
 3883     49.32   26.687   13.409
 3883.5     48.744   26.251   13.403
 3884     48.562   25.094   13.397
 3884.5     48.7   26.1   13.39
 3885     48.838   27.397   13.384
 3885.5     48.976   28.693   13.378
 3886     49.113   29.607   13.372
 3886.5     49.251   28.371   13.366
 3887     49.27   27.134   13.36
 3887.5     49.27   26.889   13.355
 3888     49.271   26.816   13.352
 3888.5     49.291   26.743   13.349
 3889     49.372   26.67   13.345
 3889.5     49.453   25.423   13.342
 3890     49.534   24.138   13.338
 3890.5     49.615   23.044   13.335
 3891     49.696   23.833   13.331
 3891.5     49.747   24.623   13.328
 3892     49.675   25.413   13.324
 3892.5     49.603   24.486   13.321
 3893     49.531   23.249   13.318
 3893.5     49.459   23.471   13.314
 3894     49.54   24.9   13.311
 3894.5     49.832   34.522   13.307
 3895     50.123   44.533   13.304
 3895.5     50.414   54.544   13.3
 3896     50.706   64.555   13.297
 3896.5     65.88   69.563   13.294
 3897     68.098   72.345   13.29
 3897.5     70.142   72.476   13.287
 3898     69.942   71.159   13.283
 3898.5     69.82   69.843   13.28
 3899     70.335   68.877   13.276
 3899.5     70.85   69.399   13.273
 3900     71.365   69.922   13.269
 3900.5     71.42   70.444   13.268
 3901     70.406   69.047   13.267
 3901.5     69.448   64.436   13.267
 3902     68.883   59.825   13.266
 3902.5     68.319   55.881   13.266
 3903     67.755   55.293   13.266
 3903.5     67.191   54.704   13.265
 3904     66.626   54.116   13.265
 3904.5     66.49   55.195   13.264
 3905     66.444   56.731   13.264
 3905.5     66.398   58.267   13.263
 3906     65.493   59.326   13.263
 3906.5     64.092   54.869   13.262
 3907     62.692   51.847   13.262
 3907.5     61.292   56.092   13.261
 3908     62.981   58.25   13.261
 3908.5     65.527   59.472   13.26
 3909     67.904   60.694   13.26
 3909.5     67.956   61.916   13.259
 3910     68.008   63.139   13.259
 3910.5     68.173   64.361   13.258
 3911     68.681   65.583   13.258
 3911.5     69.188   66.805   13.257
 3912     69.695   68.027   13.257
 3912.5     68.924   66.18   13.257
 3913     68.007   62.355   13.256
 3913.5     68.207   58.53   13.256
 3914     68.407   56.435   13.255
 3914.5     68.606   56.18   13.255
 3915     67.947   55.925   13.254
 3915.5     65.778   54.877   13.254
 3916     63.608   48.841   13.253
 3916.5     61.439   44.145   13.253
 3917     61.583   50.213   13.252
 3917.5     64.785   56.28   13.252
 3918     67.987   62.347   13.251
 3918.5     71.189   68.415   13.251
 3919     70.662   67.613   13.25
 3919.5     69.469   65.964   13.25
 3920     68.275   64.315   13.249
 3920.5     67.081   62.666   13.249
 3921     65.543   58.973   13.249
 3921.5     62.696   48.532   13.248
 3922     60.979   38.09   13.248
 3922.5     59.3   27.796   13.248
 3923     57.62   25.746   13.248
 3923.5     55.941   23.696   13.249
 3924     54.261   27.741   13.249
 3924.5     52.581   34.946   13.249
 3925     50.902   42.151   13.25
 3925.5     53.968   49.356   13.25
 3926     58.303   56.561   13.25
 3926.5     62.638   61.314   13.251
 3927     66.311   64.709   13.251
 3927.5     67.004   68.103   13.252
 3928     67.697   67.636   13.252
 3928.5     68.39   64.86   13.252
 3929     69.083   62.084   13.253
 3929.5     67.787   59.308   13.253
 3930     66.188   56.533   13.253
 3930.5     64.59   54.984   13.254
 3931     62.991   58.534   13.254
 3931.5     62.937   62.084   13.254
 3932     65.286   65.634   13.255
 3932.5     67.636   62.267   13.255
 3933     69.985   61.152   13.255
 3933.5     70.165   60.317   13.256
 3934     69.407   59.482   13.256
 3934.5     68.649   59.363   13.257
 3935     67.891   59.753   13.257
 3935.5     67.46   61.167   13.257
 3936     68.09   64.151   13.258
 3936.5     68.719   67.135   13.258
 3937     69.348   67.595   13.258
 3937.5     68.577   63.215   13.259
 3938     67.475   58.836   13.259
 3938.5     66.372   54.722   13.259
 3939     65.334   52.006   13.26
 3939.5     64.54   49.291   13.26
 3940     63.747   49.543   13.26
 3940.5     62.953   51.204   13.26
 3941     64.672   55.313   13.259
 3941.5     66.761   59.421   13.259
 3942     68.849   63.529   13.259
 3942.5     70.071   66.47   13.258
 3943     69.314   64.686   13.258
 3943.5     68.556   63.941   13.258
 3944     67.798   64.499   13.257
 3944.5     67.041   65.056   13.257
 3945     66.283   65.614   13.257
 3945.5     66.207   66.171   13.256
 3946     67.383   66.729   13.256
 3946.5     68.558   67.286   13.255
 3947     69.734   67.844   13.255
 3947.5     70.909   68.74   13.255
 3948     72.084   70.545   13.254
 3948.5     71.354   66.791   13.254
 3949     68.112   60.591   13.254
 3949.5     64.869   54.39   13.253
 3950     61.627   50.644   13.253
 3950.5     62.527   52.667   13.253
 3951     64.347   54.69   13.252
 3951.5     66.166   56.714   13.252
 3952     67.986   63.848   13.251
 3952.5     69.805   70.417   13.251
 3953     70.781   70.895   13.251
 3953.5     70.51   71.373   13.25
 3954     70.239   71.851   13.251
 3954.5     69.969   72.329   13.253
 3955     69.698   72.807   13.256
 3955.5     69.121   73.285   13.258
 3956     67.933   68.546   13.261
 3956.5     66.745   62.552   13.263
 3957     65.557   56.558   13.266
 3957.5     64.527   54.552   13.268
 3958     66.963   57.713   13.271
 3958.5     69.398   60.874   13.273
 3959     68.672   64.036   13.276
 3959.5     67.636   64.895   13.278
 3960     66.599   62.072   13.281
 3960.5     65.563   59.248   13.283
 3961     64.452   58.955   13.285
 3961.5     63.284   58.751   13.288
