###############################################
##         ENVERUS                           ##
##         ESS - Open Hole                   ##
##         PERMIAN / DELAWARE                ##
##         Nov 02 2023  V4.0                 ##
##         42-109-32255-00-00                ##
###############################################
## Copyright 2017-2023  ENVERUS.  All Rights Reserved. 
## Confidential - Property of ENVERUS, use governed by terms and 
## conditions found within the existing Information Services Subscription Agreement 
## (as may be amended, the “ISSA”) between Customer and ENVERUS. 
## 
~VERSION INFORMATION
# MNEM.UNIT                               DATA : DESCRIPTION OF MNEMONIC
#-----.-----     ----------------------------- : -----------------------------
VERS.                                     2.00 : CWLS LOG ASCII STANDARD - VERSION 2.00
WRAP.                                       NO : MULTIPLE LINES PER DEPTH STEP
VEND.                                  ENVERUS : VENDOR
TYPE.                          ESS - OPEN HOLE : ENVERUS ESSENTIAL CURVES – ACCESSIBLE THROUGH ENVERUS PRISM(TM)
DOC.                                  31869427 : ENVERUS HEADER RAW DOCUMENT ID
#___________________________________________________________________________________________________ 
~WELL INFORMATION 
# Kns/CyAZPDgS4fEM5w0azv9tYcXlBSx1nHSqICrpKgQv6F2hlFUFpw+R1SAxYfM92i4ks6BDNpB+WhJDZXFO5Q== 
# MNEM.UNIT                                              DATA : DESCRIPTION OF MNEMONIC 
#-----.-----                    ----------------------------- : ----------------------------- 
CNTY.                                               CULBERSON : COUNTY 
STATE.                                                  TEXAS : STATE 
CNTRY.                                                    USA : COUNTRY 
API.                                             42-109-32255 : API (10 Digit) 
API_14.                                    42-109-32255-00-00 : API (14 Digits) 
API_14_std.                                 42-109-32255-0000 : API (14 Digits Standard) 
UWI.                                           42109322550000 : UNIQUE WELL ID 
WELL.                             MELISSA TAYLOR STATE 27  1H : WELL NAME
STRT.FT                                                  94.0 : START DEPTH
STOP.FT                                               13828.0 : STOP DEPTH
STEP.FT                                                   0.5 : STEP BETWEEN DEPTHS
NULL.                                                 -999.25 : NULL VALUE
COMP.                              CHESAPEAKE OPERATING  INC. : COMPANY 
DATE.                                             29-NOV-2005 : LOG DATE
#___________________________________________________________________________________________________ 
~CURVE INFORMATION 
# MNEM.UNIT           : CURVE DESCRIPTION 
#-----.-----          : ----------------------------- 
 DEPT.FT               : MEASURED DEPTH 
 CALI__B.IN            : CALIPER (CAL - CAL) 
 GR__B.API             : GAMMA RAY (GR) 
 DT__B.US/FT           : SONIC DELTA TRANSIT TIME (DT) 
 DPHI__B.V/V           : DENSITY POROSITY (DPHI) 
 NPHI__B.V/V           : NEUTRON POROSITY (NPHI) 
 RHOB__B.G/CC          : BULK DENSITY (RHOB) 
 #___________________________________________________________________________________________________ 
~A         DEPT        CALI__B          GR__B          DT__B        DPHI__B        NPHI__B        RHOB__B
# ...
        10088.0          9.447         88.150         59.682        0.03386        0.09469         2.6470
        10088.5          9.450         79.396         59.005        0.04203        0.07202         2.6580
        10089.0          9.453         78.319         58.646        0.04092        0.07099         2.6690
        10089.5          9.456         79.459         58.619        0.02450        0.07778         2.6800
        10090.0          9.459         83.383         58.998        0.01668        0.07938         2.6670
        10090.5          9.467         81.569         59.391        0.02843        0.07212         2.6440
        10091.0          9.482         79.631         59.784        0.05131        0.06405         2.6210
        10091.5          9.496         81.195         60.329        0.06939        0.07485         2.6080
        10092.0          9.511         83.333         61.815        0.07280        0.08801         2.6020
        10092.5          9.525         84.600         63.300        0.07558        0.10117         2.5960
        10093.0          9.540         86.343         63.781        0.07536        0.10902         2.5950
        10093.5          9.554         89.047         63.740        0.07278        0.11523         2.5980
        10094.0          9.568         93.985         63.459        0.07016        0.13171         2.6020
        10094.5          9.583         97.923         63.423        0.06392        0.14152         2.6060
        10095.0          9.597        101.062         63.033        0.06392        0.14135         2.6100
        10095.5          9.612         99.549         62.557        0.06078        0.13713         2.6130
        10096.0          9.623         97.850         62.188        0.05512        0.12931         2.6170
        10096.5          9.631         96.009         61.967        0.05734        0.12149         2.6200
        10097.0          9.639         94.168         61.367        0.06707        0.11367         2.6080
        10097.5          9.647         92.327         60.648        0.07947        0.10433         2.5960
        10098.0          9.655         87.991         60.014        0.08502        0.09198         2.5830
        10098.5          9.664         83.473         59.576        0.07592        0.07419         2.5780
        10099.0          9.672         78.955         59.147        0.07163        0.05639         2.5810
        10099.5          9.680         79.999         59.208        0.06950        0.05674         2.5840
        10100.0          9.688         84.086         60.193        0.07852        0.07115         2.5870
        10100.5          9.696         86.881         61.889        0.08279        0.09159         2.5880
        10101.0          9.705         88.377         63.585        0.07752        0.10949         2.5820
        10101.5          9.716         88.377         64.380        0.07531        0.11865         2.5760
        10102.0          9.727         86.840         64.694        0.09054        0.11453         2.5520
        10102.5          9.739         84.736         64.950        0.11175        0.10542         2.5140
        10103.0          9.750         82.632         65.472        0.12437        0.09631         2.5140
        10103.5          9.762         80.645         66.388        0.12709        0.08889         2.5220
        10104.0          9.773         79.780         66.749        0.12207        0.08455         2.5300
        10104.5          9.784         78.915         67.237        0.11814        0.08463         2.5380
        10105.0          9.796         81.401         67.917        0.11163        0.10585         2.5460
        10105.5          9.807         84.330         68.596        0.10445        0.13168         2.5540
        10106.0          9.819         89.409         68.492        0.09289        0.15922         2.5660
        10106.5          9.830         94.885         67.330        0.08435        0.18677         2.5800
        10107.0          9.832        103.887         66.048        0.07408        0.19853         2.5950
        10107.5          9.831        113.010         64.937        0.05916        0.19812         2.6090
        10108.0          9.829        111.825         64.183        0.05159        0.17787         2.6230
        10108.5          9.827        107.934         63.466        0.05281        0.15184         2.6250
        10109.0          9.825         99.789         63.009        0.05579        0.12582         2.6190
        10109.5          9.823         91.798         62.552        0.06009        0.11883         2.6140
        10110.0          9.822         85.488         62.403        0.06213        0.12137         2.6090
        10110.5          9.820         81.885         62.640        0.06488        0.12409         2.5980
        10111.0          9.818         79.444         63.486        0.06995        0.11587         2.5810
        10111.5          9.816         77.198         64.331        0.07873        0.09650         2.5650
        10112.0          9.814         75.059         65.177        0.10920        0.08967         2.5490
        10112.5          9.813         75.644         65.651        0.11681        0.09696         2.5350
        10113.0          9.811         77.216         66.037        0.11189        0.11049         2.5680
        10113.5          9.809         81.794         67.021        0.09642        0.13386         2.5940
        10114.0          9.807         90.521         67.107        0.07261        0.17760         2.6200
        10114.5          9.805        100.529         66.770        0.04243        0.18729         2.6460
        10115.0          9.796        112.001         66.433        0.01887        0.18658         2.6710
        10115.5          9.783        119.707         65.865        0.01442        0.17294         2.6850
        10116.0          9.769        113.699         64.590        0.02550        0.15065         2.6670
        10116.5          9.755         98.785         62.087        0.04816        0.11033         2.6260
        10117.0          9.742         81.857         59.019        0.07152        0.07648         2.5820
        10117.5          9.734         73.740         57.380        0.08556        0.06032         2.5920
        10118.0          9.737         68.774         57.753        0.08273        0.05207         2.6030
        10118.5          9.741         68.774         58.775        0.06722        0.05368         2.6130
        10119.0          9.744         73.785         59.976        0.06011        0.06602         2.6180
        10119.5          9.747         81.720         61.469        0.05548        0.08007         2.6190
        10120.0          9.750         89.761         63.137        0.05402        0.09961         2.6190
        10120.5          9.753         97.803         64.579        0.05379        0.14471         2.6230
        10121.0          9.757        104.982         65.039        0.04984        0.17893         2.6350
        10121.5          9.760        108.337         65.071        0.04171        0.18051         2.6470
        10122.0          9.761         99.889         64.848        0.03307        0.17532         2.6580
        10122.5          9.759         90.468         64.454        0.03479        0.15637         2.6310
        10123.0          9.758         88.787         64.340        0.05438        0.13741         2.6030
        10123.5          9.756         91.956         64.767        0.06745        0.13336         2.5960
        10124.0          9.754         96.456         65.211        0.07174        0.13928         2.5930
        10124.5          9.752         96.848         65.441        0.07094        0.14387         2.5890
        10125.0          9.751         92.828         65.190        0.07749        0.14365         2.5730
        10125.5          9.749         88.808         64.913        0.08836        0.13524         2.5580
