# Exported from Transform Software 5.2.0 on 17-Oct-2019 by user kathryn.gehrke
# DI Transform - A Product of Drillinginfo, Inc. - www.drillinginfo.com
#
~VERSION INFORMATION
 VERS.        2.0 : LAS ASCII STANDARD - VERSION 2.0
 WRAP.         NO : ONE LINE PER DEPTH STEP

~WELL INFORMATION
#MNEM.UNIT       DATA TYPE       INFORMATION
#---------       ---------       -----------
 STRT.ft                 100 : Start Depth
 STOP.ft               10126 : Stop Depth
 STEP.ft                 0.5 : Step Length
 NULL.               -999.25 : Null Value
 COMP.                       : Company
 WELL.  42109329790000_API14 : Well Name
 FLD.                        : Field Name
 LOC.                        : Well Location
 CNTY.                       : County
 STAT.                       : State or Province
 CTRY.                       : Country
 SRVC.                       : Service Company
 DATE.                       : Date
 API.         42109329790000 : Well Identifier

~CURVE INFORMATION
#MNEM.UNIT       API CODE       CURVE DESCRIPTION
#---------       --------       -----------------
 DEPT.ft        : <Measured Depth>
 DT.us/ft       : Sonic
 GR.gAPI        : Gamma Ray

~PARAMETER INFORMATION
#MNEM.UNIT       VALUE       DESCRIPTION
#---------       -----       -----------
 EKB.ft      3282 : Elevation above MSL

~A      DEPT          DT          GR
# ...
         751    267.7871     22.4904
       751.5    267.7871     21.8487
         752    267.7871     22.9713
       752.5    269.0594     22.9953
         753    271.5636      21.483
       753.5    271.4454     20.8109
         754    271.1485     21.4577
       754.5    271.1485     21.1475
         755    271.1485     21.1211
       755.5    270.6398     21.4841
         756     268.515     21.2047
       756.5    267.2269     21.0364
         757    267.2269     21.7084
       757.5    267.2269     21.8487
         758    267.2269     23.0525
       758.5    267.2269     24.5649
         759    267.2269     25.2101
       759.5    267.2269     24.0911
         760    267.2269     23.5294
       760.5    267.2269      22.747
         761    267.2269     22.4629
       761.5    267.2269     23.1349
         762    267.2269     24.2271
       762.5    267.2269     23.8404
         763    267.2269     23.1092
       763.5    267.2269     23.1092
         764    267.2269     23.5294
       764.5    267.2269     24.2259
         765    267.2269     25.3181
       765.5    267.2269     25.6905
         766    267.2269     24.1781
       766.5    267.2269     22.7124
         767    267.2269     22.4139
       767.5    267.2269     20.9015
         768    267.2269     20.5882
       768.5    267.2269     20.5882
         769    267.2269     20.5882
       769.5    267.2269     20.8622
         770    267.2269     22.3746
       770.5    267.2269     22.6891
         771    267.2269     22.4582
       771.5    267.2269     23.9705
         772    267.2269     24.0969
       772.5    267.2269     23.9496
         773    267.2269     25.1463
       773.5    267.2269     25.4422
         774    267.2269     23.5096
       774.5    267.2269     22.6891
         775    267.2269     22.1656
       775.5    267.2269     20.6532
         776    267.2269     19.9812
       776.5    267.2269     20.6068
         777    267.2269     21.1581
       777.5    267.2269     21.0084
         778    267.2269     20.2342
       778.5    267.2269     21.6143
         779    267.2269     21.8313
       779.5    267.2269     21.0084
         780    267.2269     21.5296
       780.5    267.2269     21.8487
         781    267.2269     21.0084
       781.5    267.2269      20.572
         782    267.2269     20.8564
       782.5    267.2269     21.9486
         783    267.2269     22.6891
       783.5    267.2269     22.8725
         784    267.2269     24.6025
       784.5    267.2269     26.3174
         785    267.3138     25.9518
       785.5    267.2269     24.4394
         786    267.2269     25.3923
       786.5    267.2269     25.6163
         787    267.2269     24.5241
       787.5    267.2269     24.8874
         788    267.2269     26.3998
       788.5    267.2269     26.7097
         789    267.2269     25.6175
       789.5    267.2269     25.2101
         790    267.2269      23.595
       790.5    267.2269     21.9207
         791    267.2269     21.0084
       791.5    267.2269       21.02
         792    267.2269     22.5323
       792.5    267.2269     24.3024
         793    267.2269     25.9772
       793.5    267.2269     25.4516
         794    267.2269     24.7899
       794.5    267.2269     24.5277
         795    267.2269     22.7112
       795.5     267.688     20.2796
         796    269.7045     19.1502
       796.5     270.694     17.6332
         797    270.5882     15.7053
       797.5    270.5882     16.4793
         798     270.028     18.3741
       798.5     270.028     19.7479
         799    269.7863     20.1681
       799.5    267.2269     20.3283
         800    267.2269     19.7479
       800.5    267.2269     19.3277
         801    267.2269     19.3277
       801.5    267.2269     20.1681
         802    267.2269     21.0084
       802.5    267.2269     21.9392
         803    267.2269     23.1092
       803.5    267.2269     23.1092
         804    267.2269     24.3754
       804.5    267.2269     25.2101
         805    267.2269     25.2993
       805.5    267.2269     26.4706
         806    267.2269     25.3829
       806.5    267.2269     24.7944
         807    267.2269     24.5335
       807.5    267.2269     23.3532
         808    267.2269     21.0084
       808.5    267.2269     22.0973
         809    267.2269     20.3731
       809.5    267.2269     18.6523
         810    267.2269     18.5743
       810.5    267.2269     19.7479
         811    267.2269      19.078
       811.5    267.2269      21.643
         812    267.2269     24.1206
       812.5    267.2269     25.2101
         813    267.2269     24.7899
       813.5    267.2269     24.3697
         814    267.2269     23.9486
       814.5    267.2269     22.4362
         815    267.2269      21.344
       815.5    267.2269     21.0084
         816    267.2269     21.2604
       816.5    266.6669     21.0084
         817    266.6667     20.1681
       817.5    266.6667     20.1681
         818    266.6667     20.1681
       818.5    266.6667     20.4213
         819    266.6667     19.7479
       819.5    266.6667     19.7479
         820    267.2269     20.5882
       820.5    267.2269     19.4138
         821    267.2269     18.6532
       821.5    267.2269     20.5845
         822    267.2269     22.5183
       822.5    266.6667       22.35
         823    266.6667     24.2825
       823.5    266.6667     25.8858
         824    266.6667     24.1652
       824.5    266.6667     23.1092
         825    266.6667     23.0294
       825.5    266.6667     20.3891
         826    266.6667     18.0672
       826.5    266.6667     17.6519
         827    266.6667     17.4001
       827.5    266.6667     17.3056
         828    266.6667     18.4874
       828.5    266.6667     18.7453
         829    266.6667     19.9489
       829.5    267.2269     22.5147
         830    267.2269     23.4519
       830.5    267.2269     23.5294
         831    267.2269     23.6905
       831.5    267.2269     22.6963
         832    267.2269     21.8487
       832.5    267.2269     21.4286
         833    267.2269     21.1003
       833.5    267.2269      19.588
         834    267.2269     18.4958
       834.5    267.2269     16.8617
         835    267.2269     15.0509
       835.5    267.2269     15.0329
         836    267.2269     16.9655
       836.5    267.2269     17.2364
         837    267.2269     16.8067
       837.5    267.3256     17.6471
         838    269.3421     18.4874
       838.5    269.8511     18.3298
         839    269.8511     17.6471
       839.5    269.8511     17.6471
         840    269.8999     17.7199
       840.5    271.7594     17.7425
         841    270.5555     18.3018
       841.5    268.3632     19.7479
         842    267.2269     21.0084
       842.5    267.2269     21.3569
         843    267.2269     20.2647
       843.5    267.2269     18.7523
         844    267.2269     18.4874
       844.5    267.2269     19.9867
         845    267.2269     21.0084
       845.5    267.2269     21.3308
         846    267.2269     22.2689
       846.5    267.2269     22.2689
         847    267.2269     20.8621
       847.5    266.6667     20.6576
         848    266.6667     22.1699
       848.5    266.6667     22.4218
         849    266.6667     22.2843
       849.5    266.6667     22.6891
         850    266.6667     21.5364
       850.5    267.2269     20.9082
         851    267.2269     21.1601
       851.5    267.2269     21.8321
         852    267.2269     22.2689
       852.5    267.2269     23.5964
         853    267.2269     24.3697
       853.5    267.2269     23.2598
         854    267.2269     24.7721
       854.5    267.2269      24.976
         855    267.2269     23.4636
       855.5    267.2269     23.4269
         856    267.2269     24.2204
       856.5    267.2269      21.686
         857    267.2269     21.2413
       857.5    267.2269      23.594
         858    267.2269     23.9496
       858.5    267.2269     22.6891
         859    267.2269     21.8689
