###############################################
##         ENVERUS                           ##
##         ESS - Open Hole                   ##
##         PERMIAN / DELAWARE                ##
##         Nov 03 2023  V4.0                 ##
##         42-109-32978-00-00                ##
###############################################
## Copyright 2017-2023  ENVERUS.  All Rights Reserved. 
## Confidential - Property of ENVERUS, use governed by terms and 
## conditions found within the existing Information Services Subscription Agreement 
## (as may be amended, the “ISSA”) between Customer and ENVERUS. 
## 
~VERSION INFORMATION
# MNEM.UNIT                               DATA : DESCRIPTION OF MNEMONIC
#-----.-----     ----------------------------- : -----------------------------
VERS.                                     2.00 : CWLS LOG ASCII STANDARD - VERSION 2.00
WRAP.                                       NO : MULTIPLE LINES PER DEPTH STEP
VEND.                                  ENVERUS : VENDOR
TYPE.                          ESS - OPEN HOLE : ENVERUS ESSENTIAL CURVES – ACCESSIBLE THROUGH ENVERUS PRISM(TM)
DOC.                                  43644371 : ENVERUS HEADER RAW DOCUMENT ID
#___________________________________________________________________________________________________ 
~WELL INFORMATION 
# sF+t5dzO8TjfhJXm5BhYJSGKqyGjnVcKAr1GJS+XHP+EILfiOmlFF7qBSMjafOrEHsreRpz+nmfYFwcq0MlVOA== 
# MNEM.UNIT                                              DATA : DESCRIPTION OF MNEMONIC 
#-----.-----                    ----------------------------- : ----------------------------- 
CNTY.                                               CULBERSON : COUNTY 
STATE.                                                  TEXAS : STATE 
CNTRY.                                                    USA : COUNTRY 
API.                                             42-109-32978 : API (10 Digit) 
API_14.                                    42-109-32978-00-00 : API (14 Digits) 
API_14_std.                                 42-109-32978-0000 : API (14 Digits Standard) 
UWI.                                           42109329780000 : UNIQUE WELL ID 
WELL.                                    42109329780000_API14 : WELL NAME
STRT.FT                                                 179.0 : START DEPTH
STOP.FT                                                9893.5 : STOP DEPTH
STEP.FT                                                   0.5 : STEP BETWEEN DEPTHS
NULL.                                                 -999.25 : NULL VALUE
#___________________________________________________________________________________________________ 
~PARAMETER INFORMATION 
# MNEM.UNIT                                              DATA : DESCRIPTION OF MNEMONIC 
#-----.-----                    ----------------------------- : ----------------------------- 
EKB.FT                                                   3282 : ELEVATION ABOVE MSL
#___________________________________________________________________________________________________ 
~CURVE INFORMATION 
# MNEM.UNIT           : CURVE DESCRIPTION 
#-----.-----          : ----------------------------- 
 DEPT.FT               : MEASURED DEPTH 
 GR.API                : GAMMA RAY (GAMMA RAY) 
 DT.US/FT              : SONIC DELTA TRANSIT TIME (SONIC) 
 #___________________________________________________________________________________________________ 
~A         DEPT             GR             DT
# ...
         6617.0         41.578        279.109
         6617.5         37.658        279.109
         6618.0         32.389        279.109
         6618.5         29.378        279.109
         6619.0         29.868        279.109
         6619.5         31.755        279.109
         6620.0         29.673        279.109
         6620.5         24.915        279.109
         6621.0         20.603        279.109
         6621.5         19.802        279.109
         6622.0         22.138        279.109
         6622.5         26.650        279.109
         6623.0         29.329        279.109
         6623.5         28.793        279.109
         6624.0         24.993        279.109
         6624.5         20.482        279.109
         6625.0         16.883        279.109
         6625.5         15.378        279.109
         6626.0         15.540        279.109
         6626.5         18.505        279.109
         6627.0         21.514        279.109
         6627.5         23.398        279.109
         6628.0         21.605        279.109
         6628.5         18.765        280.109
         6629.0         16.130        282.671
         6629.5         14.626        282.454
         6630.0         13.788        281.337
         6630.5         13.788        281.337
         6631.0         13.788        281.780
         6631.5         12.787        281.894
         6632.0         11.699        280.505
         6632.5         12.535        278.220
         6633.0         14.579        277.437
         6633.5         16.628        277.437
         6634.0         17.131        277.437
         6634.5         17.131        277.437
         6635.0         15.628        277.437
         6635.5         14.124        277.437
         6636.0         13.371        277.437
         6636.5         14.372        277.437
         6637.0         15.876        277.437
         6637.5         17.131        277.437
         6638.0         16.713        277.994
         6638.5         16.713        277.994
         6639.0         17.131        277.994
         6639.5         17.548        277.994
         6640.0         19.594        278.552
         6640.5         24.770        278.552
         6641.0         30.792        278.552
         6641.5         31.589        278.552
         6642.0         28.833        278.552
         6642.5         28.076        278.552
         6643.0         31.293        278.552
         6643.5         33.884        278.552
         6644.0         35.682        278.552
         6644.5         36.769        277.996
         6645.0         39.231        277.994
         6645.5         41.450        277.994
         6646.0         41.281        277.994
         6646.5         44.079        277.994
         6647.0         55.145        277.437
         6647.5         71.026        277.437
         6648.0         73.539        277.437
         6648.5         65.144        277.437
         6649.0         56.784        277.437
         6649.5         54.736        277.437
         6650.0         51.018        277.437
         6650.5         45.002        277.437
         6651.0         40.321        277.437
         6651.5         35.976        277.437
         6652.0         31.547        277.437
         6652.5         29.081        277.437
         6653.0         29.874        277.437
         6653.5         32.925        277.437
         6654.0         35.724        277.437
         6654.5         38.858        277.437
         6655.0         39.025        277.437
         6655.5         36.100        277.437
         6656.0         32.716        277.437
         6656.5         31.922        277.437
         6657.0         34.053        277.437
         6657.5         37.354        277.437
         6658.0         39.276        277.437
         6658.5         41.157        277.437
         6659.0         43.036        277.437
         6659.5         43.036        277.437
         6660.0         41.072        277.437
         6660.5         39.276        277.437
         6661.0         42.495        277.437
         6661.5         46.546        277.437
         6662.0         46.169        277.437
         6662.5         41.237        277.437
         6663.0         36.267        277.437
         6663.5         35.850        277.437
         6664.0         37.772        277.437
         6664.5         38.439        277.437
         6665.0         37.353        277.437
         6665.5         36.351        277.437
         6666.0         34.804        277.437
         6666.5         31.962        277.437
         6667.0         30.920        277.437
         6667.5         35.437        277.437
         6668.0         45.717        277.437
         6668.5         54.991        277.437
         6669.0         56.613        277.437
         6669.5         49.295        277.436
         6670.0         36.217        280.005
         6670.5         27.071        283.317
         6671.0         24.234        281.337
         6671.5         27.960        281.337
         6672.0         35.729        281.894
         6672.5         41.285        281.894
         6673.0         41.486        280.110
         6673.5         36.974        279.109
         6674.0         33.800        279.109
         6674.5         31.543        279.109
         6675.0         29.079        279.109
         6675.5         29.503        279.109
         6676.0         34.561        279.109
         6676.5         40.284        279.109
         6677.0         41.780        279.109
         6677.5         39.106        279.109
         6678.0         37.519        279.109
         6678.5         36.851        279.109
         6679.0         35.093        279.109
         6679.5         31.543        279.109
         6680.0         31.633        279.109
         6680.5         37.785        279.109
         6681.0         43.790        279.109
         6681.5         43.240        279.109
         6682.0         36.966        279.109
         6682.5         30.914        279.109
         6683.0         27.571        279.109
         6683.5         26.410        279.109
         6684.0         31.433        279.109
         6684.5         41.593        279.109
         6685.0         51.822        279.109
         6685.5         54.607        279.109
         6686.0         51.219        279.109
         6686.5         47.881        279.109
         6687.0         46.379        279.109
         6687.5         45.961        279.109
         6688.0         44.744        279.109
         6688.5         42.618        279.109
         6689.0         38.682        278.325
         6689.5         35.094        277.994
         6690.0         33.453        277.994
         6690.5         34.269        277.994
         6691.0         37.483        277.994
         6691.5         37.852        277.994
         6692.0         37.602        277.994
         6692.5         36.351        277.994
         6693.0         36.855        277.994
         6693.5         37.605        277.994
         6694.0         36.599        277.994
         6694.5         33.835        277.994
         6695.0         28.490        277.994
         6695.5         25.523        277.994
         6696.0         23.061        277.994
         6696.5         20.466        277.994
         6697.0         19.223        277.994
         6697.5         22.071        277.994
         6698.0         27.297        277.994
         6698.5         31.257        277.994
         6699.0         31.925        277.994
         6699.5         33.430        277.994
         6700.0         35.352        277.994
         6700.5         36.682        277.994
         6701.0         34.631        277.994
         6701.5         31.917        277.994
         6702.0         31.341        277.994
         6702.5         32.173        277.994
         6703.0         33.096        277.994
         6703.5         34.600        277.994
