###############################################
##         ENVERUS                           ##
##         ESS - Open Hole                   ##
##         PERMIAN / DELAWARE                ##
##         Nov 03 2023  V4.0                 ##
##         42-109-32572-90-00                ##
###############################################
## Copyright 2017-2023  ENVERUS.  All Rights Reserved. 
## Confidential - Property of ENVERUS, use governed by terms and 
## conditions found within the existing Information Services Subscription Agreement 
## (as may be amended, the “ISSA”) between Customer and ENVERUS. 
## 
~VERSION INFORMATION
# MNEM.UNIT                               DATA : DESCRIPTION OF MNEMONIC
#-----.-----     ----------------------------- : -----------------------------
VERS.                                     2.00 : CWLS LOG ASCII STANDARD - VERSION 2.00
WRAP.                                       NO : MULTIPLE LINES PER DEPTH STEP
VEND.                                  ENVERUS : VENDOR
TYPE.                          ESS - OPEN HOLE : ENVERUS ESSENTIAL CURVES – ACCESSIBLE THROUGH ENVERUS PRISM(TM)
DOC.                                  51093105 : ENVERUS HEADER RAW DOCUMENT ID
#___________________________________________________________________________________________________ 
~WELL INFORMATION 
# JLMmoJa/ja/TVcwAQvDk33OYEn4U2aLD16xKSNtVAxpK3Y/5Eg5lhKgsZNDQ5ZP0fRHfEZLFMAnipg5oeA7W3g== 
# MNEM.UNIT                                              DATA : DESCRIPTION OF MNEMONIC 
#-----.-----                    ----------------------------- : ----------------------------- 
CNTY.                                               CULBERSON : COUNTY 
STATE.                                                  TEXAS : STATE 
CNTRY.                                                    USA : COUNTRY 
API.                                             42-109-32572 : API (10 Digit) 
API_14.                                    42-109-32572-90-00 : API (14 Digits) 
API_14_std.                                 42-109-32572-9000 : API (14 Digits Standard) 
UWI.                                           42109325729000 : UNIQUE WELL ID 
WELL.                               42109325720000_PREV_API14 : WELL NAME
STRT.FT                                                2248.5 : START DEPTH
STOP.FT                                               10721.5 : STOP DEPTH
STEP.FT                                                   0.5 : STEP BETWEEN DEPTHS
NULL.                                                 -999.25 : NULL VALUE
PREV_APII.                                     42109325720000 : WELL IDENTIFIER
#___________________________________________________________________________________________________ 
~PARAMETER INFORMATION 
# MNEM.UNIT                                              DATA : DESCRIPTION OF MNEMONIC 
#-----.-----                    ----------------------------- : ----------------------------- 
EKB.FT                                                   3340 : ELEVATION ABOVE MSL
#___________________________________________________________________________________________________ 
~CURVE INFORMATION 
# MNEM.UNIT           : CURVE DESCRIPTION 
#-----.-----          : ----------------------------- 
 DEPT.FT               : MEASURED DEPTH 
 GR__A.API             : GAMMA RAY (GAMMA RAY) 
 DT__A.US/FT           : SONIC DELTA TRANSIT TIME (SONIC) 
 #___________________________________________________________________________________________________ 
~A         DEPT          GR__A          DT__A
# ...
         7294.5        184.911         96.455
         7295.0        191.035         95.655
         7295.5        190.572         94.777
         7296.0        191.145         94.333
         7296.5        204.804         87.388
         7297.0        205.514         81.280
         7297.5        167.695         79.147
         7298.0        145.708         78.239
         7298.5        129.594         76.627
         7299.0        134.513         80.246
         7299.5        143.235         82.188
         7300.0        138.927         82.285
         7300.5        129.068         81.989
         7301.0        122.102         81.013
         7301.5        118.984         79.453
         7302.0        130.352         80.822
         7302.5        144.241         82.434
         7303.0        146.376         82.676
         7303.5        144.814         82.983
         7304.0        144.423         84.726
         7304.5        145.594         86.091
         7305.0        152.798         87.069
         7305.5        174.465         87.362
         7306.0        185.901         89.314
         7306.5        207.973         92.587
         7307.0        203.927         85.809
         7307.5        128.208         83.318
         7308.0         98.852         80.922
         7308.5         71.257         70.767
         7309.0         88.499         73.881
         7309.5        114.404         82.563
         7310.0        130.307         83.060
         7310.5        143.475         84.041
         7311.0        124.085         78.949
         7311.5        106.176         72.839
         7312.0         94.750         72.227
         7312.5         75.154         71.943
         7313.0         68.393         67.913
         7313.5         68.723         71.247
         7314.0         75.887         76.903
         7314.5         96.237         78.281
         7315.0         96.607         77.736
         7315.5         82.020         72.904
         7316.0         76.474         72.617
         7316.5         86.803         73.483
         7317.0        104.521         73.873
         7317.5        127.918         79.819
         7318.0        132.230         85.308
         7318.5        139.181         83.526
         7319.0        138.647         82.789
         7319.5        145.921         83.806
         7320.0        153.128         84.141
         7320.5        162.427         81.619
         7321.0        147.013         81.091
         7321.5        126.460         80.625
         7322.0        119.058         79.684
         7322.5        109.979         79.160
         7323.0        105.364         80.840
         7323.5        110.507         78.772
         7324.0        116.550         78.205
         7324.5        120.548         78.813
         7325.0        122.631         79.258
         7325.5        132.665         80.527
         7326.0        136.708         78.793
         7326.5        125.185         77.780
         7327.0        122.896         76.364
         7327.5        122.849         77.597
         7328.0        122.505         76.353
         7328.5        126.707         75.257
         7329.0        107.668         73.321
         7329.5         86.213         67.679
         7330.0         65.016         67.214
         7330.5         59.657         73.399
         7331.0         93.473         74.151
         7331.5        148.099         78.662
         7332.0        162.522         79.160
         7332.5        170.646         75.547
         7333.0        143.810         73.166
         7333.5        131.240         73.534
         7334.0        137.506         75.276
         7334.5        163.165         76.844
         7335.0        152.574         75.010
         7335.5        125.841         74.537
         7336.0        124.358         75.251
         7336.5        152.714         80.675
         7337.0        164.958         80.032
         7337.5        143.802         75.799
         7338.0        130.867         75.387
         7338.5        108.951         74.607
         7339.0        108.415         74.180
         7339.5        108.024         75.840
         7340.0        108.415         75.997
         7340.5        121.993         75.938
         7341.0        131.979         77.503
         7341.5        134.247         80.181
         7342.0        136.268         78.712
         7342.5        132.996         74.327
         7343.0        110.730         73.313
         7343.5         83.691         70.624
         7344.0         78.614         69.143
         7344.5         75.811         77.938
         7345.0         95.938         80.084
         7345.5        116.851         79.958
         7346.0        117.126         79.302
         7346.5        100.521         69.545
         7347.0         84.118         73.699
         7347.5         81.278         75.449
         7348.0         94.887         76.232
         7348.5        135.941         83.035
         7349.0        151.792         84.678
         7349.5        152.049         74.461
         7350.0        138.447         73.447
         7350.5         86.688         71.567
         7351.0         78.484         68.907
         7351.5         75.538         72.242
         7352.0         77.947         73.490
         7352.5        102.349         75.594
         7353.0        110.558         76.056
         7353.5        110.763         77.322
         7354.0        112.965         77.774
         7354.5        123.891         76.772
         7355.0        111.397         76.191
         7355.5         81.680         71.035
         7356.0         75.801         69.066
         7356.5         74.107         66.032
         7357.0         70.672         65.934
         7357.5         72.655         65.977
         7358.0         78.629         66.213
         7358.5         83.920         68.295
         7359.0         92.169         76.889
         7359.5        117.194         78.946
         7360.0        132.994         79.492
         7360.5        135.158         78.658
         7361.0        123.852         74.120
         7361.5        114.406         75.186
         7362.0        114.022         75.895
         7362.5        126.565         77.078
         7363.0        127.573         79.196
         7363.5        126.240         81.018
         7364.0        128.376         79.136
         7364.5        121.265         77.759
         7365.0        104.613         76.095
         7365.5        104.061         75.411
         7366.0        112.852         77.437
         7366.5        150.023         81.341
         7367.0        155.922         81.309
         7367.5        129.237         79.699
         7368.0        121.006         77.536
         7368.5        108.060         74.529
         7369.0        116.362         80.187
         7369.5        121.488         80.552
         7370.0        118.810         79.801
         7370.5        107.795         73.052
         7371.0        101.936         70.259
         7371.5        110.478         72.072
         7372.0        119.978         72.546
         7372.5        126.810         79.655
         7373.0        122.794         75.691
         7373.5        101.934         72.030
         7374.0         91.389         71.421
         7374.5         88.207         71.567
         7375.0         95.147         71.641
         7375.5        104.293         73.091
         7376.0        106.548         73.639
         7376.5        109.177         74.582
         7377.0        115.784         77.773
         7377.5        124.712         80.164
         7378.0        127.519         80.841
         7378.5        129.161         80.820
         7379.0        135.889         80.937
         7379.5        141.683         83.004
         7380.0        141.683         82.453
         7380.5        136.241         77.092
         7381.0        124.094         76.523
