###############################################
##         ENVERUS                           ##
##         ESS - Open Hole                   ##
##         PERMIAN / DELAWARE                ##
##         Nov 03 2023  V4.0                 ##
##         42-109-32508-00-00                ##
###############################################
## Copyright 2017-2023  ENVERUS.  All Rights Reserved. 
## Confidential - Property of ENVERUS, use governed by terms and 
## conditions found within the existing Information Services Subscription Agreement 
## (as may be amended, the “ISSA”) between Customer and ENVERUS. 
## 
~VERSION INFORMATION
# MNEM.UNIT                               DATA : DESCRIPTION OF MNEMONIC
#-----.-----     ----------------------------- : -----------------------------
VERS.                                     2.00 : CWLS LOG ASCII STANDARD - VERSION 2.00
WRAP.                                       NO : MULTIPLE LINES PER DEPTH STEP
VEND.                                  ENVERUS : VENDOR
TYPE.                          ESS - OPEN HOLE : ENVERUS ESSENTIAL CURVES – ACCESSIBLE THROUGH ENVERUS PRISM(TM)
DOC.                                  51093165 : ENVERUS HEADER RAW DOCUMENT ID
#___________________________________________________________________________________________________ 
~WELL INFORMATION 
# 1l9uGBxUQQhBCtjIwzslcirW42fLV8cokTOAxV7sfA093x4JFuWG6+twQwU/7oNL7vvW02EVanlAmdL+peO2nw== 
# MNEM.UNIT                                              DATA : DESCRIPTION OF MNEMONIC 
#-----.-----                    ----------------------------- : ----------------------------- 
CNTY.                                               CULBERSON : COUNTY 
STATE.                                                  TEXAS : STATE 
CNTRY.                                                    USA : COUNTRY 
API.                                             42-109-32508 : API (10 Digit) 
API_14.                                    42-109-32508-00-00 : API (14 Digits) 
API_14_std.                                 42-109-32508-0000 : API (14 Digits Standard) 
UWI.                                           42109325080000 : UNIQUE WELL ID 
WELL.                                  LT. GIBSON 12 STATE 1H : WELL NAME
STRT.FT                                                1970.5 : START DEPTH
STOP.FT                                                8727.0 : STOP DEPTH
STEP.FT                                                   0.5 : STEP BETWEEN DEPTHS
NULL.                                                 -999.25 : NULL VALUE
PREV_APII.                                     42109325080000 : WELL IDENTIFIER
#___________________________________________________________________________________________________ 
~PARAMETER INFORMATION 
# MNEM.UNIT                                              DATA : DESCRIPTION OF MNEMONIC 
#-----.-----                    ----------------------------- : ----------------------------- 
EKB.FT                                                   3552 : ELEVATION ABOVE MSL
#___________________________________________________________________________________________________ 
~CURVE INFORMATION 
# MNEM.UNIT           : CURVE DESCRIPTION 
#-----.-----          : ----------------------------- 
 DEPT.FT               : MEASURED DEPTH 
 GR__A.API             : GAMMA RAY (GAMMA RAY) 
 DT__A.US/FT           : SONIC DELTA TRANSIT TIME (SONIC) 
 #___________________________________________________________________________________________________ 
~A         DEPT          GR__A          DT__A
# ...
         8669.5        436.043         74.282
         8670.0        447.066         54.142
         8670.5        459.986         54.595
         8671.0        465.441         70.856
         8671.5        465.976         87.262
         8672.0        454.796         91.729
         8672.5        441.348         95.466
         8673.0        415.633        102.787
         8673.5        390.670        103.704
         8674.0        355.156        104.416
         8674.5        346.082        104.191
         8675.0        351.444         95.798
         8675.5        365.978         85.935
         8676.0        390.083         84.168
         8676.5        405.094         81.575
         8677.0        414.941         73.617
         8677.5        432.349         68.338
         8678.0        455.835         63.972
         8678.5        459.558         67.340
         8679.0        459.322         62.293
         8679.5        460.156         62.117
         8680.0       -999.250         80.777
         8680.5       -999.250         81.258
         8681.0       -999.250         94.586
         8681.5       -999.250        118.377
         8682.0       -999.250        113.452
         8682.5       -999.250        112.281
         8683.0       -999.250        105.961
         8683.5       -999.250        101.450
         8684.0       -999.250        107.082
         8684.5       -999.250        104.678
         8685.0       -999.250         97.929
         8685.5       -999.250         53.986
         8686.0       -999.250         71.310
         8686.5       -999.250         74.921
         8687.0       -999.250         86.939
         8687.5       -999.250         93.937
         8688.0       -999.250         90.643
         8688.5       -999.250         93.906
         8689.0       -999.250         93.096
         8689.5       -999.250         95.000
         8690.0       -999.250         87.207
         8690.5       -999.250         79.390
         8691.0       -999.250         76.425
         8691.5       -999.250         55.633
         8692.0       -999.250         54.368
         8692.5       -999.250         64.135
         8693.0       -999.250         66.170
         8693.5       -999.250         65.026
         8694.0       -999.250         50.317
         8694.5       -999.250         64.015
         8695.0       -999.250         77.012
         8695.5       -999.250         82.305
         8696.0       -999.250         95.538
         8696.5       -999.250         92.008
         8697.0       -999.250         86.996
         8697.5       -999.250         83.220
         8698.0       -999.250         90.577
         8698.5       -999.250         89.855
         8699.0       -999.250         88.557
         8699.5       -999.250         85.899
         8700.0       -999.250         77.388
         8700.5       -999.250         76.288
         8701.0       -999.250         80.270
         8701.5       -999.250         81.796
         8702.0       -999.250         93.199
         8702.5       -999.250        130.637
         8703.0       -999.250        145.224
         8703.5       -999.250        145.419
         8704.0       -999.250        149.639
         8704.5       -999.250        152.242
         8705.0       -999.250        153.393
         8705.5       -999.250        155.940
         8706.0       -999.250        151.853
         8706.5       -999.250        142.489
         8707.0       -999.250        140.726
         8707.5       -999.250        140.190
         8708.0       -999.250        147.143
         8708.5       -999.250        141.150
         8709.0       -999.250        134.338
         8709.5       -999.250        121.475
         8710.0       -999.250         97.839
         8710.5       -999.250         98.556
         8711.0       -999.250        128.070
         8711.5       -999.250        131.912
         8712.0       -999.250        141.615
         8712.5       -999.250         86.968
         8713.0       -999.250         84.950
         8713.5       -999.250         82.201
         8714.0       -999.250         90.121
         8714.5       -999.250        100.490
         8715.0       -999.250        100.195
         8715.5       -999.250         96.101
         8716.0       -999.250        101.297
         8716.5       -999.250        118.968
         8717.0       -999.250        125.587
         8717.5       -999.250        123.977
         8718.0       -999.250        121.933
         8718.5       -999.250        108.851
         8719.0       -999.250         93.100
         8719.5       -999.250         68.843
         8720.0       -999.250         66.803
         8720.5       -999.250         68.053
         8721.0       -999.250        106.602
         8721.5       -999.250        110.791
         8722.0       -999.250        110.721
         8722.5       -999.250        111.540
         8723.0       -999.250        123.358
         8723.5       -999.250        124.898
         8724.0       -999.250        125.146
         8724.5       -999.250        124.996
         8725.0       -999.250        124.367
         8725.5       -999.250        122.143
         8726.0       -999.250        121.469
         8726.5       -999.250        124.342
         8727.0       -999.250        125.113
