###############################################
##         ENVERUS                           ##
##         ESS - Open Hole                   ##
##         PERMIAN / DELAWARE                ##
##         Nov 03 2023  V4.0                 ##
##         42-109-32620-90-00                ##
###############################################
## Copyright 2017-2023  ENVERUS.  All Rights Reserved. 
## Confidential - Property of ENVERUS, use governed by terms and 
## conditions found within the existing Information Services Subscription Agreement 
## (as may be amended, the “ISSA”) between Customer and ENVERUS. 
## 
~VERSION INFORMATION
# MNEM.UNIT                               DATA : DESCRIPTION OF MNEMONIC
#-----.-----     ----------------------------- : -----------------------------
VERS.                                     2.00 : CWLS LOG ASCII STANDARD - VERSION 2.00
WRAP.                                       NO : MULTIPLE LINES PER DEPTH STEP
VEND.                                  ENVERUS : VENDOR
TYPE.                          ESS - OPEN HOLE : ENVERUS ESSENTIAL CURVES – ACCESSIBLE THROUGH ENVERUS PRISM(TM)
DOC.                                  51092896 : ENVERUS HEADER RAW DOCUMENT ID
#___________________________________________________________________________________________________ 
~WELL INFORMATION 
# mS4wxE9S4ErBCd3MEwtzWWb7vaBLyBp2a6hoNdhJ+t1pinRta8/5SsS3wr5CrR4pTncMCKeAGTUU45xlgh6yRQ== 
# MNEM.UNIT                                              DATA : DESCRIPTION OF MNEMONIC 
#-----.-----                    ----------------------------- : ----------------------------- 
CNTY.                                               CULBERSON : COUNTY 
STATE.                                                  TEXAS : STATE 
CNTRY.                                                    USA : COUNTRY 
API.                                             42-109-32620 : API (10 Digit) 
API_14.                                    42-109-32620-90-00 : API (14 Digits) 
API_14_std.                                 42-109-32620-9000 : API (14 Digits Standard) 
UWI.                                           42109326209000 : UNIQUE WELL ID 
WELL.                               42109326200000_PREV_API14 : WELL NAME
STRT.FT                                                2338.5 : START DEPTH
STOP.FT                                               10866.0 : STOP DEPTH
STEP.FT                                                   0.5 : STEP BETWEEN DEPTHS
NULL.                                                 -999.25 : NULL VALUE
PREV_APII.                                     42109326200000 : WELL IDENTIFIER
#___________________________________________________________________________________________________ 
~PARAMETER INFORMATION 
# MNEM.UNIT                                              DATA : DESCRIPTION OF MNEMONIC 
#-----.-----                    ----------------------------- : ----------------------------- 
EKB.FT                                                   3330 : ELEVATION ABOVE MSL
#___________________________________________________________________________________________________ 
~CURVE INFORMATION 
# MNEM.UNIT           : CURVE DESCRIPTION 
#-----.-----          : ----------------------------- 
 DEPT.FT               : MEASURED DEPTH 
 CALI.IN               : CALIPER (CAL - CALIPER) 
 GR.API                : GAMMA RAY (GAMMA RAY) 
 DT.US/FT              : SONIC DELTA TRANSIT TIME (PRESSURE WAVE SONIC) 
 #___________________________________________________________________________________________________ 
~A         DEPT           CALI             GR             DT
# ...
         5704.5          9.753         94.206         65.089
         5705.0          9.753         73.126         65.864
         5705.5          9.753         59.597         66.590
         5706.0          9.753         52.724         66.623
         5706.5          9.753         51.965         65.937
         5707.0          9.753         57.840         65.352
         5707.5          9.753         77.758         65.095
         5708.0          9.753         91.469         65.035
         5708.5          9.753        108.299         64.744
         5709.0          9.753        109.097         63.657
         5709.5          9.753        106.086         62.958
         5710.0          9.753        104.111         62.993
         5710.5          9.792         95.310         63.578
         5711.0          9.812         80.950         65.022
         5711.5          9.832         64.753         66.180
         5712.0          9.832         58.684         67.399
         5712.5          9.852         53.224         68.817
         5713.0          9.852         53.512         69.452
         5713.5          9.852         55.090         69.609
         5714.0          9.852         55.790         69.518
         5714.5          9.852         58.452         69.047
         5715.0          9.852         61.078         68.669
         5715.5          9.872         59.807         68.485
         5716.0          9.872         56.423         68.449
         5716.5          9.872         51.262         68.891
         5717.0          9.872         47.952         69.298
         5717.5          9.872         48.472         69.489
         5718.0          9.872         50.889         69.549
         5718.5          9.872         51.099         69.489
         5719.0          9.872         54.704         69.485
         5719.5          9.872         61.249         69.143
         5720.0          9.852         60.844         68.335
         5720.5          9.852         56.994         67.609
         5721.0          9.852         57.072         67.838
         5721.5          9.832         57.285         68.486
         5722.0          9.812         57.165         68.442
         5722.5          9.812         75.342         67.252
         5723.0          9.792         91.240         65.365
         5723.5          9.773         93.779         64.426
         5724.0          9.760         81.466         63.854
         5724.5          9.739         66.931         63.872
         5725.0          9.747         74.119         64.417
         5725.5          9.757         90.684         64.835
         5726.0          9.753        104.144         65.035
         5726.5          9.753        107.478         64.723
         5727.0          9.713         99.524         63.597
         5727.5          9.713         80.698         62.868
         5728.0          9.713         70.238         62.814
         5728.5          9.713         63.737         63.545
         5729.0          9.733         63.708         65.288
         5729.5          9.753         67.043         65.998
         5730.0          9.753         73.311         65.860
         5730.5          9.773         87.170         65.426
         5731.0          9.773         96.044         65.011
         5731.5          9.773        100.253         64.794
         5732.0          9.773        100.896         64.794
         5732.5          9.773         98.633         65.009
         5733.0          9.753         97.281         65.193
         5733.5          9.753         97.608         65.456
         5734.0          9.753         98.948         65.517
         5734.5          9.753         98.866         65.211
         5735.0          9.773         92.777         64.688
         5735.5          9.753         79.337         64.728
         5736.0          9.753         68.872         65.389
         5736.5          9.753         62.770         67.899
         5737.0          9.753         62.308         69.308
         5737.5          9.773         68.453         68.767
         5738.0          9.773         78.707         67.274
         5738.5          9.773         94.774         65.648
         5739.0          9.767        102.611         65.035
         5739.5          9.753        107.160         65.095
         5740.0          9.753        107.147         64.831
         5740.5          9.753         97.506         63.585
         5741.0          9.733         91.609         61.842
         5741.5          9.733         85.524         59.085
         5742.0          9.693         76.722         57.118
         5742.5          9.673         60.616         56.057
         5743.0          9.653         50.315         55.362
         5743.5          9.653         45.693         54.744
         5744.0          9.653         44.742         54.684
         5744.5          9.653         45.379         55.403
         5745.0          9.673         52.786         57.075
         5745.5          9.673         70.712         60.050
         5746.0          9.713         85.073         62.652
         5746.5          9.713         82.039         64.790
         5747.0          9.716         78.443         65.407
         5747.5          9.775         81.031         65.322
         5748.0          9.767         80.522         65.138
         5748.5          9.753         70.708         64.996
         5749.0          9.753         67.745         64.975
         5749.5          9.753         76.668         65.035
         5750.0          9.773         87.829         65.035
         5750.5          9.773         97.831         64.881
         5751.0          9.792         97.456         64.794
         5751.5          9.792         97.145         64.855
         5752.0          9.792        101.963         64.839
         5752.5          9.792        103.635         64.915
         5753.0          9.792        101.874         64.975
         5753.5          9.792         99.923         65.029
         5754.0          9.792        102.174         64.917
         5754.5          9.753        104.501         64.065
         5755.0          9.753         88.860         61.597
         5755.5          9.733         68.050         59.258
         5756.0          9.713         57.136         59.017
         5756.5          9.713         55.716         60.762
         5757.0          9.733         63.655         63.377
         5757.5          9.733         77.778         64.525
         5758.0          9.733         88.823         64.819
         5758.5          9.733        102.905         64.915
         5759.0          9.733        100.825         64.884
         5759.5          9.733         91.606         64.700
         5760.0          9.713         83.309         64.674
         5760.5          9.713         81.772         64.734
         5761.0          9.713         82.382         64.778
         5761.5          9.733         83.192         64.867
         5762.0          9.733         83.264         64.382
         5762.5          9.713         77.492         62.953
         5763.0          9.692         65.324         62.211
         5763.5          9.673         55.886         62.452
         5764.0          9.673         55.076         63.796
         5764.5          9.673         55.351         65.960
         5765.0          9.676         60.934         66.550
         5765.5          9.693         76.076         66.301
         5766.0          9.693         90.677         65.860
         5766.5          9.693        100.998         65.818
         5767.0          9.693         99.259         65.998
         5767.5          9.673         93.153         65.494
         5768.0          9.673         79.636         65.216
         5768.5          9.673         64.262         65.928
         5769.0          9.673         61.190         68.518
         5769.5          9.673         60.543         71.793
         5770.0          9.693         60.826         73.204
