~VERSION INFORMATION
VERS. 2.0 : CWLS Log ASCII Standard - Version 2.0
WRAP. NO : One line per depth step
#--------------------------------------------------#
#----------------DRILLING INFO, INC.---------------#
#---------------WWW.DRILLINGINFO.COM---------------#
#------------------COPYRIGHT 2015------------------#
#--------------------------------------------------#
#THIS FILE MAY BE USED ONLY IN ACCORDANCE WITH A CURRENT SUBSCRIPTION AGREEMENT BETWEEN
#THE USER AND DRILLING INFO, INC. NO PART OF THIS FILE MAY BE REPRODUCED, USED, COPIED,
#MODIFIED, PROPAGATED, OR DISTRIBUTED EXCEPT IN ACCORDANCE WITH THE SUBSCRIPTION
#AGREEMENT. UNAUTHORIZED USE OR DISTRIBUTION OF ALL OR ANY PART OF THIS FILE MAY VIOLATE
#COPYRIGHT, TRADEMARK, AND/OR OTHER LAWS AND IS SUBJECT TO CIVIL AS WELL AS CRIMINAL
#SANCTIONS.
#--------------------------------------------------#
#THIS FILE IS PROVIDED "AS-IS" AND ALL WARRANTIES ARE EXPRESSLY DISCLAIMED, WHETHER
#EXPRESS, ORAL, IMPLIED, STATUTORY OR OTHERWISE, INCLUDING ANY IMPLIED WARRANTY OF FITNESS
#FOR A PARTICULAR PURPOSE, MERCHANTABILITY, TITLE OR NON-INFRINGEMENT, AND ANY WARRANTIES
#ARISING BY VIRTUE OF CUSTOM OF TRADE OR COURSE OF DEALING.  FURTHER, DRILLING INFO,
#INC. AND ITS LICENSORS DO NOT REPRESENT OR WARRANT THAT THIS FILE WILL MEET USER'S
#REQUIREMENTS OR ARE SUITABLE FOR USER'S NEEDS OR THAT THE DATA OR RESULTS PROVIDED IN
#CONJUNCTION THEREWITH ARE CORRECT, ACCURATE, TIMELY OR RELIABLE. THESE DISCLAIMERS SHALL
#APPLY REGARDLESS OF ANY FAILURE OF ESSENTIAL PURPOSE OF ANY LIMITED REMEDY.  SOME
#JURISDICTIONS DO NOT ALLOW THE EXCLUSION OF CERTAIN WARRANTIES SO SOME OF THE ABOVE
#EXCLUSIONS MAY NOT APPLY. IN NO EVENT SHALL DRILLING INFO, INC. OR ANY OF ITS AFFILIATES
#BE LIABLE UNDER ANY LEGAL THEORY, WHETHER IN TORT (INCLUDING WITHOUT LIMITATION
#NEGLIGENCE), CONTRACT, STRICT LIABILITY, STATUTORY OR OTHERWISE, FOR ANY SPECIAL,
#INCIDENTAL, CONSEQUENTIAL, EXEMPLARY, PUNITIVE OR INDIRECT DAMAGE OF ANY KIND, INCLUDING
#WITHOUT LIMITATION LOSS OF REVENUE, PROFITS, GOODWILL, USE, AND/OR DATA OR THE COST OF
#PROCUREMENT OF SUBSTITUTE GOODS OR SERVICES, EVEN IF APPRISED OF THE POSSIBILITY OF SUCH
#DAMAGES IN ADVANCE.
#--------------------------------------------------#
~WELL INFORMATION
#MNEMONIC     .UNIT              VALUE :DESCRIPTION
#--------------------------------------------------#
STRT       .ft                51.00000 :START DEPTH
STOP       .ft                9476.00000 :STOP DEPTH
STEP       .ft                0.50000 :STEP
NULL       .                -999.25000 :NULL VALUE
COMP       .                 :COMPANY
WELL       .                 :WELL
FLD       .                 :FIELD
LOC       .                 :LOCATION
CNTY       .                 :COUNTY
STAT       .                 :STATE
CTRY       .                 :COUNTRY
SRVC       .                 :SERVICE COMPANY
DATE       .                 :DATE
API       .                42109100520000 :API NUMBER
~CURVE INFORMATION
#MNEMONIC     .UNIT      API CODE :CURVE DESCRIPTION
#--------------------------------------------------#
DEPTH       .ft                      :Measured Depth
CAL       .in        UNKNOWN   :CAL
DT       .us/ft        UNKNOWN   :DT
GR       .gAPI        UNKNOWN   :GR
~A    DEPTH    CAL    DT    GR
# ...
292.00000    -999.25000    -999.25000    15.22866
292.50000    -999.25000    -999.25000    15.85032
293.00000    -999.25000    -999.25000    16.47198
293.50000    -999.25000    -999.25000    17.09364
294.00000    -999.25000    -999.25000    17.71530
294.50000    -999.25000    -999.25000    18.33695
295.00000    -999.25000    -999.25000    18.95861
295.50000    -999.25000    -999.25000    17.78780
296.00000    -999.25000    -999.25000    16.33748
296.50000    -999.25000    -999.25000    14.88716
297.00000    -999.25000    56.15635    14.76278
297.50000    -999.25000    56.21710    14.64015
298.00000    -999.25000    56.27785    14.51751
298.50000    -999.25000    56.33859    14.39488
299.00000    -999.25000    56.39934    14.27224
299.50000    -999.25000    56.46009    14.14961
300.00000    -999.25000    56.52084    14.02697
300.50000    -999.25000    56.58158    13.90434
301.00000    9.02601    56.64233    13.78308
301.50000    9.02189    56.70308    14.67734
302.00000    9.01777    56.61148    15.57161
302.50000    9.01365    56.21417    16.46587
303.00000    9.00953    53.85388    17.36013
303.50000    9.00541    51.49360    17.85197
304.00000    9.00129    49.13332    17.39825
304.50000    8.99717    46.77304    16.94453
305.00000    8.99304    48.85793    16.49081
305.50000    9.01665    52.13688    16.03709
306.00000    9.04059    54.68536    15.58337
306.50000    9.06453    55.17798    15.12965
307.00000    9.08847    55.67060    14.67593
307.50000    9.11241    56.16321    14.60050
308.00000    9.13636    56.68229    15.79332
308.50000    9.13563    58.06719    16.98614
309.00000    9.11654    59.45209    16.39223
309.50000    9.09744    60.83699    15.56295
310.00000    9.08010    62.22189    14.73367
310.50000    9.06427    61.15544    14.49395
311.00000    9.04844    58.17433    14.73282
311.50000    9.03261    59.26257    14.97169
312.00000    9.01678    60.74023    15.21056
312.50000    9.01591    60.45211    15.44943
313.00000    9.01517    60.16399    15.68830
313.50000    9.01443    59.87587    15.92717
314.00000    9.01369    67.56122    16.16604
314.50000    9.01295    67.33871    16.40490
315.00000    9.01221    67.11620    16.38825
315.50000    9.01147    66.89370    16.18475
316.00000    9.01073    66.45455    15.98125
316.50000    9.00999    65.64557    15.77775
317.00000    9.00925    64.83658    15.57425
317.50000    9.00851    64.02760    15.37075
318.00000    9.00778    63.21861    15.16725
318.50000    9.00704    62.40963    15.15038
319.00000    9.00630    61.60065    15.14466
319.50000    9.00556    60.79166    15.13895
320.00000    9.00482    59.98268    15.13323
320.50000    9.00408    59.68244    15.12752
321.00000    9.00334    61.40855    15.12181
321.50000    9.00260    63.13466    15.11609
322.00000    9.00186    59.31068    15.11038
322.50000    9.00112    54.99640    15.10467
323.00000    9.00038    50.68213    15.09895
323.50000    8.99964    49.02710    15.09324
324.00000    8.99890    49.02546    15.08752
324.50000    8.99816    49.02381    15.08181
325.00000    8.99742    49.35092    15.07610
325.50000    8.99668    49.72464    15.07038
326.00000    8.99594    50.09835    15.06467
326.50000    8.99521    50.47206    15.05895
327.00000    8.99446    50.84577    15.05324
327.50000    8.99373    51.21949    15.04753
328.00000    8.99299    51.59320    14.90573
328.50000    8.99225    51.96691    14.64974
329.00000    8.99151    52.34062    14.39375
329.50000    8.99077    52.71433    14.13776
330.00000    8.99003    52.16601    13.88177
330.50000    8.98929    50.33446    13.62578
331.00000    8.98855    50.07771    13.36979
331.50000    8.98781    49.82095    13.11380
332.00000    8.98707    49.56420    12.85782
332.50000    8.98633    49.30745    12.60183
333.00000    8.98559    49.31596    12.34584
333.50000    8.98485    49.69719    12.08985
334.00000    8.98411    50.07842    11.83386
334.50000    8.98337    50.45965    11.82935
335.00000    8.98263    50.72152    12.49217
335.50000    8.98189    50.54202    13.15499
336.00000    8.98115    50.36251    13.81780
336.50000    8.98042    50.18301    14.48062
337.00000    8.97968    49.91592    15.14344
337.50000    8.97894    49.11750    14.90368
338.00000    8.97820    49.35851    14.11181
338.50000    8.97746    49.81437    13.31994
339.00000    8.97672    50.27021    12.52807
339.50000    8.97737    50.72606    11.73620
340.00000    8.98788    50.83991    11.71507
340.50000    8.99839    50.73332    12.90710
341.00000    9.00891    50.62673    14.07076
341.50000    9.01942    50.52014    14.75278
342.00000    9.02994    50.41354    15.27873
342.50000    9.05106    50.30695    15.74401
343.00000    9.20050    50.20036    16.20930
343.50000    9.34994    50.09377    16.67458
344.00000    9.49938    49.98718    17.13986
344.50000    9.64882    49.88059    17.60515
345.00000    9.79825    49.77400    18.07043
345.50000    9.94769    49.66740    17.93328
346.00000    9.95690    49.67590    17.30766
346.50000    9.91814    49.89549    16.68203
347.00000    9.87939    50.10926    16.05641
347.50000    9.84064    50.32302    15.43079
348.00000    9.82155    50.53678    14.80517
348.50000    9.81753    50.75054    14.17955
349.00000    9.81350    49.36316    13.55393
349.50000    9.80948    47.55469    13.57906
350.00000    9.80546    46.39882    14.32438
350.50000    9.80143    46.78009    15.06969
351.00000    9.79791    46.83948    15.81500
351.50000    9.79768    45.58334    16.56032
352.00000    9.79746    48.85365    16.17777
352.50000    9.79724    48.87155    15.45196
353.00000    9.79701    48.88945    14.72614
353.50000    9.79679    48.90736    14.00033
354.00000    9.79657    48.92526    13.27452
354.50000    9.79635    48.94316    12.60010
355.00000    9.79612    48.96106    12.71150
355.50000    9.79590    48.97896    12.82290
356.00000    9.79568    48.99687    12.93430
356.50000    9.79546    49.23919    13.04570
357.00000    9.79523    49.53446    13.15710
357.50000    9.79501    49.82973    13.26850
358.00000    9.79479    50.12500    12.61762
358.50000    9.79457    50.42027    11.02363
359.00000    9.79434    50.27965    11.57660
359.50000    9.79412    50.10686    12.12957
360.00000    9.79390    49.93407    12.68253
360.50000    9.79368    49.76128    13.23550
361.00000    9.79345    49.58848    13.78847
361.50000    9.79323    49.41569    14.34144
362.00000    9.79301    49.52608    14.89441
362.50000    9.79278    49.69882    15.44737
363.00000    9.79256    49.85755    15.56135
363.50000    9.79234    49.75473    15.27390
364.00000    9.79212    49.65190    14.98644
364.50000    9.79189    49.54908    14.69898
365.00000    9.79167    49.44626    14.41153
365.50000    9.79145    49.33871    14.12407
366.00000    9.79123    49.21896    13.83661
366.50000    9.79100    49.09921    13.54916
367.00000    9.79078    48.97946    13.26170
367.50000    9.79056    48.85972    12.97424
368.00000    9.79034    48.73997    12.68679
368.50000    9.79011    48.82303    12.39933
369.00000    9.79183    48.94769    12.53520
369.50000    9.79505    49.07234    12.87917
370.00000    9.79827    49.19700    13.22314
370.50000    9.80148    49.32165    13.56711
371.00000    9.80470    49.44631    13.91108
371.50000    9.80792    49.57097    14.25505
372.00000    9.81114    49.69562    14.59902
372.50000    9.81436    49.75114    14.64979
373.00000    9.81758    49.74950    12.87779
373.50000    9.82079    49.74787    13.24138
374.00000    9.82401    49.74623    13.60497
374.50000    9.82723    49.74459    13.96857
375.00000    9.83045    49.74433    14.33216
375.50000    9.83367    49.76467    14.69575
376.00000    9.83689    49.78502    15.21416
376.50000    9.84010    49.80536    15.73818
377.00000    9.84332    49.82570    16.26220
377.50000    9.84654    49.84604    16.78623
378.00000    9.84976    49.86638    17.31025
378.50000    9.85298    49.88672    17.83427
379.00000    9.85620    49.90706    18.35829
379.50000    9.85942    49.92740    18.88231
380.00000    9.86263    49.94774    19.38987
