###############################################
##         ENVERUS                           ##
##         ESS - Open Hole                   ##
##         PERMIAN / DELAWARE                ##
##         Nov 02 2023  V4.0                 ##
##         42-109-32297-90-00                ##
###############################################
## Copyright 2017-2023  ENVERUS.  All Rights Reserved. 
## Confidential - Property of ENVERUS, use governed by terms and 
## conditions found within the existing Information Services Subscription Agreement 
## (as may be amended, the “ISSA”) between Customer and ENVERUS. 
## 
~VERSION INFORMATION
# MNEM.UNIT                               DATA : DESCRIPTION OF MNEMONIC
#-----.-----     ----------------------------- : -----------------------------
VERS.                                     2.00 : CWLS LOG ASCII STANDARD - VERSION 2.00
WRAP.                                       NO : MULTIPLE LINES PER DEPTH STEP
VEND.                                  ENVERUS : VENDOR
TYPE.                          ESS - OPEN HOLE : ENVERUS ESSENTIAL CURVES – ACCESSIBLE THROUGH ENVERUS PRISM(TM)
DOC.                                  52921007 : ENVERUS HEADER RAW DOCUMENT ID
#___________________________________________________________________________________________________ 
~WELL INFORMATION 
# EM3SY5Bwx6x9YoJmjxbMXtwK21/gMzSEmeWIZ71LA4UD3Y8PQw/mHJ0IHc4n7dRi3zAL189RIdETacnakexX1Q== 
# MNEM.UNIT                                              DATA : DESCRIPTION OF MNEMONIC 
#-----.-----                    ----------------------------- : ----------------------------- 
CNTY.                                               CULBERSON : COUNTY 
STATE.                                                  TEXAS : STATE 
CNTRY.                                                    USA : COUNTRY 
API.                                             42-109-32297 : API (10 Digit) 
API_14.                                    42-109-32297-90-00 : API (14 Digits) 
API_14_std.                                 42-109-32297-9000 : API (14 Digits Standard) 
UWI.                                           42109322979000 : UNIQUE WELL ID 
WELL.                          MELISSA TAYLOR STATE 105-3  1H : WELL NAME
STRT.FT                                                 200.0 : START DEPTH
STOP.FT                                               10260.0 : STOP DEPTH
STEP.FT                                                   0.5 : STEP BETWEEN DEPTHS
NULL.                                                 -999.25 : NULL VALUE
PREV_API.                                        421093229700 : API NUMBER 
COMP.                              CHESAPEAKE OPERATING  INC. : COMPANY 
DATE.                                             17-JUN-2008 : LOG DATE
#___________________________________________________________________________________________________ 
~CURVE INFORMATION 
# MNEM.UNIT           : CURVE DESCRIPTION 
#-----.-----          : ----------------------------- 
 DEPT.FT               : MEASURED DEPTH 
 CALI.IN               : CALIPER (CAL - CAL) 
 GR.API                : GAMMA RAY (GR) 
 DT.US/FT              : SONIC DELTA TRANSIT TIME (DT) 
 RESS.OHMM             : SHALLOW INDUCTION RESISTIVITY (ILS - ILS) 
 RESD.OHMM             : DEEP INDUCTION RESISTIVITY (ILD - ILD) 
 DPHI.V/V              : DENSITY POROSITY (DPHI) 
 NPHI.V/V              : NEUTRON POROSITY (NPHI) 
 RHOB.G/CC             : BULK DENSITY (RHOB) 
 #___________________________________________________________________________________________________ 
~A         DEPT           CALI             GR             DT           RESS           RESD           DPHI           NPHI           RHOB
# ...
         1291.5         12.512         54.063         71.329       -999.250       -999.250     -999.25000        0.20643      -999.2500
         1292.0         12.514         52.256         75.996       -999.250       -999.250     -999.25000        0.19719      -999.2500
         1292.5         12.515         46.995         78.520       -999.250       -999.250     -999.25000        0.18669      -999.2500
         1293.0         12.518         41.703         79.684       -999.250       -999.250     -999.25000        0.17620      -999.2500
         1293.5         12.520         38.554         82.983       -999.250       -999.250     -999.25000        0.16570      -999.2500
         1294.0         12.523         37.889         87.218       -999.250       -999.250     -999.25000        0.18906      -999.2500
         1294.5         12.526         37.713         85.884       -999.250       -999.250     -999.25000        0.21980      -999.2500
         1295.0         12.528         37.536         79.958       -999.250       -999.250     -999.25000        0.22732      -999.2500
         1295.5         12.531         36.426         73.671       -999.250       -999.250     -999.25000        0.23188      -999.2500
         1296.0         12.534         35.474         72.626       -999.250       -999.250     -999.25000        0.27171      -999.2500
         1296.5         12.537         37.601         77.948       -999.250       -999.250     -999.25000        0.35765      -999.2500
         1297.0         12.539         39.729         78.267       -999.250       -999.250     -999.25000        0.35408      -999.2500
         1297.5         12.542         41.161         76.698       -999.250       -999.250     -999.25000        0.35050      -999.2500
         1298.0         12.545         42.106         76.320       -999.250       -999.250     -999.25000        0.34693      -999.2500
         1298.5         12.548         42.803         77.253       -999.250       -999.250     -999.25000        0.39147      -999.2500
         1299.0         12.553         42.336         77.675       -999.250       -999.250     -999.25000        0.40011      -999.2500
         1299.5         12.557         40.257         78.103       -999.250       -999.250     -999.25000        0.37686      -999.2500
         1300.0         12.561         36.110         82.420       -999.250       -999.250     -999.25000        0.35361      -999.2500
         1300.5         12.565         31.964         88.274       -999.250       -999.250     -999.25000        0.33961      -999.2500
         1301.0         12.570         29.882         91.664       -999.250       -999.250     -999.25000        0.35001      -999.2500
         1301.5         12.574         30.929         93.570       -999.250       -999.250     -999.25000        0.36041      -999.2500
         1302.0         12.578         32.032         84.040       -999.250       -999.250     -999.25000        0.37081      -999.2500
         1302.5         12.582         32.954         84.448       -999.250       -999.250     -999.25000        0.38121      -999.2500
         1303.0         12.586         33.096         85.157       -999.250       -999.250     -999.25000        0.39161      -999.2500
         1303.5         12.591         33.630         84.070       -999.250       -999.250     -999.25000     -999.25000      -999.2500
         1304.0         12.595         34.385         83.566       -999.250       -999.250     -999.25000     -999.25000      -999.2500
         1304.5         12.599         35.185         77.459       -999.250       -999.250     -999.25000     -999.25000      -999.2500
         1305.0         12.603         36.081         71.782       -999.250       -999.250     -999.25000     -999.25000      -999.2500
         1305.5         12.634         36.977         66.049       -999.250       -999.250     -999.25000     -999.25000      -999.2500
         1306.0         12.695         38.517         63.584       -999.250       -999.250     -999.25000        0.24151         2.3270
         1306.5         12.757         40.916         64.268       -999.250       -999.250     -999.25000        0.23781         2.4540
         1307.0         12.819         41.484         64.952       -999.250       -999.250     -999.25000        0.23583         2.5810
         1307.5         12.881         42.051         69.770       -999.250       -999.250     -999.25000        0.23493         2.7080
         1308.0         12.991         42.631         79.313       -999.250       -999.250     -999.25000        0.24041         2.7890
         1308.5         13.103         43.214         81.532       -999.250       -999.250     -999.25000        0.24826         2.7250
         1309.0         13.215         43.881         79.092       -999.250       -999.250     -999.25000        0.24732         2.6600
         1309.5         13.327         44.986         75.523       -999.250       -999.250     -999.25000        0.13067         2.5960
         1310.0         13.503         47.057         72.684          6.340          6.528        0.07858        0.09582         2.5670
         1310.5         13.698         49.421         70.922         12.585         10.909        0.09060        0.08572         2.5520
         1311.0         13.873         50.115         71.118         24.411         17.555        0.09922        0.09344         2.5360
         1311.5         13.926         45.661         71.315         31.900         28.116        0.11140        0.08496         2.5210
         1312.0         13.978         42.204         69.742         47.445         39.492        0.11046        0.07009         2.5240
         1312.5         14.019         41.894         68.143         68.835         54.170        0.10684        0.06357         2.5280
         1313.0         14.039         43.452         67.137         78.659         69.242        0.09958        0.05988         2.5320
         1313.5         14.059         45.172         67.331         74.743         67.983        0.10003        0.06427         2.5360
         1314.0         14.079         46.609         69.184         52.710         50.720        0.10687        0.07396         2.5400
         1314.5         14.114         48.354         71.038         49.843         48.676        0.11505        0.08422         2.5160
         1315.0         14.159         48.995         72.518         52.532         48.014        0.11961        0.09167         2.5070
         1315.5         14.204         49.218         72.693         52.310         48.213        0.12034        0.09310         2.5070
         1316.0         14.239         49.441         72.584         51.622         48.411        0.11967        0.09144         2.5100
         1316.5         14.271         49.663         72.163         54.423         51.830        0.11647        0.08457         2.5160
         1317.0         14.302         49.886         71.889         56.615         56.725        0.11269        0.07793         2.5210
         1317.5         14.372         50.386         71.975         55.838         56.381        0.11324        0.07526         2.5200
         1318.0         14.446         50.977         72.062         54.246         53.698        0.11338        0.07583         2.5200
         1318.5         14.525         51.042         71.789         56.295         57.073        0.11174        0.07629         2.5200
         1319.0         14.558         49.599         71.084         62.184         69.350        0.10570        0.07669         2.5300
         1319.5         14.562         48.020         70.765         64.004         77.174        0.10115        0.07768         2.5380
         1320.0         14.566         48.652         70.681         58.125         78.014        0.09975        0.07952         2.5410
         1320.5         14.570         55.206         70.940         58.118         76.852        0.09804        0.08208         2.5440
