# Exported from Transform Software 5.2.0 on 25-May-2018 by user brian.umlang
# DI Transform - A Product of Drillinginfo, Inc. - www.drillinginfo.com
#
~VERSION INFORMATION
 VERS.        2.0 : LAS ASCII STANDARD - VERSION 2.0
 WRAP.         NO : ONE LINE PER DEPTH STEP

~WELL INFORMATION
#MNEM.UNIT       DATA TYPE       INFORMATION
#---------       ---------       -----------
# Enverus has updated the API/UWI.  The previous names are renamed to  PREV_API / PREV_UWI
API.         42-109-32508-00-00 : API (14 Digits with Dashes)
UWI.             42109325080000 : UNIQUE WELL ID

 STRT.ft                1970 : Start Depth
 STOP.ft                8730 : Stop Depth
 STEP.ft                 0.5 : Step Length
 NULL.               -999.25 : Null Value
 COMP.                       : Company
 WELL.  42109325080000_API14 : Well Name
 FLD.                        : Field Name
 LOC.                        : Well Location
 CNTY.                       : County
 STAT.                       : State or Province
 CTRY.                       : Country
 SRVC.                       : Service Company
 DATE.                       : Date
PREV_APII.         42109325080000 : Well Identifier

~CURVE INFORMATION
#MNEM.UNIT       API CODE       CURVE DESCRIPTION
#---------       --------       -----------------
 DEPT.ft        : <Measured Depth>
 CAL.in         : Caliper
 DT.us/ft       : Pressure Wave Sonic
 GR.gAPI        : Gamma Ray

~PARAMETER INFORMATION
#MNEM.UNIT       VALUE       DESCRIPTION
#---------       -----       -----------
 EKB.ft      3552 : Elevation above MSL

~A      DEPT         CAL          DT          GR
# ...
        7300      8.8779      64.043     71.9389
      7300.5      8.8659     64.2781     69.4705
        7301      8.8906     64.3275     69.6347
      7301.5      8.8906     63.0078     72.5817
        7302      8.8906     57.8733     57.1302
      7302.5      8.8906     54.9643     42.1275
        7303      8.8906     53.5953     32.6521
      7303.5      8.9297     53.3498     27.5147
        7304      8.9297      53.895     25.1363
      7304.5       8.936     54.6577     23.3744
        7305      9.0078     54.8154     21.2829
      7305.5      9.0078     54.8538     18.6075
        7306      9.0078     56.1178     15.3077
      7306.5      9.0078     55.6527     17.0352
        7307      9.0469     57.8355     20.3395
      7307.5      9.0469     60.8433     31.7027
        7308      9.0664     74.9244     61.5199
      7308.5       9.115     74.2105     86.7038
        7309      9.1445     73.6231     98.6328
      7309.5      9.1445     70.8723     91.4471
        7310      9.1553      62.639     73.3127
      7310.5      9.1836     61.8419     66.8221
        7311      9.2343     64.4305     62.5372
      7311.5      9.2617     69.6726     67.5641
        7312      9.2812     73.3494     77.8775
      7312.5      9.3136     73.7042     89.1705
        7313      9.3398       73.02     92.7036
      7313.5      9.3594      72.234     90.8009
        7314      9.3735     71.8713     88.8672
      7314.5      9.3984     71.9449     88.8672
        7315       9.418     71.8268     84.3554
      7315.5       9.418     71.6959     78.8378
        7316       9.418     71.6374     79.0252
      7316.5       9.418     71.7442     82.6761
        7317      9.4375     71.8129     86.2681
      7317.5      9.4375     71.6452     87.1094
        7318      9.4375     71.3516     83.6811
      7318.5      9.4375     71.0579     81.6584
        7319      9.4375     70.8228     82.5899
      7319.5      9.4189     70.7018     84.7656
        7320       9.418     70.7602     82.6282
      7320.5       9.418     70.8183     81.0575
        7321      9.3789     70.8187     80.0728
      7321.5      9.3789     70.7582     78.1114
        7322      9.3594     70.6433     76.5734
      7322.5      9.3579     70.8232     78.6203
        7323      9.3379     71.0997     84.0796
      7323.5      9.3203     69.8338     84.9378
        7324      9.3203     66.2343     82.7036
      7324.5      9.3008     64.5052     78.2652
        7325      9.3008     63.1367     69.9048
      7325.5      9.3008     62.7485      59.803
        7326      9.3008     62.9955     57.3783
      7326.5      9.3008     64.1221     56.4453
        7327      9.3008     65.9479     61.9892
      7327.5      9.3398     71.1279      73.968
        7328      9.3398     73.4277     79.4456
      7328.5      9.3398     74.0356     83.0078
        7329      9.3594     73.0125     82.2176
      7329.5      9.3594     69.2809     79.4709
        7330      9.3789     69.5974     76.0956
      7330.5      9.3984     70.2863     75.0112
        7331      9.3984     70.8603      78.827
      7331.5      9.3984     70.2314     81.3385
        7332       9.418     71.1973     82.5971
      7332.5       9.418     71.2292     85.4464
        7333       9.418     71.4035     88.2938
      7333.5       9.418     71.6017     87.9666
        7334       9.418      71.345     83.5031
      7334.5       9.418     71.4958     81.2808
        7335       9.418     71.8947     87.9293
      7335.5       9.418     74.2005     98.5522
        7336       9.418      74.386    106.8474
      7336.5       9.418     74.6199    115.0367
        7337      9.3984      74.423    116.8587
      7337.5      9.3984     72.2674    111.1462
        7338      9.3594     70.9999    106.4837
      7338.5      9.3594     70.2051     97.8105
        7339      9.3594     69.6043     86.7372
      7339.5       9.344     69.5322      84.529
        7340      9.3203     70.2116     88.0114
      7340.5      9.3203     70.4579     88.7051
        7341      9.3008     70.3857     87.7244
      7341.5      9.3008     69.0868     87.8406
        7342      9.2812     68.6612     93.3664
      7342.5      9.2617     68.7084     98.6935
        7343      9.2617     69.2868    100.7685
      7343.5      9.2617     70.4016     98.6761
        7344      9.2422     70.8799     92.8054
      7344.5      9.2422     70.7019     89.8447
        7345      9.2422       70.17     88.6683
      7345.5      9.2227     70.3578     86.0943
        7346      9.1836      70.482     81.1793
      7346.5      9.1836     70.2781     78.9062
        7347      9.1816     69.8771     80.0981
      7347.5      9.1421      69.722     81.0547
        7348      9.1055     71.2196     81.0265
      7348.5      9.0859     70.8289      79.041
        7349      9.0664     69.1651     69.7766
      7349.5      9.0469     63.0766     63.1196
        7350      9.0229     63.6607     58.9399
      7350.5      9.0078     63.0053     56.7388
        7351      9.0078     63.4455     54.9728
      7351.5      8.9492     66.4837     54.9396
        7352      8.9236     67.2476     56.2245
      7352.5      8.9102     70.2327     61.2622
        7353      8.9102      72.665     64.9818
      7353.5      8.9102     72.1856     67.2846
        7354      8.9102     72.4561     78.1474
      7354.5      8.9102     75.1506     98.0289
        7355      8.9102      81.948    112.4018
      7355.5      8.9297     81.0843    115.9098
        7356      8.9297     80.7627    116.0156
      7356.5      8.9297     78.2458    110.7423
        7357      8.9297      74.107     99.3815
      7357.5      8.9297     71.6593     94.8161
        7358      8.9297     71.0124      91.052
      7358.5      8.9297     69.8293     82.8444
        7359      8.9297     69.4737     79.2969
      7359.5      8.9102     69.7442     80.7131
        7360      8.9102     69.8246     82.1575
      7360.5      8.9102      69.883     82.4219
        7361      8.8906     69.8246     82.0312
      7361.5      8.8711     69.8246     83.5619
        7362      8.8711     70.1708     90.4886
      7362.5      8.8516     71.5498    101.0764
        7363      8.8516     74.4118     107.768
      7363.5      8.8125     73.4645     105.516
        7364      8.7734     71.7898     96.4572
      7364.5      8.7734     69.6588     91.5658
        7365      8.7734     69.0643     97.1511
      7365.5      8.7539     73.1435    104.2005
        7366      8.7539     73.8537    105.0581
      7366.5      8.7344     72.6697     98.5329
        7367      8.7148     68.1685     90.4533
      7367.5      8.6953      69.703     90.1648
        7368      8.6953     74.2374     92.1911
      7368.5      8.6953     72.6823     84.9515
        7369      8.6753     66.4831     69.2815
      7369.5      8.6367     64.7343     65.7975
        7370      8.6367     66.7442     72.9278
      7370.5      8.6367      70.747      76.195
        7371      8.6367     72.0468     75.6977
      7371.5      8.6783     72.3031     72.0204
        7372      8.6953     73.0932      68.214
      7372.5      8.6953     73.3897     59.1797
        7373      8.6953     72.2807     51.1346
      7373.5      8.6953     72.0929     50.9766
        7374      8.6953     72.2997     54.4331
      7374.5      8.6953      73.246     58.9844
        7375      8.6953     72.9343     63.8327
      7375.5      8.7148     72.0189     60.4892
        7376      8.7148     69.1163     52.6208
      7376.5      8.7344     65.5528     49.8683
        7377      8.7148     64.6993     50.1399
      7377.5       8.727     65.1321     51.9799
        7378      8.7148     66.3626     52.8516
      7378.5      8.7148     67.2914     52.2615
        7379      8.7148     67.5439     54.9646
      7379.5      8.7148     67.6748     65.2521
        7380      8.7148     69.1775     72.7507
      7380.5      8.7148     68.7993     73.1418
        7381      8.7148     67.7163     67.4555
      7381.5      8.7344     67.2725      62.073
