###############################################
##         ENVERUS                           ##
##         ESS - Open Hole                   ##
##         PERMIAN / DELAWARE                ##
##         Nov 02 2023  V4.0                 ##
##         42-109-31448-00-00                ##
###############################################
## Copyright 2017-2023  ENVERUS.  All Rights Reserved. 
## Confidential - Property of ENVERUS, use governed by terms and 
## conditions found within the existing Information Services Subscription Agreement 
## (as may be amended, the “ISSA”) between Customer and ENVERUS. 
## 
~VERSION INFORMATION
# MNEM.UNIT                               DATA : DESCRIPTION OF MNEMONIC
#-----.-----     ----------------------------- : -----------------------------
VERS.                                     2.00 : CWLS LOG ASCII STANDARD - VERSION 2.00
WRAP.                                       NO : MULTIPLE LINES PER DEPTH STEP
VEND.                                  ENVERUS : VENDOR
TYPE.                          ESS - OPEN HOLE : ENVERUS ESSENTIAL CURVES – ACCESSIBLE THROUGH ENVERUS PRISM(TM)
DOC.                                  31981796 : ENVERUS HEADER RAW DOCUMENT ID
#___________________________________________________________________________________________________ 
~WELL INFORMATION 
# ZFHslD71edIju97HcKZ52TF5U8X6gSJhIkoGhJkY8ckYnZzQD/y6zifgDis2Hn4asra90GxYkgpqCQaJUi2DCw== 
# MNEM.UNIT                                              DATA : DESCRIPTION OF MNEMONIC 
#-----.-----                    ----------------------------- : ----------------------------- 
CNTY.                                               CULBERSON : COUNTY 
STATE.                                                  TEXAS : STATE 
CNTRY.                                                    USA : COUNTRY 
API.                                             42-109-31448 : API (10 Digit) 
API_14.                                    42-109-31448-00-00 : API (14 Digits) 
API_14_std.                                 42-109-31448-0000 : API (14 Digits Standard) 
UWI.                                           42109314480000 : UNIQUE WELL ID 
WELL.                                               TRIKEN  1 : WELL NAME
STRT.FT                                                   4.0 : START DEPTH
STOP.FT                                               13097.0 : STOP DEPTH
STEP.FT                                                   0.5 : STEP BETWEEN DEPTHS
NULL.                                                 -999.25 : NULL VALUE
COMP.                                             MARALO  LLC : COMPANY 
DATE.                                             04-NOV-1984 : LOG DATE
#___________________________________________________________________________________________________ 
~CURVE INFORMATION 
# MNEM.UNIT           : CURVE DESCRIPTION 
#-----.-----          : ----------------------------- 
 DEPT.FT               : MEASURED DEPTH 
 CALI.IN               : CALIPER (CAL - CAL) 
 GR.API                : GAMMA RAY (GR) 
 DT.US/FT              : SONIC DELTA TRANSIT TIME (DT) 
 #___________________________________________________________________________________________________ 
~A         DEPT           CALI             GR             DT
# ...
         7264.0          9.922         76.002         67.004
         7264.5          9.921         68.766         65.807
         7265.0          9.920         61.529         64.610
         7265.5          9.920         54.292         63.412
         7266.0          9.919         47.055         62.215
         7266.5          9.919         40.722         61.018
         7267.0          9.918         47.586         59.821
         7267.5          9.917         54.450         63.825
         7268.0          9.917         61.314         68.022
         7268.5          9.916         68.178         68.228
         7269.0          9.915         75.042         67.803
         7269.5          9.915         72.071         67.378
         7270.0          9.914         65.762         66.953
         7270.5          9.913         59.452         66.529
         7271.0          9.913         53.143         66.104
         7271.5          9.912         55.861         65.679
         7272.0          9.912         61.769         65.254
         7272.5          9.911         67.676         64.830
         7273.0          9.910         72.092         64.405
         7273.5          9.910         68.773         64.901
         7274.0          9.909         65.454         65.435
         7274.5          9.908         62.135         65.969
         7275.0          9.908         58.816         65.474
         7275.5          9.907         55.497         63.974
         7276.0          9.907         52.178         64.744
         7276.5          9.906         50.072         65.675
         7277.0          9.905         86.519         66.091
         7277.5          9.905         79.435         65.255
         7278.0          9.904         72.351         64.420
         7278.5          9.903         65.267         63.585
         7279.0          9.903         58.183         62.959
         7279.5          9.899         51.099         62.995
         7280.0          9.893         51.831         63.031
         7280.5          9.887         55.275         63.067
         7281.0          9.881         58.718         63.104
         7281.5          9.875         62.162         63.140
         7282.0          9.869         65.605         63.176
         7282.5          9.863         67.471         63.212
         7283.0          9.857         64.742         63.249
         7283.5          9.851         62.012         63.695
         7284.0          9.845         65.272         64.241
         7284.5          9.838         71.395         64.787
         7285.0          9.832         77.519         65.332
         7285.5          9.826         72.355         64.985
         7286.0          9.820         62.259         63.695
         7286.5          9.814         52.164         62.406
         7287.0          9.808         42.068         61.116
         7287.5          9.802         44.207         61.604
         7288.0          9.796         56.675         63.794
         7288.5          9.790         69.142         65.984
         7289.0          9.784         78.471         66.105
         7289.5          9.778         70.336         65.349
         7290.0          9.775         62.201         64.592
         7290.5          9.771         57.748         63.836
         7291.0          9.768         58.032         63.080
         7291.5          9.765         58.317         63.639
         7292.0          9.761         58.602         64.487
         7292.5          9.758         58.886         65.335
         7293.0          9.755         59.171         65.611
         7293.5          9.751         57.258         64.642
         7294.0          9.748         54.773         63.673
         7294.5          9.745         52.247         62.704
         7295.0          9.742         49.578         61.735
         7295.5          9.738         46.908         60.766
         7296.0          9.735         44.239         59.797
         7296.5          9.732         41.569         60.948
         7297.0          9.733         39.574         62.446
         7297.5          9.753         47.540         63.944
         7298.0          9.773         55.505         65.442
         7298.5          9.793         63.614         66.569
         7299.0          9.813         72.690         66.987
         7299.5          9.834         69.988         67.404
         7300.0          9.854         66.854         67.822
         7300.5          9.874         63.721         68.239
         7301.0          9.894         62.076         68.433
         7301.5          9.914         76.736         67.677
         7302.0          9.934         69.899         66.922
         7302.5          9.954         62.393         66.166
         7303.0          9.974         54.886         65.410
         7303.5          9.995         56.229         65.272
         7304.0         10.015         63.450         66.533
         7304.5         10.035         70.672         67.408
         7305.0         10.055         77.318         67.923
         7305.5         10.075         73.744         68.438
         7306.0         10.095         70.170         67.929
         7306.5         10.115         66.596         67.346
         7307.0         10.135         63.022         66.762
         7307.5         10.156         59.448         66.179
         7308.0         10.176         61.334         65.598
         7308.5         10.196         64.116         65.254
         7309.0         10.216         66.898         64.911
         7309.5         10.236         69.680         64.567
         7310.0         10.256         72.462         64.224
         7310.5         10.276         72.732         63.880
         7311.0         10.296         67.954         63.537
         7311.5         10.317         63.175         63.193
         7312.0         10.337         58.510         63.129
         7312.5         10.357         56.021         63.301
         7313.0         10.363         53.533         63.474
         7313.5         10.362         53.691         63.646
         7314.0         10.361         56.741         63.818
         7314.5         10.361         59.791         63.991
         7315.0         10.360         62.841         63.984
         7315.5         10.359         63.242         63.857
         7316.0         10.359         62.989         63.731
         7316.5         10.358         62.736         63.604
         7317.0         10.357         62.414         63.478
         7317.5         10.356         58.722         63.351
         7318.0         10.356         55.029         62.866
         7318.5         10.355         51.336         62.369
         7319.0         10.354         47.809         61.872
         7319.5         10.354         45.504         61.375
         7320.0         10.353         43.198         60.878
         7320.5         10.352         40.892         60.382
         7321.0         10.351         38.586         59.885
         7321.5         10.351         36.281         59.388
         7322.0         10.350         47.635         58.891
         7322.5         10.349         59.210         60.864
         7323.0         10.349         70.786         64.078
         7323.5         10.348         80.255         67.292
         7324.0         10.347         88.027         70.506
         7324.5         10.346         92.700         71.070
         7325.0         10.346         96.508         70.717
         7325.5         10.345         97.627         70.363
         7326.0         10.344         93.585         70.010
         7326.5         10.344         89.544         69.657
         7327.0         10.343         85.502         69.303
         7327.5         10.342         81.460         67.395
         7328.0         10.341         77.418         65.383
         7328.5         10.336         72.813         63.371
         7329.0         10.329         67.601         61.512
         7329.5         10.321         62.390         61.862
