# Exported from Transform Software 5.2.0 on 17-Oct-2019 by user kathryn.gehrke
# DI Transform - A Product of Drillinginfo, Inc. - www.drillinginfo.com
#
~VERSION INFORMATION
 VERS.        2.0 : LAS ASCII STANDARD - VERSION 2.0
 WRAP.         NO : ONE LINE PER DEPTH STEP

~WELL INFORMATION
#MNEM.UNIT       DATA TYPE       INFORMATION
#---------       ---------       -----------
 STRT.ft                 100 : Start Depth
 STOP.ft               10126 : Stop Depth
 STEP.ft                 0.5 : Step Length
 NULL.               -999.25 : Null Value
 COMP.                       : Company
 WELL.  42109329790000_API14 : Well Name
 FLD.                        : Field Name
 LOC.                        : Well Location
 CNTY.                       : County
 STAT.                       : State or Province
 CTRY.                       : Country
 SRVC.                       : Service Company
 DATE.                       : Date
 API.         42109329790000 : Well Identifier

~CURVE INFORMATION
#MNEM.UNIT       API CODE       CURVE DESCRIPTION
#---------       --------       -----------------
 DEPT.ft        : <Measured Depth>
 DT.us/ft       : Sonic
 GR.gAPI        : Gamma Ray

~PARAMETER INFORMATION
#MNEM.UNIT       VALUE       DESCRIPTION
#---------       -----       -----------
 EKB.ft      3282 : Elevation above MSL

~A      DEPT          DT          GR
# ...
        1402    266.6667     24.3697
      1402.5    266.6667     22.8803
        1403    266.6667     20.7073
      1403.5    266.6667     19.3277
        1404    266.6667     18.7633
      1404.5    266.6667     18.0432
        1405    266.6667     18.4874
      1405.5    266.6667     18.5469
        1406    266.6667     19.6391
      1406.5    266.1064     19.7479
        1407    266.1064     19.7227
      1407.5    266.1064     20.8149
        1408    266.1064     20.9501
      1408.5    266.1064     19.7479
        1409    266.1064     20.4463
      1409.5    266.1064     20.1417
        1410    266.1064     19.9426
      1410.5    266.1064     20.2538
        1411    266.1064     22.1578
      1411.5    266.1064      21.708
        1412    266.6667     21.4561
      1412.5    266.6667     21.6529
        1413    266.6206     22.3249
      1413.5    266.6667     23.5294
        1414    266.6667      23.669
      1414.5    266.6667     24.7899
        1415    266.6667     23.7265
      1415.5    266.6667      21.529
        1416    266.6667     20.0546
      1416.5    266.6667     21.1468
        1417    266.6667     21.4585
      1417.5    266.6667      22.911
        1418    266.6667     24.3697
      1418.5    266.6667     24.3697
        1419    266.6667     23.3922
      1419.5    266.6667     21.8798
        1420    266.6667     21.8487
      1420.5    266.6667     22.6891
        1421    266.6667     21.9646
      1421.5    268.5287     22.4049
        1422    271.3519     23.5294
      1422.5    270.5882     21.6196
        1423    270.5882     18.6205
      1423.5    270.5882     16.9237
        1424    270.9686     16.2517
      1424.5    268.9522     15.1595
        1425    266.9357     14.9243
      1425.5    266.1064     16.8568
        1426    266.1064      17.949
      1426.5    266.1064     17.0932
        1427    266.1064     16.7721
      1427.5    266.1064     19.1248
        1428    266.1064     19.7479
      1428.5    266.1064     19.7479
        1429    266.1064     21.2072
      1429.5    266.6667     22.2689
        1430    266.6667     21.2125
      1430.5    266.6667      20.636
        1431    266.6667     20.2886
      1431.5    266.6667     19.3277
        1432    266.6667     20.1311
      1432.5    266.6667     20.1681
        1433    266.6667     20.6348
      1433.5    266.6667     21.4286
        1434    266.6667     20.8782
      1434.5    266.6667     20.2062
        1435    266.6667     19.7479
      1435.5    266.6667     18.2092
        1436    266.6667     17.9444
      1436.5    266.6667     19.4567
        1437    266.6667     20.1681
      1437.5    266.6667     19.9555
        1438    266.6667     20.6325
      1438.5    266.6667     20.7123
        1439    266.6667     18.1039
      1439.5    266.6667     15.5867
        1440    266.6667     14.4945
      1440.5    266.6667     13.9086
        1441    266.6667     14.4109
      1441.5    266.6667     16.0096
        1442    266.6667     18.4457
      1442.5    266.6667     19.5379
        1443    266.6667      19.706
      1443.5    266.6667     19.6215
        1444    266.6667     20.1681
      1444.5    266.6667     19.7479
        1445    266.6667     19.7479
      1445.5    266.6667     20.1681
        1446    266.6667     20.1681
      1446.5    266.6667     21.5529
        1447    266.6667     23.6515
      1447.5    266.6667     25.2101
        1448    266.6667     25.2101
      1448.5    266.6667     24.7899
        1449    266.6667     23.4932
      1449.5    266.6667     20.6334
        1450    266.6667     19.5344
      1450.5    266.6667     19.7863
        1451    266.6667     20.5882
      1451.5    266.6667     21.4286
        1452    266.6667     21.0084
      1452.5    266.6667     20.1681
        1453    266.6667     19.7479
      1453.5    266.6667     19.7479
        1454    266.6667     20.2888
      1454.5    266.6667     21.8012
        1455    266.6667     22.6891
      1455.5    266.6667     21.8127
        1456    266.6667     21.0084
      1456.5    266.6667      21.128
        1457    266.6667     21.4286
      1457.5    266.6667     22.4721
        1458    266.6667     23.9496
      1458.5    266.6667     23.9496
        1459    266.6667     23.5294
      1459.5    266.6667     23.5294
        1460    266.6667     21.9659
      1460.5    266.6667     20.5882
        1461    266.6667      21.294
      1461.5    266.6667     21.7315
        1462    266.6667     20.2191
      1462.5    270.2958     19.9487
        1463    273.3526     20.2006
      1463.5    271.7087     19.8837
        1464    271.7087     19.3277
      1464.5    271.7087     19.3799
        1465    273.5085     18.9076
      1465.5    269.5807     18.9076
        1466    266.6667     18.9076
      1466.5    266.6667     17.5321
        1467    266.6667     17.1735
      1467.5    266.6667     18.2889
        1468    266.6667     18.4874
      1468.5    266.6667     20.2429
        1469    266.6667     23.6431
      1469.5    266.6667     24.0041
        1470    266.6667     23.5294
      1470.5    266.6667     23.5004
        1471    266.6667     21.3567
      1471.5    266.6667     19.0201
        1472    266.6667     19.3277
      1472.5    266.6667     19.1037
        1473    266.6667     19.7201
      1473.5    266.6667     19.6074
        1474    266.6667     20.5882
      1474.5    266.6667     21.3717
        1475    266.6667     22.6891
      1475.5    266.6667     22.6891
        1476    266.6667     23.1092
      1476.5    266.6667     21.7385
        1477    266.6667     20.5882
      1477.5    266.6667     21.2022
        1478    266.6667     21.8233
      1478.5    266.6667     20.8656
        1479    266.6667     21.5376
      1479.5    266.6667       23.05
        1480    266.6667     23.5294
      1480.5    266.6667     23.1092
        1481    266.6667     24.2258
      1481.5    266.6667     25.7381
        1482    266.6667     26.0504
      1482.5    266.6667     25.0186
        1483    266.6667     25.2332
      1483.5    266.1064     26.7456
        1484    266.1064     25.9437
      1484.5    266.1064     24.2521
        1485    266.6667     23.2995
      1485.5    266.6667     23.5075
        1486    266.6667     21.9951
      1486.5    266.6667     22.2689
        1487    266.6667     22.2689
      1487.5    266.6667     21.2395
        1488    266.6667     21.0292
      1488.5    266.6667     22.2689
        1489    266.6667     21.8487
      1489.5    266.6667      22.205
        1490    266.6667     22.4568
      1490.5    266.6667     22.6695
        1491    266.6667     20.8113
      1491.5    266.6667     19.2246
        1492    266.6667     18.8424
      1492.5    266.6667     20.1681
        1493    266.6667     20.1681
      1493.5    266.6667     20.4384
        1494    266.6667     21.5306
      1494.5    266.6667     22.6891
        1495    266.6667     22.6891
      1495.5    266.6667     22.6891
        1496    266.6667     23.1092
      1496.5    266.6667     23.0084
        1497    266.6667     22.3364
      1497.5    266.6667      20.824
        1498    266.6968      20.152
      1498.5    266.6667     19.3277
        1499    266.6667     19.3277
      1499.5    266.6667     19.6793
        1500    266.6667     20.1681
      1500.5    266.6667     19.7479
        1501    266.6667     20.4349
      1501.5    266.6667     21.9472
        1502    266.6667     21.0782
      1502.5    267.4696     19.5659
        1503    269.4861     20.1681
      1503.5    270.5882     19.7479
        1504    270.5882     19.0049
      1504.5    270.5882     20.5172
        1505     270.028     22.0296
      1505.5    273.3628     21.8487
        1506    269.4991     21.4286
      1506.5    267.0987     21.4286
        1507    266.6667     20.2402
      1507.5    266.6667     19.7479
        1508    266.6667     21.2356
      1508.5    266.6667     22.9523
        1509    266.6667     23.8546
      1509.5    266.6667     23.1092
        1510    266.6667     22.0904
