~VERSION INFORMATION
VERS. 2.0 : CWLS Log ASCII Standard - Version 2.0
WRAP. NO : One line per depth step
#--------------------------------------------------#
#----------------DRILLING INFO, INC.---------------#
#---------------WWW.DRILLINGINFO.COM---------------#
#------------------COPYRIGHT 2015------------------#
#--------------------------------------------------#
#THIS FILE MAY BE USED ONLY IN ACCORDANCE WITH A CURRENT SUBSCRIPTION AGREEMENT BETWEEN
#THE USER AND DRILLING INFO, INC. NO PART OF THIS FILE MAY BE REPRODUCED, USED, COPIED,
#MODIFIED, PROPAGATED, OR DISTRIBUTED EXCEPT IN ACCORDANCE WITH THE SUBSCRIPTION
#AGREEMENT. UNAUTHORIZED USE OR DISTRIBUTION OF ALL OR ANY PART OF THIS FILE MAY VIOLATE
#COPYRIGHT, TRADEMARK, AND/OR OTHER LAWS AND IS SUBJECT TO CIVIL AS WELL AS CRIMINAL
#SANCTIONS.
#--------------------------------------------------#
#THIS FILE IS PROVIDED "AS-IS" AND ALL WARRANTIES ARE EXPRESSLY DISCLAIMED, WHETHER
#EXPRESS, ORAL, IMPLIED, STATUTORY OR OTHERWISE, INCLUDING ANY IMPLIED WARRANTY OF FITNESS
#FOR A PARTICULAR PURPOSE, MERCHANTABILITY, TITLE OR NON-INFRINGEMENT, AND ANY WARRANTIES
#ARISING BY VIRTUE OF CUSTOM OF TRADE OR COURSE OF DEALING.  FURTHER, DRILLING INFO,
#INC. AND ITS LICENSORS DO NOT REPRESENT OR WARRANT THAT THIS FILE WILL MEET USER'S
#REQUIREMENTS OR ARE SUITABLE FOR USER'S NEEDS OR THAT THE DATA OR RESULTS PROVIDED IN
#CONJUNCTION THEREWITH ARE CORRECT, ACCURATE, TIMELY OR RELIABLE. THESE DISCLAIMERS SHALL
#APPLY REGARDLESS OF ANY FAILURE OF ESSENTIAL PURPOSE OF ANY LIMITED REMEDY.  SOME
#JURISDICTIONS DO NOT ALLOW THE EXCLUSION OF CERTAIN WARRANTIES SO SOME OF THE ABOVE
#EXCLUSIONS MAY NOT APPLY. IN NO EVENT SHALL DRILLING INFO, INC. OR ANY OF ITS AFFILIATES
#BE LIABLE UNDER ANY LEGAL THEORY, WHETHER IN TORT (INCLUDING WITHOUT LIMITATION
#NEGLIGENCE), CONTRACT, STRICT LIABILITY, STATUTORY OR OTHERWISE, FOR ANY SPECIAL,
#INCIDENTAL, CONSEQUENTIAL, EXEMPLARY, PUNITIVE OR INDIRECT DAMAGE OF ANY KIND, INCLUDING
#WITHOUT LIMITATION LOSS OF REVENUE, PROFITS, GOODWILL, USE, AND/OR DATA OR THE COST OF
#PROCUREMENT OF SUBSTITUTE GOODS OR SERVICES, EVEN IF APPRISED OF THE POSSIBILITY OF SUCH
#DAMAGES IN ADVANCE.
#--------------------------------------------------#
~WELL INFORMATION
#MNEMONIC     .UNIT              VALUE :DESCRIPTION
#--------------------------------------------------#
STRT       .ft                25.00000 :START DEPTH
STOP       .ft                17086.00000 :STOP DEPTH
STEP       .ft                0.50000 :STEP
NULL       .                -999.25000 :NULL VALUE
COMP       .                 :COMPANY
WELL       .                 :WELL
FLD       .                 :FIELD
LOC       .                 :LOCATION
CNTY       .                 :COUNTY
STAT       .                 :STATE
CTRY       .                 :COUNTRY
SRVC       .                 :SERVICE COMPANY
DATE       .                 :DATE
API       .                42109309270000 :API NUMBER
~CURVE INFORMATION
#MNEMONIC     .UNIT      API CODE :CURVE DESCRIPTION
#--------------------------------------------------#
DEPTH       .ft                      :Measured Depth
CAL       .in        UNKNOWN   :CAL
DT       .us/ft        UNKNOWN   :DT
GR       .gAPI        UNKNOWN   :GR
~A    DEPTH    CAL    DT    GR
# ...
9223.00000    16.13413    74.48104    74.66660
9223.50000    16.13674    76.90953    78.20253
9224.00000    16.13935    79.50791    81.73847
9224.50000    16.14195    82.18677    84.08984
9225.00000    16.14456    83.53360    84.86955
9225.50000    16.14717    84.35581    85.32831
9226.00000    16.14978    85.17802    84.19614
9226.50000    16.15238    79.43224    81.82971
9227.00000    16.15499    78.60158    79.46328
9227.50000    16.15760    78.63269    77.39243
9228.00000    16.16021    78.66380    78.06162
9228.50000    16.16281    78.69490    78.73080
9229.00000    16.16542    78.72601    78.05067
9229.50000    16.16803    78.65615    75.84772
9230.00000    16.17064    78.30970    73.64477
9230.50000    16.17325    78.03571    71.44181
9231.00000    16.17585    76.64356    70.36807
9231.50000    16.17846    75.23239    70.99277
9232.00000    16.18107    74.65164    71.48047
9232.50000    16.18341    74.56098    71.84196
9233.00000    16.18354    74.47033    72.20346
9233.50000    16.18367    74.37967    72.56496
9234.00000    16.18380    74.28902    72.92646
9234.50000    16.18393    74.19836    72.15521
9235.00000    16.18406    72.33375    69.32045
9235.50000    16.18419    71.55016    65.18497
9236.00000    16.18432    71.08361    61.04949
9236.50000    16.18444    70.61705    56.91401
9237.00000    16.18457    70.15050    53.56780
9237.50000    16.18470    68.95352    50.36300
9238.00000    16.18483    64.21788    47.15820
9238.50000    16.18496    59.48223    43.95340
9239.00000    16.18509    57.77054    40.74860
9239.50000    16.18510    56.74264    37.54380
9240.00000    16.18390    55.71473    34.33901
9240.50000    16.18269    58.09664    31.13421
9241.00000    16.18149    60.10042    41.25652
9241.50000    16.18029    62.14809    54.00932
9242.00000    16.17909    66.06021    66.76213
9242.50000    16.17789    69.97232    72.30452
9243.00000    16.17669    72.99548    71.49088
9243.50000    16.17549    74.14726    70.06778
9244.00000    16.17428    75.29904    68.64468
9244.50000    16.17308    76.40066    67.22157
9245.00000    16.17188    76.56311    65.79847
9245.50000    16.17068    76.72556    64.37537
9246.00000    16.16948    76.67997    62.95227
9246.50000    16.16828    75.09401    63.09363
9247.00000    16.16708    73.50805    63.83190
9247.50000    16.16587    71.92209    64.57017
9248.00000    16.16467    71.33522    65.30844
9248.50000    16.16347    73.36100    64.70374
9249.00000    16.16227    73.41335    59.31012
9249.50000    16.16107    73.50692    56.90730
9250.00000    16.15987    73.55659    59.49665
9250.50000    16.15866    74.13256    62.08600
9251.00000    16.15746    73.90220    64.67535
9251.50000    16.15626    72.50311    67.51189
9252.00000    16.15506    71.10403    70.50928
9252.50000    16.15386    69.70494    73.50668
9253.00000    16.15266    68.51374    76.50408
9253.50000    16.15146    69.52910    77.52396
9254.00000    16.15026    69.92916    78.13282
9254.50000    16.14905    70.32922    78.28306
9255.00000    16.14785    72.40600    78.09908
9255.50000    16.14665    77.67564    77.91510
9256.00000    16.14545    82.07744    77.73112
9256.50000    16.14425    74.43985    77.54714
9257.00000    16.14305    71.74548    76.45848
9257.50000    16.14184    72.54034    73.63764
9258.00000    16.14064    73.33521    70.81680
9258.50000    16.13944    74.13007    69.83540
9259.00000    16.13824    73.54089    71.98661
9259.50000    16.13704    71.24193    74.13781
9260.00000    16.13584    71.36112    77.69242
9260.50000    16.13252    72.55963    81.74511
9261.00000    16.09029    73.75814    82.84070
9261.50000    16.04806    74.95665    80.64408
9262.00000    16.00583    75.73686    78.44746
9262.50000    15.96360    74.53717    76.25084
9263.00000    15.92137    71.99638    59.32472
9263.50000    15.88185    69.29046    56.06660
9264.00000    15.88504    66.58454    55.24957
9264.50000    15.88823    65.07232    54.66134
9265.00000    15.89141    65.72134    54.07311
9265.50000    15.89460    66.37036    53.48488
9266.00000    15.89779    67.01938    52.89665
9266.50000    15.90097    67.66841    53.40705
9267.00000    15.90416    68.31743    56.17560
9267.50000    15.90734    71.76614    64.36544
9268.00000    15.91053    75.58871    69.77938
9268.50000    15.96388    76.56751    69.50050
9269.00000    16.03774    77.14001    69.22161
9269.50000    16.10693    76.92997    68.94273
9270.00000    16.04360    76.71993    68.66385
9270.50000    15.98028    77.05909    67.82757
9271.00000    15.91695    76.68188    66.19625
9271.50000    15.85630    75.84345    64.56492
9272.00000    15.86113    73.84229    59.85431
9272.50000    15.86596    71.84114    58.08248
9273.00000    15.87079    71.35329    59.69542
9273.50000    15.87563    71.57207    61.30836
9274.00000    15.88046    71.79085    62.92130
9274.50000    15.88940    72.00963    61.30703
9275.00000    16.00541    72.02911    57.12906
9275.50000    16.12141    69.74542    52.95108
9276.00000    16.16249    67.46174    48.77310
9276.50000    16.06947    65.17805    45.64844
9277.00000    15.97646    63.51270    47.21185
9277.50000    15.88668    64.86830    50.21447
9278.00000    15.90798    67.14724    53.21708
9278.50000    15.92928    70.26206    57.26176
9279.00000    15.95057    73.37687    63.51741
9279.50000    15.97187    76.49169    66.83089
9280.00000    15.99316    75.96418    66.52021
9280.50000    16.01446    75.07543    66.20953
9281.00000    16.03575    74.18668    65.89884
9281.50000    16.05705    73.42854    63.82133
9282.00000    16.07834    74.15683    60.99224
9282.50000    16.04530    74.88512    58.52784
9283.00000    15.98690    75.61342    60.08782
9283.50000    15.92850    76.34171    61.78158
9284.00000    15.87009    75.48202    63.57141
9284.50000    15.81169    74.49661    65.36125
9285.00000    15.75328    73.51120    65.68333
9285.50000    15.69488    72.62429    65.94653
9286.00000    15.63648    72.66166    66.20974
9286.50000    15.57927    72.69903    66.12589
9287.00000    15.58610    72.73640    64.82566
9287.50000    15.59293    72.77377    63.52543
9288.00000    15.59976    73.56448    65.74599
9288.50000    15.60660    74.43562    68.05789
9289.00000    15.61343    75.30677    70.72523
9289.50000    15.62026    76.17792    74.03402
9290.00000    15.62709    76.60813    76.80772
9290.50000    15.63392    76.15809    75.39446
9291.00000    15.64076    75.70804    73.98121
9291.50000    15.64759    75.31640    72.49506
9292.00000    15.65442    75.02143    70.93388
9292.50000    15.66125    74.72645    68.41612
9293.00000    15.68827    72.96391    62.94506
9293.50000    15.75403    70.94351    57.47401
9294.00000    15.81979    68.92311    52.00295
9294.50000    15.88554    66.90271    55.31840
9295.00000    15.95130    67.95599    60.09855
9295.50000    16.01705    71.40253    64.87870
9296.00000    16.01737    74.84907    69.26064
9296.50000    15.88179    74.67573    73.58583
9297.00000    15.74621    73.13782    77.91101
9297.50000    15.61102    71.64181    77.24719
9298.00000    15.61121    70.35295    75.97807
9298.50000    15.61139    69.65029    73.66635
9299.00000    15.61157    69.02023    71.35462
9299.50000    15.61175    68.39017    69.04290
9300.00000    15.61193    67.46044    58.38836
9300.50000    15.61211    63.49146    43.16184
9301.00000    15.61229    63.53524    35.36356
9301.50000    15.61247    64.64220    41.25359
9302.00000    15.61265    65.74916    47.14362
9302.50000    15.61283    66.85613    53.03557
9303.00000    15.60779    67.96309    59.41731
9303.50000    15.60271    70.33705    65.79906
9304.00000    15.59762    71.96528    72.18081
9304.50000    15.59254    72.43261    75.76955
9305.00000    15.58745    72.10388    72.87875
9305.50000    15.58236    71.84612    69.98795
9306.00000    15.57728    71.11870    68.29269
9306.50000    15.57219    70.29905    67.18763
9307.00000    15.56711    70.01360    66.08257
9307.50000    15.56202    69.72816    67.08511
9308.00000    15.55694    70.27157    69.12167
