###############################################
##         ENVERUS                           ##
##         ESS - Open Hole                   ##
##         PERMIAN / DELAWARE                ##
##         Nov 03 2023  V4.0                 ##
##         42-109-32572-90-00                ##
###############################################
## Copyright 2017-2023  ENVERUS.  All Rights Reserved. 
## Confidential - Property of ENVERUS, use governed by terms and 
## conditions found within the existing Information Services Subscription Agreement 
## (as may be amended, the “ISSA”) between Customer and ENVERUS. 
## 
~VERSION INFORMATION
# MNEM.UNIT                               DATA : DESCRIPTION OF MNEMONIC
#-----.-----     ----------------------------- : -----------------------------
VERS.                                     2.00 : CWLS LOG ASCII STANDARD - VERSION 2.00
WRAP.                                       NO : MULTIPLE LINES PER DEPTH STEP
VEND.                                  ENVERUS : VENDOR
TYPE.                          ESS - OPEN HOLE : ENVERUS ESSENTIAL CURVES – ACCESSIBLE THROUGH ENVERUS PRISM(TM)
DOC.                                  51093105 : ENVERUS HEADER RAW DOCUMENT ID
#___________________________________________________________________________________________________ 
~WELL INFORMATION 
# JLMmoJa/ja/TVcwAQvDk33OYEn4U2aLD16xKSNtVAxpK3Y/5Eg5lhKgsZNDQ5ZP0fRHfEZLFMAnipg5oeA7W3g== 
# MNEM.UNIT                                              DATA : DESCRIPTION OF MNEMONIC 
#-----.-----                    ----------------------------- : ----------------------------- 
CNTY.                                               CULBERSON : COUNTY 
STATE.                                                  TEXAS : STATE 
CNTRY.                                                    USA : COUNTRY 
API.                                             42-109-32572 : API (10 Digit) 
API_14.                                    42-109-32572-90-00 : API (14 Digits) 
API_14_std.                                 42-109-32572-9000 : API (14 Digits Standard) 
UWI.                                           42109325729000 : UNIQUE WELL ID 
WELL.                               42109325720000_PREV_API14 : WELL NAME
STRT.FT                                                2248.5 : START DEPTH
STOP.FT                                               10721.5 : STOP DEPTH
STEP.FT                                                   0.5 : STEP BETWEEN DEPTHS
NULL.                                                 -999.25 : NULL VALUE
PREV_APII.                                     42109325720000 : WELL IDENTIFIER
#___________________________________________________________________________________________________ 
~PARAMETER INFORMATION 
# MNEM.UNIT                                              DATA : DESCRIPTION OF MNEMONIC 
#-----.-----                    ----------------------------- : ----------------------------- 
EKB.FT                                                   3340 : ELEVATION ABOVE MSL
#___________________________________________________________________________________________________ 
~CURVE INFORMATION 
# MNEM.UNIT           : CURVE DESCRIPTION 
#-----.-----          : ----------------------------- 
 DEPT.FT               : MEASURED DEPTH 
 GR__A.API             : GAMMA RAY (GAMMA RAY) 
 DT__A.US/FT           : SONIC DELTA TRANSIT TIME (SONIC) 
 #___________________________________________________________________________________________________ 
~A         DEPT          GR__A          DT__A
# ...
        10600.5        165.630         96.543
        10601.0        170.307         95.906
        10601.5        175.865         90.114
        10602.0        165.121         89.159
        10602.5        163.269         93.981
        10603.0        172.184         94.297
        10603.5        174.951         94.825
        10604.0        174.168         95.872
        10604.5        186.862        104.135
        10605.0        214.359         96.002
        10605.5        219.207         71.638
        10606.0        196.192         69.057
        10606.5        138.176         68.445
        10607.0        123.562         66.016
        10607.5        109.869         64.219
        10608.0        102.911         64.414
        10608.5         85.729         65.260
        10609.0         80.552         66.245
        10609.5         76.712         66.923
        10610.0         78.156         66.953
        10610.5         82.975         66.511
        10611.0         86.843         75.947
        10611.5        107.055         97.895
        10612.0        138.421        103.281
        10612.5        214.534        103.477
        10613.0        215.580        103.086
        10613.5        207.211        102.378
        10614.0        203.409        101.168
        10614.5        188.752         98.776
        10615.0        192.292        106.155
        10615.5        211.072        107.151
        10616.0        216.731        107.248
        10616.5        215.713        104.915
        10617.0        204.280         89.967
        10617.5        168.943         81.687
        10618.0        146.144         87.910
        10618.5        156.240         98.847
        10619.0        176.428         98.410
        10619.5        187.334         96.934
        10620.0        192.008         96.934
        10620.5        197.260         94.531
        10621.0        189.855         94.199
        10621.5        184.515         93.949
        10622.0        183.343         93.809
        10622.5        181.020         94.004
        10623.0        178.474         93.728
        10623.5        177.338         93.125
        10624.0        172.047         93.320
        10624.5        176.059         93.861
        10625.0        190.671         94.492
        10625.5        197.073         95.371
        10626.0        198.043         95.321
        10626.5        195.186         94.218
        10627.0        183.364         83.051
        10627.5        147.450         74.252
        10628.0        143.249         75.189
        10628.5        179.217         94.271
        10629.0        192.439         95.371
        10629.5        202.267         95.371
        10630.0        204.120         94.934
        10630.5        188.057         94.378
        10631.0        171.482         81.052
        10631.5        143.439         71.368
        10632.0        133.715         73.212
        10632.5        157.122         78.298
        10633.0        191.230         82.146
        10633.5        196.257         95.077
        10634.0        197.038        101.077
        10634.5        198.434        100.701
        10635.0        188.436         95.818
        10635.5        151.939         90.706
        10636.0        135.652         86.806
        10636.5        119.365         82.636
        10637.0        128.021         82.617
        10637.5        145.786         86.657
        10638.0        157.303         89.010
        10638.5        176.575         92.268
        10639.0        196.234         94.139
        10639.5        205.725         99.013
        10640.0        204.162        103.463
        10640.5        208.536        100.769
        10641.0        208.975         95.922
        10641.5        197.568         95.213
        10642.0        191.940         96.284
        10642.5        197.943         97.949
        10643.0        210.702        102.241
        10643.5        215.785        103.357
        10644.0        214.228        101.983
        10644.5        203.789         97.262
        10645.0        197.138         96.497
        10645.5        198.076         95.604
        10646.0        209.933         94.667
        10646.5        205.542         93.682
        10647.0        196.869         94.130
        10647.5        193.484         94.716
        10648.0        189.499         94.813
        10648.5        183.953         94.785
        10649.0        184.344         94.404
        10649.5        183.562         90.987
        10650.0        185.127         89.877
        10650.5        187.871         64.629
        10651.0        192.172         66.306
        10651.5        195.399         68.637
        10652.0        194.912         69.137
        10652.5        192.622         77.914
        10653.0        188.382         95.209
        10653.5        185.127         99.446
        10654.0        185.519         99.576
        10654.5        185.127         97.324
        10655.0        186.585         97.109
        10655.5        195.384         96.152
        10656.0        198.120         96.382
        10656.5        197.652         96.517
        10657.0        196.478         95.548
        10657.5        197.331         95.584
        10658.0        197.652         95.779
        10658.5        198.050         95.745
        10659.0        204.761         95.469
        10659.5        205.871         94.985
        10660.0        206.654         94.049
        10660.5        206.654         92.051
        10661.0        207.436         92.162
        10661.5        207.383         92.260
        10662.0        205.480         92.786
        10662.5        208.514         96.331
        10663.0        210.959        100.657
        10663.5        211.004        103.879
        10664.0        212.133        103.661
        10664.5        211.700        103.266
        10665.0        209.276        100.488
        10665.5        203.467         75.447
        10666.0        197.687         69.259
        10666.5        205.578         82.028
        10667.0        211.819         88.603
        10667.5        215.517         89.324
        10668.0        217.195         90.355
        10668.5        214.628         93.211
        10669.0        208.174         94.968
        10669.5       -999.250         98.594
        10670.0       -999.250         98.989
        10670.5       -999.250         99.479
        10671.0       -999.250        100.254
        10671.5       -999.250        100.352
        10672.0       -999.250         99.758
        10672.5       -999.250         84.855
        10673.0       -999.250         83.208
        10673.5       -999.250         88.829
        10674.0       -999.250         89.317
        10674.5       -999.250         90.048
        10675.0       -999.250         94.101
        10675.5       -999.250         97.176
        10676.0       -999.250         97.811
        10676.5       -999.250        100.533
        10677.0       -999.250        102.009
        10677.5       -999.250        102.305
        10678.0       -999.250        101.918
        10678.5       -999.250         99.953
        10679.0       -999.250         93.297
        10679.5       -999.250         86.495
        10680.0       -999.250         95.170
        10680.5       -999.250        101.608
        10681.0       -999.250        102.103
        10681.5       -999.250        102.538
        10682.0       -999.250        102.695
        10682.5       -999.250        101.090
        10683.0       -999.250         73.786
        10683.5       -999.250         73.213
        10684.0       -999.250         79.282
        10684.5       -999.250         80.723
        10685.0       -999.250         81.183
        10685.5       -999.250         93.709
        10686.0       -999.250        101.536
        10686.5       -999.250         96.222
        10687.0       -999.250         91.019
