~VERSION INFORMATION
VERS. 2.0 : CWLS Log ASCII Standard - Version 2.0
WRAP. NO : One line per depth step
#--------------------------------------------------#
#----------------DRILLING INFO, INC.---------------#
#---------------WWW.DRILLINGINFO.COM---------------#
#------------------COPYRIGHT 2015------------------#
#--------------------------------------------------#
#THIS FILE MAY BE USED ONLY IN ACCORDANCE WITH A CURRENT SUBSCRIPTION AGREEMENT BETWEEN
#THE USER AND DRILLING INFO, INC. NO PART OF THIS FILE MAY BE REPRODUCED, USED, COPIED,
#MODIFIED, PROPAGATED, OR DISTRIBUTED EXCEPT IN ACCORDANCE WITH THE SUBSCRIPTION
#AGREEMENT. UNAUTHORIZED USE OR DISTRIBUTION OF ALL OR ANY PART OF THIS FILE MAY VIOLATE
#COPYRIGHT, TRADEMARK, AND/OR OTHER LAWS AND IS SUBJECT TO CIVIL AS WELL AS CRIMINAL
#SANCTIONS.
#--------------------------------------------------#
#THIS FILE IS PROVIDED "AS-IS" AND ALL WARRANTIES ARE EXPRESSLY DISCLAIMED, WHETHER
#EXPRESS, ORAL, IMPLIED, STATUTORY OR OTHERWISE, INCLUDING ANY IMPLIED WARRANTY OF FITNESS
#FOR A PARTICULAR PURPOSE, MERCHANTABILITY, TITLE OR NON-INFRINGEMENT, AND ANY WARRANTIES
#ARISING BY VIRTUE OF CUSTOM OF TRADE OR COURSE OF DEALING.  FURTHER, DRILLING INFO,
#INC. AND ITS LICENSORS DO NOT REPRESENT OR WARRANT THAT THIS FILE WILL MEET USER'S
#REQUIREMENTS OR ARE SUITABLE FOR USER'S NEEDS OR THAT THE DATA OR RESULTS PROVIDED IN
#CONJUNCTION THEREWITH ARE CORRECT, ACCURATE, TIMELY OR RELIABLE. THESE DISCLAIMERS SHALL
#APPLY REGARDLESS OF ANY FAILURE OF ESSENTIAL PURPOSE OF ANY LIMITED REMEDY.  SOME
#JURISDICTIONS DO NOT ALLOW THE EXCLUSION OF CERTAIN WARRANTIES SO SOME OF THE ABOVE
#EXCLUSIONS MAY NOT APPLY. IN NO EVENT SHALL DRILLING INFO, INC. OR ANY OF ITS AFFILIATES
#BE LIABLE UNDER ANY LEGAL THEORY, WHETHER IN TORT (INCLUDING WITHOUT LIMITATION
#NEGLIGENCE), CONTRACT, STRICT LIABILITY, STATUTORY OR OTHERWISE, FOR ANY SPECIAL,
#INCIDENTAL, CONSEQUENTIAL, EXEMPLARY, PUNITIVE OR INDIRECT DAMAGE OF ANY KIND, INCLUDING
#WITHOUT LIMITATION LOSS OF REVENUE, PROFITS, GOODWILL, USE, AND/OR DATA OR THE COST OF
#PROCUREMENT OF SUBSTITUTE GOODS OR SERVICES, EVEN IF APPRISED OF THE POSSIBILITY OF SUCH
#DAMAGES IN ADVANCE.
#--------------------------------------------------#
~WELL INFORMATION
#MNEMONIC     .UNIT              VALUE :DESCRIPTION
#--------------------------------------------------#
STRT       .ft                51.00000 :START DEPTH
STOP       .ft                9476.00000 :STOP DEPTH
STEP       .ft                0.50000 :STEP
NULL       .                -999.25000 :NULL VALUE
COMP       .                 :COMPANY
WELL       .                 :WELL
FLD       .                 :FIELD
LOC       .                 :LOCATION
CNTY       .                 :COUNTY
STAT       .                 :STATE
CTRY       .                 :COUNTRY
SRVC       .                 :SERVICE COMPANY
DATE       .                 :DATE
API       .                42109100520000 :API NUMBER
~CURVE INFORMATION
#MNEMONIC     .UNIT      API CODE :CURVE DESCRIPTION
#--------------------------------------------------#
DEPTH       .ft                      :Measured Depth
CAL       .in        UNKNOWN   :CAL
DT       .us/ft        UNKNOWN   :DT
GR       .gAPI        UNKNOWN   :GR
~A    DEPTH    CAL    DT    GR
# ...
1502.00000    11.42782    69.59480    87.04365
1502.50000    11.48081    69.01226    85.73711
1503.00000    11.53380    68.42972    84.43057
1503.50000    11.58679    68.87365    83.55108
1504.00000    11.66123    69.34677    83.48110
1504.50000    11.69527    69.01427    83.41111
1505.00000    11.72572    68.17251    76.71702
1505.50000    11.75618    67.33075    72.54891
1506.00000    11.78664    67.00072    68.38080
1506.50000    11.81710    67.41431    64.76834
1507.00000    11.84740    67.82789    63.51586
1507.50000    11.85356    68.24148    62.26338
1508.00000    11.85972    68.65506    61.01090
1508.50000    11.86588    69.06865    59.75842
1509.00000    11.87204    69.48223    59.45792
1509.50000    11.87821    69.89582    59.23161
1510.00000    11.88437    69.62331    59.00531
1510.50000    11.89053    68.75321    58.77900
1511.00000    11.89669    67.88310    58.55269
1511.50000    11.90285    67.34565    58.32639
1512.00000    11.90901    67.49279    59.44141
1512.50000    11.91517    67.63993    60.95528
1513.00000    11.91806    67.91679    62.46915
1513.50000    11.90954    68.84539    63.98302
1514.00000    11.90101    69.77399    65.49689
1514.50000    11.89249    70.70260    65.27460
1515.00000    11.88396    71.33379    63.68166
1515.50000    11.87544    71.11258    64.90445
1516.00000    11.86692    70.89138    67.54817
1516.50000    11.85839    70.67017    68.83685
1517.00000    11.84987    70.44897    66.87566
1517.50000    11.84135    70.22776    64.91448
1518.00000    11.83282    70.00656    62.95330
1518.50000    11.82430    69.85352    60.99212
1519.00000    11.81578    70.25534    59.17455
1519.50000    11.80725    70.65717    58.88045
1520.00000    11.79873    71.05900    58.58634
1520.50000    11.79020    71.30603    59.66281
1521.00000    11.78168    70.81370    61.27900
1521.50000    11.77316    70.32136    62.89520
1522.00000    11.76463    69.82902    64.51139
1522.50000    11.75611    69.33669    66.12759
1523.00000    11.74759    68.84435    66.11371
1523.50000    11.73906    68.35201    66.06460
1524.00000    11.73054    67.85968    66.01550
1524.50000    11.72201    68.09060    65.96639
1525.00000    11.71349    68.32642    66.42990
1525.50000    11.70497    68.56225    68.49674
1526.00000    11.69644    68.79808    70.56358
1526.50000    11.68792    69.33015    72.63042
1527.00000    11.67939    70.71016    74.69726
1527.50000    11.67087    72.09017    83.83880
1528.00000    11.66235    73.04951    93.15922
1528.50000    11.65382    71.76408    102.47964
1529.00000    11.64530    70.47865    111.80006
1529.50000    11.63678    69.19322    93.33729
1530.00000    11.62825    67.90779    69.72087
1530.50000    11.61973    66.50719    63.85457
1531.00000    11.61120    64.84904    61.89301
1531.50000    11.60278    64.62466    59.93144
1532.00000    11.60057    65.06826    57.96988
1532.50000    11.59835    65.51187    56.00831
1533.00000    11.59614    65.78066    53.17258
1533.50000    11.59393    65.89833    54.91316
1534.00000    11.59172    66.01600    56.65373
1534.50000    11.58950    66.05674    58.39431
1535.00000    11.58729    65.96885    60.13489
1535.50000    11.58508    65.88096    68.52911
1536.00000    11.58286    65.79306    70.45203
1536.50000    11.58065    65.70517    72.37494
1537.00000    11.57844    65.61728    74.29786
1537.50000    11.57622    65.53980    76.22077
1538.00000    11.57401    65.80944    78.14369
1538.50000    11.57180    66.07909    80.53430
1539.00000    11.56959    66.34873    79.49244
1539.50000    11.56737    66.61837    78.45057
1540.00000    11.56516    66.88801    77.40871
1540.50000    11.56295    66.86791    76.28501
1541.00000    11.56073    66.83445    75.05926
1541.50000    11.55852    66.68751    73.83351
1542.00000    11.55631    66.60926    72.60776
1542.50000    11.55409    66.55561    71.38201
1543.00000    11.53609    65.43938    70.15626
1543.50000    11.51096    65.11990    71.11159
1544.00000    11.48584    65.49420    72.74332
1544.50000    11.46071    65.86851    74.37505
1545.00000    11.43559    66.24282    76.00678
1545.50000    11.41046    66.61713    75.79248
1546.00000    11.38534    66.72327    73.70802
1546.50000    11.36021    66.45610    73.73158
1547.00000    11.33509    66.18893    75.13867
1547.50000    11.30996    65.92176    76.54576
1548.00000    11.28484    65.65459    77.95285
1548.50000    11.25971    65.38742    75.16745
1549.00000    11.23459    65.80010    73.61928
1549.50000    11.20946    66.33358    75.50088
1550.00000    11.18434    66.86706    77.38248
1550.50000    11.16506    67.40054    79.26408
1551.00000    11.17114    67.93402    81.14569
1551.50000    11.17722    68.46750    83.02729
1552.00000    11.18330    69.00098    87.08750
1552.50000    11.18938    69.53059    98.59798
1553.00000    11.19546    67.96466    102.83881
1553.50000    11.20154    66.39873    105.20141
1554.00000    11.20762    64.83280    107.56400
1554.50000    11.21370    63.26687    103.19372
1555.00000    11.21978    61.70093    98.44257
1555.50000    11.22586    60.80599    92.38073
1556.00000    11.23194    61.47959    76.04215
1556.50000    11.23802    62.15318    68.82236
1557.00000    11.24410    62.07414    65.38531
1557.50000    11.25018    61.95704    65.12269
1558.00000    11.25626    61.83994    65.57724
1558.50000    11.26234    61.72284    66.03180
1559.00000    11.26842    61.73435    66.48636
1559.50000    11.27450    62.29789    66.94092
1560.00000    11.28058    62.86142    67.39548
1560.50000    11.29190    63.42496    66.60649
1561.00000    11.31334    63.98849    63.43946
1561.50000    11.33478    64.55203    70.63068
1562.00000    11.35622    65.11557    77.21404
1562.50000    11.37766    66.41275    82.58098
1563.00000    11.39910    67.77712    87.94793
1563.50000    11.42055    69.14150    93.31487
1564.00000    11.44199    70.50587    98.68181
1564.50000    11.46343    71.63788    104.78510
1565.00000    11.48487    72.17182    117.44354
1565.50000    11.50631    72.70575    130.10198
1566.00000    11.52776    73.23969    142.76041
1566.50000    11.54920    73.77362    148.33198
1567.00000    11.57064    73.39531    134.70750
1567.50000    11.59208    72.34225    121.08302
1568.00000    11.61352    71.28919    110.39662
1568.50000    11.63496    70.23613    103.09331
1569.00000    11.65641    69.18308    94.21597
1569.50000    11.67785    68.13002    85.33864
1570.00000    11.69815    66.85116    76.46130
1570.50000    11.70929    65.55310    67.58397
1571.00000    11.72043    65.16806    64.66075
1571.50000    11.73158    65.75113    63.12759
1572.00000    11.74272    66.33420    61.59443
1572.50000    11.75386    66.91727    60.18241
1573.00000    11.76501    67.50034    63.53316
1573.50000    11.77615    68.08341    66.88392
1574.00000    11.78730    68.66648    70.23468
1574.50000    11.79032    69.24955    70.15179
1575.00000    11.78243    69.83262    68.59788
1575.50000    11.77455    69.63337    67.04398
1576.00000    11.76666    69.31661    69.56420
1576.50000    11.75878    68.99986    72.73988
1577.00000    11.75089    68.68310    70.21171
1577.50000    11.74107    68.36634    67.45439
1578.00000    11.72458    68.24503    64.69706
1578.50000    11.70810    68.59990    61.93973
1579.00000    11.69161    68.95477    59.18240
1579.50000    11.67512    69.35300    56.42507
1580.00000    11.65864    70.00737    58.81834
1580.50000    11.64215    70.66174    62.37723
1581.00000    11.62567    71.30203    65.93613
1581.50000    11.60918    71.12655    67.00814
1582.00000    11.59269    70.95106    65.48691
1582.50000    11.57621    70.77557    63.96568
1583.00000    11.55972    70.60008    62.44445
1583.50000    11.54323    70.42459    60.92322
1584.00000    11.52675    70.24911    61.40874
1584.50000    11.51026    70.07362    62.53386
1585.00000    11.49378    69.91597    63.65897
1585.50000    11.47729    69.99449    64.78409
1586.00000    11.46080    70.07300    65.87224
1586.50000    11.44432    70.15152    64.54738
