###############################################
##         ENVERUS                           ##
##         ESS - Open Hole                   ##
##         PERMIAN / DELAWARE                ##
##         Nov 03 2023  V4.0                 ##
##         42-109-32620-90-00                ##
###############################################
## Copyright 2017-2023  ENVERUS.  All Rights Reserved. 
## Confidential - Property of ENVERUS, use governed by terms and 
## conditions found within the existing Information Services Subscription Agreement 
## (as may be amended, the “ISSA”) between Customer and ENVERUS. 
## 
~VERSION INFORMATION
# MNEM.UNIT                               DATA : DESCRIPTION OF MNEMONIC
#-----.-----     ----------------------------- : -----------------------------
VERS.                                     2.00 : CWLS LOG ASCII STANDARD - VERSION 2.00
WRAP.                                       NO : MULTIPLE LINES PER DEPTH STEP
VEND.                                  ENVERUS : VENDOR
TYPE.                          ESS - OPEN HOLE : ENVERUS ESSENTIAL CURVES – ACCESSIBLE THROUGH ENVERUS PRISM(TM)
DOC.                                  51092896 : ENVERUS HEADER RAW DOCUMENT ID
#___________________________________________________________________________________________________ 
~WELL INFORMATION 
# mS4wxE9S4ErBCd3MEwtzWWb7vaBLyBp2a6hoNdhJ+t1pinRta8/5SsS3wr5CrR4pTncMCKeAGTUU45xlgh6yRQ== 
# MNEM.UNIT                                              DATA : DESCRIPTION OF MNEMONIC 
#-----.-----                    ----------------------------- : ----------------------------- 
CNTY.                                               CULBERSON : COUNTY 
STATE.                                                  TEXAS : STATE 
CNTRY.                                                    USA : COUNTRY 
API.                                             42-109-32620 : API (10 Digit) 
API_14.                                    42-109-32620-90-00 : API (14 Digits) 
API_14_std.                                 42-109-32620-9000 : API (14 Digits Standard) 
UWI.                                           42109326209000 : UNIQUE WELL ID 
WELL.                               42109326200000_PREV_API14 : WELL NAME
STRT.FT                                                2338.5 : START DEPTH
STOP.FT                                               10866.0 : STOP DEPTH
STEP.FT                                                   0.5 : STEP BETWEEN DEPTHS
NULL.                                                 -999.25 : NULL VALUE
PREV_APII.                                     42109326200000 : WELL IDENTIFIER
#___________________________________________________________________________________________________ 
~PARAMETER INFORMATION 
# MNEM.UNIT                                              DATA : DESCRIPTION OF MNEMONIC 
#-----.-----                    ----------------------------- : ----------------------------- 
EKB.FT                                                   3330 : ELEVATION ABOVE MSL
#___________________________________________________________________________________________________ 
~CURVE INFORMATION 
# MNEM.UNIT           : CURVE DESCRIPTION 
#-----.-----          : ----------------------------- 
 DEPT.FT               : MEASURED DEPTH 
 CALI.IN               : CALIPER (CAL - CALIPER) 
 GR.API                : GAMMA RAY (GAMMA RAY) 
 DT.US/FT              : SONIC DELTA TRANSIT TIME (PRESSURE WAVE SONIC) 
 #___________________________________________________________________________________________________ 
~A         DEPT           CALI             GR             DT
# ...
         6298.5          9.313        123.761         66.689
         6299.0          9.313        119.594         66.945
         6299.5          9.333        140.652         68.399
         6300.0          9.333        152.366         70.028
         6300.5          9.333        148.820         69.287
         6301.0          9.353        116.061         68.234
         6301.5          9.353        104.230         69.246
         6302.0          9.353        111.840         70.506
         6302.5          9.353        109.280         70.634
         6303.0          9.353         88.251         67.640
         6303.5          9.353         80.823         65.299
         6304.0          9.353         81.870         65.711
         6304.5          9.353        102.885         69.266
         6305.0          9.333        137.679         72.541
         6305.5          9.333        159.100         73.758
         6306.0          9.333        151.949         73.224
         6306.5          9.333        113.151         66.798
         6307.0          9.324        104.196         66.568
         6307.5          9.313        131.245         68.994
         6308.0          9.313        149.851         71.148
         6308.5          9.313        181.979         77.770
         6309.0          9.333        181.718         76.073
         6309.5          9.373        143.615         70.347
         6310.0          9.373        120.247         66.492
         6310.5          9.373         53.822         58.597
         6311.0          9.373         32.433         55.556
         6311.5          9.413         27.603         54.236
         6312.0          9.393         33.915         55.490
         6312.5          9.373         52.480         60.742
         6313.0          9.373         71.274         65.450
         6313.5          9.373         85.576         69.019
         6314.0          9.353         96.029         69.684
         6314.5          9.353        118.602         71.179
         6315.0          9.333        122.284         72.650
         6315.5          9.333        122.284         73.720
         6316.0          9.333        126.772         74.538
         6316.5          9.333        150.951         75.864
         6317.0          9.345        169.820         78.560
         6317.5          9.353        174.757         79.697
         6318.0          9.353        166.017         79.821
         6318.5          9.353        168.059         79.441
         6319.0          9.353        169.239         78.913
         6319.5          9.353        128.681         77.992
         6320.0          9.353        108.201         76.054
         6320.5          9.373         89.112         71.787
         6321.0          9.393         82.321         70.808
         6321.5          9.393         85.292         69.317
         6322.0          9.373         86.520         69.220
         6322.5          9.353         83.266         70.860
         6323.0          9.353         85.627         71.188
         6323.5          9.353         86.487         70.638
         6324.0          9.353         83.663         69.371
         6324.5          9.353         75.461         68.326
         6325.0          9.353         74.145         67.613
         6325.5          9.373         73.843         66.932
         6326.0          9.373         72.340         66.728
         6326.5          9.373         72.664         66.597
         6327.0          9.373         87.621         69.123
         6327.5          9.373        126.131         73.772
         6328.0          9.353        134.594         75.651
         6328.5          9.353        157.056         77.062
         6329.0          9.353        155.468         78.081
         6329.5          9.353        145.641         79.104
         6330.0          9.394        142.919         80.596
         6330.5          9.412        148.748         82.488
         6331.0          9.393        162.990         81.245
         6331.5          9.373        165.591         79.927
         6332.0          9.373        158.760         77.983
         6332.5          9.373        158.344         74.140
         6333.0          9.413        158.355         74.337
         6333.5          9.453        174.933         75.879
         6334.0          9.453        186.802         77.764
         6334.5          9.453        203.792         84.277
         6335.0          9.413        190.927         80.336
         6335.5          9.393        146.728         76.016
         6336.0          9.393        129.657         74.375
         6336.5          9.393        123.447         76.255
         6337.0          9.393        154.182         79.699
         6337.5          9.393        177.103         78.296
         6338.0          9.393        179.220         76.354
         6338.5          9.393        136.245         74.176
         6339.0          9.393        131.829         75.438
         6339.5          9.393        132.615         77.493
         6340.0          9.393        135.138         77.171
         6340.5          9.393        137.487         76.051
         6341.0          9.393        132.289         74.906
         6341.5          9.393        121.292         72.672
         6342.0          9.393        117.843         72.639
         6342.5          9.393        134.300         75.503
         6343.0          9.413        162.925         77.246
         6343.5          9.433        184.404         78.246
         6344.0          9.413        182.248         77.397
         6344.5          9.373        156.715         72.637
         6345.0          9.373        119.141         72.115
         6345.5          9.373         96.664         73.949
         6346.0          9.373         93.574         75.194
         6346.5          9.393        109.471         78.276
         6347.0          9.413        125.646         79.573
         6347.5          9.413        141.717         76.856
         6348.0          9.373        147.555         73.237
         6348.5          9.373        119.164         70.586
         6349.0          9.373         91.288         68.638
         6349.5          9.373         81.000         67.919
         6350.0          9.393         82.808         69.774
         6350.5          9.399         80.662         67.426
         6351.0          9.413         69.947         65.641
         6351.5          9.413         57.732         65.383
         6352.0          9.413         63.520         67.947
         6352.5          9.413        106.921         75.548
         6353.0          9.413        149.260         83.253
         6353.5          9.413        165.847         83.442
         6354.0          9.413        160.316         81.320
         6354.5          9.413        139.177         77.976
         6355.0          9.413        124.580         73.682
         6355.5          9.413        106.900         74.967
         6356.0          9.413         98.863         77.123
         6356.5          9.413        138.228         80.235
         6357.0          9.413        162.359         80.496
         6357.5          9.433        124.262         78.945
         6358.0          9.433        106.133         78.137
         6358.5          9.433        125.091         79.418
         6359.0          9.433        149.572         81.479
         6359.5          9.433        140.846         80.585
         6360.0          9.433        124.080         80.239
         6360.5          9.433        102.613         77.854
         6361.0          9.433         94.351         76.292
         6361.5          9.433         85.832         74.149
         6362.0          9.433         81.271         73.691
         6362.5          9.433         76.600         71.332
         6363.0          9.433         73.176         69.649
         6363.5          9.433         72.231         67.623
         6364.0          9.433         68.161         65.875
