~Version Information
 VERS.                  2.0:   CWLS log ASCII Standard -VERSION 2.0
 WRAP.                   NO:   One line per depth step
~Well Information Block
#MNEM.UNIT     VALUE/NAME     DESCRIPTION
#---------     -----------    ---------------------------
 STRT.F              8830.0000: START DEPTH
 STOP.F             14230.0000: STOP DEPTH
 STEP.F                 0.5000: STEP DEPTH
 NULL.                 -999.25: NULL VALUE
 LOC .       API  42-109-33374Lat:  LOCATION
 FL1 .       API  42-109-33374Lat:  LOCATIONLINE1
 DMF .                      KB:  DRILL MEAS FROM
 PDAT.                      GL:  PERMANENT DATUM
 CTRY.                     USA:  COUNTRY NAME
 CNTY.               CULBERSON:  COUNTY NAME
 FLD .     FORD, WEST (WOLFCAMP):  FIELD NAME
 WELL.        MOTHER FEE 28 4H:  WELL NAME
 COMP.          CAPITAN ENERGY:  COMPANY
 DATE.             02-May-2019:  DATE
 SVCO.             Halliburton:  SERVICECONAME
 PROV.                   TEXAS:  PROVINCE
 STAT.                   TEXAS:  STATE NAME
 HIDE.                        :  WELLNAMEOPERAT
 BASI.                 PERMIAN:  BASIN
 UWI .            42-109-33374Lat:  UNIQUE WELL IDENTIFIER
 API .            42-109-33374Lat:  API NUMBER
 RANG.                     N/A:  RANGE
 TOWN.                     N/A:  TOWNSHIP
 SECT.                     N/A:  SECTION
 SON .               905631317:  JOB NUMBER
 SRVC.             Halliburton:  SERVICE COMPANY
 LMF .                      KB:  LOG MEASURED FROM
 BAP .ft                0.0000:  GL ELEV ONSHORE
 GVFD.g                 1.0000:  GRAVITY FIELD
~Curve Information Block
#MNEM.UNIT                 API CODE     Curve Description
#---------               -----------    ---------------------------
 DEPT.F                 00 000 000 000:  Depth
 CCL .V                 00 000 000 000:  Casing Collar Locator
 NPHI_OH.pu             00 000 000 000:  NPHI_OH
 NPHI_CHI.pu            00 000 000 000:  NPHI_CHI
 GR_OH.api              00 000 000 000:  GR_OH
 GR_CHI.api             00 000 000 000:  GR_CHI
 RHOB_OH.g/cc           00 000 000 000:  RHOB_OH
 RHOB_CHI.g/cc          00 000 000 000:  RHOB_CHI
 PE_OH.b/e              00 000 000 000:  PE_OH
 PE_CHI.b/e             00 000 000 000:  PE_CHI
 RT10_OH.ohmm           00 000 000 000:  RT10_OH
 RT10_CHI.ohmm          00 000 000 000:  RT10_CHI
 RT30_OH.ohmm           00 000 000 000:  RT30_OH
 RT30_CHI.ohmm          00 000 000 000:  RT30_CHI
 RT90_OH.ohmm           00 000 000 000:  RT90_OH
 RT90_CHI.ohmm          00 000 000 000:  RT90_CHI
 SPHI_CHI.pu            00 000 000 000:  SPHI_CHI
 DTC_CHI.uspf           00 000 000 000:  DTC_CHI
 DTC_OH.uspf            00 000 000 000:  DTC_OH
 SGF .cu                00 000 000 000:  Formation Sigma
 CRNF.NONE              00 000 000 000:  CM GrsCaptRatio
 RIN .NONE              00 000 000 000:  CM GrsInelRatio
#Other Information
#
#WARRANTY: Halliburton will use its best efforts to furnish customers with 
#accurate information and interpretations that are part of, and incident to, the services 
#provided.  However, Halliburton cannot and does not warrant the accuracy 
#or correctness of such information and interpretations.  Under no circumstances should any 
#such information or interpretation be relied upon as the sole basis for any drilling, 
#completion, production, or financial decision or any procedure involving any risk to the 
#safety of any drilling venture, drilling rig or its crew or any other third party.  The 
#Customer has full responsibility for all drilling, completion and production operation.  
#Halliburton makes no representations or warranties, either expressed or 
#implied, including, but not limited to, the implied warranties of merchantability or fitness 
#for a particular purpose, with respect to the services rendered.  In no event will 
#Halliburton be liable for failure to obtain any particular results or for 
#any damages, including, but not limited to, indirect, special or consequential damages, 
#resulting from the use of any information or interpretation provided by Halliburton.
#
~A    DEPT      CCL   NPHI_OH NPHI_CHI  GR_OH    GR_CHI  RHOB_OH RHOB_CHI  PE_OH  PE_CHI RT10_OH RT10_CHI RT30_OH RT30_CHI RT90_OH  RT90_CHI SPHI_CHI DTC_CHI DTC_OH    SGF    CRNF   RIN   
# ...
   10270.5000 17.4408 -999.25   8.9325  -999.25  38.4683 -999.25   2.5879 -999.25 4.0886 -999.25 112.9536 -999.25 116.0397  -999.25 123.4465  14.3900 67.9479 -999.25 16.9877 0.8888 0.9729
   10271.0000 17.4745 -999.25   8.3339  -999.25  36.5526 -999.25   2.5990 -999.25 4.1695 -999.25 114.1779 -999.25 117.2976  -999.25 124.7846  13.6000 66.8372 -999.25 16.8760 0.8809 0.9621
   10271.5000 17.4185 -999.25   7.7014  -999.25  34.7295 -999.25   2.6119 -999.25 4.2724 -999.25 115.2563 -999.25 118.4054  -999.25 125.9632  12.7500 65.6351 -999.25 16.6940 0.8747 0.9511
   10272.0000 17.4325 -999.25   7.3544  -999.25  33.5796 -999.25   2.6190 -999.25 4.3295 -999.25 116.3096 -999.25 119.4875  -999.25 127.1144  12.2900 64.9772 -999.25 16.6332 0.8748 0.9483
   10272.5000 17.4355 -999.25   7.1722  -999.25  33.4394 -999.25   2.6222 -999.25 4.3467 -999.25 117.2374 -999.25 120.4406  -999.25 128.1283  12.0600 64.6458 -999.25 16.6309 0.8875 0.9519
   10273.0000 17.4046 -999.25   7.1138  -999.25  34.3187 -999.25   2.6230 -999.25 4.3451 -999.25 117.5598 -999.25 120.7718  -999.25 128.4807  11.9800 64.5417 -999.25 16.8670 0.9051 0.9604
   10273.5000 17.4242 -999.25   7.3566  -999.25  36.4945 -999.25   2.6182 -999.25 4.3036 -999.25 117.0162 -999.25 120.2134  -999.25 127.8866  12.3100 65.0031 -999.25 17.2307 0.9189 0.9724
   10274.0000 17.4365 -999.25   7.8687  -999.25  39.5542 -999.25   2.6091 -999.25 4.2465 -999.25 115.4439 -999.25 118.5981  -999.25 126.1682  12.9800 65.9501 -999.25 17.6803 0.9249 0.9816
   10274.5000 17.4165 -999.25   8.3900  -999.25  43.1398 -999.25   2.5998 -999.25 4.1712 -999.25 112.8060 -999.25 115.8881  -999.25 123.2852  13.6500 66.8972 -999.25 18.0151 0.9199 0.9914
   10275.0000 17.4241 -999.25   9.1145  -999.25  46.4130 -999.25   2.5867 -999.25 4.0742 -999.25 109.9151 -999.25 112.9183  -999.25 120.1258  14.5800 68.2217 -999.25 18.1356 0.9142 0.9975
   10275.5000 17.4551 -999.25   9.5560  -999.25  48.5394 -999.25   2.5789 -999.25 4.0136 -999.25 107.5177 -999.25 110.4553  -999.25 117.5057  15.1400 69.0117 -999.25 18.1381 0.9068 0.9985
   10276.0000 17.4477 -999.25   9.5771  -999.25  49.0290 -999.25   2.5788 -999.25 4.0027 -999.25 106.2031 -999.25 109.1048  -999.25 116.0690  15.1500 69.0270 -999.25 18.0128 0.9039 0.9954
   10276.5000 17.3912 -999.25   9.3031  -999.25  48.1181 -999.25   2.5839 -999.25 4.0294 -999.25 106.0548 -999.25 108.9524  -999.25 115.9068  14.7900 68.5068 -999.25 17.8076 0.9038 0.9882
   10277.0000 17.4285 -999.25   9.0788  -999.25  46.4986 -999.25   2.5873 -999.25 4.0429 -999.25 107.0459 -999.25 109.9706  -999.25 116.9900  14.5000 68.1076 -999.25 17.4481 0.9004 0.9827
   10277.5000 17.4050 -999.25   9.0568  -999.25  44.8931 -999.25   2.5870 -999.25 4.0501 -999.25 109.0212 -999.25 111.9999  -999.25 119.1488  14.5000 68.1049 -999.25 16.9646 0.8866 0.9780
   10278.0000 17.4365 -999.25   9.1233  -999.25  43.5558 -999.25   2.5852 -999.25 4.0582 -999.25 111.9361 -999.25 114.9944  -999.25 122.3345  14.6300 68.2811 -999.25 16.5800 0.8762 0.9763
   10278.5000 17.4666 -999.25   9.0462  -999.25  42.1593 -999.25   2.5860 -999.25 4.0850 -999.25 115.3147 -999.25 118.4654  -999.25 126.0270  14.5600 68.1915 -999.25 16.2653 0.8709 0.9736
   10279.0000 17.4717 -999.25   8.6710  -999.25  40.5080 -999.25   2.5924 -999.25 4.1306 -999.25 118.0518 -999.25 121.2773  -999.25 129.0184  14.0900 67.5266 -999.25 16.2094 0.8797 0.9728
   10279.5000 17.4402 -999.25   8.2351  -999.25  38.9249 -999.25   2.6000 -999.25 4.1839 -999.25 119.8369 -999.25 123.1111  -999.25 130.9693  13.5300 66.7337 -999.25 16.4288 0.8967 0.9739
   10280.0000 17.4485 -999.25   7.9247  -999.25  38.3770 -999.25   2.6059 -999.25 4.2219 -999.25 119.7732 -999.25 123.0457  -999.25 130.8997  13.1200 66.1459 -999.25 16.9676 0.9189 0.9768
   10280.5000 17.4245 -999.25   7.8358  -999.25  39.4699 -999.25   2.6082 -999.25 4.2251 -999.25 117.4253 -999.25 120.6337  -999.25 128.3337  12.9700 65.9354 -999.25 17.8209 0.9434 0.9849
   10281.0000 17.4132 -999.25   8.1479  -999.25  42.1632 -999.25   2.6040 -999.25 4.1874 -999.25 112.6677 -999.25 115.7460  -999.25 123.1341  13.3200 66.4379 -999.25 18.9171 0.9685 0.9941
   10281.5000 17.4346 -999.25   8.6795  -999.25  45.8007 -999.25   2.5960 -999.25 4.1081 -999.25 106.0982 -999.25 108.9970  -999.25 115.9543  13.9500 67.3183 -999.25 19.8045 0.9894 1.0032
   10282.0000 17.4585 -999.25   9.3008  -999.25  49.9496 -999.25   2.5867 -999.25 4.0168 -999.25  98.8903 -999.25 101.5922  -999.25 108.0768  14.6700 68.3371 -999.25 20.4758 1.0052 1.0112
   10282.5000 17.3955 -999.25  10.1559  -999.25  53.9989 -999.25   2.5745 -999.25 3.9351 -999.25  92.6337 -999.25  95.1646  -999.25 101.2390  15.6800 69.7690 -999.25 20.9412 1.0087 1.0167
   10283.0000 17.4016 -999.25  10.7743  -999.25  57.5389 -999.25   2.5651 -999.25 3.8513 -999.25  87.8419 -999.25  90.2420  -999.25  96.0021  16.4100 70.7970 -999.25 21.1405 1.0045 1.0239
   10283.5000 17.4402 -999.25  11.2513  -999.25  60.3074 -999.25   2.5580 -999.25 3.7879 -999.25  84.5319 -999.25  86.8415  -999.25  92.3846  16.9700 71.5897 -999.25 21.3506 0.9978 1.0321
   10284.0000 17.4466 -999.25  11.7373  -999.25  63.0898 -999.25   2.5478 -999.25 3.6829 -999.25  82.2748 -999.25  84.5228  -999.25  89.9179  17.6000 72.4821 -999.25 21.5875 0.9918 1.0433
   10284.5000 17.4506 -999.25  12.2067  -999.25  65.7451 -999.25   2.5371 -999.25 3.5659 -999.25  80.6713 -999.25  82.8754  -999.25  88.1654  18.2300 73.3762 -999.25 21.8634 0.9944 1.0545
   10285.0000 17.4485 -999.25  12.5873  -999.25  67.8760 -999.25   2.5293 -999.25 3.4772 -999.25  78.9936 -999.25  81.1519  -999.25  86.3318  18.7200 74.0722 -999.25 22.1155 1.0030 1.0620
   10285.5000 17.4607 -999.25  12.7008  -999.25  69.0766 -999.25   2.5271 -999.25 3.4283 -999.25  77.3174 -999.25  79.4299  -999.25  84.4999  18.8500 74.2535 -999.25 22.4882 1.0183 1.0664
   10286.0000 17.4903 -999.25  12.7757  -999.25  69.7467 -999.25   2.5259 -999.25 3.3925 -999.25  75.5865 -999.25  77.6517  -999.25  82.6082  18.9200 74.3532 -999.25 22.7339 1.0367 1.0702
   10286.5000 17.4498 -999.25  12.8937  -999.25  70.3488 -999.25   2.5242 -999.25 3.3644 -999.25  73.8490 -999.25  75.8667  -999.25  80.7093  19.0400 74.5278 -999.25 22.9814 1.0463 1.0719
   10287.0000 17.4355 -999.25  13.2197  -999.25  70.5442 -999.25   2.5185 -999.25 3.3220 -999.25  72.4641 -999.25  74.4440  -999.25  79.1958  19.4500 75.0966 -999.25 23.0024 1.0452 1.0745
   10287.5000 17.4804 -999.25  13.5986  -999.25  70.0778 -999.25   2.5124 -999.25 3.3037 -999.25  71.6191 -999.25  73.5759  -999.25  78.2723  19.9100 75.7578 -999.25 22.8421 1.0352 1.0728
   10288.0000 17.4824 -999.25  13.6964  -999.25  69.4924 -999.25   2.5110 -999.25 3.3079 -999.25  71.5998 -999.25  73.5561  -999.25  78.2512  20.0300 75.9249 -999.25 22.4959 1.0243 1.0699
   10288.5000 17.4339 -999.25  13.6849  -999.25  69.3947 -999.25   2.5110 -999.25 3.3171 -999.25  72.4405 -999.25  74.4197  -999.25  79.1699  20.0300 75.9277 -999.25 22.0820 1.0131 1.0673
   10289.0000 17.4342 -999.25  13.5009  -999.25  69.6898 -999.25   2.5139 -999.25 3.3448 -999.25  73.9559 -999.25  75.9766  -999.25  80.8261  19.8300 75.6331 -999.25 21.6844 0.9991 1.0631
   10289.5000 17.4422 -999.25  13.3896  -999.25  69.7503 -999.25   2.5152 -999.25 3.3596 -999.25  75.7027 -999.25  77.7711  -999.25  82.7352  19.7200 75.4843 -999.25 21.3477 0.9868 1.0601
   10290.0000 17.4519 -999.25  13.2402  -999.25  68.8835 -999.25   2.5174 -999.25 3.3920 -999.25  77.6137 -999.25  79.7343  -999.25  84.8238  19.5600 75.2572 -999.25 21.2949 0.9729 1.0548
   10290.5000 17.4339 -999.25  12.9293  -999.25  67.4532 -999.25   2.5225 -999.25 3.4300 -999.25  79.1210 -999.25  81.2827  -999.25  86.4710  19.1800 74.7222 -999.25 21.3715 0.9637 1.0510
   10291.0000 17.4354 -999.25  12.4811  -999.25  66.5561 -999.25   2.5305 -999.25 3.4783 -999.25  79.7195 -999.25  81.8976  -999.25  87.1251  18.6000 73.9038 -999.25 21.6244 0.9615 1.0487
   10291.5000 17.4356 -999.25  12.2904  -999.25  66.8739 -999.25   2.5340 -999.25 3.4810 -999.25  79.3269 -999.25  81.4943  -999.25  86.6960  18.3500 73.5423 -999.25 21.8857 0.9671 1.0512
