~VERSION INFORMATION
VERS. 2.0 : CWLS Log ASCII Standard - version 2.0
WRAP.  NO : One line per depth step
#--------------------------------------------------#
#----------------DRILLING INFO, INC.---------------#
#---------------WWW.DRILLINGINFO.COM---------------#
#------------------COPYRIGHT 2015------------------#
#--------------------------------------------------#
#THIS FILE MAY BE USED ONLY IN ACCORDANCE WITH A CURRENT SUBSCRIPTION AGREEMENT BETWEEN
#THE USER AND DRILLING INFO, INC. NO PART OF THIS FILE MAY BE REPRODUCED, USED, COPIED,
#MODIFIED, PROPAGATED, OR DISTRIBUTED EXCEPT IN ACCORDANCE WITH THE SUBSCRIPTION
#AGREEMENT. UNAUTHORIZED USE OR DISTRIBUTION OF ALL OR ANY PART OF THIS FILE MAY VIOLATE
#COPYRIGHT, TRADEMARK, AND/OR OTHER LAWS AND IS SUBJECT TO CIVIL AS WELL AS CRIMINAL
#SANCTIONS.
#--------------------------------------------------#
#THIS FILE IS PROVIDED "AS-IS" AND ALL WARRANTIES ARE EXPRESSLY DISCLAIMED, WHETHER
#EXPRESS, ORAL, IMPLIED, STATUTORY OR OTHERWISE, INCLUDING ANY IMPLIED WARRANTY OF FITNESS
#FOR A PARTICULAR PURPOSE, MERCHANTABILITY, TITLE OR NON-INFRINGEMENT, AND ANY WARRANTIES
#ARISING BY VIRTUE OF CUSTOM OF TRADE OR COURSE OF DEALING.  FURTHER, DRILLING INFO,
#INC. AND ITS LICENSORS DO NOT REPRESENT OR WARRANT THAT THIS FILE WILL MEET USER'S
#REQUIREMENTS OR ARE SUITABLE FOR USER'S NEEDS OR THAT THE DATA OR RESULTS PROVIDED IN
#CONJUNCTION THEREWITH ARE CORRECT, ACCURATE, TIMELY OR RELIABLE. THESE DISCLAIMERS SHALL
#APPLY REGARDLESS OF ANY FAILURE OF ESSENTIAL PURPOSE OF ANY LIMITED REMEDY.  SOME
#JURISDICTIONS DO NOT ALLOW THE EXCLUSION OF CERTAIN WARRANTIES SO SOME OF THE ABOVE
#EXCLUSIONS MAY NOT APPLY. IN NO EVENT SHALL DRILLING INFO, INC. OR ANY OF ITS AFFILIATES
#BE LIABLE UNDER ANY LEGAL THEORY, WHETHER IN TORT (INCLUDING WITHOUT LIMITATION
#NEGLIGENCE), CONTRACT, STRICT LIABILITY, STATUTORY OR OTHERWISE, FOR ANY SPECIAL,
#INCIDENTAL, CONSEQUENTIAL, EXEMPLARY, PUNITIVE OR INDIRECT DAMAGE OF ANY KIND, INCLUDING
#WITHOUT LIMITATION LOSS OF REVENUE, PROFITS, GOODWILL, USE, AND/OR DATA OR THE COST OF
#PROCUREMENT OF SUBSTITUTE GOODS OR SERVICES, EVEN IF APPRISED OF THE POSSIBILITY OF SUCH
#DAMAGES IN ADVANCE.
#--------------------------------------------------#
~WELL INFORMATION
#MNEMONIC     .UNIT              VALUE :DESCRIPTION
#--------------------------------------------------#
STRT       .FT                35 :START DEPTH
STOP       .FT                15948 :STOP DEPTH
STEP       .FT                   0.500 :STEP
NULL       .                  -999.250 :NULL
API        .                421093136200 :API NUMBER
COMP       .         ARRINGTON DAVID H. OIL & GAS INC :COMPANY
WELL       .        SCOTT UNIT  1 :WELL
DATE       .                17-Jun-1991 :LOG DATE
~CURVE INFORMATION
#MNEMONIC     .UNIT      API CODE :CURVE DESCRIPTION
#--------------------------------------------------#
DEPTH       .FT                      :Measured Depth
CAL.INCH        UNKNOWN   :CAL
DT.US/FT        UNKNOWN   :DT
GR.API        UNKNOWN   :GR
~A    DEPTH    CAL    DT    GR
# ...
 10285.5     7.75   85.843   114.694
 10286     7.744   86.002   128.979
 10286.5     7.784   86.281   130.984
 10287     7.824   86.514   130.084
 10287.5     7.813   86.532   125.837
 10288     7.796   85.261   111.952
 10288.5     7.779   80.768   114.055
 10289     7.765   78.577   124.039
 10289.5     7.774   79.642   134.136
 10290     7.782   81.269   144.46
 10290.5     7.79   84.013   149.849
 10291     7.803   85.623   149.175
 10291.5     7.822   86.329   148.552
 10292     7.841   88.945   147.929
 10292.5     7.86   92.028   147.307
 10293     7.879   92.423   135.187
 10293.5     7.876   92.65   128.883
 10294     7.846   91.992   122.275
 10294.5     7.816   88.158   110.415
 10295     7.785   83.118   112.032
 10295.5     7.786   80.836   113.648
 10296     7.796   78.518   115.265
 10296.5     7.805   77.112   110.79
 10297     7.815   74.125   100.309
 10297.5     7.825   70.472   89.828
 10298     7.833   67.659   76.473
 10298.5     7.842   65.876   62.504
 10299     7.851   65.644   60.765
 10299.5     7.859   65.016   68.415
 10300     7.868   62.904   81.129
 10300.5     7.888   64.791   98.27
 10301     7.921   70.293   122.53
 10301.5     7.953   84.572   127.253
 10302     7.986   87.042   126.935
 10302.5     8.018   88.188   126.509
 10303     8.024   88.083   122.419
 10303.5     8.017   86.554   116.167
 10304     7.98   84.078   109.915
 10304.5     7.919   79.702   103.663
 10305     7.921   76.683   103.301
 10305.5     7.923   75.862   107.073
 10306     7.925   76.282   108.878
 10306.5     7.927   77.229   108.503
 10307     7.929   77.775   111.395
 10307.5     7.932   77.958   124.18
 10308     7.935   79.22   141.583
 10308.5     7.942   82.076   163.977
 10309     7.949   85.859   179.583
 10309.5     7.956   87.351   179.311
 10310     7.963   88.277   171.132
 10310.5     7.97   88.281   153.058
 10311     7.977   87.808   142.521
 10311.5     7.983   86.862   137.075
 10312     7.99   86.97   135.862
 10312.5     7.997   87.078   134.649
 10313     8.004   85.105   132.454
 10313.5     8.008   84.594   129.85
 10314     7.979   84.405   128.956
 10314.5     7.951   83.78   103.996
 10315     7.913   78.619   80.97
 10315.5     7.852   73.134   65.061
 10316     7.792   68.528   56.828
 10316.5     7.731   62.385   62.266
 10317     7.73   57.401   80.826
 10317.5     7.761   58.696   99.386
 10318     7.792   64.793   117.946
 10318.5     7.823   74.298   135.336
 10319     7.854   84.087   145.446
 10319.5     7.882   85.95   145.079
 10320     7.871   86.331   129.65
 10320.5     7.86   86.465   124.265
 10321     7.849   82.13   109.513
 10321.5     7.838   74.341   94.761
 10322     7.827   68.98   94.256
 10322.5     7.821   68.119   113.799
 10323     7.831   72.559   143.339
 10323.5     7.851   81.771   146.842
 10324     7.875   86.481   146.055
 10324.5     7.897   86.533   147.256
 10325     7.891   85.181   150.015
 10325.5     7.886   85.054   145.87
 10326     7.881   84.466   138.705
 10326.5     7.895   82.916   133.813
 10327     7.913   82.378   137.23
 10327.5     7.93   82.54   143.244
 10328     7.947   83.553   149.259
 10328.5     7.965   84.479   155.273
 10329     7.975   83.993   158.004
 10329.5     7.974   83.951   151.949
 10330     7.974   84.141   136.637
 10330.5     7.974   83.721   124.168
 10331     7.974   82.281   127.623
 10331.5     7.974   81.342   136.579
 10332     7.974   81.899   149.206
 10332.5     7.98   85.907   160.561
 10333     7.995   87.367   157.754
 10333.5     8.011   87.89   146.424
 10334     8.027   87.235   129.237
 10334.5     8.016   85.472   127.436
 10335     7.97   83.263   120.461
 10335.5     7.924   79.948   111.232
 10336     7.877   78.577   107.463
 10336.5     7.838   77.381   102.831
 10337     7.813   74.311   94.152
 10337.5     7.789   71.116   85.473
 10338     7.769   68.495   97.644
 10338.5     7.798   67.298   131.103
 10339     7.827   71.436   137.337
 10339.5     7.857   77.501   143.571
 10340     7.857   82.062   142.816
 10340.5     7.853   83.274   140.715
 10341     7.849   83.231   141.187
 10341.5     7.845   83.386   148.071
 10342     7.841   84.274   154.956
 10342.5     7.838   84.633   157.288
 10343     7.834   85.054   155.814
 10343.5     7.83   85.403   154.339
 10344     7.831   85.134   152.865
 10344.5     7.84   84.804   151.39
 10345     7.849   84.54   149.916
 10345.5     7.858   84.277   148.442
 10346     7.849   84.013   146.967
 10346.5     7.839   81.956   150.681
 10347     7.829   80.256   157.101
 10347.5     7.82   79.048   146.584
 10348     7.81   80.888   141.583
 10348.5     7.849   82.351   144.815
 10349     7.888   83.171   146.427
 10349.5     7.927   83.593   142.13
 10350     7.933   83.656   137.013
 10350.5     7.929   83.719   136.277
 10351     7.926   84.509   142.003
 10351.5     7.922   85.774   147.728
 10352     7.919   86.138   152.095
 10352.5     7.919   85.738   146.571
 10353     7.919   85.258   146.219
 10353.5     7.919   84.779   152.423
 10354     7.918   84.881   158.404
 10354.5     7.918   85.445   159.378
 10355     7.918   85.177   154.467
 10355.5     7.918   84.566   152.104
 10356     7.928   83.955   151.951
 10356.5     7.941   83.873   152.699
 10357     7.953   84.162   154.418
 10357.5     7.965   83.957   155.293
 10358     7.977   84.005   155.875
 10358.5     7.983   84.141   153.268
 10359     7.987   83.796   149.653
 10359.5     7.991   83.652   151.11
 10360     7.995   84.935   152.186
 10360.5     7.999   86.729   151.652
 10361     8.003   87.042   143.923
 10361.5     8.008   85.612   136.193
 10362     8.013   83.775   130.478
 10362.5     8.021   82.749   130.108
 10363     8.028   82.262   136.121
 10363.5     8.036   83.579   142.205
 10364     8.043   83.629   145.4
 10364.5     8.051   83.679   148.137
 10365     8.059   84.278   149.146
 10365.5     8.066   83.998   137.505
 10366     8.06   83.365   129.524
 10366.5     8.026   82.936   126.73
 10367     7.992   80.74   114.885
 10367.5     7.958   78.106   103.039
 10368     7.924   75.472   100.572
 10368.5     7.899   74.304   106.726
 10369     7.913   75.607   116.511
 10369.5     7.926   78.486   117.625
 10370     7.939   80.626   117.051
 10370.5     7.952   81.43   113.013
 10371     7.929   81.005   101.685
 10371.5     7.869   77.815   90.357
 10372     7.81   74.381   90.017
 10372.5     7.802   70.687   130.004
 10373     7.832   70.977   146.32
 10373.5     7.862   77.678   162.636
 10374     7.892   84.481   175.934
 10374.5     7.922   86.4   166.902
 10375     7.953   85.252   140.893
 10375.5     7.909   83.1   123.487
 10376     7.853   80.142   112.78
 10376.5     7.796   75.196   109.318
 10377     7.78   71.499   116.62
 10377.5     7.806   74.357   129.599
 10378     7.833   79.266   139.324
 10378.5     7.86   83.735   149.05
 10379     7.878   86.25   153.239
 10379.5     7.882   85.934   150.644
 10380     7.886   85.452   151.447
 10380.5     7.891   85.095   157.251
 10381     7.897   85.964   163.85
 10381.5     7.903   86.545   158.388
 10382     7.867   86.198   138.554
 10382.5     7.788   82.009   115.265
 10383     7.729   76.605   89.513
 10383.5     7.716   71.325   76.641
 10384     7.703   66.376   72.594
 10384.5     7.706   63.253   110.823
 10385     7.714   66.537   134.089
 10385.5     7.732   73.251   143.381
 10386     7.754   83.604   152.673
 10386.5     7.776   84.104   154.531
 10387     7.798   83.517   143.777
 10387.5     7.821   83.591   133.023
 10388     7.843   84.544   130.649
 10388.5     7.865   84.996   130.108
 10389     7.887   84.032   130.86
 10389.5     7.877   83.067   134.014
 10390     7.867   82.819   137.167
 10390.5     7.856   83.058   136.893
 10391     7.846   82.587   131.603
 10391.5     7.836   80.752   121.709
 10392     7.825   78.077   116.446
 10392.5     7.815   76.82   120.22
 10393     7.804   75.838   128.434
 10393.5     7.794   77.082   148.721
 10394     7.784   79.144   167.541
 10394.5     7.776   82.135   168.541
