###############################################
##         ENVERUS                           ##
##         ESS - Open Hole                   ##
##         PERMIAN / DELAWARE                ##
##         Nov 03 2023  V4.0                 ##
##         42-109-32709-00-00                ##
###############################################
## Copyright 2017-2023  ENVERUS.  All Rights Reserved. 
## Confidential - Property of ENVERUS, use governed by terms and 
## conditions found within the existing Information Services Subscription Agreement 
## (as may be amended, the “ISSA”) between Customer and ENVERUS. 
## 
~VERSION INFORMATION
# MNEM.UNIT                               DATA : DESCRIPTION OF MNEMONIC
#-----.-----     ----------------------------- : -----------------------------
VERS.                                     2.00 : CWLS LOG ASCII STANDARD - VERSION 2.00
WRAP.                                       NO : MULTIPLE LINES PER DEPTH STEP
VEND.                                  ENVERUS : VENDOR
TYPE.                          ESS - OPEN HOLE : ENVERUS ESSENTIAL CURVES – ACCESSIBLE THROUGH ENVERUS PRISM(TM)
DOC.                                  32116645 : ENVERUS HEADER RAW DOCUMENT ID
#___________________________________________________________________________________________________ 
~WELL INFORMATION 
# 8SOIrMNgLSTosdYTMQVb7KPebVRgGb4NQOaGG3/cpRvPeoxWQd7So5pZ7XPWbXIrV4d26no2f3ffGwkTWQV8GA== 
# MNEM.UNIT                                              DATA : DESCRIPTION OF MNEMONIC 
#-----.-----                    ----------------------------- : ----------------------------- 
CNTY.                                               CULBERSON : COUNTY 
STATE.                                                  TEXAS : STATE 
CNTRY.                                                    USA : COUNTRY 
API.                                             42-109-32709 : API (10 Digit) 
API_14.                                    42-109-32709-00-00 : API (14 Digits) 
API_14_std.                                 42-109-32709-0000 : API (14 Digits Standard) 
UWI.                                           42109327090000 : UNIQUE WELL ID 
WELL.                                    42109327090000_API14 : WELL NAME
STRT.FT                                                  26.5 : START DEPTH
STOP.FT                                                5244.0 : STOP DEPTH
STEP.FT                                                   0.5 : STEP BETWEEN DEPTHS
NULL.                                                 -999.25 : NULL VALUE
#___________________________________________________________________________________________________ 
~PARAMETER INFORMATION 
# MNEM.UNIT                                              DATA : DESCRIPTION OF MNEMONIC 
#-----.-----                    ----------------------------- : ----------------------------- 
EKB.FT                                                   3124 : ELEVATION ABOVE MSL
#___________________________________________________________________________________________________ 
~CURVE INFORMATION 
# MNEM.UNIT           : CURVE DESCRIPTION 
#-----.-----          : ----------------------------- 
 DEPT.FT               : MEASURED DEPTH 
 CALI.IN               : CALIPER (CAL - CALIPER) 
 GR.API                : GAMMA RAY (GAMMA RAY) 
 DT.US/FT              : SONIC DELTA TRANSIT TIME (SONIC) 
 PE.B/E                : PHOTOELECTRIC EFFECT/FACTOR (PHOTOELECTRIC FACTOR) 
 RESS.OHMM             : SHALLOW INDUCTION RESISTIVITY (ILS - SHALLOW RESISTIVITY) 
 RESS_LL.OHMM          : SHALLOW LATEROLOG (LLS - SHALLOW RESISTIVITY) 
 RESD_LL.OHMM          : DEEP LATEROLOG (LLD - DEEP RESISTIVITY) 
 DPHI.V/V              : DENSITY POROSITY (DENSITY POROSITY) 
 NPHI.V/V              : NEUTRON POROSITY (NEUTRON POROSITY) 
 RHOB.G/CC             : BULK DENSITY (DENSITY) 
 #___________________________________________________________________________________________________ 
~A         DEPT           CALI             GR             DT             PE           RESS        RESS_LL        RESD_LL           DPHI           NPHI           RHOB
# ...
          663.5         10.910          5.483        264.149         2.1302       -999.250      -999.2500      -999.2500        0.53347        0.40467      -999.2500
          664.0         10.901          7.261        263.627         2.1280       -999.250      -999.2500      -999.2500        0.57404        0.35976      -999.2500
          664.5         10.901          8.225        263.366         2.2857       -999.250      -999.2500      -999.2500        0.59294        0.30652      -999.2500
          665.0         10.866          8.225        263.627         2.3471       -999.250      -999.2500      -999.2500        0.38516        0.34820      -999.2500
          665.5         10.746         10.781        263.627         2.3482       -999.250      -999.2500      -999.2500        0.35171        0.34474      -999.2500
          666.0         10.684         15.476        263.627         2.4479       -999.250      -999.2500      -999.2500        0.34831        0.32957      -999.2500
          666.5         10.605         19.548        263.366         2.5444       -999.250      -999.2500      -999.2500        0.34713        0.34437      -999.2500
          667.0         10.625         18.808        263.104         2.4415       -999.250      -999.2500      -999.2500        0.51381        0.38135      -999.2500
          667.5         10.976         14.858        263.104         1.9603       -999.250      -999.2500      -999.2500        0.69092        0.46606      -999.2500
          668.0         11.241         13.708        263.104         1.8146       -999.250      -999.2500      -999.2500        0.70000        0.48909      -999.2500
          668.5         11.237         15.358        263.049         1.8418       -999.250      -999.2500      -999.2500        0.70040        0.39971      -999.2500
          669.0         10.579         17.232        262.843         2.3200       -999.250      -999.2500      -999.2500        0.68639        0.36097      -999.2500
          669.5         10.313         15.239        262.677         2.9654       -999.250      -999.2500      -999.2500        0.46397        0.26584      -999.2500
          670.0         10.200          9.668        262.958         3.1771       -999.250      -999.2500      -999.2500        0.26451        0.23621      -999.2500
          670.5         10.170          5.282        263.104         3.3608       -999.250      -999.2500      -999.2500        0.09785        0.22203      -999.2500
          671.0         10.034          5.091        262.843         3.5005       -999.250      -999.2500      -999.2500        0.09534        0.18118      -999.2500
          671.5          9.696          6.134        262.582         3.6894       -999.250      -999.2500      -999.2500        0.10229        0.14952      -999.2500
          672.0          9.531          7.050        262.582         4.0864       -999.250      -999.2500      -999.2500        0.09516        0.09867      -999.2500
          672.5          9.328          7.833        262.794         4.7410       -999.250      -999.2500      -999.2500       -0.07466        0.03247      -999.2500
          673.0          9.165         10.139        262.843         5.1525       -999.250      -999.2500      -999.2500       -0.16306        0.00296      -999.2500
          673.5          9.103         13.271        263.104         5.2071       -999.250      -999.2500      -999.2500       -0.18870       -0.01270      -999.2500
          674.0          9.162         15.274        263.104         5.1484       -999.250      -999.2500      -999.2500       -0.17785       -0.01745      -999.2500
          674.5          9.182         14.447        263.104         5.0882       -999.250      -999.2500      -999.2500       -0.16431       -0.01707      -999.2500
          675.0          9.142         13.389        263.056         4.9901       -999.250      -999.2500      -999.2500       -0.15170       -0.01586      -999.2500
          675.5          9.103         15.871        262.843         4.9085       -999.250      -999.2500      -999.2500       -0.14020       -0.01392      -999.2500
          676.0          9.128         20.497        262.843         4.8680       -999.250      -999.2500      -999.2500       -0.13798       -0.01226      -999.2500
          676.5          9.162         20.596        263.104         4.8521       -999.250      -999.2500      -999.2500       -0.14259       -0.01076      -999.2500
          677.0          9.195         19.773        263.104         4.8521       -999.250      -999.2500      -999.2500       -0.13540       -0.01037      -999.2500
          677.5          9.034         26.727        263.104         4.8323       -999.250      -999.2500      -999.2500       -0.11514       -0.01062      -999.2500
          678.0          8.984         40.267        263.104         4.8799       -999.250      -999.2500      -999.2500       -0.11734       -0.01037      -999.2500
          678.5          8.912         49.791        263.104         4.9112       -999.250      -999.2500      -999.2500       -0.15201       -0.01155      -999.2500
          679.0          8.866         49.515        263.104         4.8813       -999.250      -999.2500      -999.2500       -0.16872       -0.01294      -999.2500
          679.5          8.831         41.341        263.104         4.7224       -999.250      -999.2500      -999.2500       -0.16809       -0.01409      -999.2500
          680.0          8.826         34.175        263.104         4.7140       -999.250      -999.2500      -999.2500       -0.16688       -0.01209      -999.2500
          680.5          8.808         34.469        263.102         4.7732       -999.250      -999.2500      -999.2500       -0.16554       -0.01313      -999.2500
          681.0          8.787         36.031        262.821         4.7929       -999.250      -999.2500      -999.2500       -0.16436       -0.01392      -999.2500
          681.5          8.787         31.473        262.624         4.8676       -999.250      -999.2500      -999.2500       -0.16484       -0.01392      -999.2500
          682.0          8.787         23.315        262.905         4.9310       -999.250      -999.2500      -999.2500       -0.15628       -0.01280      -999.2500
          682.5          8.787         21.149        263.104         4.9310       -999.250      -999.2500      -999.2500       -0.14003       -0.00930      -999.2500
          683.0          8.787         23.017        263.104         4.9310       -999.250      -999.2500      -999.2500       -0.12773       -0.00684      -999.2500
          683.5          8.833         26.780        262.985         4.9310       -999.250      -999.2500      -999.2500       -0.12012       -0.00325      -999.2500
          684.0          8.893         32.351        262.843         4.8903       -999.250      -999.2500      -999.2500       -0.11140       -0.00084      -999.2500
          684.5          8.945         37.445        262.582         4.8949       -999.250      -999.2500      -999.2500       -0.11760        0.00298      -999.2500
          685.0          8.955         40.484        262.582         5.0477       -999.250      -999.2500      -999.2500       -0.11239        0.01593      -999.2500
          685.5          9.004         42.689        262.843         4.7620       -999.250      -999.2500      -999.2500        0.03254        0.10099      -999.2500
          686.0          9.037         40.535        263.061         4.2352       -999.250      -999.2500      -999.2500        0.11553        0.13229      -999.2500
          686.5          9.078         30.727        263.104         3.8219       -999.250      -999.2500      -999.2500        0.30389        0.13574      -999.2500
          687.0          9.106         20.789        262.843         4.2406       -999.250      -999.2500      -999.2500        0.10313        0.14277      -999.2500
          687.5          9.044         16.381        262.843         4.8056       -999.250      -999.2500      -999.2500       -0.04951        0.04022      -999.2500
