# Exported from Transform Software 5.2.0 on 27-Jun-2019 by user brian.umlang
# DI Transform - A Product of Drillinginfo, Inc. - www.drillinginfo.com
#
~VERSION INFORMATION
 VERS.        2.0 : LAS ASCII STANDARD - VERSION 2.0
 WRAP.         NO : ONE LINE PER DEPTH STEP

~WELL INFORMATION
#MNEM.UNIT       DATA TYPE       INFORMATION
#---------       ---------       -----------
 STRT.ft                   0 : Start Depth
 STOP.ft               12430 : Stop Depth
 STEP.ft                 0.5 : Step Length
 NULL.               -999.25 : Null Value
 COMP.                       : Company
 WELL.  42109313590000_API14 : Well Name
 FLD.                        : Field Name
 LOC.                        : Well Location
 CNTY.                       : County
 STAT.                       : State or Province
 CTRY.                       : Country
 SRVC.                       : Service Company
 DATE.                       : Date
 API.         42109313590000 : Well Identifier

~CURVE INFORMATION
#MNEM.UNIT       API CODE       CURVE DESCRIPTION
#---------       --------       -----------------
 DEPT.ft          : <Measured Depth>
 CAL.in           : Caliper
 DPHI.%           : Density Porosity
 DT.us/ft         : Sonic
 GR.gAPI          : Gamma Ray
 ILD.ohmm         : Deep Resistivity
 ILM.ohmm         : Medium Resistivity
 ILS.ohmm         : Shallow Resistivity
 NPHI.%           : Neutron Porosity
 RHOB.g/cm3       : Density
 SP.mV            : Spontaneous Potential

~PARAMETER INFORMATION
#MNEM.UNIT       VALUE       DESCRIPTION
#---------       -----       -----------
 EKB.ft      3771 : Elevation above MSL

~A      DEPT         CAL        DPHI          DT          GR         ILD         ILM         ILS        NPHI        RHOB          SP
# ...
      2104.5     15.6607     29.7271     84.1281     22.8718     14.8254     14.4414     37.2053     29.9316      2.3593    -77.2291
        2105     15.6607     29.7242     83.6245     22.4359     15.3133      14.472     37.2053     29.9322      2.3643    -78.8289
      2105.5     15.6607     29.7214     83.3024     22.4359     15.3133     14.5628     37.2053     29.9327      2.3601    -80.3125
        2106     15.6213     29.7185     82.8658     23.0734     15.3133     14.5628     37.2053     29.9333      2.3564    -79.2214
      2106.5     15.6213     29.7156     82.7447     25.2108     15.3133     14.5628     37.2053     29.9339      2.3565    -70.3125
        2107     15.6213     29.7128     82.6391     27.0528     15.3133     14.5628     37.5182     29.9344      2.3644    -70.3125
      2107.5     15.6213     29.7099     82.6274       28.31     14.9522     14.3209     36.9416      29.935      2.3762    -70.3125
        2108     15.5234     29.7071     82.6236     28.8368     14.8088     14.3209      36.895     29.9356      2.3896    -70.3125
      2108.5     15.5229     29.7042      82.442     28.8462     14.9333     14.3209     36.9225     29.9361      2.3807    -70.3125
        2109     15.6237     29.7014     82.0751     29.8624     14.9333     14.3209     37.5182     29.9367      2.3937    -70.3125
      2109.5     15.7243     29.6985     81.8365     29.0383     15.7029     14.4414     37.9379     29.9373      2.3781    -70.3125
        2110     15.8185     29.6956      81.776     28.5996     15.7029     14.4414     39.1226     29.9378      2.3689    -70.3125
      2110.5     15.8103     29.6928     81.7745     28.3531     15.7029     14.4414     40.7956     29.9384      2.3513    -70.1355
        2111     15.6505     29.6899     81.9506     32.4253     15.7935     14.6468     40.4553      29.939      2.3664         -70
      2111.5       15.55     29.6871     82.4186     33.6824     16.0763     14.6853      40.118     29.9395      2.3834         -70
        2112     15.4635     29.6842     82.5066     34.5168     16.5121     14.6853      40.118     29.9401      2.3967         -70
      2112.5     15.4154     29.6814     81.7758     33.0122     17.2246     14.5628      40.118     29.9407      2.4133    -69.6875
        2113     15.2483     29.6785     80.3362     29.6074     17.6563     14.5628     40.4553     29.9412        2.43    -66.5113
      2113.5     15.1477     29.6757     78.8395     28.1009     17.6563     14.6853     40.7956     29.9418      2.4406    -63.7969
        2114     15.0888     29.6728     77.6755     25.1208     17.6563     14.6853     40.7956     29.9424      2.4351     -63.125
      2114.5     15.0888     29.6699     77.2638     27.2805      17.883     14.6853     41.6668     29.9429      2.4315    -60.7743
        2115     15.0888     29.6671     76.8859     29.4152     18.1055     14.9333     42.5401     29.9435       2.428    -59.1745
      2115.5     15.0888     29.6642     76.6197     30.6723     18.2214     14.9333     42.5401     29.9441      2.4318    -57.2622
        2116     14.9604     29.6614     76.3583     31.4363     18.2578     14.9333     42.5401     29.9446      2.4401    -55.6623
      2116.5     14.8321     29.6585     76.3269     32.8912     18.7223     15.0589     42.1853     29.9452      2.4483    -45.1562
        2117     14.7929     29.6557     76.6224     34.1971     18.7223      15.074     41.1387     29.9457      2.4608    -52.8498
      2117.5     14.7929     29.6528     76.6902      34.319     18.7223     15.3133     41.4846     29.9463      2.4773    -55.3872
        2118     14.7929     29.6499     76.7508     32.0757     18.7223     15.3133     41.4846     29.9469      2.4809     -56.987
      2118.5     14.7929     29.6471     76.4224     31.3116     18.8798     15.3133     42.3549     29.9474      2.4824    -64.5243
        2119     14.8126     29.6442     75.5039     32.5687     19.1986     15.0844     42.5401      29.948      2.4753    -66.7491
      2119.5     14.8146     29.6414     74.9387     31.7073     19.5229     15.1856     42.5401     29.9486      2.4755       -67.5
        2120     14.8323     29.6385     74.5711      30.572     19.5229     15.1856     42.5401     29.9491      2.4915       -67.5
      2120.5     14.6319     29.6357     74.3076      31.776     19.8453     15.4363     42.5401     29.9497      2.4915     -66.875
        2121      14.497     29.6328     74.1067     33.4058     19.8527      15.693     42.5401     29.9503      2.4816    -67.5235
      2121.5     14.4656       29.63     73.8452      34.663     19.8527     15.5719     41.4846     29.9508      2.4905    -69.6875
        2122     14.4181     29.6271     73.7841     36.1666     19.8527     15.5719     41.4846     29.9514      2.4905    -69.6875
      2122.5     14.3792     29.6242     73.6855     34.4308     19.8527     15.5719     42.8979      29.952      2.4905     -64.552
        2123     14.2801     29.6214     73.6024      31.832     19.8527      15.442     42.8979     29.9525      2.4845    -62.4669
      2123.5     14.2801     29.6185     73.7235     30.5749     19.8527     15.5506     42.5401     29.9531      2.4848     -58.125
        2124     14.2998     29.6157     73.9051     29.3393     19.8527     15.5719     42.5401     29.9537      2.4858     -58.125
      2124.5     14.2376     29.6128     74.2869     29.3851     19.8527     15.5719     42.5401     29.9542      2.4935    -58.4375
        2125     14.1617       29.61     74.5577     30.6422     19.8527     15.5679     42.5401     29.9548      2.4798    -59.6971
      2125.5     14.1617     29.6071     74.6038     31.8047     19.6871     15.3133     42.5401     29.9554      2.4724      -61.25
        2126     14.0339     29.6042     74.8653     31.0651     19.6871     15.3133     42.5401     29.9559       2.476     -61.264
      2126.5     13.9161     29.6014     75.2479      31.885     19.6871     15.3133     42.5401     29.9565      2.4699     -53.125
        2127     13.8659     29.5985     75.4793     34.1914     19.6871     15.1856     42.0064     29.9571      2.4582     -53.125
      2127.5     13.7618     29.5957     75.4793     35.2564      19.905     15.3941     42.0545     29.9576      2.4693     -53.125
        2128     13.6612     29.5928     75.2896     36.6755     20.8318     15.5719     42.1853     29.9582      2.4683     -53.125
      2128.5     13.5606       29.59     74.3238     38.5705     21.7443     15.6854     42.4929     29.9588      2.4697    -62.0734
        2129     13.4904     29.5888     73.5297     40.1874     21.9515     15.9681     42.8979     29.9593      2.4724    -65.6207
      2129.5     13.4401     29.5888     72.3118     39.1366     22.8902      16.791     44.3987     29.9599      2.4782    -71.2831
        2130     13.3898     29.5888     70.8779     37.4079     22.8902      16.791     45.9573     29.9604      2.4857    -72.8829
      2130.5     13.3728     29.5888     69.5595      34.651     25.1719      16.791      47.832      29.961      2.4945    -77.9202
        2131     13.3127     29.5888      67.626     27.4973     25.6227     17.2854     48.2343     29.9616      2.5118    -79.5201
      2131.5     13.2441     29.4621     66.0226     25.1863     26.3009     17.6816     48.6399     29.9621      2.5211    -73.2679
        2132      13.157     29.3759     64.8202     24.0801     27.2241     17.8048     48.6399     29.9627      2.5313    -71.3428
      2132.5     13.1428     29.1403     63.5518     31.4958     28.2214     18.2578     48.9764     29.9633      2.5434    -67.6109
        2133     13.0889     29.1218     63.3293     33.4977     28.2214     18.5662     49.4615     29.9638      2.5414    -62.5544
      2133.5     13.0503     29.1218     63.8174     34.7548     27.7384     18.1055      49.049     29.9644      2.5405    -56.8558
        2134      13.016      29.436     64.8742      41.929     26.5744     18.1055      49.049      29.965      2.5405    -55.1429
      2134.5      13.003     28.1116     66.4044     41.6493     25.7377     18.1055     48.6399     29.9655      2.5412    -52.4061
