~Version Information
 VERS.                  2.0:   CWLS log ASCII Standard -VERSION 2.0
 WRAP.                   NO:   One line per depth step
~Well Information Block
#MNEM.UNIT     VALUE/NAME     DESCRIPTION
#---------     -----------    ---------------------------
 STRT.F              8400.0000: START DEPTH
 STOP.F             14661.0000: STOP DEPTH
 STEP.F                 0.5000: STEP DEPTH
 NULL.                 -999.25: NULL VALUE
 LOC .            42-109-33545:  LOCATION
 FL1 .            42-109-33545:  LOCATIONLINE1
 DMF .             Drill Floor:  DRILL MEAS FROM
 PDAT.                      GL:  PERMANENT DATUM
 CNTY.               CULBERSON:  COUNTY NAME
 FLD .              WOLFCAMP B:  FIELD NAME
 WELL.           DALE STATE 3H:  WELL NAME
 COMP.     CAPITAN ENERGY INC.:  COMPANY
 DATE.             12-Feb-2020:  DATE
 SVCO.             Halliburton:  SERVICECONAME
 PROV.                      TX:  PROVINCE
 STAT.                      TX:  STATE NAME
 HIDE.                        :  WELLNAMEOPERAT
 BASI.                 PERMIAN:  BASIN
 UWI .            42-109-33545:  UNIQUE WELL IDENTIFIER
 API .            42-109-33545:  API NUMBER
 RANG.                     N/A:  RANGE
 TOWN.                     N/A:  TOWNSHIP
 SECT.                     N/A:  SECTION
 SON .               906290460:  JOB NUMBER
 CTRY.                        :  COUNTRY
 SRVC.             Halliburton:  SERVICE COMPANY
 LMF .             Drill Floor:  LOG MEASURED FROM
 TVDS.ft             3291.0000:  TVDSS CORRECTN
 EGL .ft             3266.0000:  GROUND ELEVATION
 APD .ft               25.0000:  DEPTH ABOVE PD
 EPD .ft             3266.0000:  ELEVATION
 BAP .ft                0.0000:  GL ELEV ONSHORE
 GVFD.g                 1.0000:  GRAVITY FIELD
 EKB .ft             3291.0000:  KB ELEVATION
 EDF .ft             3291.0000:  DF ELEVATION
~Curve Information Block
#MNEM.UNIT                 API CODE     Curve Description
#---------               -----------    ---------------------------
 DEPT.F                 00 000 000 000:  Depth
 CCL .V                 00 000 000 000:  Casing Collar Locator
 NPHI_OH.pu             00 000 000 000:  NPHI_OH
 NPHI_CHI.decp          00 000 000 000:  NPHI_CHI
 GR_OH.api              00 000 000 000:  GR_OH
 GR_CHI.api             00 000 000 000:  GR_CHI
 RHOB_OH.g/cc           00 000 000 000:  RHOB_OH
 RHOB_CHI.g/cc          00 000 000 000:  RHOB_CHI
 PE_OH.NONE             00 000 000 000:  PE_OH
 PE_CHI.NONE            00 000 000 000:  PE_CHI
 LLS_CHI.ohmm           00 000 000 000:  LLS_CHI
 LLS_OH.ohmm            00 000 000 000:  LLS_OH
 LLD_OH.ohmm            00 000 000 000:  LLD_OH
 LLD_CHI.ohmm           00 000 000 000:  LLD_CHI
 DTC_OH.uspf            00 000 000 000:  DTC_OH
 DTC_CHI.uspf           00 000 000 000:  DTC_CHI
 SPHW_CHI.decp          00 000 000 000:  SPHW_CHI
#Other Information
#
#WARRANTY: Halliburton will use its best efforts to furnish customers with 
#accurate information and interpretations that are part of, and incident to, the services 
#provided.  However, Halliburton cannot and does not warrant the accuracy 
#or correctness of such information and interpretations.  Under no circumstances should any 
#such information or interpretation be relied upon as the sole basis for any drilling, 
#completion, production, or financial decision or any procedure involving any risk to the 
#safety of any drilling venture, drilling rig or its crew or any other third party.  The 
#Customer has full responsibility for all drilling, completion and production operation.  
#Halliburton makes no representations or warranties, either expressed or 
#implied, including, but not limited to, the implied warranties of merchantability or fitness 
#for a particular purpose, with respect to the services rendered.  In no event will 
#Halliburton be liable for failure to obtain any particular results or for 
#any damages, including, but not limited to, indirect, special or consequential damages, 
#resulting from the use of any information or interpretation provided by Halliburton.
#
~A    DEPT      CCL   NPHI_OH NPHI_CHI  GR_OH    GR_CHI  RHOB_OH RHOB_CHI  PE_OH  PE_CHI  LLS_CHI   LLS_OH    LLD_OH    LLD_CHI  DTC_OH  DTC_CHI SPHW_CHI 
# ...
   11315.0000  0.0000 -999.25   0.1245  -999.25  73.1690 -999.25   2.5801 -999.25 3.2727   47.0824   -999.25   -999.25   56.5530 -999.25 72.1475 0.1736
   11315.5000  0.0368 -999.25   0.1241  -999.25  70.5795 -999.25   2.5824 -999.25 3.2527   42.6113   -999.25   -999.25   51.4772 -999.25 71.9158 0.1720
   11316.0000 -0.0593 -999.25   0.1242  -999.25  70.5887 -999.25   2.5820 -999.25 3.2297   40.8071   -999.25   -999.25   49.2367 -999.25 71.9669 0.1723
   11316.5000  0.0000 -999.25   0.1233  -999.25  69.1450 -999.25   2.5817 -999.25 3.2048   39.0912   -999.25   -999.25   47.0129 -999.25 72.0084 0.1726
   11317.0000  0.0000 -999.25   0.1245  -999.25  75.7184 -999.25   2.5779 -999.25 3.1824   40.4971   -999.25   -999.25   48.4389 -999.25 72.3559 0.1751
   11317.5000  0.0729 -999.25   0.1242  -999.25  66.1683 -999.25   2.5757 -999.25 3.1689   41.0289   -999.25   -999.25   48.6474 -999.25 71.9215 0.1720
   11318.0000 -0.0477 -999.25   0.1281  -999.25  66.8472 -999.25   2.5684 -999.25 3.1370   44.7234   -999.25   -999.25   52.6186 -999.25 71.7188 0.1706
   11318.5000  0.0000 -999.25   0.1321  -999.25  65.3929 -999.25   2.5612 -999.25 3.1165   50.2544   -999.25   -999.25   58.8203 -999.25 71.3475 0.1679
   11319.0000  0.0000 -999.25   0.1364  -999.25  71.2090 -999.25   2.5524 -999.25 3.1143   61.2254   -999.25   -999.25   70.9797 -999.25 71.2138 0.1670
   11319.5000  0.0240 -999.25   0.1315  -999.25  65.3608 -999.25   2.5562 -999.25 3.1916   66.8116   -999.25   -999.25   77.6236 -999.25 70.4433 0.1616
   11320.0000  0.0000 -999.25   0.1249  -999.25  63.9380 -999.25   2.5611 -999.25 3.2994   73.6751   -999.25   -999.25   85.5900 -999.25 69.7418 0.1566
   11320.5000 -0.0267 -999.25   0.1183  -999.25  62.8829 -999.25   2.5680 -999.25 3.4082   77.9299   -999.25   -999.25   90.6775 -999.25 69.4253 0.1544
   11321.0000 -0.0635 -999.25   0.1151  -999.25  64.4880 -999.25   2.5710 -999.25 3.4667   80.6436   -999.25   -999.25   93.5708 -999.25 69.4977 0.1549
   11321.5000  0.0000 -999.25   0.1145  -999.25  73.3461 -999.25   2.5734 -999.25 3.4648   77.9589   -999.25   -999.25   90.4221 -999.25 70.6799 0.1632
   11322.0000  0.0163 -999.25   0.1182  -999.25  85.9213 -999.25   2.5715 -999.25 3.4110   74.9074   -999.25   -999.25   86.8460 -999.25 72.2674 0.1745
   11322.5000  0.0000 -999.25   0.1169  -999.25  75.6731 -999.25   2.5786 -999.25 3.3606   58.1583   -999.25   -999.25   68.1650 -999.25 72.1388 0.1735
   11323.0000 -0.0196 -999.25   0.1238  -999.25  85.5937 -999.25   2.5740 -999.25 3.2736   53.3494   -999.25   -999.25   62.6635 -999.25 73.4680 0.1829
   11323.5000  0.0000 -999.25   0.1303  -999.25  91.9755 -999.25   2.5697 -999.25 3.2078   49.4960   -999.25   -999.25   58.2478 -999.25 74.3746 0.1894
   11324.0000  0.0000 -999.25   0.1357  -999.25  98.9429 -999.25   2.5669 -999.25 3.1439   43.6870   -999.25   -999.25   51.6795 -999.25 75.1231 0.1946
   11324.5000  0.0226 -999.25   0.1415  -999.25 106.5776 -999.25   2.5621 -999.25 3.1208   43.8301   -999.25   -999.25   51.9166 -999.25 75.9002 0.2001
   11325.0000  0.0000 -999.25   0.1425  -999.25  98.4305 -999.25   2.5639 -999.25 3.1092   39.3081   -999.25   -999.25   46.6060 -999.25 75.6331 0.1983
   11325.5000  0.0000 -999.25   0.1522  -999.25 118.0982 -999.25   2.5526 -999.25 3.0906   44.9904   -999.25   -999.25   53.5667 -999.25 76.5376 0.2047
   11326.0000  0.0450 -999.25   0.1552  -999.25 118.0275 -999.25   2.5504 -999.25 3.0814   44.0859   -999.25   -999.25   52.5909 -999.25 76.2386 0.2025
   11326.5000  0.0000 -999.25   0.1587  -999.25 124.4698 -999.25   2.5464 -999.25 3.0498   42.8142   -999.25   -999.25   51.2811 -999.25 76.8173 0.2066
   11327.0000  0.0000 -999.25   0.1575  -999.25 115.2083 -999.25   2.5480 -999.25 3.0161   37.9051   -999.25   -999.25   45.3183 -999.25 76.4902 0.2043
   11327.5000  0.0128 -999.25   0.1592  -999.25 114.4387 -999.25   2.5451 -999.25 2.9803   36.9258   -999.25   -999.25   44.0539 -999.25 76.9255 0.2074
   11328.0000 -0.0666 -999.25   0.1623  -999.25 123.9865 -999.25   2.5390 -999.25 2.9587   40.8129   -999.25   -999.25   48.5900 -999.25 78.4446 0.2181
   11328.5000  0.0000 -999.25   0.1594  -999.25 118.7282 -999.25   2.5422 -999.25 2.9636   39.8373   -999.25   -999.25   47.3430 -999.25 77.7800 0.2134
   11329.0000  0.0000 -999.25   0.1555  -999.25 117.2972 -999.25   2.5469 -999.25 2.9768   38.2608   -999.25   -999.25   45.5579 -999.25 77.3449 0.2104
   11329.5000 -0.0151 -999.25   0.1532  -999.25 120.6090 -999.25   2.5494 -999.25 2.9966   38.9522   -999.25   -999.25   46.4536 -999.25 77.4949 0.2114
   11330.0000  0.0672 -999.25   0.1549  -999.25 131.9456 -999.25   2.5467 -999.25 3.0069   42.3343   -999.25   -999.25   50.6490 -999.25 78.4093 0.2179
   11330.5000  0.0000 -999.25   0.1482  -999.25 106.4401 -999.25   2.5559 -999.25 3.0109   36.2227   -999.25   -999.25   42.9707 -999.25 76.4573 0.2041
   11331.0000 -0.0564 -999.25   0.1544  -999.25 117.1553 -999.25   2.5472 -999.25 3.0135   43.1859   -999.25   -999.25   51.0736 -999.25 77.6729 0.2127
   11331.5000 -0.0515 -999.25   0.1550  -999.25 115.2419 -999.25   2.5478 -999.25 3.0165   41.6513   -999.25   -999.25   49.3568 -999.25 77.3866 0.2107
   11332.0000  0.0000 -999.25   0.1584  -999.25 116.3618 -999.25   2.5451 -999.25 3.0246   42.7250   -999.25   -999.25   50.7089 -999.25 77.1959 0.2093
   11332.5000  0.0157 -999.25   0.1586  -999.25 120.0701 -999.25   2.5476 -999.25 3.0427   39.9721   -999.25   -999.25   47.9826 -999.25 76.0424 0.2011
   11333.0000  0.0000 -999.25   0.1588  -999.25 124.6007 -999.25   2.5486 -999.25 3.0675   41.1491   -999.25   -999.25   49.6719 -999.25 75.4056 0.1966
   11333.5000  0.0000 -999.25   0.1611  -999.25 141.9768 -999.25   2.5456 -999.25 3.0717   44.7229   -999.25   -999.25   54.4372 -999.25 76.1067 0.2016
   11334.0000  0.0000 -999.25   0.1560  -999.25 139.2689 -999.25   2.5538 -999.25 3.0677   37.3128   -999.25   -999.25   45.8523 -999.25 75.5028 0.1973
   11334.5000  0.0436 -999.25   0.1553  -999.25 141.2893 -999.25   2.5539 -999.25 3.0389   34.6276   -999.25   -999.25   42.6382 -999.25 75.9658 0.2006
   11335.0000  0.0000 -999.25   0.1497  -999.25 125.7725 -999.25   2.5615 -999.25 3.0162   28.2193   -999.25   -999.25   34.7217 -999.25 75.1373 0.1947
   11335.5000  0.0000 -999.25   0.1465  -999.25 116.3213 -999.25   2.5644 -999.25 2.9971   26.2768   -999.25   -999.25   32.1712 -999.25 75.0859 0.1944
   11336.0000  0.0154 -999.25   0.1444  -999.25 108.8505 -999.25   2.5664 -999.25 2.9977   25.9388   -999.25   -999.25   31.6066 -999.25 74.9698 0.1936
   11336.5000  0.0436 -999.25   0.1514  -999.25 135.1291 -999.25   2.5560 -999.25 3.0145   33.0643   -999.25   -999.25   40.3857 -999.25 76.8783 0.2071
   11337.0000  0.0000 -999.25   0.1522  -999.25 137.0165 -999.25   2.5546 -999.25 3.0316   35.7047   -999.25   -999.25   43.5064 -999.25 77.0960 0.2086
   11337.5000 -0.0297 -999.25   0.1467  -999.25 115.7820 -999.25   2.5640 -999.25 3.0463   30.0342   -999.25   -999.25   36.5346 -999.25 75.4029 0.1966
   11338.0000  0.0487 -999.25   0.1498  -999.25 124.5029 -999.25   2.5613 -999.25 3.0626   31.9480   -999.25   -999.25   39.0232 -999.25 75.5288 0.1975
   11338.5000  0.0000 -999.25   0.1507  -999.25 123.0414 -999.25   2.5616 -999.25 3.0717   31.6441   -999.25   -999.25   38.7394 -999.25 74.9812 0.1936
   11339.0000  0.0171 -999.25   0.1536  -999.25 124.5341 -999.25   2.5584 -999.25 3.0713   33.2101   -999.25   -999.25   40.6703 -999.25 74.7025 0.1917
   11339.5000  0.0166 -999.25   0.1596  -999.25 139.1055 -999.25   2.5490 -999.25 3.0561   39.2463   -999.25   -999.25   48.1027 -999.25 75.4498 0.1970
   11340.0000  0.0000 -999.25   0.1625  -999.25 148.3707 -999.25   2.5418 -999.25 3.0307   44.8430   -999.25   -999.25   54.7077 -999.25 76.7045 0.2058
   11340.5000  0.0363 -999.25   0.1585  -999.25 144.0695 -999.25   2.5442 -999.25 3.0181   44.0217   -999.25   -999.25   53.4929 -999.25 76.9449 0.2075
   11341.0000  0.0193 -999.25   0.1441  -999.25 117.0608 -999.25   2.5601 -999.25 3.0220   35.4196   -999.25   -999.25   42.7572 -999.25 75.3065 0.1959
