###############################################
##         ENVERUS                           ##
##         ESS - Open Hole                   ##
##         PERMIAN / DELAWARE                ##
##         Nov 02 2023  V4.0                 ##
##         42-109-32346-90-00                ##
###############################################
## Copyright 2017-2023  ENVERUS.  All Rights Reserved. 
## Confidential - Property of ENVERUS, use governed by terms and 
## conditions found within the existing Information Services Subscription Agreement 
## (as may be amended, the “ISSA”) between Customer and ENVERUS. 
## 
~VERSION INFORMATION
# MNEM.UNIT                               DATA : DESCRIPTION OF MNEMONIC
#-----.-----     ----------------------------- : -----------------------------
VERS.                                     2.00 : CWLS LOG ASCII STANDARD - VERSION 2.00
WRAP.                                       NO : MULTIPLE LINES PER DEPTH STEP
VEND.                                  ENVERUS : VENDOR
TYPE.                          ESS - OPEN HOLE : ENVERUS ESSENTIAL CURVES – ACCESSIBLE THROUGH ENVERUS PRISM(TM)
DOC.                                  51092887 : ENVERUS HEADER RAW DOCUMENT ID
#___________________________________________________________________________________________________ 
~WELL INFORMATION 
# XhrHiXkIrwGIJmPLTIo0+WseqdI1VWn+o0JF90EYfb9BJ/ikjsIPmHpj3yVLlwnYQ/npclNvflN3Ll99f4ZCqQ== 
# MNEM.UNIT                                              DATA : DESCRIPTION OF MNEMONIC 
#-----.-----                    ----------------------------- : ----------------------------- 
CNTY.                                               CULBERSON : COUNTY 
STATE.                                                  TEXAS : STATE 
CNTRY.                                                    USA : COUNTRY 
API.                                             42-109-32346 : API (10 Digit) 
API_14.                                    42-109-32346-90-00 : API (14 Digits) 
API_14_std.                                 42-109-32346-9000 : API (14 Digits Standard) 
UWI.                                           42109323469000 : UNIQUE WELL ID 
WELL.                                                  DRD_55 : WELL NAME
STRT.FT                                                 334.5 : START DEPTH
STOP.FT                                                4950.0 : STOP DEPTH
STEP.FT                                                   0.5 : STEP BETWEEN DEPTHS
NULL.                                                 -999.25 : NULL VALUE
PREV_APII.                                     42109323460000 : WELL IDENTIFIER
#___________________________________________________________________________________________________ 
~PARAMETER INFORMATION 
# MNEM.UNIT                                              DATA : DESCRIPTION OF MNEMONIC 
#-----.-----                    ----------------------------- : -----------------------------
#___________________________________________________________________________________________________ 
~CURVE INFORMATION 
# MNEM.UNIT           : CURVE DESCRIPTION 
#-----.-----          : ----------------------------- 
 DEPT.FT               : MEASURED DEPTH 
 CALI.IN               : CALIPER (CAL - CALIPER) 
 GR.API                : GAMMA RAY (GAMMA RAY) 
 DT.US/FT              : SONIC DELTA TRANSIT TIME (SONIC) 
 #___________________________________________________________________________________________________ 
~A         DEPT           CALI             GR             DT
# ...
         1258.5          8.742         10.397         50.564
         1259.0          8.702         10.526         51.207
         1259.5          8.671          9.856         51.455
         1260.0          8.671          9.162         52.193
         1260.5          8.671          8.861         53.333
         1261.0          8.671          8.772         53.144
         1261.5          8.671          8.577         52.192
         1262.0          8.671          7.992         51.761
         1262.5          8.656          8.139         50.846
         1263.0          8.651          9.124         50.706
         1263.5          8.690          9.329         50.917
         1264.0          8.710          9.357         51.038
         1264.5          8.748          9.357         51.160
         1265.0          8.749          8.575         51.161
         1265.5          8.807          8.590         50.852
         1266.0          8.868         10.532         51.212
         1266.5          8.948         10.481         51.458
         1267.0          9.060          9.630         50.778
         1267.5          9.124         11.993         50.576
         1268.0          9.203         11.633         51.188
         1268.5          9.255          6.234         51.519
         1269.0          9.255          3.620         51.469
         1269.5          9.227          3.314         51.761
         1270.0          9.197          4.289         51.560
         1270.5          9.166          4.907         51.131
         1271.0          9.099          7.391         51.613
         1271.5          9.041          9.101         50.837
         1272.0          8.988          9.501         50.400
         1272.5          8.928         10.137         50.640
         1273.0          8.905          9.207         51.684
         1273.5          8.829          7.067         51.867
         1274.0          8.769          6.423         52.180
         1274.5          8.729          7.312         52.736
         1275.0          8.690          8.566         53.023
         1275.5          8.671          6.576         51.600
         1276.0          8.648          4.873         49.874
         1276.5          8.593          4.678         50.498
         1277.0          8.554          5.315         49.953
         1277.5          8.534          5.458         51.589
         1278.0          8.534          4.802         51.619
         1278.5          8.542          3.817         50.021
         1279.0          8.573          3.796         48.895
         1279.5          8.593          5.857         48.883
         1280.0          8.632          7.325         48.817
         1280.5          8.632          7.530         49.793
         1281.0          8.632          8.515         49.105
         1281.5          8.632          9.357         51.469
         1282.0          8.632          9.009         49.829
         1282.5          8.632          8.772         49.699
         1283.0          8.649          9.790         50.666
         1283.5          8.671         11.770         50.560
         1284.0          8.651         12.281         50.196
         1284.5          8.651         12.077         49.690
         1285.0          8.651         11.287         49.415
         1285.5          8.651          9.523         49.484
         1286.0          8.651          9.591         49.787
         1286.5          8.632         10.771         49.606
         1287.0          8.632         10.857         49.209
         1287.5          8.632          8.897         49.193
         1288.0          8.632          8.107         49.219
         1288.5          8.632          7.228         49.486
         1289.0          8.632          6.433         49.445
         1289.5          8.643          8.158         49.205
         1290.0          8.651          8.967         49.521
         1290.5          8.651          8.967         49.204
         1291.0          8.651          8.241         49.778
         1291.5          8.651          8.143         50.077
         1292.0          8.651          9.484         49.536
         1292.5          8.651         10.503         50.232
         1293.0          8.651         10.345         50.255
         1293.5          8.651          9.360         51.209
         1294.0          8.612          8.967         52.081
         1294.5          8.573          9.573         52.119
         1295.0          8.573         10.021         51.658
         1295.5          8.554          9.293         51.063
         1296.0          8.554         10.574         50.210
         1296.5          8.554          9.683         50.015
         1297.0          8.573          7.076         50.368
         1297.5          8.573          7.064         49.853
         1298.0          8.593          6.988         49.002
         1298.5          8.593          7.065         48.719
         1299.0          8.593          7.634         48.490
         1299.5          8.612          8.753         48.836
         1300.0          8.632          9.875         48.925
         1300.5          8.632         11.584         48.520
         1301.0          8.651         11.937         49.276
         1301.5          8.651         11.501         48.881
         1302.0          8.651         12.255         49.415
         1302.5          8.651         11.142         49.454
         1303.0          8.651          7.610         49.632
         1303.5          8.671          7.188         48.864
         1304.0          8.671          7.689         48.713
         1304.5          8.671         10.304         48.663
         1305.0          8.671         10.686         48.649
         1305.5          8.671          8.921         48.890
         1306.0          8.671          8.637         48.890
         1306.5          8.671          9.228         49.157
         1307.0          8.710          9.357         49.194
         1307.5          8.710          7.539         49.014
         1308.0          8.749          6.433         49.078
         1308.5          8.759          7.292         49.112
         1309.0          8.807          8.577         48.937
         1309.5          8.846          7.641         48.701
         1310.0          8.846          6.823         48.902
         1310.5          8.846          6.823         48.929
         1311.0          8.862          7.760         49.085
         1311.5          8.885          8.577         48.945
         1312.0          8.885          8.772         48.231
         1312.5          8.885          8.772         48.172
         1313.0          8.924          7.800         48.067
         1313.5          8.924          8.174         48.219
         1314.0          8.944          7.213         48.229
         1314.5          8.944          6.090         48.680
         1315.0          8.944          5.220         48.680
         1315.5          8.963          5.263         48.680
         1316.0          8.983          5.458         48.653
         1316.5          9.021          5.532         48.198
         1317.0          9.060          7.618         49.151
         1317.5          9.060          8.866         48.939
         1318.0          9.099          8.278         49.301
         1318.5          9.099          6.966         49.033
         1319.0          9.119          6.238         48.696
         1319.5          9.138          6.373         48.476
         1320.0          9.138          6.628         48.612
         1320.5          9.154          6.473         48.835
         1321.0          9.177          6.043         48.929
         1321.5          9.177          6.998         48.963
         1322.0          9.177          8.178         48.916
         1322.5          9.158          9.554         49.034
         1323.0          9.158          9.243         49.246
         1323.5          9.158          8.166         49.291
         1324.0          9.158          7.766         48.887
