~Version Information
 VERS.                  2.0:   CWLS log ASCII Standard -VERSION 2.0
 WRAP.                   NO:   One line per depth step
~Well Information Block
#MNEM.UNIT     VALUE/NAME     DESCRIPTION
#---------     -----------    ---------------------------
 STRT.F              8400.0000: START DEPTH
 STOP.F             14661.0000: STOP DEPTH
 STEP.F                 0.5000: STEP DEPTH
 NULL.                 -999.25: NULL VALUE
 LOC .            42-109-33545:  LOCATION
 FL1 .            42-109-33545:  LOCATIONLINE1
 DMF .             Drill Floor:  DRILL MEAS FROM
 PDAT.                      GL:  PERMANENT DATUM
 CNTY.               CULBERSON:  COUNTY NAME
 FLD .              WOLFCAMP B:  FIELD NAME
 WELL.           DALE STATE 3H:  WELL NAME
 COMP.     CAPITAN ENERGY INC.:  COMPANY
 DATE.             12-Feb-2020:  DATE
 SVCO.             Halliburton:  SERVICECONAME
 PROV.                      TX:  PROVINCE
 STAT.                      TX:  STATE NAME
 HIDE.                        :  WELLNAMEOPERAT
 BASI.                 PERMIAN:  BASIN
 UWI .            42-109-33545:  UNIQUE WELL IDENTIFIER
 API .            42-109-33545:  API NUMBER
 RANG.                     N/A:  RANGE
 TOWN.                     N/A:  TOWNSHIP
 SECT.                     N/A:  SECTION
 SON .               906290460:  JOB NUMBER
 CTRY.                        :  COUNTRY
 SRVC.             Halliburton:  SERVICE COMPANY
 LMF .             Drill Floor:  LOG MEASURED FROM
 TVDS.ft             3291.0000:  TVDSS CORRECTN
 EGL .ft             3266.0000:  GROUND ELEVATION
 APD .ft               25.0000:  DEPTH ABOVE PD
 EPD .ft             3266.0000:  ELEVATION
 BAP .ft                0.0000:  GL ELEV ONSHORE
 GVFD.g                 1.0000:  GRAVITY FIELD
 EKB .ft             3291.0000:  KB ELEVATION
 EDF .ft             3291.0000:  DF ELEVATION
~Curve Information Block
#MNEM.UNIT                 API CODE     Curve Description
#---------               -----------    ---------------------------
 DEPT.F                 00 000 000 000:  Depth
 CCL .V                 00 000 000 000:  Casing Collar Locator
 NPHI_OH.pu             00 000 000 000:  NPHI_OH
 NPHI_CHI.decp          00 000 000 000:  NPHI_CHI
 GR_OH.api              00 000 000 000:  GR_OH
 GR_CHI.api             00 000 000 000:  GR_CHI
 RHOB_OH.g/cc           00 000 000 000:  RHOB_OH
 RHOB_CHI.g/cc          00 000 000 000:  RHOB_CHI
 PE_OH.NONE             00 000 000 000:  PE_OH
 PE_CHI.NONE            00 000 000 000:  PE_CHI
 LLS_CHI.ohmm           00 000 000 000:  LLS_CHI
 LLS_OH.ohmm            00 000 000 000:  LLS_OH
 LLD_OH.ohmm            00 000 000 000:  LLD_OH
 LLD_CHI.ohmm           00 000 000 000:  LLD_CHI
 DTC_OH.uspf            00 000 000 000:  DTC_OH
 DTC_CHI.uspf           00 000 000 000:  DTC_CHI
 SPHW_CHI.decp          00 000 000 000:  SPHW_CHI
#Other Information
#
#WARRANTY: Halliburton will use its best efforts to furnish customers with 
#accurate information and interpretations that are part of, and incident to, the services 
#provided.  However, Halliburton cannot and does not warrant the accuracy 
#or correctness of such information and interpretations.  Under no circumstances should any 
#such information or interpretation be relied upon as the sole basis for any drilling, 
#completion, production, or financial decision or any procedure involving any risk to the 
#safety of any drilling venture, drilling rig or its crew or any other third party.  The 
#Customer has full responsibility for all drilling, completion and production operation.  
#Halliburton makes no representations or warranties, either expressed or 
#implied, including, but not limited to, the implied warranties of merchantability or fitness 
#for a particular purpose, with respect to the services rendered.  In no event will 
#Halliburton be liable for failure to obtain any particular results or for 
#any damages, including, but not limited to, indirect, special or consequential damages, 
#resulting from the use of any information or interpretation provided by Halliburton.
#
~A    DEPT      CCL   NPHI_OH NPHI_CHI  GR_OH    GR_CHI  RHOB_OH RHOB_CHI  PE_OH  PE_CHI  LLS_CHI   LLS_OH    LLD_OH    LLD_CHI  DTC_OH  DTC_CHI SPHW_CHI 
# ...
   12958.0000  0.0102 -999.25   0.1157  -999.25  71.8141 -999.25   2.5731 -999.25 3.2939   57.4136   -999.25   -999.25   68.2058 -999.25 69.3229 0.1536
   12958.5000  0.0000 -999.25   0.1109  -999.25  61.1203 -999.25   2.5810 -999.25 3.3383   53.7498   -999.25   -999.25   64.6570 -999.25 68.5612 0.1482
   12959.0000  0.0395 -999.25   0.1103  -999.25  69.3198 -999.25   2.5840 -999.25 3.3517   54.5950   -999.25   -999.25   66.0406 -999.25 69.2803 0.1533
   12959.5000 -0.0585 -999.25   0.1100  -999.25  74.6740 -999.25   2.5858 -999.25 3.3758   56.9116   -999.25   -999.25   69.0789 -999.25 69.5838 0.1555
   12960.0000  0.0000 -999.25   0.1102  -999.25  74.4236 -999.25   2.5851 -999.25 3.3945   60.1706   -999.25   -999.25   72.8939 -999.25 69.5956 0.1556
   12960.5000  0.0000 -999.25   0.1107  -999.25  72.6503 -999.25   2.5832 -999.25 3.4078   63.7227   -999.25   -999.25   76.8805 -999.25 69.5470 0.1552
   12961.0000 -0.0464 -999.25   0.1117  -999.25  71.8746 -999.25   2.5809 -999.25 3.4113   66.9024   -999.25   -999.25   80.3636 -999.25 69.5645 0.1553
   12961.5000  0.0000 -999.25   0.1128  -999.25  76.1932 -999.25   2.5787 -999.25 3.4049   69.0316   -999.25   -999.25   82.6142 -999.25 69.8645 0.1575
   12962.0000  0.0000 -999.25   0.1120  -999.25  75.6190 -999.25   2.5799 -999.25 3.4106   68.0625   -999.25   -999.25   81.5818 -999.25 69.7884 0.1569
   12962.5000  0.0365 -999.25   0.1088  -999.25  70.8726 -999.25   2.5849 -999.25 3.4316   64.2228   -999.25   -999.25   77.6077 -999.25 69.2828 0.1533
   12963.0000 -0.0235 -999.25   0.1065  -999.25  68.9837 -999.25   2.5884 -999.25 3.4683   64.9343   -999.25   -999.25   78.8415 -999.25 68.9775 0.1512
   12963.5000 -0.0175 -999.25   0.1041  -999.25  69.5517 -999.25   2.5927 -999.25 3.5215   68.0214   -999.25   -999.25   83.1586 -999.25 68.7738 0.1497
   12964.0000 -0.0119 -999.25   0.1021  -999.25  70.2191 -999.25   2.5966 -999.25 3.5854   73.8393   -999.25   -999.25   90.9079 -999.25 68.6508 0.1489
   12964.5000  0.0000 -999.25   0.1017  -999.25  80.4800 -999.25   2.5991 -999.25 3.6295   79.1766   -999.25   -999.25   97.8802 -999.25 69.4544 0.1546
   12965.0000 -0.0183 -999.25   0.0997  -999.25  79.2630 -999.25   2.6037 -999.25 3.6708   79.6174   -999.25   -999.25   99.4364 -999.25 69.7358 0.1565
   12965.5000  0.0000 -999.25   0.0996  -999.25  83.8992 -999.25   2.6046 -999.25 3.6892   81.6826   -999.25   -999.25  102.1378 -999.25 70.2414 0.1601
   12966.0000  0.0220 -999.25   0.0949  -999.25  66.2034 -999.25   2.6093 -999.25 3.7329   80.3159   -999.25   -999.25  101.4298 -999.25 68.7881 0.1498
   12966.5000 -0.0212 -999.25   0.0958  -999.25  70.5876 -999.25   2.6052 -999.25 3.7351   86.7366   -999.25   -999.25  107.9105 -999.25 68.7011 0.1492
   12967.0000  0.0000 -999.25   0.0961  -999.25  69.2477 -999.25   2.6016 -999.25 3.7449   92.2734   -999.25   -999.25  113.3999 -999.25 68.4118 0.1472
   12967.5000  0.0000 -999.25   0.0958  -999.25  59.8562 -999.25   2.5996 -999.25 3.7587   95.2165   -999.25   -999.25  116.4546 -999.25 67.5651 0.1412
   12968.0000 -0.0353 -999.25   0.1001  -999.25  70.3950 -999.25   2.5934 -999.25 3.7202  100.2285   -999.25   -999.25  121.0629 -999.25 68.8535 0.1503
   12968.5000  0.0119 -999.25   0.1040  -999.25  78.3530 -999.25   2.5892 -999.25 3.6756  101.9857   -999.25   -999.25  122.6447 -999.25 69.5857 0.1555
   12969.0000  0.0000 -999.25   0.1066  -999.25  88.4438 -999.25   2.5879 -999.25 3.6491  102.2499   -999.25   -999.25  123.1065 -999.25 70.0641 0.1589
   12969.5000  0.0162 -999.25   0.1075  -999.25  99.6281 -999.25   2.5881 -999.25 3.6466  103.1914   -999.25   -999.25  124.3923 -999.25 70.3141 0.1606
   12970.0000  0.0000 -999.25   0.1001  -999.25  82.0441 -999.25   2.5983 -999.25 3.7082   96.8966   -999.25   -999.25  119.0877 -999.25 69.2556 0.1532
   12970.5000  0.0000 -999.25   0.0942  -999.25  65.0511 -999.25   2.6048 -999.25 3.7684   95.9654   -999.25   -999.25  119.7411 -999.25 67.4037 0.1401
   12971.0000  0.0000 -999.25   0.0908  -999.25  56.1530 -999.25   2.6079 -999.25 3.8160   98.9883   -999.25   -999.25  124.6496 -999.25 66.0436 0.1304
   12971.5000 -0.0218 -999.25   0.0939  -999.25  76.9446 -999.25   2.6035 -999.25 3.7983  106.1947   -999.25   -999.25  131.3342 -999.25 68.0208 0.1444
   12972.0000  0.0000 -999.25   0.0934  -999.25  77.1686 -999.25   2.6048 -999.25 3.8105  106.9800   -999.25   -999.25  132.5998 -999.25 68.0462 0.1446
   12972.5000  0.0000 -999.25   0.0904  -999.25  63.2198 -999.25   2.6091 -999.25 3.8451  104.7963   -999.25   -999.25  131.6399 -999.25 66.8467 0.1361
   12973.0000  0.0000 -999.25   0.0902  -999.25  62.4982 -999.25   2.6101 -999.25 3.8532  104.8050   -999.25   -999.25  131.9431 -999.25 67.0451 0.1375
   12973.5000 -0.0426 -999.25   0.0905  -999.25  66.8662 -999.25   2.6096 -999.25 3.8496  104.5666   -999.25   -999.25  131.0677 -999.25 67.4931 0.1407
   12974.0000 -0.0141 -999.25   0.0915  -999.25  68.8637 -999.25   2.6076 -999.25 3.8462  106.9919   -999.25   -999.25  133.2916 -999.25 67.7483 0.1425
   12974.5000  0.0000 -999.25   0.0915  -999.25  68.4873 -999.25   2.6076 -999.25 3.8407  105.2685   -999.25   -999.25  131.1222 -999.25 67.7200 0.1423
   12975.0000  0.0000 -999.25   0.0947  -999.25  79.7139 -999.25   2.6036 -999.25 3.8111  108.2327   -999.25   -999.25  133.5150 -999.25 68.7087 0.1493
   12975.5000 -0.0504 -999.25   0.0951  -999.25  79.5944 -999.25   2.6044 -999.25 3.8019  106.9193   -999.25   -999.25  132.5771 -999.25 68.7460 0.1495
   12976.0000  0.0000 -999.25   0.0944  -999.25  73.2412 -999.25   2.6064 -999.25 3.8044  107.5774   -999.25   -999.25  134.9855 -999.25 68.1145 0.1451
   12976.5000  0.0100 -999.25   0.0942  -999.25  69.3169 -999.25   2.6062 -999.25 3.8136  115.0209   -999.25   -999.25  145.1395 -999.25 67.3343 0.1396
   12977.0000  0.0597 -999.25   0.0955  -999.25  70.5582 -999.25   2.6019 -999.25 3.8172  129.8280   -999.25   -999.25  162.8437 -999.25 66.8980 0.1365
   12977.5000 -0.0161 -999.25   0.0912  -999.25  46.9937 -999.25   2.6031 -999.25 3.9096  147.5318   -999.25   -999.25  188.6307 -999.25 64.5844 0.1201
   12978.0000  0.0000 -999.25   0.0902  -999.25  52.0598 -999.25   2.6013 -999.25 3.9768  166.5483   -999.25   -999.25  211.1763 -999.25 65.5541 0.1270
   12978.5000 -0.0421 -999.25   0.0881  -999.25  49.8966 -999.25   2.6010 -999.25 4.0806  191.7117   -999.25   -999.25  243.2803 -999.25 65.8925 0.1294
   12979.0000  0.0260 -999.25   0.0846  -999.25  41.7670 -999.25   2.6043 -999.25 4.1870  212.6397   -999.25   -999.25  273.9153 -999.25 65.2991 0.1252
   12979.5000  0.0000 -999.25   0.0829  -999.25  30.5748 -999.25   2.6051 -999.25 4.2756  238.9181   -999.25   -999.25  313.0305 -999.25 64.2579 0.1178
   12980.0000  0.0000 -999.25   0.0821  -999.25  32.9683 -999.25   2.6055 -999.25 4.3202  253.3213   -999.25   -999.25  331.6918 -999.25 64.8879 0.1223
   12980.5000  0.0000 -999.25   0.0811  -999.25  31.9570 -999.25   2.6061 -999.25 4.3632  259.9712   -999.25   -999.25  341.2938 -999.25 65.0796 0.1236
   12981.0000 -0.0168 -999.25   0.0803  -999.25  36.3704 -999.25   2.6068 -999.25 4.3846  260.1320   -999.25   -999.25  339.3960 -999.25 65.8167 0.1288
   12981.5000  0.0000 -999.25   0.0785  -999.25  37.1904 -999.25   2.6095 -999.25 4.4110  258.2670   -999.25   -999.25  337.3479 -999.25 66.0156 0.1302
   12982.0000  0.0294 -999.25   0.0773  -999.25  37.0600 -999.25   2.6113 -999.25 4.4238  259.4148   -999.25   -999.25  339.2706 -999.25 65.9172 0.1295
   12982.5000 -0.0424 -999.25   0.0762  -999.25  37.9341 -999.25   2.6136 -999.25 4.4222  258.9923   -999.25   -999.25  339.3680 -999.25 65.8109 0.1288
   12983.0000  0.0134 -999.25   0.0776  -999.25  44.7881 -999.25   2.6117 -999.25 4.3982  260.4213   -999.25   -999.25  337.5187 -999.25 66.6906 0.1350
   12983.5000  0.0254 -999.25   0.0794  -999.25  43.2998 -999.25   2.6087 -999.25 4.3802  263.7504   -999.25   -999.25  341.7140 -999.25 66.5115 0.1337
   12984.0000  0.0417 -999.25   0.0808  -999.25  33.5601 -999.25   2.6059 -999.25 4.3912  273.5554   -999.25   -999.25  358.4041 -999.25 65.3950 0.1258
