# Exported from Transform Software 5.2.0 on 17-Oct-2019 by user kathryn.gehrke
# DI Transform - A Product of Drillinginfo, Inc. - www.drillinginfo.com
#
~VERSION INFORMATION
 VERS.        2.0 : LAS ASCII STANDARD - VERSION 2.0
 WRAP.         NO : ONE LINE PER DEPTH STEP

~WELL INFORMATION
#MNEM.UNIT       DATA TYPE       INFORMATION
#---------       ---------       -----------
 STRT.ft                 100 : Start Depth
 STOP.ft               10126 : Stop Depth
 STEP.ft                 0.5 : Step Length
 NULL.               -999.25 : Null Value
 COMP.                       : Company
 WELL.  42109329790000_API14 : Well Name
 FLD.                        : Field Name
 LOC.                        : Well Location
 CNTY.                       : County
 STAT.                       : State or Province
 CTRY.                       : Country
 SRVC.                       : Service Company
 DATE.                       : Date
 API.         42109329790000 : Well Identifier

~CURVE INFORMATION
#MNEM.UNIT       API CODE       CURVE DESCRIPTION
#---------       --------       -----------------
 DEPT.ft        : <Measured Depth>
 DT.us/ft       : Sonic
 GR.gAPI        : Gamma Ray

~PARAMETER INFORMATION
#MNEM.UNIT       VALUE       DESCRIPTION
#---------       -----       -----------
 EKB.ft      3282 : Elevation above MSL

~A      DEPT          DT          GR
# ...
        2053    265.8411     21.2528
      2053.5    266.1064     19.3203
        2054    266.1064     18.0672
      2054.5    266.1064     18.9986
        2055    266.1064     19.6706
      2055.5    266.1064     19.1531
        2056    266.1064     18.9076
      2056.5    266.1064     19.5859
        2057    266.1064     20.0782
      2057.5    266.1064     18.5658
        2058    266.1064      19.081
      2058.5    266.1064     19.7479
        2059    266.1064     19.0708
      2059.5    266.1064     19.3277
        2060    266.1064     19.7479
      2060.5    266.1064     19.1555
        2061    266.1064     18.9076
      2061.5    266.1064     18.6518
        2062    266.1064     18.8465
      2062.5    266.1064     20.0873
        2063    266.1064     21.1795
      2063.5    266.1064     21.8515
        2064    266.1064     22.2689
      2064.5    266.1064     21.3422
        2065    266.1064     19.8299
      2065.5    266.1064     19.3277
        2066    266.1064     20.1681
      2066.5    266.1064     19.0743
        2067    266.1064     19.4129
      2067.5    266.1064     20.5051
        2068    266.3063     21.4286
      2068.5    266.1064     21.0084
        2069    266.1064     21.6809
      2069.5    266.1064     23.1932
        2070    266.1064     24.7056
      2070.5    266.1064     23.3619
        2071    266.1064     22.6883
      2071.5    266.1064     23.9496
        2072    266.1064     22.3548
      2072.5    266.1064     19.8761
        2073    266.1064     20.3344
      2073.5    266.1064     20.5902
        2074    266.1064     18.6576
      2074.5    266.1064     18.0672
        2075    266.1064     19.2411
      2075.5    266.1064     18.3222
        2076    266.1064     18.0641
      2076.5    266.1064     18.0672
        2077    266.1064     18.5679
      2077.5    266.1064     19.6601
        2078    266.1064     21.8847
      2078.5    266.1064     23.5251
        2079    266.1064     24.6173
      2079.5    266.1064     25.2101
        2080    266.1064     24.0386
      2080.5    266.1064     23.9496
        2081    266.1064     23.1147
      2081.5    266.1064     22.9355
        2082    266.1064     22.6891
      2082.5    266.1064     23.8594
        2083    266.1064     22.9476
      2083.5    266.1064     22.6825
        2084    266.1064     22.6891
      2084.5    266.1064     23.5294
        2085    266.1064     22.7804
      2085.5    266.1064     22.2689
        2086    266.1064     21.8565
      2086.5    266.1064     21.8487
        2087    266.1064     21.0084
      2087.5    266.1064     21.8487
        2088    266.1064     20.8491
      2088.5    266.1064     20.5793
        2089    266.1064     21.0084
      2089.5    266.1064     20.9338
        2090    266.1064     20.1681
      2090.5    266.1064     21.4557
        2091    266.6667     23.0991
      2091.5    266.6667      21.607
        2092    266.6667     21.0084
      2092.5    267.1004     21.7539
        2093    268.9076     21.2716
      2093.5    269.4678     19.1403
        2094    269.4678     17.8267
      2094.5    269.4678     17.5748
        2095    269.4678     16.8067
      2095.5    268.6998      18.223
        2096    267.2269     19.9393
      2096.5    266.3475     21.6679
        2097    266.1064     21.9198
      2097.5    266.1064     21.1056
        2098    266.1064     20.7429
      2098.5    266.1064     21.8487
        2099    266.1064     22.0307
      2099.5    266.1064     21.9186
        2100    266.1064      23.431
      2100.5    266.1064     24.7899
        2101    266.1064     24.7751
      2101.5    266.1064     23.9496
        2102    266.1064     23.9496
      2102.5    266.1064      23.629
        2103    266.1064     22.1166
      2103.5    266.1064     21.0244
        2104    266.1064     19.9322
      2104.5    266.1064     19.2602
        2105    266.1064     18.4874
      2105.5    266.1064     17.7982
        2106    266.1064     18.0672
      2106.5    266.1064     17.8817
        2107    266.1064     18.4874
      2107.5    266.1064     17.6471
        2108    266.1064     19.0575
      2108.5    266.1064     20.1681
        2109    266.1064     21.8956
      2109.5    266.1064      24.435
        2110    266.5292     24.7899
      2110.5    266.6667     23.5294
        2111    266.6667     22.2884
      2111.5    266.6667     18.9347
        2112    266.6667     15.5462
      2112.5    266.6667     16.2823
        2113    266.6667     17.3745
      2113.5    266.6667     19.0866
        2114    266.6667     21.9854
      2114.5    266.6667     24.0124
        2115    266.6667     24.7899
      2115.5    266.6667     25.3565
        2116    266.6667     26.0504
      2116.5    266.6667     25.4003
        2117    266.6667     24.7899
      2117.5    266.6667     24.0562
        2118    266.6667     22.2611
      2118.5    266.6667     21.0084
        2119    266.6667     21.2372
      2119.5    266.6667     21.7882
        2120    266.1064      21.741
      2120.5    266.1064      22.545
        2121    266.1064     21.8487
      2121.5    266.1064     21.4286
        2122    266.1064     22.2689
      2122.5    266.1064     21.8487
        2123    266.1064     21.5715
      2123.5    266.1064     21.8487
        2124    266.1064     22.0752
      2124.5    266.1064     22.7472
        2125    266.1064     23.6395
      2125.5    265.9175      23.251
        2126    265.5462     23.5294
      2126.5    265.5462     22.8839
        2127    265.5462     21.7917
      2127.5    265.5462     21.3173
        2128    265.5462     21.7082
      2128.5    265.5462     21.4286
        2129    265.5462     21.6246
      2129.5    266.1064     21.3728
        2130    266.1064     21.0084
      2130.5    266.1064     20.7276
        2131    266.1064     21.4286
      2131.5    266.1064     20.3653
        2132    266.1064     19.3277
      2132.5    266.1064     20.0544
        2133    266.1064     20.8702
      2133.5    266.1064     19.7479
        2134    266.1064     20.5007
      2134.5    266.1064     21.8487
        2135    266.1064     21.1232
      2135.5    266.1064     21.0084
        2136    267.7454     21.4286
      2136.5    269.2017     21.4286
        2137     270.028     21.4809
      2137.5     270.028     22.6891
        2138     270.028      22.133
      2138.5    270.5882     21.8487
        2139    270.2957     23.1092
      2139.5    268.2792     22.6379
        2140    266.6667     22.2689
      2140.5    266.6667     23.2439
        2141    266.6667     24.3697
      2141.5    266.6667     24.0424
        2142    266.6667     23.1592
      2142.5    266.6667     25.0917
        2143    266.6667     26.1839
      2143.5    266.6667     26.0852
        2144    266.6667     24.7899
      2144.5    266.6667     25.2101
        2145    266.6667     25.0906
      2145.5    266.6667     24.6576
        2146    266.6667     23.9496
      2146.5    266.6667     24.3697
        2147    266.6667      23.902
      2147.5    266.6667     22.2399
        2148    266.6667     21.0084
      2148.5    266.6667     21.0084
        2149    266.6667      19.846
      2149.5    266.6667     18.0208
        2150    266.6667     17.6471
      2150.5    266.6667     16.2566
        2151    266.6667     15.1261
      2151.5    266.1064     17.0238
        2152    266.1064     18.9528
      2152.5    266.1064     19.6249
        2153    266.1064     21.1372
      2153.5    266.1064     21.2777
        2154    266.1064     18.6952
      2154.5    266.6667     19.3939
        2155    266.6667     21.3044
      2155.5    266.6667     21.7211
        2156    266.6667     21.8081
      2156.5    266.6667     22.9003
        2157    266.6667     22.2045
      2157.5    266.6667     19.5158
        2158    266.6667      19.034
      2158.5    266.6667     20.1681
        2159    266.6667     21.2184
      2159.5    266.6667      21.807
        2160    266.6667     22.1423
      2160.5    266.6667     22.5638
        2161    266.6667     21.8917
