#--------------------------------------------------#
#----------------DRILLING INFO, INC.---------------#
#---------------WWW.DRILLINGINFO.COM---------------#
#------------------COPYRIGHT 2018------------------#
#--------------------------------------------------#
#THIS FILE MAY BE USED ONLY IN ACCORDANCE WITH A CURRENT SUBSCRIPTION AGREEMENT BETWEEN
#THE USER AND DRILLING INFO, INC. NO PART OF THIS FILE MAY BE REPRODUCED, USED, COPIED,
#MODIFIED, PROPAGATED, OR DISTRIBUTED EXCEPT IN ACCORDANCE WITH THE SUBSCRIPTION
#AGREEMENT. UNAUTHORIZED USE OR DISTRIBUTION OF ALL OR ANY PART OF THIS FILE MAY VIOLATE
#COPYRIGHT, TRADEMARK, AND/OR OTHER LAWS AND IS SUBJECT TO CIVIL AS WELL AS CRIMINAL
#SANCTIONS.
#--------------------------------------------------#
#THIS FILE IS PROVIDED "AS-IS" AND ALL WARRANTIES ARE EXPRESSLY DISCLAIMED, WHETHER
#EXPRESS, ORAL, IMPLIED, STATUTORY OR OTHERWISE, INCLUDING ANY IMPLIED WARRANTY OF FITNESS
#FOR A PARTICULAR PURPOSE, MERCHANTABILITY, TITLE OR NON-INFRINGEMENT, AND ANY WARRANTIES
#ARISING BY VIRTUE OF CUSTOM OF TRADE OR COURSE OF DEALING.  FURTHER, DRILLING INFO,
#INC. AND ITS LICENSORS DO NOT REPRESENT OR WARRANT THAT THIS FILE WILL MEET USER'S
#REQUIREMENTS OR ARE SUITABLE FOR USER'S NEEDS OR THAT THE DATA OR RESULTS PROVIDED IN
#CONJUNCTION THEREWITH ARE CORRECT, ACCURATE, TIMELY OR RELIABLE. THESE DISCLAIMERS SHALL
#APPLY REGARDLESS OF ANY FAILURE OF ESSENTIAL PURPOSE OF ANY LIMITED REMEDY.  SOME
#JURISDICTIONS DO NOT ALLOW THE EXCLUSION OF CERTAIN WARRANTIES SO SOME OF THE ABOVE
#EXCLUSIONS MAY NOT APPLY. IN NO EVENT SHALL DRILLING INFO, INC. OR ANY OF ITS AFFILIATES
#BE LIABLE UNDER ANY LEGAL THEORY, WHETHER IN TORT (INCLUDING WITHOUT LIMITATION
#NEGLIGENCE), CONTRACT, STRICT LIABILITY, STATUTORY OR OTHERWISE, FOR ANY SPECIAL,
#INCIDENTAL, CONSEQUENTIAL, EXEMPLARY, PUNITIVE OR INDIRECT DAMAGE OF ANY KIND, INCLUDING
#WITHOUT LIMITATION LOSS OF REVENUE, PROFITS, GOODWILL, USE, AND/OR DATA OR THE COST OF
#PROCUREMENT OF SUBSTITUTE GOODS OR SERVICES, EVEN IF APPRISED OF THE POSSIBILITY OF SUCH
#DAMAGES IN ADVANCE.
#--------------------------------------------------#
# Exported from DI Transform
# DI Transform - A Product of Drillinginfo, Inc. - www.drillinginfo.com
#--------------------------------------------------#
#
~VERSION INFORMATION
 VERS.        2.0 : LAS ASCII STANDARD - VERSION 2.0
 WRAP.         NO : ONE LINE PER DEPTH STEP

~WELL INFORMATION
#MNEM.UNIT       DATA TYPE       INFORMATION
#---------       ---------       -----------
 STRT.ft          9043 : Start Depth
 STOP.ft         16870 : Stop Depth
 STEP.ft           0.5 : Step Length
 NULL.         -999.25 : Null Value
 COMP.                 : Company
 WELL.          DRD_55 : Well Name
 FLD.                  : Field Name
 LOC.                  : Well Location
 CNTY.                 : County
 STAT.                 : State or Province
 CTRY.                 : Country
 SRVC.                 : Service Company
 DATE.                 : Date
 API.   42109326310000 : Well Identifier

~CURVE INFORMATION
#MNEM.UNIT       API CODE       CURVE DESCRIPTION
#---------       --------       -----------------
 DEPT.ft          : <Measured Depth>
 CAL.in           : Caliper
 DPHI.%           : Density Porosity
 DT.us/ft         : Sonic
 GR.gAPI          : Gamma Ray
 ILD.ohmm         : Deep Resistivity
 ILS.ohmm         : Shallow Resistivity
 RHOB.g/cm3       : Density

~PARAMETER INFORMATION
#MNEM.UNIT       VALUE       DESCRIPTION
#---------       -----       -----------
 EKB.ft      3382 : Elevation above MSL

~A       DEPT         CAL        DPHI          DT          GR         ILD         ILS        RHOB
# ...
        10560      6.0468     10.4299     68.6531    425.5289     21.2753     13.7729      2.5286
      10560.5      6.0474     10.5738     68.6531     420.312      20.669     13.6205      2.5277
        10561       6.048     10.5738     68.8644    416.1037     20.2435     13.2742      2.5265
      10561.5      6.0487     10.5093     69.1719    415.5405     19.8536      12.973      2.5244
        10562      6.0493     10.6557     69.4793    421.2329     19.8847     13.0662      2.5211
      10562.5      6.0499     10.8379     69.4785    431.9853     20.1473      13.189      2.5171
        10563      6.0506     11.0925     69.0155    447.8079     19.5221     12.8417      2.5193
      10563.5      6.0512     11.1527     68.4006    452.2059      18.453     12.2829      2.5241
        10564      6.0518     10.7084     68.1357    449.8664     18.3569     12.0934      2.5289
      10564.5      6.0525     10.4257     68.4452    428.2557     19.2976       12.68      2.5328
        10565      6.0531     10.2143     68.6303    413.4074     19.6847     13.0416      2.5356
      10565.5      6.0537      10.082     68.7755    401.5156     19.7501     13.1211      2.5335
        10566      6.0544     10.1978     68.7554    412.2884     19.6076      12.973      2.5285
      10566.5       6.055     10.4039     68.7755    426.6565     19.4429     13.0446      2.5247
        10567      6.0556     10.7509     68.7755     439.044     19.8348     13.0446      2.5222
      10567.5      6.0562     10.8234     68.6079    439.2857     19.9576     13.2618      2.5264
        10568      6.0569     10.5571     68.2466    452.2059     19.9576     13.2932      2.5308
      10568.5      6.0575     10.3293     67.8706    458.8411     19.9576     13.4042      2.5337
        10569      6.0581     10.2047     67.5631       455.6     19.6261     13.5161      2.5327
      10569.5      6.0588     10.3288      67.724    445.5957     20.3667     13.6317      2.5304
        10570      6.0594     10.5357     67.9184    445.6522     21.3559     13.6317      2.5312
      10570.5        6.06     10.4066     68.0616    458.9412     21.9793     13.9315       2.534
        10571      6.0607     10.1369     68.1018    458.9552     21.3688     14.6836      2.5371
      10571.5      6.0613      9.9125     68.1018    452.2059     20.3793     14.3206      2.5394
        10572      6.0619      9.7065     67.8907    452.2059     19.8069     13.7118      2.5415
      10572.5      6.0626      9.6643     67.8172    444.8424      19.996     13.9731      2.5399
        10573      6.0632      9.6401     67.6748    468.3111     20.4859     13.9731      2.5338
      10573.5      6.0638      9.9074     67.8572    478.1552     20.3688     13.9731      2.5251
        10574      6.0645     10.5665     68.1633    478.1552     19.7957     13.8269      2.5188
      10574.5      6.0651     11.1252     68.2857    464.8571     19.4358     13.1865      2.5159
        10575      6.0657     11.2569     68.4122    444.5212     19.0825      12.957      2.5154
      10575.5      6.0664     11.2968     68.5972    446.8273     19.0407      12.957      2.5154
        10576       6.067     11.1475     68.6531    458.9552     19.0407     13.1407      2.5138
      10576.5      6.0676     11.2295     68.7302    469.2592     19.0407     13.0846       2.511
        10577      6.0682     11.3706     68.7849    454.0866     19.7918      13.548      2.5047
      10577.5      6.0689     11.6369      68.898    430.3058     20.9147     14.1778      2.4979
        10578      6.0695     11.9774     69.0325    411.3885     21.7683      14.558      2.5048
      10578.5      6.0701     12.1252     69.2175    398.5902       22.12      14.893       2.512
        10579      6.0708     11.8716     69.3878    408.7756     21.6224     14.6439       2.515
      10579.5      6.0714     11.3457     69.3878    417.4197     21.3207     14.1672      2.5179
        10580       6.072     11.0815     69.2653    418.2141     20.5863     13.9326       2.521
      10580.5      6.0727     10.8755     69.2653    416.6179     20.7011     13.5366      2.5232
        10581      6.0733     10.7377     69.4079    415.5405     20.2592     13.5277      2.5253
      10581.5      6.0739     10.7092     69.7154    415.5405     19.8536     13.4555       2.524
        10582      6.0746     10.6557     69.8776    421.2329     20.0342     13.6434      2.5236
      10582.5      6.0752     10.6557     69.6697    421.2329     20.7178     13.9731      2.5219
        10583      6.0758     10.7287     69.3622    421.2329     20.0934     13.9638      2.5198
      10583.5      6.0765     10.9347     69.0548    429.5108     19.1635     13.0067      2.5212
        10584      6.0771      10.995     69.0204    447.0331     18.5457     12.7606      2.5233
      10584.5      6.0774     10.9482     69.0204    452.2521     19.3645     13.2762      2.5254
        10585      6.0604     10.7422     69.0204    449.4073     20.3041     13.7118      2.5274
      10585.5      6.0434     10.5361     69.0204    448.5827      20.715     13.7118      2.5295
        10586      6.0439     10.4098      68.898    447.6131     20.2924     13.7246       2.528
      10586.5      6.0443     10.3678     68.8018    442.3157     19.5111     13.1223      2.5259
        10587      6.0447     10.5739     68.7755    437.1394     19.2728     12.9105      2.5239
      10587.5      6.0451      10.698     68.7755    439.0762     19.2408     12.9982      2.5263
        10588      6.0456     10.8172     68.4917    452.2059     20.1243     13.1791      2.5303
      10588.5       6.046     10.6112     68.3066     462.736     20.7011     13.4085      2.5354
        10589      6.0464     10.2798     68.0408    479.7919     20.0184     13.4085      2.5396
      10589.5      6.0468      9.9707     67.9184    468.9789     19.3233     13.0753      2.5415
        10590      6.0472      9.7541     67.9184    465.9091      18.852     12.8376      2.5383
      10590.5      6.0477      9.8033     67.9184    461.7385     18.6469     12.6905      2.5314
        10591      6.0481     10.0596     67.8714    458.9552     18.6469     12.6234      2.5251
      10591.5      6.0485     10.4975     67.5639    452.2059     18.3149     12.4677      2.5227
        10592      6.0489     10.8149     67.3789    447.3351     17.9866     12.4142      2.5293
      10592.5      6.0493     10.5341     67.0714    456.6322     17.8405     12.4142      2.5317
        10593      6.0498     10.3139     66.9388    474.3323     17.9718     12.4474      2.5338
      10593.5      6.0502     10.1079     66.9388    493.4788     18.3979     12.5516      2.5358
        10594      6.0506          10     66.8163    498.7649     18.9408       12.69      2.5399
      10594.5       6.051      9.9416      66.934    495.6771     19.6472     13.4825      2.5444
        10595      6.0514      9.8995     67.0612     484.352     19.5403      13.476      2.5422
      10595.5      6.0519      9.6935     67.0612    491.1999     18.9415     13.1929      2.5421
        10596      6.0523      9.6721     66.8783    496.2908     19.2519      13.938      2.5401
      10596.5      6.0527      9.6721     66.6939    482.2386     20.0148     14.0894        2.54
        10597      6.0531      9.8361     66.5714    463.9485      20.149     13.9856        2.54
      10597.5      6.0535      9.8361     66.5714    446.9894     19.6333     13.8368        2.54
        10598       6.054      9.8926     66.5714    442.3157     19.5816     14.1765        2.54
      10598.5      6.0544      9.7541      66.449    442.3157     19.9544       14.45        2.54
        10599      6.0548      9.8361     66.3265    444.1063     20.4859     14.5624      2.5401
      10599.5      6.0552      9.6843     66.3265    454.6049     20.2908     14.5379      2.5421
        10600      6.0557      9.5082      66.449    461.8773     19.5322      14.423      2.5442
      10600.5      6.0561      9.3541     66.7052     473.399     19.2777     14.2741      2.5463
