###############################################
##         ENVERUS                           ##
##         ESS - Open Hole                   ##
##         PERMIAN / DELAWARE                ##
##         Nov 02 2023  V4.0                 ##
##         42-109-32255-00-00                ##
###############################################
## Copyright 2017-2023  ENVERUS.  All Rights Reserved. 
## Confidential - Property of ENVERUS, use governed by terms and 
## conditions found within the existing Information Services Subscription Agreement 
## (as may be amended, the “ISSA”) between Customer and ENVERUS. 
## 
~VERSION INFORMATION
# MNEM.UNIT                               DATA : DESCRIPTION OF MNEMONIC
#-----.-----     ----------------------------- : -----------------------------
VERS.                                     2.00 : CWLS LOG ASCII STANDARD - VERSION 2.00
WRAP.                                       NO : MULTIPLE LINES PER DEPTH STEP
VEND.                                  ENVERUS : VENDOR
TYPE.                          ESS - OPEN HOLE : ENVERUS ESSENTIAL CURVES – ACCESSIBLE THROUGH ENVERUS PRISM(TM)
DOC.                                  31869427 : ENVERUS HEADER RAW DOCUMENT ID
#___________________________________________________________________________________________________ 
~WELL INFORMATION 
# Kns/CyAZPDgS4fEM5w0azv9tYcXlBSx1nHSqICrpKgQv6F2hlFUFpw+R1SAxYfM92i4ks6BDNpB+WhJDZXFO5Q== 
# MNEM.UNIT                                              DATA : DESCRIPTION OF MNEMONIC 
#-----.-----                    ----------------------------- : ----------------------------- 
CNTY.                                               CULBERSON : COUNTY 
STATE.                                                  TEXAS : STATE 
CNTRY.                                                    USA : COUNTRY 
API.                                             42-109-32255 : API (10 Digit) 
API_14.                                    42-109-32255-00-00 : API (14 Digits) 
API_14_std.                                 42-109-32255-0000 : API (14 Digits Standard) 
UWI.                                           42109322550000 : UNIQUE WELL ID 
WELL.                             MELISSA TAYLOR STATE 27  1H : WELL NAME
STRT.FT                                                  94.0 : START DEPTH
STOP.FT                                               13828.0 : STOP DEPTH
STEP.FT                                                   0.5 : STEP BETWEEN DEPTHS
NULL.                                                 -999.25 : NULL VALUE
COMP.                              CHESAPEAKE OPERATING  INC. : COMPANY 
DATE.                                             29-NOV-2005 : LOG DATE
#___________________________________________________________________________________________________ 
~CURVE INFORMATION 
# MNEM.UNIT           : CURVE DESCRIPTION 
#-----.-----          : ----------------------------- 
 DEPT.FT               : MEASURED DEPTH 
 CALI__B.IN            : CALIPER (CAL - CAL) 
 GR__B.API             : GAMMA RAY (GR) 
 DT__B.US/FT           : SONIC DELTA TRANSIT TIME (DT) 
 DPHI__B.V/V           : DENSITY POROSITY (DPHI) 
 NPHI__B.V/V           : NEUTRON POROSITY (NPHI) 
 RHOB__B.G/CC          : BULK DENSITY (RHOB) 
 #___________________________________________________________________________________________________ 
~A         DEPT        CALI__B          GR__B          DT__B        DPHI__B        NPHI__B        RHOB__B
# ...
         9252.0         10.424         86.872         60.645        0.06497        0.11858         2.6050
         9252.5         10.425         84.590         60.803        0.07371        0.10980         2.5970
         9253.0         10.426         82.309         60.801        0.08246        0.09897         2.5870
         9253.5         10.427         73.183         60.487        0.08428        0.09283         2.5770
         9254.0         10.429         69.563         60.277        0.07464        0.09677         2.5860
         9254.5         10.432         70.637         60.217        0.06291        0.10081         2.6000
         9255.0         10.442         73.095         60.156        0.05810        0.09816         2.6130
         9255.5         10.451         72.300         59.727        0.06070        0.08839         2.6170
         9256.0         10.460         70.773         59.198        0.06069        0.07643         2.6130
         9256.5         10.470         67.594         59.127        0.05997        0.06637         2.6090
         9257.0         10.510         66.231         59.393        0.06536        0.07138         2.6050
         9257.5         10.560         67.410         60.958        0.07812        0.08401         2.6010
         9258.0         10.607         70.612         63.193        0.10319        0.09665         2.5860
         9258.5         10.650         72.219         64.187        0.10780        0.10608         2.5710
         9259.0         10.693         72.265         63.674        0.10821        0.11151         2.5550
         9259.5         10.735         71.877         63.691        0.10349        0.11167         2.5400
         9260.0         10.745         71.409         63.848        0.09834        0.11428         2.5460
         9260.5         10.745         70.786         63.909        0.09521        0.12009         2.5550
         9261.0         10.745         70.073         63.229        0.09229        0.12555         2.5620
         9261.5         10.745         69.359         63.061        0.09192        0.12421         2.5630
         9262.0         10.745         71.035         62.893        0.08943        0.12159         2.5640
         9262.5         10.745         72.361         62.638        0.08975        0.11519         2.5650
         9263.0         10.745         72.021         62.408        0.09340        0.10878         2.5660
         9263.5         10.745         70.184         62.447        0.10008        0.10809         2.5590
         9264.0         10.745         68.151         63.267        0.10349        0.11407         2.5510
         9264.5         10.745         68.489         64.057        0.09549        0.12938         2.5530
         9265.0         10.745         72.034         64.338        0.08326        0.14837         2.5600
         9265.5         10.745         78.193         64.940        0.07686        0.16095         2.5660
         9266.0         10.745         84.732         65.600        0.07422        0.16907         2.5730
         9266.5         10.745         91.088         65.805        0.06770        0.17033         2.5870
         9267.0         10.745         92.603         65.385        0.05999        0.16769         2.6010
         9267.5         10.742         90.480         64.911        0.05730        0.16506         2.6150
         9268.0         10.737         87.378         64.510        0.06611        0.15568         2.6100
         9268.5         10.732         84.275         64.641        0.07680        0.14002         2.5990
         9269.0         10.727         81.173         65.169        0.08669        0.12102         2.5880
         9269.5         10.721         77.619         65.696        0.09413        0.11426         2.5770
         9270.0         10.716         73.192         66.224        0.09525        0.11725         2.5660
         9270.5         10.711         71.473         66.751        0.08984        0.13212         2.5610
         9271.0         10.705         76.289         66.837        0.08408        0.14767         2.5670
         9271.5         10.700         82.728         66.581        0.08563        0.15245         2.5730
         9272.0         10.695         79.847         66.146        0.09976        0.15170         2.5700
         9272.5         10.690         76.356         65.771        0.10781        0.13899         2.5600
         9273.0         10.684         72.865         65.969        0.10784        0.12627         2.5500
         9273.5         10.679         71.206         66.166        0.10062        0.11702         2.5390
         9274.0         10.674         71.661         66.001        0.08473        0.11825         2.5510
         9274.5         10.647         74.099         65.961        0.06790        0.13127         2.5660
         9275.0         10.618         81.280         65.903        0.05302        0.16322         2.6230
         9275.5         10.589         85.362         65.581        0.04243        0.17301         2.6380
         9276.0         10.532         87.174         64.768        0.05076        0.16821         2.6250
         9276.5         10.473         83.685         63.103        0.06517        0.14712         2.6110
         9277.0         10.413         80.196         61.465        0.07235        0.12603         2.5980
         9277.5         10.354         76.650         60.699        0.07014        0.10715         2.5940
         9278.0         10.295         73.022         61.430        0.06659        0.09125         2.5960
         9278.5         10.235         70.184         62.789        0.07879        0.07921         2.5940
         9279.0         10.191         68.665         64.878        0.09753        0.08500         2.5730
         9279.5         10.170         70.799         66.967        0.09604        0.11351         2.5520
         9280.0         10.149         75.552         68.002        0.07747        0.16079         2.5830
         9280.5         10.129         97.279         67.922        0.05756        0.21041         2.6080
         9281.0         10.108        109.448         66.737        0.04306        0.20824         2.6280
         9281.5         10.087        113.571         65.399        0.03084        0.19194         2.6470
         9282.0         10.067        107.582         64.492        0.02550        0.17564         2.6670
         9282.5         10.052         99.958         63.585        0.03188        0.16772         2.6660
         9283.0         10.036         96.134         63.088        0.03243        0.17036         2.6610
         9283.5         10.019         95.353         62.785        0.02832        0.16946         2.6580
         9284.0         10.003         98.011         62.556        0.02718        0.15780         2.6690
         9284.5          9.986         98.375         62.173        0.03990        0.14370         2.6610
         9285.0          9.969         95.502         60.654        0.04725        0.12961         2.6430
         9285.5          9.953         94.261         59.111        0.04004        0.11614         2.6450
         9286.0          9.936         93.095         58.198        0.03663        0.10436         2.6500
         9286.5          9.920         88.374         58.267        0.03229        0.09205         2.6550
         9287.0          9.903         83.304         59.289        0.03677        0.07940         2.6520
         9287.5          9.888         79.021         60.515        0.04069        0.06806         2.6450
         9288.0          9.875         83.772         62.138        0.04389        0.08874         2.6470
         9288.5          9.862         93.475         63.761        0.03583        0.12573         2.6500
         9289.0          9.849        103.313         64.545        0.03331        0.15400         2.6540
         9289.5          9.836        106.730         64.577        0.03591        0.15674         2.6560
