###############################################
##         ENVERUS                           ##
##         ESS - Open Hole                   ##
##         PERMIAN / DELAWARE                ##
##         Nov 02 2023  V4.0                 ##
##         42-109-10071-00-00                ##
###############################################
## Copyright 2017-2023  ENVERUS.  All Rights Reserved. 
## Confidential - Property of ENVERUS, use governed by terms and 
## conditions found within the existing Information Services Subscription Agreement 
## (as may be amended, the “ISSA”) between Customer and ENVERUS. 
## 
~VERSION INFORMATION
# MNEM.UNIT                               DATA : DESCRIPTION OF MNEMONIC
#-----.-----     ----------------------------- : -----------------------------
VERS.                                     2.00 : CWLS LOG ASCII STANDARD - VERSION 2.00
WRAP.                                       NO : MULTIPLE LINES PER DEPTH STEP
VEND.                                  ENVERUS : VENDOR
TYPE.                          ESS - OPEN HOLE : ENVERUS ESSENTIAL CURVES – ACCESSIBLE THROUGH ENVERUS PRISM(TM)
DOC.                                  31950413 : ENVERUS HEADER RAW DOCUMENT ID
#___________________________________________________________________________________________________ 
~WELL INFORMATION 
# OfUh2+mdeFjroaXzMJDg/lRWUsinBwpBr+LWp9Jgnw936lSgPWOOCrYxw0Bz1A8ekYSC2IJg55FhS+cGr4hs3w== 
# MNEM.UNIT                                              DATA : DESCRIPTION OF MNEMONIC 
#-----.-----                    ----------------------------- : ----------------------------- 
CNTY.                                               CULBERSON : COUNTY 
STATE.                                                  TEXAS : STATE 
CNTRY.                                                    USA : COUNTRY 
API.                                             42-109-10071 : API (10 Digit) 
API_14.                                    42-109-10071-00-00 : API (14 Digits) 
API_14_std.                                 42-109-10071-0000 : API (14 Digits Standard) 
UWI.                                           42109100710000 : UNIQUE WELL ID 
WELL.                                                  DRD_55 : WELL NAME
STRT.FT                                                 320.5 : START DEPTH
STOP.FT                                               12359.5 : STOP DEPTH
STEP.FT                                                   0.5 : STEP BETWEEN DEPTHS
NULL.                                                 -999.25 : NULL VALUE
#___________________________________________________________________________________________________ 
~PARAMETER INFORMATION 
# MNEM.UNIT                                              DATA : DESCRIPTION OF MNEMONIC 
#-----.-----                    ----------------------------- : -----------------------------
#___________________________________________________________________________________________________ 
~CURVE INFORMATION 
# MNEM.UNIT           : CURVE DESCRIPTION 
#-----.-----          : ----------------------------- 
 DEPT.FT               : MEASURED DEPTH 
 GR.API                : GAMMA RAY (GAMMA RAY) 
 DT.US/FT              : SONIC DELTA TRANSIT TIME (SONIC) 
 #___________________________________________________________________________________________________ 
~A         DEPT             GR             DT
# ...
         5105.5         84.079         63.953
         5106.0         94.727         65.372
         5106.5         98.683         67.763
         5107.0         91.425         69.125
         5107.5         81.314         69.369
         5108.0         74.266         68.607
         5108.5         76.354         66.475
         5109.0         80.636         65.046
         5109.5         78.962         63.672
         5110.0         73.637         63.566
         5110.5         75.844         64.405
         5111.0         76.112         64.899
         5111.5         76.538         67.198
         5112.0         75.536         66.703
         5112.5         72.335         66.783
         5113.0         69.920         67.877
         5113.5         68.542         66.159
         5114.0         67.952         64.154
         5114.5         67.005         63.702
         5115.0         60.916         63.845
         5115.5         53.690         63.266
         5116.0         47.155         61.157
         5116.5         38.262         60.386
         5117.0         33.410         59.288
         5117.5         32.939         58.812
         5118.0         35.967         55.910
         5118.5         36.956         55.051
         5119.0         32.817         54.174
         5119.5         28.479         53.260
         5120.0         24.605         52.243
         5120.5         23.799         51.491
         5121.0         24.890         52.523
         5121.5         29.873         52.523
         5122.0         30.242         52.662
         5122.5         35.225         53.118
         5123.0         42.161         54.033
         5123.5         49.097         54.500
         5124.0         53.945         57.254
         5124.5         56.876         57.895
         5125.0         56.809         58.612
         5125.5         52.832         59.778
         5126.0         50.242         60.663
         5126.5         47.634         60.660
         5127.0         45.055         57.881
         5127.5         40.314         56.892
         5128.0         32.160         56.467
         5128.5         28.589         54.969
         5129.0         31.411         53.272
         5129.5         34.560         51.903
         5130.0         39.862         52.997
         5130.5         54.569         56.154
         5131.0         59.482         59.311
         5131.5         72.538         62.468
         5132.0         74.397         65.624
         5132.5         76.273         67.871
         5133.0         80.229         68.605
         5133.5         83.777         68.201
         5134.0         83.199         67.503
         5134.5         76.752         66.910
         5135.0         73.343         67.170
         5135.5         75.067         68.021
         5136.0         86.329         68.990
         5136.5        101.961         68.418
         5137.0        101.643         68.293
         5137.5         93.490         67.904
         5138.0         80.420         65.632
         5138.5         56.725         64.476
         5139.0         54.852         60.645
         5139.5         51.511         59.254
         5140.0         49.648         58.952
         5140.5         49.863         58.705
         5141.0         53.997         57.589
         5141.5         53.033         56.200
         5142.0         43.375         55.694
         5142.5         42.112         55.540
         5143.0         42.999         54.763
         5143.5         44.769         54.554
         5144.0         47.117         56.198
         5144.5         52.948         56.681
         5145.0         58.735         59.336
         5145.5         61.869         60.354
         5146.0         65.098         61.686
         5146.5         66.045         62.110
         5147.0         64.726         62.457
         5147.5         63.277         61.696
         5148.0         59.107         60.145
         5148.5         55.292         59.791
         5149.0         52.721         59.269
         5149.5         53.494         58.182
         5150.0         54.857         57.947
         5150.5         55.809         57.959
         5151.0         54.602         58.344
         5151.5         52.946         58.295
         5152.0         49.727         57.845
         5152.5         48.207         56.888
         5153.0         54.076         56.888
         5153.5         58.643         58.522
         5154.0         68.845         60.650
         5154.5         75.414         62.087
         5155.0         76.058         64.911
         5155.5         74.279         66.034
         5156.0         73.161         66.829
         5156.5         73.767         66.496
         5157.0         77.361         66.123
         5157.5         79.381         65.997
         5158.0         79.624         65.918
         5158.5         77.667         65.918
         5159.0         73.349         65.549
         5159.5         71.425         65.327
         5160.0         69.102         65.126
         5160.5         67.885         65.040
         5161.0         70.207         64.659
         5161.5         73.280         64.163
         5162.0         70.656         63.818
         5162.5         68.768         63.753
         5163.0         67.232         63.346
         5163.5         66.926         61.977
         5164.0         62.543         61.213
         5164.5         59.181         60.559
         5165.0         56.343         59.486
         5165.5         55.185         58.692
         5166.0         56.457         58.047
         5166.5         59.295         59.830
         5167.0         64.295         61.623
         5167.5         65.314         63.416
         5168.0         66.653         65.209
         5168.5         68.864         66.991
         5169.0         68.263         67.437
         5169.5         68.751         67.475
         5170.0         69.341         66.890
         5170.5         69.755         66.025
         5171.0         67.670         65.161
         5171.5         65.963         64.296
         5172.0         65.202         63.432
         5172.5         69.277         63.850
         5173.0         70.926         65.292
         5173.5         71.475         66.733
         5174.0         70.843         68.592
         5174.5         70.252         70.574
         5175.0         69.335         71.275
         5175.5         68.538         70.770
         5176.0         67.502         69.237
         5176.5         65.934         67.703
         5177.0         60.119         66.170
         5177.5         60.348         64.636
         5178.0         63.001         63.103
         5178.5         64.694         61.569
         5179.0         64.948         60.039
         5179.5         64.761         60.871
         5180.0         63.322         61.769
         5180.5         62.517         62.321
         5181.0         60.070         62.769
         5181.5         56.905         62.906
         5182.0         53.740         62.756
         5182.5         56.608         62.051
         5183.0         62.469         61.281
         5183.5         67.496         61.328
         5184.0         71.180         62.609
         5184.5         74.864         65.007
         5185.0         78.549         67.405
         5185.5         82.403         69.624
         5186.0         80.908         70.306
         5186.5         77.219         69.147
         5187.0         72.497         67.935
         5187.5         67.875         67.018
         5188.0         58.682         65.691
         5188.5         57.866         63.795
         5189.0         58.333         61.900
         5189.5         64.482         61.593
         5190.0         71.906         62.594
         5190.5         77.637         65.041
         5191.0         79.497         67.488
         5191.5         77.224         68.668
         5192.0         71.776         69.530
