###############################################
##         ENVERUS                           ##
##         ESS - Open Hole                   ##
##         PERMIAN / DELAWARE                ##
##         Nov 02 2023  V4.0                 ##
##         42-109-31375-00-00                ##
###############################################
## Copyright 2017-2023  ENVERUS.  All Rights Reserved. 
## Confidential - Property of ENVERUS, use governed by terms and 
## conditions found within the existing Information Services Subscription Agreement 
## (as may be amended, the “ISSA”) between Customer and ENVERUS. 
## 
~VERSION INFORMATION
# MNEM.UNIT                               DATA : DESCRIPTION OF MNEMONIC
#-----.-----     ----------------------------- : -----------------------------
VERS.                                     2.00 : CWLS LOG ASCII STANDARD - VERSION 2.00
WRAP.                                       NO : MULTIPLE LINES PER DEPTH STEP
VEND.                                  ENVERUS : VENDOR
TYPE.                          ESS - OPEN HOLE : ENVERUS ESSENTIAL CURVES – ACCESSIBLE THROUGH ENVERUS PRISM(TM)
DOC.                                  32006335 : ENVERUS HEADER RAW DOCUMENT ID
#___________________________________________________________________________________________________ 
~WELL INFORMATION 
# Eb7Zbut2Nwqt2ftj1i2q6V2Ye1Joym9Qrd6BFF0aHeZ6Mf1z+VAuEcbs4uVngcAWjTW62nvWGWatc34NWk2mnA== 
# MNEM.UNIT                                              DATA : DESCRIPTION OF MNEMONIC 
#-----.-----                    ----------------------------- : ----------------------------- 
CNTY.                                               CULBERSON : COUNTY 
STATE.                                                  TEXAS : STATE 
CNTRY.                                                    USA : COUNTRY 
API.                                             42-109-31375 : API (10 Digit) 
API_14.                                    42-109-31375-00-00 : API (14 Digits) 
API_14_std.                                 42-109-31375-0000 : API (14 Digits Standard) 
UWI.                                           42109313750000 : UNIQUE WELL ID 
WELL.                                      7806 JV-P DUVAL  1 : WELL NAME
STRT.FT                                                     0 : START DEPTH
STOP.FT                                               15739.0 : STOP DEPTH
STEP.FT                                                   0.5 : STEP BETWEEN DEPTHS
NULL.                                                 -999.25 : NULL VALUE
COMP.                                  BTA OIL PRODUCERS  LLC : COMPANY 
DATE.                                             26-MAY-1978 : LOG DATE
#___________________________________________________________________________________________________ 
~CURVE INFORMATION 
# MNEM.UNIT           : CURVE DESCRIPTION 
#-----.-----          : ----------------------------- 
 DEPT.FT               : MEASURED DEPTH 
 CALI.IN               : CALIPER (CAL - CAL) 
 GR.API                : GAMMA RAY (GR) 
 DT.US/FT              : SONIC DELTA TRANSIT TIME (DT) 
 #___________________________________________________________________________________________________ 
~A         DEPT           CALI             GR             DT
# ...
         2310.0         12.295          7.808       -999.250
         2310.5         12.295          7.635       -999.250
         2311.0         12.295          7.462       -999.250
         2311.5         12.295          7.289       -999.250
         2312.0         12.295          7.438       -999.250
         2312.5         12.295          7.606       -999.250
         2313.0         12.295          7.774       -999.250
         2313.5         12.294          7.943       -999.250
         2314.0         12.294          8.111       -999.250
         2314.5         12.294          8.246       -999.250
         2315.0         12.294          8.306       -999.250
         2315.5         12.294          8.366       -999.250
         2316.0         12.294          8.426       -999.250
         2316.5         12.294          8.486       -999.250
         2317.0         12.294          8.546       -999.250
         2317.5         12.294          8.606       -999.250
         2318.0         12.294          8.666       -999.250
         2318.5         12.294          9.172       -999.250
         2319.0         12.294         10.792       -999.250
         2319.5         12.294         12.412       -999.250
         2320.0         12.294         12.511       -999.250
         2320.5         12.294         11.889       -999.250
         2321.0         12.294         11.266       -999.250
         2321.5         12.294         10.908       -999.250
         2322.0         12.294         10.677       -999.250
         2322.5         12.294         10.446       -999.250
         2323.0         12.294         10.215       -999.250
         2323.5         12.294          9.985       -999.250
         2324.0         12.295          9.814       -999.250
         2324.5         12.301          9.783       -999.250
         2325.0         12.307          9.752       -999.250
         2325.5         12.312          9.721       -999.250
         2326.0         12.318          9.690       -999.250
         2326.5         12.324          9.483       -999.250
         2327.0         12.330          9.126       -999.250
         2327.5         12.335          8.768       -999.250
         2328.0         12.341          8.411       -999.250
         2328.5         12.343          8.054       -999.250
         2329.0         12.345          8.364       -999.250
         2329.5         12.348          8.895       -999.250
         2330.0         12.350          9.427       -999.250
         2330.5         12.352          9.959       -999.250
         2331.0         12.354         10.305       -999.250
         2331.5         12.356         10.270       -999.250
         2332.0         12.358         10.234       -999.250
         2332.5         12.359         10.199       -999.250
         2333.0         12.358         10.130       -999.250
         2333.5         12.358          9.888         64.663
         2334.0         12.357          9.645         64.133
         2334.5         12.356          9.403         63.529
         2335.0         12.356          9.161         59.366
         2335.5         12.355          9.361         58.056
         2336.0         12.354          9.770         57.365
         2336.5         12.354         10.179         56.673
         2337.0         12.353         10.587         58.833
         2337.5         12.352         10.363         61.310
         2338.0         12.352         10.016         63.787
         2338.5         12.351          9.670         66.087
         2339.0         12.350          9.432         64.047
         2339.5         12.350          9.522         62.007
         2340.0         12.349          9.612         59.592
         2340.5         12.348          9.701         56.433
         2341.0         12.348          9.791         55.153
         2341.5         12.347          9.880         55.250
         2342.0         12.346          9.970         55.347
         2342.5         12.346         10.060         55.444
         2343.0         12.345         10.149         55.535
         2343.5         12.344         10.472         55.596
         2344.0         12.343         11.257         55.658
         2344.5         12.343         12.041         55.716
         2345.0         12.342         12.826         55.664
         2345.5         12.341         13.610         55.612
         2346.0         12.341         14.111         55.560
         2346.5         12.340         14.067         55.509
         2347.0         12.339         14.024         55.550
         2347.5         12.339         13.980         55.762
         2348.0         12.338         13.936         55.936
         2348.5         12.337         13.893         55.871
         2349.0         12.337         13.849         55.807
         2349.5         12.336         13.516         55.742
         2350.0         12.335         12.887         55.678
         2350.5         12.335         12.257         55.662
         2351.0         12.334         11.628         55.661
         2351.5         12.333         11.097         55.660
         2352.0         12.333         10.814         55.659
         2352.5         12.332         10.531         55.619
         2353.0         12.331         10.248         55.522
         2353.5         12.331         11.066         55.426
         2354.0         12.330         11.884         55.309
         2354.5         12.329         12.702         55.190
         2355.0         12.329         13.520         55.072
         2355.5         12.328         13.715         54.953
         2356.0         12.327         13.484         55.120
         2356.5         12.327         13.253         55.320
         2357.0         12.326         13.023         55.394
         2357.5         12.325         12.792         55.237
         2358.0         12.325         12.562         55.079
         2358.5         12.324         12.331         54.990
         2359.0         12.323         12.101         54.951
         2359.5         12.322         11.617         54.912
         2360.0         12.322         10.911         54.897
         2360.5         12.321         10.205         54.910
         2361.0         12.320          9.499         54.924
         2361.5         12.320          8.793         54.937
         2362.0         12.319          8.087         54.951
         2362.5         12.318          7.381         54.961
         2363.0         12.318          8.667         54.954
         2363.5         12.317          9.318         54.947
         2364.0         12.316          9.690         54.939
         2364.5         12.316         10.062         54.932
         2365.0         12.315         10.434         54.925
         2365.5         12.314         10.807         54.917
         2366.0         12.314         11.179         54.826
         2366.5         12.313         11.449         54.674
         2367.0         12.312         11.700         54.522
         2367.5         12.312         11.950         54.277
         2368.0         12.313         12.200         53.613
         2368.5         12.316         12.451         51.226
         2369.0         12.318         12.234         50.920
         2369.5         12.320         11.895         50.782
         2370.0         12.323         11.557         50.643
         2370.5         12.325         11.218         50.505
         2371.0         12.327         10.880         49.987
         2371.5         12.329         10.541         47.317
         2372.0         12.332         10.203         47.008
         2372.5         12.334         10.069         46.933
         2373.0         12.334          9.955         46.857
         2373.5         12.329          9.841         46.782
         2374.0         12.323          9.727         46.707
         2374.5         12.318          9.613         46.632
         2375.0         12.313          9.743         47.186
         2375.5         12.308         10.075         48.297
