~Version Information
 VERS.                  2.0:   CWLS log ASCII Standard -VERSION 2.0
 WRAP.                   NO:   One line per depth step
~Well Information Block
#MNEM.UNIT     VALUE/NAME     DESCRIPTION
#---------     -----------    ---------------------------
 STRT.F              8432.0000: START DEPTH
 STOP.F             13842.0000: STOP DEPTH
 STEP.F                 0.5000: STEP DEPTH
 NULL.                 -999.25: NULL VALUE
 LOC .     100' FNL & 990' FEL:  LOCATION
 FL6 .       API  42-109-33163:  LOCATIONLINE6
 FL4 .           ABSTRACT 1006:  LOCATIONLINE4
 FL3 .        T&P RR CO SURVEY:  LOCATIONLINE3
 FL2 .     SECTION 36, BLOCK 59 T2:  LOCATIONLINE2
 FL1 .     100' FNL & 990' FEL:  LOCATIONLINE1
 DMF .                      KB:  DRILL MEAS FROM
 PDAT.                      GL:  PERMANENT DATUM
 CNTY.               CULBERSON:  COUNTY NAME
 FLD .     FORD, WEST (WOLFCAMP):  FIELD NAME
 WELL.         SCOTT FEE 36 2H:  WELL NAME
 COMP.     CAPITAN ENERGY INC.:  COMPANY
 DATE.             11-Oct-2017:  DATE
 SVCO.             Halliburton:  SERVICECONAME
 PROV.                   TEXAS:  PROVINCE
 STAT.                   TEXAS:  STATE NAME
 CTRY.           UNITED STATES:  COUNTRY NAME
 HIDE.                        :  WELLNAMEOPERAT
 BASI.                 PERMIAN:  BASIN
 UWI .            42-109-33163Lat:  UNIQUE WELL IDENTIFIER
 API .            42-109-33163Lat:  API NUMBER
 RANG.                     N/A:  RANGE
 TOWN.                     N/A:  TOWNSHIP
 SECT.                     N/A:  SECTION
 SON .               904352259:  JOB NUMBER
 SRVC.             Halliburton:  SERVICE COMPANY
 LMF .                      KB:  LOG MEASURED FROM
 EGL .ft             3174.0000:  GROUND ELEVATION
 BAP .ft                0.0000:  GL ELEV ONSHORE
 GVFD.g                 1.0000:  GRAVITY FIELD
 EKB .ft             3200.0000:  KB ELEVATION
 EDF .ft             3199.0000:  DF ELEVATION
~Curve Information Block
#MNEM.UNIT                 API CODE     Curve Description
#---------               -----------    ---------------------------
 DEPT.F                 00 000 000 000:  Depth
 CCL .V                 00 000 000 000:  Casing Collar Locator
 NPHI_OH.pu             00 000 000 000:  NPHI_OH
 NPHI_CHI.pu            00 000 000 000:  NPHI_CHI
 GR_CHI.api             00 000 000 000:  GR_CHI
 GR_OH.api              00 000 000 000:  GR_OH
 RHOB_OH.g/cc           00 000 000 000:  RHOB_OH
 RHOB_CHI.g/cc          00 000 000 000:  RHOB_CHI
 PE_CHI.b/e             00 000 000 000:  PE_CHI
 PE_OH.b/e              00 000 000 000:  PE_OH
 MSFL_OH.ohmm           00 000 000 000:  MSFL_OH
 MSFL_CHI.ohmm          00 000 000 000:  MSFL_CHI
 LLS_OH.ohmm            00 000 000 000:  LLS_OH
 LLS_CHI.ohmm           00 000 000 000:  LLS_CHI
 LLD_OH.ohmm            00 000 000 000:  LLD_OH
 LLD_CHI.ohmm           00 000 000 000:  LLD_CHI
 DTC_OH.uspf            00 000 000 000:  DTC_OH
 DTC_CHI.uspf           00 000 000 000:  DTC_CHI
 SPHI_CHI.pu            00 000 000 000:  SPHI_CHI
 SGF .cu                00 000 000 000:  Formation Sigma
 CRNF.NONE              00 000 000 000:  CM GrsCaptRatio
 RIN .NONE              00 000 000 000:  CM GrsInelRatio
~A    DEPT      CCL   NPHI_OH NPHI_CHI  GR_CHI   GR_OH   RHOB_OH RHOB_CHI PE_CHI  PE_OH   MSFL_OH  MSFL_CHI  LLS_OH   LLS_CHI   LLD_OH  LLD_CHI  DTC_OH  DTC_CHI SPHI_CHI   SGF    CRNF   RIN   
# ...
   10952.0000  0.0000 -999.25  14.7161  84.9584  -999.25 -999.25   2.5500 3.4529 -999.25   -999.25  40.2321   -999.25  48.7934  -999.25  49.3148 -999.25 69.6920  15.5600 23.1309 1.0116 1.0297
   10952.5000  0.0000 -999.25  14.7902  87.0762  -999.25 -999.25   2.5480 3.4427 -999.25   -999.25  40.6182   -999.25  49.3269  -999.25  49.8577 -999.25 69.7237  15.6400 23.0980 1.0151 1.0317
   10953.0000  0.0000 -999.25  14.7993  87.7012  -999.25 -999.25   2.5472 3.4381 -999.25   -999.25  41.0444   -999.25  49.9167  -999.25  50.4578 -999.25 69.6381  15.6000 23.2407 1.0238 1.0360
   10953.5000  0.0000 -999.25  14.9647  90.0519  -999.25 -999.25   2.5442 3.4137 -999.25   -999.25  41.1576   -999.25  50.0735  -999.25  50.6173 -999.25 69.8056  15.6700 23.3370 1.0326 1.0409
   10954.0000  0.0000 -999.25  14.8660  86.6145  -999.25 -999.25   2.5469 3.4192 -999.25   -999.25  40.6689   -999.25  49.3971  -999.25  49.9290 -999.25 69.6347  15.6200 23.4830 1.0403 1.0444
   10954.5000  0.0000 -999.25  14.9215  86.6057  -999.25 -999.25   2.5468 3.4172 -999.25   -999.25  40.3424   -999.25  48.9457  -999.25  49.4698 -999.25 69.8076  15.6700 23.6065 1.0517 1.0417
   10955.0000  0.0000 -999.25  14.6803  81.5593  -999.25 -999.25   2.5523 3.4535 -999.25   -999.25  39.8524   -999.25  48.2694  -999.25  48.7817 -999.25 69.6668  15.6400 23.8376 1.0660 1.0349
   10955.5000  0.0000 -999.25  14.5624  79.2542  -999.25 -999.25   2.5552 3.4748 -999.25   -999.25  39.4425   -999.25  47.7045  -999.25  48.2070 -999.25 69.6854  15.6200 24.0493 1.0840 1.0280
   10956.0000  0.0000 -999.25  14.4012  75.4573  -999.25 -999.25   2.5591 3.4952 -999.25   -999.25  38.6868   -999.25  46.6653  -999.25  47.1499 -999.25 69.6720  15.6100 23.9678 1.0799 1.0226
   10956.5000 -0.1286 -999.25  14.7437  78.7960  -999.25 -999.25   2.5548 3.4573 -999.25   -999.25  38.0073   -999.25  45.7332  -999.25  46.2018 -999.25 70.1672  15.8500 23.9016 1.0646 1.0224
   10957.0000  0.0000 -999.25  15.3692  88.3657  -999.25 -999.25   2.5437 3.3948 -999.25   -999.25  38.2675   -999.25  46.0898  -999.25  46.5645 -999.25 71.1464  16.4400 23.7397 1.0355 1.0223
   10957.5000  0.0000 -999.25  15.3938  89.6864  -999.25 -999.25   2.5424 3.3902 -999.25   -999.25  38.4801   -999.25  46.3815  -999.25  46.8612 -999.25 71.1491  16.6500 23.6981 1.0133 1.0228
   10958.0000  0.0000 -999.25  15.1557  86.9014  -999.25 -999.25   2.5463 3.4170 -999.25   -999.25  39.0052   -999.25  47.1028  -999.25  47.5948 -999.25 70.6617  16.4100 23.7754 1.0072 1.0249
   10958.5000  0.0000 -999.25  14.5699  80.6855  -999.25 -999.25   2.5542 3.4724 -999.25   -999.25  39.1413   -999.25  47.2899  -999.25  47.7852 -999.25 69.7047  15.8400 23.7462 1.0021 1.0231
   10959.0000  0.0000 -999.25  14.5483  83.7480  -999.25 -999.25   2.5516 3.4546 -999.25   -999.25  38.8888   -999.25  46.9428  -999.25  47.4321 -999.25 69.4944  15.5300 23.6597 1.0008 1.0217
   10959.5000  0.0000 -999.25  14.6375  86.6952  -999.25 -999.25   2.5489 3.4399 -999.25   -999.25  38.9840   -999.25  47.0736  -999.25  47.5652 -999.25 69.5745  15.5200 23.4731 0.9929 1.0203
   10960.0000  0.0000 -999.25  14.1428  79.0473  -999.25 -999.25   2.5573 3.5015 -999.25   -999.25  39.2673   -999.25  47.4633  -999.25  47.9616 -999.25 69.0029  15.2600 23.3351 0.9865 1.0185
   10960.5000  0.0000 -999.25  14.2189  81.0991  -999.25 -999.25   2.5559 3.5041 -999.25   -999.25  39.8854   -999.25  48.3149  -999.25  48.8280 -999.25 69.1178  15.1900 23.3194 0.9804 1.0164
   10961.0000  0.0000 -999.25  14.2583  84.1009  -999.25 -999.25   2.5541 3.5050 -999.25   -999.25  40.3488   -999.25  48.9546  -999.25  49.4788 -999.25 69.1872  15.2500 23.3474 0.9758 1.0101
   10961.5000  0.0000 -999.25  14.2981  86.9162  -999.25 -999.25   2.5524 3.4975 -999.25   -999.25  40.4019   -999.25  49.0279  -999.25  49.5534 -999.25 69.2670  15.3100 23.3031 0.9773 1.0031
   10962.0000  0.0000 -999.25  13.4431  74.9376  -999.25 -999.25   2.5651 3.5954 -999.25   -999.25  40.3073   -999.25  48.8972  -999.25  49.4205 -999.25 68.4541  14.9200 23.1801 0.9760 0.9961
   10962.5000  0.0000 -999.25  13.4717  76.4692  -999.25 -999.25   2.5642 3.5916 -999.25   -999.25  40.4571   -999.25  49.1041  -999.25  49.6310 -999.25 68.4818  14.7600 22.9738 0.9751 0.9928
   10963.0000  0.0000 -999.25  13.9105  82.9676  -999.25 -999.25   2.5578 3.5495 -999.25   -999.25  40.8758   -999.25  49.6832  -999.25  50.2202 -999.25 68.8926  14.9700 22.7085 0.9731 0.9950
   10963.5000  0.0000 -999.25  14.1800  87.9252  -999.25 -999.25   2.5532 3.5261 -999.25   -999.25  41.5878   -999.25  50.6697  -999.25  51.2241 -999.25 69.1645  15.1900 22.5004 0.9687 0.9965
   10964.0000  0.0000 -999.25  14.1776  88.2901  -999.25 -999.25   2.5533 3.5434 -999.25   -999.25  42.5217   -999.25  51.9672  -999.25  52.5448 -999.25 69.1726  15.2500 22.5387 0.9683 0.9973
   10964.5000  0.0000 -999.25  13.6066  79.5324  -999.25 -999.25   2.5622 3.6271 -999.25   -999.25  43.2689   -999.25  53.0082  -999.25  53.6045 -999.25 68.6157  14.9800 22.6319 0.9699 0.9975
   10965.0000  0.0000 -999.25  13.6175  80.0981  -999.25 -999.25   2.5615 3.6173 -999.25   -999.25  43.1304   -999.25  52.8151  -999.25  53.4079 -999.25 68.5727  14.8400 22.7808 0.9673 0.9983
   10965.5000  0.0000 -999.25  13.9855  85.5761  -999.25 -999.25   2.5559 3.5640 -999.25   -999.25  42.7952   -999.25  52.3480  -999.25  52.9324 -999.25 68.8877  14.9900 22.7663 0.9671 1.0004
   10966.0000  0.0000 -999.25  14.0286  85.8910  -999.25 -999.25   2.5553 3.5502 -999.25   -999.25  42.2651   -999.25  51.6104  -999.25  52.1815 -999.25 68.9327  15.0800 22.7491 0.9638 1.0001
   10966.5000  0.0000 -999.25  13.4227  76.8813  -999.25 -999.25   2.5641 3.6211 -999.25   -999.25  42.3164   -999.25  51.6818  -999.25  52.2542 -999.25 68.3479  14.8000 22.7405 0.9610 0.9992
   10967.0000  0.0000 -999.25  13.8422  83.6807  -999.25 -999.25   2.5579 3.5742 -999.25   -999.25  42.3774   -999.25  51.7666  -999.25  52.3405 -999.25 68.7625  14.8800 22.8231 0.9656 0.9970
   10967.5000  0.0000 -999.25  14.4731  95.9254  -999.25 -999.25   2.5459 3.4794 -999.25   -999.25  42.4079   -999.25  51.8090  -999.25  52.3837 -999.25 69.4228  15.2900 22.9476 0.9736 0.9980
   10968.0000  0.0000 -999.25  14.3661  93.2890  -999.25 -999.25   2.5479 3.4864 -999.25   -999.25  42.1157   -999.25  51.4027  -999.25  51.9702 -999.25 69.2147  15.3300 22.9749 0.9773 1.0020
   10968.5000  0.0000 -999.25  14.5130  95.1262  -999.25 -999.25   2.5454 3.4608 -999.25   -999.25  41.6791   -999.25  50.7964  -999.25  51.3531 -999.25 69.3960  15.3800 22.8719 0.9808 1.0041
   10969.0000  0.0000 -999.25  14.8107 101.1329  -999.25 -999.25   2.5388 3.4169 -999.25   -999.25  41.5839   -999.25  50.6644  -999.25  51.2187 -999.25 69.8843  15.6600 22.7539 0.9793 1.0033
   10969.5000  0.0000 -999.25  14.4277  92.1740  -999.25 -999.25   2.5488 3.4978 -999.25   -999.25  41.9440   -999.25  51.1642  -999.25  51.7274 -999.25 69.4337  15.5400 22.7189 0.9761 0.9994
   10970.0000  0.0000 -999.25  13.5188  77.1394  -999.25 -999.25   2.5642 3.6297 -999.25   -999.25  42.3604   -999.25  51.7429  -999.25  52.3164 -999.25 68.6056  15.0300 22.9172 0.9779 0.9951
   10970.5000  0.0000 -999.25  14.3997  92.0390  -999.25 -999.25   2.5496 3.5166 -999.25   -999.25  42.4847   -999.25  51.9158  -999.25  52.4924 -999.25 69.4677  15.2800 23.2609 0.9762 0.9961
   10971.0000  0.0000 -999.25  14.7668 100.5697  -999.25 -999.25   2.5402 3.4333 -999.25   -999.25  41.7853   -999.25  50.9438  -999.25  51.5031 -999.25 69.8974  15.6800 23.4853 0.9704 0.9979
   10971.5000  0.0000 -999.25  14.6160  95.3341  -999.25 -999.25   2.5443 3.4414 -999.25   -999.25  40.6002   -999.25  49.3020  -999.25  49.8323 -999.25 69.6216  15.6300 23.5954 0.9689 1.0014
   10972.0000  0.0000 -999.25  14.6633  95.4439  -999.25 -999.25   2.5430 3.4163 -999.25   -999.25  39.8447   -999.25  48.2588  -999.25  48.7709 -999.25 69.5883  15.5600 23.5571 0.9670 1.0071
   10972.5000  0.0000 -999.25  14.6302  94.8474  -999.25 -999.25   2.5431 3.4066 -999.25   -999.25  39.4792   -999.25  47.7550  -999.25  48.2584 -999.25 69.4427  15.4800 23.5828 0.9693 1.0112
