###############################################
##         ENVERUS                           ##
##         ESS - Open Hole                   ##
##         PERMIAN / DELAWARE                ##
##         Nov 02 2023  V4.0                 ##
##         42-109-32255-00-00                ##
###############################################
## Copyright 2017-2023  ENVERUS.  All Rights Reserved. 
## Confidential - Property of ENVERUS, use governed by terms and 
## conditions found within the existing Information Services Subscription Agreement 
## (as may be amended, the “ISSA”) between Customer and ENVERUS. 
## 
~VERSION INFORMATION
# MNEM.UNIT                               DATA : DESCRIPTION OF MNEMONIC
#-----.-----     ----------------------------- : -----------------------------
VERS.                                     2.00 : CWLS LOG ASCII STANDARD - VERSION 2.00
WRAP.                                       NO : MULTIPLE LINES PER DEPTH STEP
VEND.                                  ENVERUS : VENDOR
TYPE.                          ESS - OPEN HOLE : ENVERUS ESSENTIAL CURVES – ACCESSIBLE THROUGH ENVERUS PRISM(TM)
DOC.                                  22531479 : ENVERUS HEADER RAW DOCUMENT ID
#___________________________________________________________________________________________________ 
~WELL INFORMATION 
# hWe/832LbRsDOXT7erJRLf+k/AYA64twV/RtTeeHm/CkPExvlrAQ0qJE/El28xU0WYmlktkqeCNHArF5iUyCGg== 
# MNEM.UNIT                                              DATA : DESCRIPTION OF MNEMONIC 
#-----.-----                    ----------------------------- : ----------------------------- 
CNTY.                                               CULBERSON : COUNTY 
STATE.                                                  TEXAS : STATE 
CNTRY.                                                    USA : COUNTRY 
API.                                             42-109-32255 : API (10 Digit) 
API_14.                                    42-109-32255-00-00 : API (14 Digits) 
API_14_std.                                 42-109-32255-0000 : API (14 Digits Standard) 
UWI.                                           42109322550000 : UNIQUE WELL ID 
WELL.                               MELISSA TAYLOR STATE 27-1 : WELL NAME
STRT.FT                                                7612.0 : START DEPTH
STOP.FT                                               13645.5 : STOP DEPTH
STEP.FT                                                   0.5 : STEP BETWEEN DEPTHS
NULL.                                                 -999.25 : NULL VALUE
COMP.                                         PETRO-HUNT,LLC. : COMPANY 
FLD.                                                  WILDCAT : FIELD 
SRVC.                                            SCHLUMBERGER : SERVICE COMPANY 
DATE.                                              04/06/2006 : DATE 
TVD.                                                       NO : TVD FLAG
#___________________________________________________________________________________________________ 
~PARAMETER INFORMATION 
# MNEM.UNIT                                              DATA : DESCRIPTION OF MNEMONIC 
#-----.-----                    ----------------------------- : ----------------------------- 
RUN.                                                      ONE : RUN NUMBER 
PDAT.                                                      GL : PERMANENT DATUM 
EPD.FT                                               000.0000 : ELEVATION OF PERM. DATUM 
LMF.                                            KELLY BUSHING : LOG MEASURED FROM 
EKB.FT                                                 3796.6 : ELEVATION OF KELLY BUSHING 
DF.FT                                                  3773.0 : ELEVATION OF DERRICK FLOOR 
GL.FT                                                  3795.6 : ELEVATION OF GROUND LEVEL 
TD.FT                                              13716.0000 : TOTAL DEPTH 
BHT.DEGF                                               224.00 : BOTTOM HOLE TEMPERATURE 
BLI.FT                                             13716.0000 : BOTTOM LOG INTERVAL 
CSGSIZE.IN                                             9.6250 : CASING SIZE 
BITSIZE.IN                                              8.750 : BITSIZE 
CSGD.FT                                               12804.0 : CASING BOTTOM (DRILLER) 1 
CSGL.FT                                               12802.0 : CASING BOTTOM (LOGGER) 1 
MUD.                                                    BRINE : DRILLING FLUID TYPE 
MUDV.CP                                                  45.0 : DRILLING FLUID VISCOSITY 
MUDD.LB/USG                                               9.5 : DRILLING FLUID DENSITY 
PH.                                                      10.0 : DRILLING FLUID PH 
FL.ML/30MIN                                               5.0 : DRILLING FLUID LOSS 
MUDS.                                               CIRC TANK : MUD SAMPLE SOURCE 
RM.OHMM                                                 0.064 : RESISTIVITY OF MUD SAMPLE 
RMT.DEGF                                                66.00 : MUD SAMPLE TEMPERATURE 
RMF.OHMM                                                0.048 : MUD FILTRATE RESISTIVITY 
RMFT.DEGF                                               66.00 : MUD FILTRATE SAMPLE TEMPERATURE 
RMC.OHMM                                                0.095 : MUD CAKE RESISTIVITY 
RMCT.DEGF                                               66.00 : MUD CAKE SAMPLE TEMPERATURE 
RMB.OHMM                                                0.015 : MUD RESISTIVITY AT BHT 
TMAX.DEGF                                              224.00 : BOTTOM HOLE TEMPERATURE
#___________________________________________________________________________________________________ 
~CURVE INFORMATION 
# MNEM.UNIT           : CURVE DESCRIPTION 
#-----.-----          : ----------------------------- 
 DEPT.FT               : MEASURED DEPTH 
 DT__A.US/FT           : SONIC DELTA TRANSIT TIME (DELTA T COMP) 
 SPHI__A.V/V           : SONIC POROSITY (SONIC POROSITY) 
 #___________________________________________________________________________________________________ 
~A         DEPT          DT__A        SPHI__A
# ...
         9961.0         63.012        0.11000
         9961.5         62.877        0.10800
         9962.0         62.989        0.10900
         9962.5         63.102        0.10900
         9963.0         63.193        0.10900
         9963.5         62.522        0.10400
         9964.0         61.962        0.10000
         9964.5         61.403        0.09600
         9965.0         60.843        0.09200
         9965.5         60.284        0.08800
         9966.0         59.834        0.08400
         9966.5         59.458        0.08500
         9967.0         59.458        0.09200
         9967.5         61.420        0.10200
         9968.0         63.089        0.11300
         9968.5         64.361        0.12100
         9969.0         65.103        0.12900
         9969.5         65.846        0.12700
         9970.0         65.230        0.12300
         9970.5         64.618        0.11800
         9971.0         64.080        0.11300
         9971.5         63.774        0.11400
         9972.0         63.596        0.11400
         9972.5         63.753        0.11600
         9973.0         63.914        0.11700
         9973.5         64.074        0.11900
         9974.0         64.234        0.12000
         9974.5         64.394        0.12000
         9975.0         64.555        0.12100
         9975.5         64.715        0.12200
         9976.0         64.875        0.12300
         9976.5         65.036        0.12400
         9977.0         65.241        0.12700
         9977.5         65.775        0.13000
         9978.0         65.950        0.13200
         9978.5         66.126        0.13000
         9979.0         65.953        0.12700
         9979.5         65.494        0.12500
         9980.0         65.035        0.12200
         9980.5         64.578        0.12000
         9981.0         64.439        0.11900
         9981.5         64.509        0.11900
         9982.0         64.578        0.11900
         9982.5         64.648        0.12100
         9983.0         64.717        0.12300
         9983.5         65.045        0.12700
         9984.0         65.761        0.13100
         9984.5         66.476        0.13600
         9985.0         67.048        0.13700
         9985.5         66.822        0.13700
         9986.0         66.634        0.13600
         9986.5         66.446        0.13200
         9987.0         66.145        0.13000
         9987.5         65.843        0.12700
         9988.0         64.940        0.12000
         9988.5         64.036        0.11300
         9989.0         63.313        0.10700
         9989.5         62.446        0.10300
         9990.0         61.867        0.10000
         9990.5         61.386        0.10000
         9991.0         61.535        0.10100
         9991.5         61.747        0.10200
         9992.0         62.468        0.10800
         9992.5         63.189        0.11300
         9993.0         63.910        0.11800
         9993.5         64.633        0.11900
         9994.0         64.070        0.11500
         9994.5         63.507        0.11100
         9995.0         62.831        0.10700
         9995.5         62.590        0.10400
         9996.0         62.410        0.10700
         9996.5         62.631        0.11100
         9997.0         63.333        0.11500
         9997.5         64.036        0.11400
         9998.0         63.685        0.11200
         9998.5         63.333        0.11100
         9999.0         63.072        0.10900
         9999.5         62.982        0.11000
        10000.0         63.057        0.11000
        10000.5         63.133        0.11100
        10001.0         63.133        0.10900
        10001.5         62.522        0.10400
        10002.0         61.833        0.10000
        10002.5         61.145        0.09600
        10003.0         61.024        0.09500
        10003.5         61.185        0.09800
        10004.0         62.078        0.10700
        10004.5         63.434        0.11200
        10005.0         63.494        0.11700
        10005.5         63.554        0.12200
        10006.0         65.010        0.12900
        10006.5         66.466        0.13600
        10007.0         67.048        0.13800
        10007.5         66.585        0.13300
        10008.0         66.006        0.12900
        10008.5         65.426        0.12400
        10009.0         64.847        0.12000
        10009.5         64.268        0.11600
        10010.0         63.853        0.11400
        10010.5         63.547        0.11300
        10011.0         63.078        0.10300
        10011.5         62.080        0.09300
        10012.0         60.108        0.08300
        10012.5         57.651        0.07300
        10013.0         55.000        0.06300
        10013.5         55.241        0.05400
        10014.0         56.732        0.06600
        10014.5         58.043        0.07600
        10015.0         59.353        0.08700
        10015.5         60.664        0.09700
        10016.0         61.975        0.10800
        10016.5         63.187        0.11300
        10017.0         63.819        0.11400
        10017.5         63.982        0.11500
        10018.0         63.798        0.11500
        10018.5         63.683        0.11500
        10019.0         63.679        0.11500
        10019.5         64.319        0.12000
        10020.0         65.074        0.12600
        10020.5         65.829        0.13000
        10021.0         65.945        0.12600
        10021.5         64.979        0.12200
        10022.0         64.157        0.11900
        10022.5         64.012        0.11600
        10023.0         63.916        0.11400
        10023.5         63.337        0.11100
        10024.0         62.952        0.10900
        10024.5         63.313        0.11300
        10025.0         64.036        0.11700
        10025.5         64.438        0.11900
        10026.0         64.518        0.11400
        10026.5         63.517        0.11000
        10027.0         62.683        0.10400
        10027.5         61.849        0.10000
        10028.0         61.015        0.09400
        10028.5         60.181        0.08800
        10029.0         60.301        0.08800
        10029.5         61.196        0.10000
        10030.0         62.301        0.11200
        10030.5         63.415        0.11200
        10031.0         62.676        0.10600
        10031.5         61.940        0.10100
        10032.0         61.204        0.09500
        10032.5         60.763        0.09400
        10033.0         60.761        0.09800
        10033.5         61.384        0.10200
        10034.0         62.349        0.10700
        10034.5         62.590        0.10600
        10035.0         62.470        0.10500
        10035.5         62.005        0.10300
        10036.0         61.618        0.10000
        10036.5         61.386        0.10000
        10037.0         61.747        0.10100
        10037.5         62.242        0.10300
        10038.0         62.655        0.10700
        10038.5         63.068        0.11000
        10039.0         63.481        0.11400
        10039.5         63.893        0.11700
        10040.0         64.306        0.12100
        10040.5         64.719        0.12300
        10041.0         65.132        0.12500
        10041.5         65.544        0.12700
        10042.0         65.957        0.13000
        10042.5         66.285        0.13200
        10043.0         66.446        0.13300
        10043.5         66.124        0.13100
        10044.0         65.622        0.12800
        10044.5         65.120        0.12400
        10045.0         64.759        0.12000
        10045.5         64.598        0.12000
        10046.0         64.518        0.12100
        10046.5         64.866        0.12400
        10047.0         65.301        0.12600
        10047.5         65.736        0.12900
