# Exported from Transform Software 5.2.0 on 27-Jun-2019 by user brian.umlang
# DI Transform - A Product of Drillinginfo, Inc. - www.drillinginfo.com
#
~VERSION INFORMATION
 VERS.        2.0 : LAS ASCII STANDARD - VERSION 2.0
 WRAP.         NO : ONE LINE PER DEPTH STEP

~WELL INFORMATION
#MNEM.UNIT       DATA TYPE       INFORMATION
#---------       ---------       -----------
 STRT.ft                   0 : Start Depth
 STOP.ft               12430 : Stop Depth
 STEP.ft                 0.5 : Step Length
 NULL.               -999.25 : Null Value
 COMP.                       : Company
 WELL.  42109313590000_API14 : Well Name
 FLD.                        : Field Name
 LOC.                        : Well Location
 CNTY.                       : County
 STAT.                       : State or Province
 CTRY.                       : Country
 SRVC.                       : Service Company
 DATE.                       : Date
 API.         42109313590000 : Well Identifier

~CURVE INFORMATION
#MNEM.UNIT       API CODE       CURVE DESCRIPTION
#---------       --------       -----------------
 DEPT.ft          : <Measured Depth>
 CAL.in           : Caliper
 DPHI.%           : Density Porosity
 DT.us/ft         : Sonic
 GR.gAPI          : Gamma Ray
 ILD.ohmm         : Deep Resistivity
 ILM.ohmm         : Medium Resistivity
 ILS.ohmm         : Shallow Resistivity
 NPHI.%           : Neutron Porosity
 RHOB.g/cm3       : Density
 SP.mV            : Spontaneous Potential

~PARAMETER INFORMATION
#MNEM.UNIT       VALUE       DESCRIPTION
#---------       -----       -----------
 EKB.ft      3771 : Elevation above MSL

~A      DEPT         CAL        DPHI          DT          GR         ILD         ILM         ILS        NPHI        RHOB          SP
# ...
      5764.5     13.3006     29.9202     81.1389     57.5652     42.8426     35.0188     60.2767     29.8531      2.4587   -109.2688
        5765     13.2535     29.9202     79.8673     57.4458     43.7362     35.0869     60.2767     29.8513      2.4607   -109.2843
      5765.5     13.2063     29.9202     80.0537      58.926     41.8335     33.9309     60.2767     29.8495      2.4633   -109.2999
        5766     13.1592     29.9202     80.7203     59.1463     41.1753      33.648     60.2767     29.8477      2.4668   -109.3154
      5766.5      13.112     29.9202     81.4127     55.0748     40.7956     33.3673     60.6931      29.846      2.4685   -109.3309
        5767     13.0769     29.9202     81.9619     51.9476     40.7956     33.3673     61.4073     29.8442      2.4716   -109.3465
      5767.5     13.0769     29.9202     80.2967     48.3235     42.2749     33.3673     62.1298     29.8424      2.4565    -109.362
        5768     13.0769     29.8005     79.0055     49.1859     42.6732     34.2163     62.8609     29.8406       2.457   -109.3776
      5768.5     13.0769      29.036     76.9311     42.5057     42.8979     34.2163     63.6005     29.8388      2.4735   -109.3931
        5769     13.0828     26.7508     72.6939     40.3908     42.8979     34.2163     64.1124     29.8371      2.5073   -109.4086
      5769.5     13.0939     28.5816     69.9156     43.3419     42.8979     34.5041     64.1124     29.8353      2.5718   -109.4242
        5770      13.105     29.5923     69.2432     43.3925     42.8979     35.0429     64.1124     29.8335      2.5769   -109.4397
      5770.5     13.1161     29.9202     71.9753     45.5945     42.8979     35.9796     64.1124     29.8317      2.5528   -109.4552
        5771     13.1272     29.9202     75.9378     58.9475     42.8979     35.9796     64.1124     29.8299      2.5115   -109.4708
      5771.5     13.1382     29.9202     79.0481     60.2047     42.8979     35.9796     64.1124     29.8282      2.4213   -109.4863
        5772     13.1493     29.9202     81.0494     61.4618     42.5401      35.582     63.7385     29.8264      2.4239   -109.5018
      5772.5     13.1725     29.9202     80.9787     61.0484     42.5401     34.2163     62.3167     29.8246      2.4128   -109.5174
        5773     13.1977     29.9202     81.3145     60.8974     42.5401     34.2163     62.0745     29.8228      2.4085   -109.5329
      5773.5     13.2228     29.9202     82.2888     66.5143     42.5401     34.2163      61.263      29.821      2.4115   -109.5484
        5774     13.2056     29.9202     81.8272      68.787     42.1853     34.2163     60.4621     29.8192      2.4191    -109.564
      5774.5     13.1847     29.9202     81.2851      68.787     42.1853     33.9309     60.2767     29.8175      2.4206   -109.5795
        5775     13.1637     29.9202     80.9928     69.7441     42.1853     33.9309     60.2767     29.8157      2.4235    -109.595
      5775.5     13.1509     29.9202     81.6923     71.0012     41.8335      33.648     60.2767     29.8139      2.4436   -109.6106
        5776     13.1509     29.9202     82.9134     71.2525     41.8335     34.2163     60.2767     29.8121      2.4437   -109.6261
      5776.5     13.1509     29.9202     84.4373     72.2387     42.4723     34.2163     60.2767     29.8103      2.4434   -109.6416
        5777     13.1509     29.9202      84.361     73.2249     44.5541     34.2163     60.2767     29.8086      2.4327   -109.6572
      5777.5     13.1509     29.9202     81.0609     74.0194     41.6097     34.6903     60.2767     29.8068      2.4226   -109.6727
        5778     13.1509     29.8024     75.4528     63.0852     41.4846     34.7942     60.2767      29.805      2.4582   -109.6882
      5778.5     13.1509     29.6806     71.2191     56.5646     43.2156      36.246     60.5835     29.8032      2.4806   -109.7038
        5779     13.1795     29.4411     67.9522      34.844     45.1085     36.5873     61.1327     29.8014      2.5254   -109.7193
      5779.5     13.2192     29.6008     65.5321     33.5869     46.3027      36.895     61.6868     29.7997      2.5365   -109.7348
        5780     13.2589     29.6008     65.9105     35.5464     47.4331     36.5144      62.246     29.7979      2.5395   -109.7504
      5780.5     13.2986     29.6008     66.9384     37.4678     47.0375     35.9796     62.8102     29.7961      2.4815   -109.7659
        5781     13.3159     29.6008     68.9711     45.1352     47.0375     35.9796     63.3796     29.7943      2.4698   -109.7815
      5781.5      13.333     29.6008     69.7706     46.6388     46.6452     36.2822     63.9541     29.7925      2.4671    -109.797
        5782     13.3501     29.6008      69.603     47.8959     47.4331     35.9796     64.5338     29.7907      2.4692   -109.8125
      5782.5     13.3673     29.6008     67.8117     47.8304     47.4331     37.1292     65.1188      29.789      2.5378   -109.8139
        5783     13.3728     27.1686     64.0553     48.0769     47.4331     38.7819     65.7091     29.7872      2.5481   -109.7901
      5783.5     13.3728     26.7615     63.0002     47.5838     47.4331     39.4516     66.3047     29.7854      2.5645   -109.7662
        5784     13.3728     26.1702     62.1495     47.1742     47.4331     39.4516     66.9057     29.7836      2.5682   -109.7424
      5784.5     13.3728     24.7497     61.9778     47.3373     47.0375     39.4516     67.5122     29.7818      2.5703   -109.7185
        5785     13.3728     20.6756     61.3903       30.82     47.0375     39.4516     68.1242     29.7801      2.6001   -109.6947
      5785.5      13.368      17.853     59.9579     29.0927     46.6452      37.976     68.6982     29.7783       2.625   -109.6708
        5786     13.3554     14.4997     59.2473      27.846     47.4331     36.5873     69.2715     29.7765      2.6549    -109.647
      5786.5     13.3428     13.8598     58.1448     26.0958     47.4331      36.895     69.8497     29.7747      2.6764   -109.6231
        5787     13.3302     13.2335     57.0643     26.9992     47.4331      36.895     70.3285     29.7729      2.6891   -109.5993
      5787.5     13.3177     13.3698      56.402     27.3669     47.0375      36.895     70.3285     29.7712      2.6652   -109.5754
        5788     13.3051     13.4731      55.854     20.0498     47.0375      36.895     70.3285     29.7694      2.6642   -109.5516
      5788.5     13.2988     13.3932     54.7204     15.8898     47.0375      36.895     70.3285     29.7676      2.6673   -109.5277
        5789     13.2743     12.5709     53.4392     15.0394       47.18     36.7753     70.3285     29.7658      2.6914   -109.5038
      5789.5       13.24     12.0957     53.1988     15.0394     47.4331      36.895     70.3285      29.764      2.6963     -109.48
        5790     13.2249     13.4798     53.5009      14.935     47.4331     37.2053     70.2277     29.7622       2.693   -109.4561
      5790.5     13.2249     13.9478      54.163     13.3268     47.4331     37.2053      69.411     29.7605      2.6767   -109.4323
        5791     13.2111     14.8376      55.883     19.1847     47.4331     37.2053     68.6038     29.7587      2.6754   -109.4084
      5791.5     13.1768     16.9758     60.6273     34.3057     47.4331     37.2053     67.8059     29.7569      2.6464   -109.3846
        5792     13.1417     24.0154     66.3097     37.0898     47.4331     36.5873     67.0174     29.7551      2.5979   -109.3607
      5792.5      13.104     29.3034     69.6294     59.5024     47.0375     35.6795     66.2381     29.7533      2.5494   -109.3369
        5793     13.0663     29.8368     70.5693     80.5473     46.9023     35.6281     66.1209     29.7516      2.5275    -109.313
      5793.5     13.0286          30     70.2391     80.0034     46.6452       36.12     66.1209     29.7498      2.4995   -109.2892
        5794     12.9908          30     69.4854     72.5246     46.6452     36.2822     66.1209      29.748       2.512   -109.2653
      5794.5     12.9531          30     71.3588     71.7456     47.0375     36.5873     66.1209     29.7462      2.5007   -109.2415
