~VERSION INFORMATION
VERS. 2.0 : CWLS Log ASCII Standard - version 2.0
WRAP.  NO : One line per depth step
#--------------------------------------------------#
#----------------DRILLING INFO, INC.---------------#
#---------------WWW.DRILLINGINFO.COM---------------#
#------------------COPYRIGHT 2015------------------#
#--------------------------------------------------#
#THIS FILE MAY BE USED ONLY IN ACCORDANCE WITH A CURRENT SUBSCRIPTION AGREEMENT BETWEEN
#THE USER AND DRILLING INFO, INC. NO PART OF THIS FILE MAY BE REPRODUCED, USED, COPIED,
#MODIFIED, PROPAGATED, OR DISTRIBUTED EXCEPT IN ACCORDANCE WITH THE SUBSCRIPTION
#AGREEMENT. UNAUTHORIZED USE OR DISTRIBUTION OF ALL OR ANY PART OF THIS FILE MAY VIOLATE
#COPYRIGHT, TRADEMARK, AND/OR OTHER LAWS AND IS SUBJECT TO CIVIL AS WELL AS CRIMINAL
#SANCTIONS.
#--------------------------------------------------#
#THIS FILE IS PROVIDED "AS-IS" AND ALL WARRANTIES ARE EXPRESSLY DISCLAIMED, WHETHER
#EXPRESS, ORAL, IMPLIED, STATUTORY OR OTHERWISE, INCLUDING ANY IMPLIED WARRANTY OF FITNESS
#FOR A PARTICULAR PURPOSE, MERCHANTABILITY, TITLE OR NON-INFRINGEMENT, AND ANY WARRANTIES
#ARISING BY VIRTUE OF CUSTOM OF TRADE OR COURSE OF DEALING.  FURTHER, DRILLING INFO,
#INC. AND ITS LICENSORS DO NOT REPRESENT OR WARRANT THAT THIS FILE WILL MEET USER'S
#REQUIREMENTS OR ARE SUITABLE FOR USER'S NEEDS OR THAT THE DATA OR RESULTS PROVIDED IN
#CONJUNCTION THEREWITH ARE CORRECT, ACCURATE, TIMELY OR RELIABLE. THESE DISCLAIMERS SHALL
#APPLY REGARDLESS OF ANY FAILURE OF ESSENTIAL PURPOSE OF ANY LIMITED REMEDY.  SOME
#JURISDICTIONS DO NOT ALLOW THE EXCLUSION OF CERTAIN WARRANTIES SO SOME OF THE ABOVE
#EXCLUSIONS MAY NOT APPLY. IN NO EVENT SHALL DRILLING INFO, INC. OR ANY OF ITS AFFILIATES
#BE LIABLE UNDER ANY LEGAL THEORY, WHETHER IN TORT (INCLUDING WITHOUT LIMITATION
#NEGLIGENCE), CONTRACT, STRICT LIABILITY, STATUTORY OR OTHERWISE, FOR ANY SPECIAL,
#INCIDENTAL, CONSEQUENTIAL, EXEMPLARY, PUNITIVE OR INDIRECT DAMAGE OF ANY KIND, INCLUDING
#WITHOUT LIMITATION LOSS OF REVENUE, PROFITS, GOODWILL, USE, AND/OR DATA OR THE COST OF
#PROCUREMENT OF SUBSTITUTE GOODS OR SERVICES, EVEN IF APPRISED OF THE POSSIBILITY OF SUCH
#DAMAGES IN ADVANCE.
#--------------------------------------------------#
~WELL INFORMATION
#MNEMONIC     .UNIT              VALUE :DESCRIPTION
#--------------------------------------------------#
STRT       .FT                181 :START DEPTH
STOP       .FT                12231 :STOP DEPTH
STEP       .FT                   0.500 :STEP
NULL       .                  -999.250 :NULL
API        .                421093228700 :API NUMBER
COMP       .         CHESAPEAKE OPERATING  INC. :COMPANY
WELL       .        UNIVERSITY LANDS 4627  1 :WELL
DATE       .                06-May-2007 :LOG DATE
~CURVE INFORMATION
#MNEMONIC     .UNIT      API CODE :CURVE DESCRIPTION
#--------------------------------------------------#
DEPTH       .FT                      :Measured Depth
ILS.OHM        UNKNOWN   :ILS
GR.API        UNKNOWN   :GR
ILD.OHM        UNKNOWN   :ILD
CAL.INCH        UNKNOWN   :CAL
DT.US/FT        UNKNOWN   :DT
~A    DEPTH    ILS    GR    ILD    CAL    DT
# ...
 9767.5     184.419   81.41   164.969   9.527   -999.250
 9768     123.085   87.523   150.274   9.506   -999.250
 9768.5     72.867   93.637   77.982   9.485   -999.250
 9769     88.759   95.972   72.102   9.464   -999.250
 9769.5     137.297   93.687   111.524   9.463   -999.250
 9770     153.317   91.401   141.754   9.463   -999.250
 9770.5     124.766   89.221   145.637   9.463   -999.250
 9771     92.023   87.141   98.778   9.463   -999.250
 9771.5     92.079   80.626   86.903   9.463   -999.250
 9772     211.753   75.609   172.622   9.463   -999.250
 9772.5     259.14   70.592   234.059   9.463   -999.250
 9773     211.2   65.606   171.82   9.463   -999.250
 9773.5     487.234   66.768   380.468   9.463   -999.250
 9774     247.163   74.643   230.729   9.463   -999.250
 9774.5     110.361   83.403   85.403   9.463   -999.250
 9775     190.268   78.36   132.198   9.463   -999.250
 9775.5     740.771   72.914   690.544   9.463   -999.250
 9776     286   71.041   199.138   9.463   -999.250
 9776.5     107.765   77.468   140.383   9.463   -999.250
 9777     66.209   86.05   70.183   9.463   -999.250
 9777.5     70.272   94.632   64.58   9.463   -999.250
 9778     78.767   97.439   75.453   9.523   -999.250
 9778.5     78.359   94.086   74.079   9.607   -999.250
 9779     81.88   88.502   71.891   9.69   -999.250
 9779.5     122.551   76.413   87.179   9.774   -999.250
 9780     459.167   62.138   273.774   9.857   -999.250
 9780.5     796.829   47.862   611.518   9.887   -999.250
 9781     1184.249   43.847   1334.681   9.915   -999.250
 9781.5     541.865   48.743   702.983   9.925   -999.250
 9782     159.221   66.003   191.647   9.863   -999.250
 9782.5     107.506   81.363   94.624   9.8   -999.250
 9783     57.529   90.621   63.391   9.737   -999.250
 9783.5     55.757   98.829   57.443   9.725   -999.250
 9784     73.389   101.947   66.649   9.718   -999.250
 9784.5     92.386   100.584   90.029   9.71   -999.250
 9785     101.226   97.635   95.218   9.703   -999.250
 9785.5     84.292   94.885   86.169   9.695   -999.250
 9786     61.983   94.333   60.527   9.752   -999.250
 9786.5     79.116   96.005   57.959   9.829   -999.250
 9787     83.998   98.622   72.285   9.819   -999.250
 9787.5     65.547   101.239   61.955   9.781   -999.250
 9788     53.365   100.412   50.539   9.744   -999.250
 9788.5     49.798   95.988   48.425   9.719   -999.250
 9789     48.925   88.289   46.312   9.717   -999.250
 9789.5     54.603   82.324   52.487   9.715   -999.250
 9790     66.318   75.921   61.316   9.713   -999.250
 9790.5     90.985   67.666   80.456   9.712   -999.250
 9791     168.539   60.138   136.086   9.71   -999.250
 9791.5     148.072   60.338   156.043   9.708   -999.250
 9792     70.713   66.897   67.972   9.706   -999.250
 9792.5     63.696   73.56   66.191   9.704   -999.250
 9793     73.004   76.414   71.934   9.703   -999.250
 9793.5     91.206   76.197   95.718   9.701   -999.250
 9794     75.486   77.707   80.883   9.699   -999.250
 9794.5     64.301   80.787   67.31   9.697   -999.250
 9795     66.702   83.867   67.935   9.695   -999.250
 9795.5     60.203   86.99   63.1   9.694   -999.250
 9796     47.616   90.714   54.318   9.692   -999.250
 9796.5     48.743   94.438   50.066   9.69   -999.250
 9797     57.365   94.879   52.738   9.688   -999.250
 9797.5     72.94   89.627   69.009   9.686   -999.250
 9798     101.65   82.484   91.225   9.685   -999.250
 9798.5     130.593   73.634   124.662   9.683   -999.250
 9799     160.778   72.692   158.099   9.681   -999.250
 9799.5     67.114   77.592   119.076   9.67   -999.250
 9800     43.727   82.971   41.019   9.658   -999.250
 9800.5     60.893   88.35   41.019   9.645   -999.250
 9801     109.932   83.937   104.614   9.633   -999.250
 9801.5     111.32   79.274   120.526   9.62   -999.250
 9802     79.523   77.598   83.307   9.608   -999.250
 9802.5     69.26   78.748   75.547   9.595   -999.250
 9803     58.788   79.898   66.48   9.583   -999.250
 9803.5     46.144   81.048   48.45   9.571   -999.250
 9804     40.313   82.198   40.764   9.558   -999.250
 9804.5     44.105   82.482   39.007   9.546   -999.250
 9805     61.48   80.499   60.371   9.533   -999.250
 9805.5     97.783   77.761   81.734   9.521   -999.250
 9806     83.201   77.008   87.383   9.508   -999.250
 9806.5     71.009   81.68   76.85   9.496   -999.250
 9807     62.032   87.839   61.688   9.483   -999.250
 9807.5     55.318   87.333   46.526   9.471   -999.250
 9808     119.119   80.24   87.04   9.459   -999.250
 9808.5     159.181   74.337   136.06   9.446   -999.250
 9809     170.706   69.446   162.793   9.434   -999.250
 9809.5     192.109   66.092   169.881   9.421   -999.250
 9810     198.07   64.578   194.948   9.414   -999.250
 9810.5     216.043   65.343   181.433   9.422   -999.250
 9811     316.126   67.541   255.028   9.43   -999.250
 9811.5     257.226   70.389   260.134   9.438   -999.250
 9812     164.185   76.889   145.429   9.446   -999.250
 9812.5     168.446   80.592   135.741   9.454   -999.250
 9813     154.586   82.237   158.671   9.462   -999.250
 9813.5     69.683   84.913   67.906   9.47   -999.250
 9814     40.339   88.415   43.611   9.478   -999.250
 9814.5     65.71   81.195   45.208   9.486   -999.250
 9815     133.654   66.818   179.381   9.496   -999.250
 9815.5     687.465   55.948   518.757   9.506   -999.250
 9816     444.356   49.504   479.009   9.516   -999.250
 9816.5     201.246   46.958   238.399   9.527   -999.250
 9817     60.132   56.831   67.727   9.537   -999.250
 9817.5     59.968   66.704   49.783   9.547   -999.250
 9818     108.192   65.442   85.671   9.558   -999.250
 9818.5     148.258   63.827   128.29   9.568   -999.250
 9819     99.067   65.266   94.916   9.579   -999.250
 9819.5     50.01   69.814   61.542   9.589   -999.250
 9820     42.474   74.038   38.112   9.599   -999.250
 9820.5     55.152   72.845   42.406   9.61   -999.250
 9821     115.085   69.137   96.233   9.62   -999.250
 9821.5     63.937   60.895   63.285   9.63   -999.250
 9822     118.514   50.922   146.173   9.641   -999.250
 9822.5     1095.141   40.948   877.492   9.651   -999.250
 9823     2587.416   30.975   1852.125   9.661   -999.250
 9823.5     2858.671   24.508   2819.687   9.672   -999.250
 9824     2339.193   22.658   3187.814   9.682   -999.250
 9824.5     1010.58   24.148   1882.825   9.693   -999.250
 9825     195.137   33.764   292.84   9.703   -999.250
 9825.5     47.372   48.342   103.37   9.713   -999.250
 9826     93.221   57.342   51.881   9.724   -999.250
 9826.5     170.618   60.036   149.008   9.734   -999.250
 9827     248.016   50.214   751.642   9.744   -999.250
 9827.5     425.016   41.333   707.295   9.737   -999.250
 9828     316.237   40.791   424.328   9.729   -999.250
 9828.5     275.53   43.297   395.895   9.721   -999.250
 9829     237.711   50.426   499.604   9.712   -999.250
 9829.5     55.288   65.066   240.341   9.704   -999.250
 9830     44.25   75.127   61.623   9.696   -999.250
 9830.5     56.33   80.59   63.449   9.687   -999.250
 9831     57.185   87.294   76.595   9.679   -999.250
 9831.5     57.94   87.806   72.286   9.67   -999.250
 9832     64.787   88.91   74.798   9.662   -999.250
 9832.5     58.3   91.961   73.455   9.654   -999.250
 9833     50.688   95.867   58.697   9.645   -999.250
 9833.5     45.289   99.92   48.715   9.637   -999.250
 9834     41.689   104.019   45.928   9.629   -999.250
 9834.5     42.388   103.377   45.302   9.62   -999.250
 9835     59.601   100.067   63.66   9.612   -999.250
 9835.5     63.031   97.7   87.599   9.606   -999.250
 9836     47.434   98.545   63.218   9.631   -999.250
 9836.5     33.069   100.633   39.639   9.656   -999.250
 9837     32.052   100.036   39.639   9.681   -999.250
 9837.5     43.582   94.224   49.708   9.705   -999.250
 9838     88.09   83.296   102.637   9.705   -999.250
 9838.5     178.073   72.368   199.482   9.671   -999.250
 9839     236.403   61.441   296.326   9.637   -999.250
 9839.5     194.728   53.967   341.17   9.61   -999.250
