# Exported from Transform Software 5.2.0 on 25-May-2018 by user brian.umlang
# DI Transform - A Product of Drillinginfo, Inc. - www.drillinginfo.com
#
~VERSION INFORMATION
 VERS.        2.0 : LAS ASCII STANDARD - VERSION 2.0
 WRAP.         NO : ONE LINE PER DEPTH STEP

~WELL INFORMATION
#MNEM.UNIT       DATA TYPE       INFORMATION
#---------       ---------       -----------
# Enverus has updated the API/UWI.  The previous names are renamed to  PREV_API / PREV_UWI
API.         42-109-32508-00-00 : API (14 Digits with Dashes)
UWI.             42109325080000 : UNIQUE WELL ID

 STRT.ft                1970 : Start Depth
 STOP.ft                8730 : Stop Depth
 STEP.ft                 0.5 : Step Length
 NULL.               -999.25 : Null Value
 COMP.                       : Company
 WELL.  42109325080000_API14 : Well Name
 FLD.                        : Field Name
 LOC.                        : Well Location
 CNTY.                       : County
 STAT.                       : State or Province
 CTRY.                       : Country
 SRVC.                       : Service Company
 DATE.                       : Date
PREV_APII.         42109325080000 : Well Identifier

~CURVE INFORMATION
#MNEM.UNIT       API CODE       CURVE DESCRIPTION
#---------       --------       -----------------
 DEPT.ft        : <Measured Depth>
 CAL.in         : Caliper
 DT.us/ft       : Pressure Wave Sonic
 GR.gAPI        : Gamma Ray

~PARAMETER INFORMATION
#MNEM.UNIT       VALUE       DESCRIPTION
#---------       -----       -----------
 EKB.ft      3552 : Elevation above MSL

~A      DEPT         CAL          DT          GR
# ...
        3774      9.2329     68.1287     61.4126
      3774.5      9.2422     68.3626     58.2923
        3775      9.2422     68.4211     57.7525
      3775.5      9.2422     68.4211     63.6288
        3776      9.2422     68.3626     78.4154
      3776.5      9.2422     68.4577     86.1825
        3777      9.2422     68.7513     91.7889
      3777.5      9.2422     69.0643     75.7716
        3778      9.2422     69.1228     63.1465
      3778.5      9.2422     69.1228     61.5234
        3779      9.2279     69.0643      62.057
      3779.5      9.2227     68.4789     59.0788
        3780      9.2227     65.7276     48.4632
      3780.5      9.2227     62.4593     41.4115
        3781      9.2422     60.9249     38.2812
      3781.5      9.2617     62.1064     40.9198
        3782      9.2617     64.6283     47.9637
      3782.5      9.2984     67.6339      55.829
        3783      9.3183     70.4266     58.1607
      3783.5      9.3398     71.4035     61.8328
        3784      9.3398     71.0045     64.2805
      3784.5      9.3398     70.4138     61.7558
        3785      9.3398     69.3012      63.253
      3785.5      9.3398     67.8356     71.8934
        3786      9.3403     66.7193     84.3799
      3786.5      9.3594     66.0792     86.3281
        3787      9.3789      65.848     85.6185
      3787.5      9.3789     65.8531     83.6572
        3788      9.3789     66.1657     82.0312
      3788.5      9.3789     66.7912     82.8757
        3789      9.3789     67.1433     83.7597
      3789.5      9.3984     67.4369      82.779
        3790      9.3984     67.5439     83.0078
      3790.5      9.3984     67.5439     82.8125
        3791      9.3984     67.4717     80.9527
      3791.5      9.3984      67.295     77.5391
        3792      9.3789     67.1345     78.1789
      3792.5      9.3789      67.076      78.125
        3793      9.3789      66.882     80.5968
      3793.5      9.3789     66.7251     86.4247
        3794      9.3914     66.6082      83.383
      3794.5      9.3789     66.6082      83.389
        3795      9.3789     66.7251     84.9609
      3795.5      9.3121     66.5497     82.4109
        3796      9.2617      66.868     81.0078
      3796.5      9.1836     67.3058     89.3848
        3797       9.125     67.9231    118.1428
      3797.5      9.0859     67.7171    132.5862
        3798      9.0664     69.6895    133.2031
      3798.5      9.0664     70.7074    137.1434
        3799      9.0775      70.727     152.462
      3799.5      9.0859     70.4228    151.4121
        3800       9.125     68.5369      137.18
      3800.5      9.1373     69.0736    134.5805
        3801      9.1445     70.0179    127.9486
      3801.5      9.2031     70.2339    106.8028
        3802      9.2031     68.4925     91.0424
      3802.5      9.2031      68.112     92.6244
        3803      9.1445     68.1717    108.0125
      3803.5       9.125     68.1871    113.7262
        3804       9.125     67.8751    103.1234
      3804.5      9.1406     66.7253     97.5801
        3805      9.1445     65.3591     90.1246
      3805.5      9.1445     65.3801     83.0963
        3806      9.1445     65.7653     80.7402
      3806.5      9.1445     66.7699     88.9609
        3807      9.1445     67.7394     120.114
      3807.5      9.1836     65.5366    132.3779
        3808      9.1836     64.7432    119.9642
      3808.5      9.1836     64.3898     99.8306
        3809      9.1836     65.2596      86.128
      3809.5      9.2031     67.7158     88.8689
        3810      9.2031     66.1936     82.3756
      3810.5      9.2031     64.5466     71.3857
        3811      9.2031     63.2698     60.0865
      3811.5      9.2031     63.6365     56.0186
        3812      9.2031     64.7446     54.6654
      3812.5      9.2031     67.1118      59.885
        3813      9.2227     68.7447     79.5865
      3813.5      9.2422      68.225    100.2752
        3814      9.2851     67.5678     99.5324
      3814.5      9.3008     66.8368     95.8208
        3815      9.3398     66.8561     95.0619
      3815.5      9.3789     67.0175     93.1056
        3816      9.3984     66.9591      84.553
      3816.5       9.457     66.8421     79.4889
        3817      9.5156     66.9779      79.026
      3817.5      9.5352     67.3885     83.4044
        3818      9.6133     67.4854     83.5226
      3818.5      9.6133     68.1737     79.4006
        3819      9.6523     68.7372     72.9675
      3819.5      9.6802     68.8889     73.2972
        3820      9.7109      68.661     75.4005
      3820.5      9.7396     67.4652     70.4764
        3821      9.7695      64.042     57.4451
      3821.5      9.7891     61.2217     50.6728
        3822      9.8086     62.7523     47.0703
      3822.5      9.8389     64.8586     48.1755
        3823      9.8979      68.633     53.6565
      3823.5       9.996     72.0326     54.7718
        3824     10.0941     73.5494     49.8192
      3824.5     10.1335     73.3971      46.431
        3825     10.1797     72.4561     51.6802
      3825.5     10.1797     72.5543     53.3831
        3826     10.1992     72.9297     52.5391
      3826.5     10.2328     73.5509     54.0784
        3827     10.2773     73.1297     62.5942
      3827.5     10.2773     72.2361     75.3906
        3828     10.2773     72.5477     62.8906
      3828.5     10.2773     73.8138        62.5
        3829     10.2773     74.0936     49.7119
      3829.5     10.2773     74.0441     48.8281
        3830     10.2773     73.6998     51.9664
      3830.5     10.2773     73.0541     60.1982
        3831     10.2188      71.478     87.6403
      3831.5     10.2188     71.1696     99.1501
        3832     10.2188     71.1696     85.2624
      3832.5     10.2578     71.4018     73.3757
        3833     10.2578     71.5205     52.9518
      3833.5     10.2578     71.3435      49.258
        3834     10.2383     70.6837     64.8706
      3834.5     10.1797     69.2789     70.1899
        3835     10.1211     68.4795     61.8992
      3835.5     10.1211     68.5607     61.2656
        3836     10.0993     69.1297     69.0728
      3836.5      10.082     69.5403     75.0543
        3837      10.082     70.0772     72.2344
      3837.5     10.1016      71.233     66.5309
        3838     10.1446     73.0066     59.9198
      3838.5     10.1797     74.5811     56.3796
        3839     10.1797     75.6725     56.3402
      3839.5     10.1797     75.4077     58.5938
        3840     10.1797     74.8204     58.1474
      3840.5     10.1797     73.5003     55.8751
        3841     10.1797     69.9095     53.9062
      3841.5     10.1338     66.2902     53.1843
        3842      9.8322     64.6937     52.0252
      3842.5      9.7109     64.6655     56.1021
        3843      9.6719     66.7076     67.7604
      3843.5      9.6439     67.9785     79.5813
        3844      9.5849     68.2721     84.5519
      3844.5      9.5259     68.5965     85.3618
        3845      9.4766     69.7944     81.6467
      3845.5      9.4665     70.8224     82.9194
        3846       9.457     71.5476    105.1023
      3846.5      9.4766     70.1609    130.6263
        3847      9.4766      68.495    135.9278
      3847.5      9.4883     67.8479    133.0467
        3848      9.5156     69.0562    134.8398
      3848.5      9.4445     70.6179    122.8005
        3849      9.4504     70.7641     91.0413
      3849.5       9.457     68.8866       63.49
        3850       9.457     68.1612     53.0233
      3850.5      9.4766     64.5101     49.4335
        3851       9.457     60.6526     44.6801
      3851.5       9.457      56.795     43.9908
        3852       9.457     54.7272     44.2945
      3852.5       9.457      54.669     45.5538
        3853       9.457      60.866     47.7851
      3853.5      9.4932     65.0152     50.8016
        3854      9.5547     69.1497     66.3006
      3854.5      9.6133     70.0522     78.9126
        3855      9.6507     71.0959     85.6483
      3855.5      9.6719     71.7505     75.5059
