###############################################
##         ENVERUS                           ##
##         ESS - Open Hole                   ##
##         PERMIAN / DELAWARE                ##
##         Nov 02 2023  V4.0                 ##
##         42-109-32255-00-00                ##
###############################################
## Copyright 2017-2023  ENVERUS.  All Rights Reserved. 
## Confidential - Property of ENVERUS, use governed by terms and 
## conditions found within the existing Information Services Subscription Agreement 
## (as may be amended, the “ISSA”) between Customer and ENVERUS. 
## 
~VERSION INFORMATION
# MNEM.UNIT                               DATA : DESCRIPTION OF MNEMONIC
#-----.-----     ----------------------------- : -----------------------------
VERS.                                     2.00 : CWLS LOG ASCII STANDARD - VERSION 2.00
WRAP.                                       NO : MULTIPLE LINES PER DEPTH STEP
VEND.                                  ENVERUS : VENDOR
TYPE.                          ESS - OPEN HOLE : ENVERUS ESSENTIAL CURVES – ACCESSIBLE THROUGH ENVERUS PRISM(TM)
DOC.                                  31869427 : ENVERUS HEADER RAW DOCUMENT ID
#___________________________________________________________________________________________________ 
~WELL INFORMATION 
# Kns/CyAZPDgS4fEM5w0azv9tYcXlBSx1nHSqICrpKgQv6F2hlFUFpw+R1SAxYfM92i4ks6BDNpB+WhJDZXFO5Q== 
# MNEM.UNIT                                              DATA : DESCRIPTION OF MNEMONIC 
#-----.-----                    ----------------------------- : ----------------------------- 
CNTY.                                               CULBERSON : COUNTY 
STATE.                                                  TEXAS : STATE 
CNTRY.                                                    USA : COUNTRY 
API.                                             42-109-32255 : API (10 Digit) 
API_14.                                    42-109-32255-00-00 : API (14 Digits) 
API_14_std.                                 42-109-32255-0000 : API (14 Digits Standard) 
UWI.                                           42109322550000 : UNIQUE WELL ID 
WELL.                             MELISSA TAYLOR STATE 27  1H : WELL NAME
STRT.FT                                                  94.0 : START DEPTH
STOP.FT                                               13828.0 : STOP DEPTH
STEP.FT                                                   0.5 : STEP BETWEEN DEPTHS
NULL.                                                 -999.25 : NULL VALUE
COMP.                              CHESAPEAKE OPERATING  INC. : COMPANY 
DATE.                                             29-NOV-2005 : LOG DATE
#___________________________________________________________________________________________________ 
~CURVE INFORMATION 
# MNEM.UNIT           : CURVE DESCRIPTION 
#-----.-----          : ----------------------------- 
 DEPT.FT               : MEASURED DEPTH 
 CALI__B.IN            : CALIPER (CAL - CAL) 
 GR__B.API             : GAMMA RAY (GR) 
 DT__B.US/FT           : SONIC DELTA TRANSIT TIME (DT) 
 DPHI__B.V/V           : DENSITY POROSITY (DPHI) 
 NPHI__B.V/V           : NEUTRON POROSITY (NPHI) 
 RHOB__B.G/CC          : BULK DENSITY (RHOB) 
 #___________________________________________________________________________________________________ 
~A         DEPT        CALI__B          GR__B          DT__B        DPHI__B        NPHI__B        RHOB__B
# ...
        10886.0         10.422         95.725         59.791        0.03492        0.13638         2.6630
        10886.5         10.403         88.994         58.637        0.03106        0.11612         2.6580
        10887.0         10.384         82.463         58.185        0.02707        0.09586         2.6520
        10887.5         10.366         76.417         58.863        0.03045        0.08279         2.6530
        10888.0         10.347         78.996         59.133        0.03388        0.08019         2.6580
        10888.5         10.329         83.510         59.013        0.03462        0.09050         2.6620
        10889.0         10.321         92.148         59.181        0.03187        0.10587         2.6640
        10889.5         10.323         95.275         59.415        0.02639        0.11983         2.6600
        10890.0         10.324         93.293         59.282        0.02396        0.12085         2.6560
        10890.5         10.325         89.359         59.170        0.02719        0.11920         2.6530
        10891.0         10.327         88.882         59.317        0.03271        0.11755         2.6490
        10891.5         10.328         89.708         59.940        0.03767        0.11716         2.6480
        10892.0         10.329         91.794         60.746        0.04070        0.12563         2.6550
        10892.5         10.331         93.890         62.291        0.03751        0.14605         2.6620
        10893.0         10.332         95.986         63.746        0.02833        0.15909         2.6680
        10893.5         10.333         98.082         64.016        0.02339        0.16328         2.6640
        10894.0         10.335        101.919         64.194        0.02656        0.16756         2.6590
        10894.5         10.342        105.940         64.281        0.03142        0.17197         2.6550
        10895.0         10.352        106.696         64.274        0.03516        0.17188         2.6510
        10895.5         10.362        107.093         63.745        0.03792        0.17021         2.6560
        10896.0         10.372        104.671         63.217        0.03883        0.15750         2.6610
        10896.5         10.382        102.250         62.689        0.03123        0.14716         2.6640
        10897.0         10.392         99.828         62.345        0.02656        0.14561         2.6590
        10897.5         10.402        100.946         62.483        0.03151        0.14995         2.6540
        10898.0         10.412        102.207         62.568        0.03760        0.15727         2.6490
        10898.5         10.422        102.996         62.254        0.03610        0.16494         2.6520
        10899.0         10.433         99.659         61.765        0.03627        0.16530         2.6550
        10899.5         10.443         92.545         61.277        0.03199        0.15580         2.6530
        10900.0         10.461         85.431         60.745        0.03255        0.14013         2.6390
        10900.5         10.502         79.126         60.204        0.04235        0.12318         2.6300
        10901.0         10.543         74.807         60.063        0.05145        0.10768         2.6210
        10901.5         10.584         74.304         60.097        0.05776        0.09896         2.6080
        10902.0         10.625         73.801         60.200        0.05948        0.10074         2.5930
        10902.5         10.666         72.572         61.008        0.06897        0.10377         2.5770
        10903.0         10.707         70.243         62.197        0.08922        0.10680         2.5780
        10903.5         10.749         68.724         63.387        0.09141        0.12219         2.6010
        10904.0         10.789         71.061         63.288        0.07136        0.14699         2.6230
        10904.5         10.830         74.400         62.463        0.04467        0.19332         2.6460
        10905.0         10.870         86.544         62.118        0.02677        0.20044         2.6680
        10905.5         10.910         90.662         62.158        0.02290        0.17797         2.6440
        10906.0         10.948         87.175         62.197        0.03830        0.15540         2.6050
        10906.5         10.985         83.299         62.237        0.05751        0.13631         2.5850
        10907.0         11.022         79.408         62.277        0.07264        0.12343         2.5810
        10907.5         11.059         75.472         62.317        0.08122        0.11502         2.5770
        10908.0         11.097         71.536         62.113        0.08571        0.10669         2.5730
        10908.5         11.134         71.110         61.762        0.08828        0.09835         2.5690
        10909.0         11.171         72.982         61.644        0.08229        0.10100         2.5830
        10909.5         11.207         80.648         62.258        0.07386        0.12555         2.5990
        10910.0         11.243         84.326         62.932        0.05892        0.15640         2.6150
        10910.5         11.280         84.098         63.379        0.05475        0.18009         2.6110
        10911.0         11.316         81.121         63.584        0.05681        0.17190         2.5980
        10911.5         11.352         76.678         63.672        0.06762        0.15469         2.5860
        10912.0         11.388         72.235         63.497        0.07992        0.13415         2.5740
        10912.5         11.424         69.475         63.322        0.08714        0.12104         2.5690
        10913.0         11.461         67.371         63.127        0.09213        0.12452         2.5650
        10913.5         11.497         67.976         62.827        0.09500        0.13621         2.5610
        10914.0         11.533         69.192         62.504        0.08825        0.14521         2.5660
        10914.5         11.567         70.660         62.147        0.07848        0.14655         2.5830
        10915.0         11.597         71.215         61.990        0.07130        0.14007         2.5860
        10915.5         11.627         69.113         62.635        0.07234        0.12399         2.5760
        10916.0         11.657         67.010         63.387        0.07675        0.10999         2.5660
        10916.5         11.686         64.695         64.139        0.09047        0.11158         2.5560
        10917.0         11.716         61.971         64.934        0.10016        0.12045         2.5450
        10917.5         11.746         62.300         65.974        0.10142        0.12932         2.5450
        10918.0         11.776         64.599         67.014        0.09024        0.13779         2.5540
        10918.5         11.811         70.151         67.569        0.09225        0.14623         2.5620
        10919.0         11.848         78.249         67.530        0.08826        0.14884         2.5710
        10919.5         11.886         74.772         67.025        0.08720        0.14549         2.5690
        10920.0         11.923         71.294         64.890        0.08472        0.13829         2.5660
        10920.5         11.960         67.817         63.083        0.08918        0.12350         2.5620
        10921.0         12.008         68.691         62.099        0.09232        0.10872         2.5580
        10921.5         12.077         69.617         62.586        0.09842        0.10432         2.5340
        10922.0         12.146         70.056         64.041        0.11662        0.10449         2.5170
        10922.5         12.215         67.786         65.496        0.14190        0.11121         2.5000
        10923.0         12.284         65.516         66.952        0.14591        0.12268         2.4830
        10923.5         12.353         64.183         67.941        0.13573        0.13414         2.4950
