~Version Information
 VERS.                  2.0:   CWLS log ASCII Standard -VERSION 2.0
 WRAP.                   NO:   One line per depth step
~Well Information Block
#MNEM.UNIT     VALUE/NAME     DESCRIPTION
#---------     -----------    ---------------------------
 STRT.F              8580.0000: START DEPTH
 STOP.F             14491.0000: STOP DEPTH
 STEP.F                 0.5000: STEP DEPTH
 NULL.               -999.2500: NULL VALUE
 LOC .     1072' FWL & 424' FNL:  LOCATION
 FL2 .     A2085 SEC 12 BLK 113:  LOCATIONLINE2
 FL1 .     1072' FWL & 424' FNL:  LOCATIONLINE1
 CNTY.               CULBERSON:  COUNTY NAME
 FLD .              WOLFCAMP B:  FIELD NAME
 WELL.           DALE STATE 2H:  WELL NAME
 COMP.     CAPITAN ENERGY INC.:  COMPANY
 DMF .                      KB:  DRILL MEAS FROM
 PDAT.                      GL:  PERMANENT DATUM
 DATE.             11-Feb-2020:  DATE
 SVCO.             Halliburton:  SERVICECONAME
 PROV.                      TX:  PROVINCE
 STAT.                      TX:  STATE NAME
 CTRY.                     USA:  COUNTRY NAME
 HIDE.                        :  WELLNAMEOPERAT
 UWI .            42-109-33544:  UNIQUE WELL IDENTIFIER
 API .            42-109-33544:  API NUMBER
 RANG.                     N/A:  RANGE
 TOWN.                     N/A:  TOWNSHIP
 SECT.                     N/A:  SECTION
 SON .               906290231:  JOB NUMBER
 SRVC.             Halliburton:  SERVICE COMPANY
 LMF .                      KB:  LOG MEASURED FROM
 TVDS.ft           3291.000000:  TVDSS CORRECTN
 EGL .ft           3266.000000:  GROUND ELEVATION
 APD .ft             25.000000:  DEPTH ABOVE PD
 EPD .ft           3266.000000:  ELEVATION
 BAP .ft              0.000000:  GL ELEV ONSHORE
 GVFD.g               1.000000:  GRAVITY FIELD
 EKB .ft           3291.000000:  KB ELEVATION
 EDF .ft           3291.000000:  DF ELEVATION
~Parameter Information Block
#MNEM.UNIT       Value        Description
#---------     -----------    ---------------------------
 BARI.                     OFF:  BARITE CORR 
 BRMP.                      No:  BromidePresent 
 CSF5.        Conductor Casing:  Casing Func5 
 CSF6.        Conductor Casing:  Casing Func6 
 DATE.               07-Feb-20:  Run Date 
 DCS .               07-Feb-20:  DateCircEndT 
 DLAB.               07-Feb-20:  LogStartDateT 
 ENGI.                John Doe:  Engineer Name 
 LSRV.             OH WIRELINE:  NameOfService 
 LSTM.ucts  09.26.51 07-Feb-20:  Log Start Time 
 LTYP.                     RAW:  LogDataType 
 LUL .                  ODESSA:  LoggingUnitLoc 
 LUN .                12100315:  LoggingUnitNum 
 SCT1.               07-Feb-20:  StartDateRun1 
 TCS .                   09 26:  Time Ciculation Ended 
 TDCE.ucts  09.26.51 07-Feb-20:  Time Circ End 
 TLAB.                   09 26:  LogStartTimeT 
~Curve Information Block
#MNEM.UNIT                 API CODE     Curve Description
#---------               -----------    ---------------------------
 DEPT.F                 00 000 000 000:  Depth
 CCL .V                 00 000 000 000:  Casing Collar Locator
 NPHI_OH.pu             00 000 000 000:  NPHI_OH
 NPHI_CHI.decp          00 000 000 000:  NPHI_CHI
 GR  .api               00 000 000 000:  Gamma API
 GR_CHI.api             00 000 000 000:  GR_CHI
 RHOB_OH.g/cc           00 000 000 000:  RHOB_OH
 RHOB_CHI.g/cc          00 000 000 000:  RHOB_CHI
 PE_OH.b/e              00 000 000 000:  PE_OH
 PE_CHI.b/e             00 000 000 000:  PE_CHI
 LLS_CHI.ohmm           00 000 000 000:  LLS_CHI
 LLS_OH.ohmm            00 000 000 000:  LLS_OH
 LLD_OH.ohmm            00 000 000 000:  LLD_OH
 LLD_CHI.ohmm           00 000 000 000:  LLD_CHI
 DTC_OH.uspf            00 000 000 000:  DTC_OH
 DTC_CHI.uspf           00 000 000 000:  DTC_CHI
 SPHW_CHI.decp          00 000 000 000:  SPHW_CHI
#Other Information
#
#WARRANTY: Halliburton will use its best efforts to furnish customers with 
#accurate information and interpretations that are part of, and incident to, the services 
#provided.  However, Halliburton cannot and does not warrant the accuracy 
#or correctness of such information and interpretations.  Under no circumstances should any 
#such information or interpretation be relied upon as the sole basis for any drilling, 
#completion, production, or financial decision or any procedure involving any risk to the 
#safety of any drilling venture, drilling rig or its crew or any other third party.  The 
#Customer has full responsibility for all drilling, completion and production operation.  
#Halliburton makes no representations or warranties, either expressed or 
#implied, including, but not limited to, the implied warranties of merchantability or fitness 
#for a particular purpose, with respect to the services rendered.  In no event will 
#Halliburton be liable for failure to obtain any particular results or for 
#any damages, including, but not limited to, indirect, special or consequential damages, 
#resulting from the use of any information or interpretation provided by Halliburton.
#
~A    DEPT       CCL     NPHI_OH  NPHI_CHI    GR      GR_CHI   RHOB_OH  RHOB_CHI   PE_OH   PE_CHI LLS_CHI   LLS_OH     LLD_OH   LLD_CHI   DTC_OH   DTC_CHI SPHW_CHI 
# ...
   13280.0000    0.0000 -999.2500   0.0738 -999.2500  81.8720 -999.2500   2.6115 -999.2500 3.2936  36.7209 -999.2500  -999.2500  43.0572 -999.2500 68.8147 0.1500
   13280.5000   18.2076 -999.2500   0.0764 -999.2500  88.6668 -999.2500   2.6068 -999.2500 3.3191  43.1725 -999.2500  -999.2500  50.5435 -999.2500 69.3541 0.1538
   13281.0000   16.6615 -999.2500   0.0717 -999.2500  80.8146 -999.2500   2.6135 -999.2500 3.3460  40.4251 -999.2500  -999.2500  47.6515 -999.2500 68.5890 0.1484
   13281.5000    0.0000 -999.2500   0.0686 -999.2500  76.6225 -999.2500   2.6175 -999.2500 3.3738  39.8685 -999.2500  -999.2500  47.1655 -999.2500 68.1748 0.1455
   13282.0000   18.7273 -999.2500   0.0670 -999.2500  74.1608 -999.2500   2.6198 -999.2500 3.3951  39.7401 -999.2500  -999.2500  47.1342 -999.2500 67.9539 0.1439
   13282.5000   16.8035 -999.2500   0.0649 -999.2500  74.5281 -999.2500   2.6223 -999.2500 3.4293  41.6021 -999.2500  -999.2500  49.4797 -999.2500 68.0519 0.1446
   13283.0000  -21.9205 -999.2500   0.0656 -999.2500  80.7783 -999.2500   2.6209 -999.2500 3.4251  44.4451 -999.2500  -999.2500  52.6395 -999.2500 68.7002 0.1492
   13283.5000    0.0000 -999.2500   0.0664 -999.2500  90.7810 -999.2500   2.6181 -999.2500 3.4421  52.7849 -999.2500  -999.2500  62.1519 -999.2500 69.6125 0.1557
   13284.0000    0.0000 -999.2500   0.0637 -999.2500  92.1673 -999.2500   2.6213 -999.2500 3.4296  51.8395 -999.2500  -999.2500  60.8447 -999.2500 69.7732 0.1568
   13284.5000   52.1023 -999.2500   0.0617 -999.2500  88.5241 -999.2500   2.6248 -999.2500 3.3965  46.0718 -999.2500  -999.2500  54.0736 -999.2500 69.4766 0.1547
   13285.0000  -36.0114 -999.2500   0.0598 -999.2500  78.2342 -999.2500   2.6293 -999.2500 3.3487  36.9447 -999.2500  -999.2500  43.5696 -999.2500 68.6217 0.1487
   13285.5000    0.0000 -999.2500   0.0652 -999.2500  78.0681 -999.2500   2.6234 -999.2500 3.2788  33.0206 -999.2500  -999.2500  38.8351 -999.2500 68.6492 0.1489
   13286.0000    0.0000 -999.2500   0.0727 -999.2500  82.7137 -999.2500   2.6141 -999.2500 3.2167  31.9341 -999.2500  -999.2500  37.3692 -999.2500 69.0816 0.1519
   13286.5000    0.0000 -999.2500   0.0771 -999.2500  82.3704 -999.2500   2.6091 -999.2500 3.1713  29.3557 -999.2500  -999.2500  34.2211 -999.2500 69.0628 0.1518
   13287.0000   51.7843 -999.2500   0.0744 -999.2500  72.2810 -999.2500   2.6139 -999.2500 3.1569  25.1341 -999.2500  -999.2500  29.4095 -999.2500 68.1663 0.1454
   13287.5000   47.6594 -999.2500   0.0708 -999.2500  67.4460 -999.2500   2.6181 -999.2500 3.1865  25.0766 -999.2500  -999.2500  29.3934 -999.2500 67.6711 0.1419
   13288.0000    0.0000 -999.2500   0.0714 -999.2500  77.5428 -999.2500   2.6152 -999.2500 3.2216  30.3743 -999.2500  -999.2500  35.3872 -999.2500 68.4264 0.1473
   13288.5000    0.0000 -999.2500   0.0696 -999.2500  82.5793 -999.2500   2.6159 -999.2500 3.2923  37.2404 -999.2500  -999.2500  43.5337 -999.2500 68.7723 0.1497
   13289.0000  157.9111 -999.2500   0.0626 -999.2500  75.5413 -999.2500   2.6255 -999.2500 3.3785  39.5869 -999.2500  -999.2500  47.0692 -999.2500 68.1542 0.1454
   13289.5000   13.5905 -999.2500   0.0585 -999.2500  73.1179 -999.2500   2.6310 -999.2500 3.4518  43.3977 -999.2500  -999.2500  52.2387 -999.2500 67.9667 0.1440
   13290.0000    0.0000 -999.2500   0.0597 -999.2500  78.7278 -999.2500   2.6288 -999.2500 3.4508  46.8042 -999.2500  -999.2500  56.1460 -999.2500 68.4697 0.1476
   13290.5000    0.0000 -999.2500   0.0647 -999.2500  88.5589 -999.2500   2.6210 -999.2500 3.4010  49.4159 -999.2500  -999.2500  58.4450 -999.2500 69.3259 0.1536
   13291.0000    0.0000 -999.2500   0.0645 -999.2500  84.5817 -999.2500   2.6217 -999.2500 3.3480  41.7203 -999.2500  -999.2500  48.9753 -999.2500 68.9691 0.1511
   13291.5000    0.0000 -999.2500   0.0622 -999.2500  75.4565 -999.2500   2.6256 -999.2500 3.3102  34.1601 -999.2500  -999.2500  39.9574 -999.2500 68.1538 0.1454
   13292.0000   18.5256 -999.2500   0.0660 -999.2500  85.4640 -999.2500   2.6189 -999.2500 3.3088  38.2847 -999.2500  -999.2500  44.2834 -999.2500 68.9882 0.1513
   13292.5000   41.7214 -999.2500   0.0643 -999.2500  85.2694 -999.2500   2.6207 -999.2500 3.3442  40.5235 -999.2500  -999.2500  46.9646 -999.2500 68.9395 0.1509
   13293.0000    0.0000 -999.2500   0.0662 -999.2500  90.5808 -999.2500   2.6175 -999.2500 3.3625  45.3196 -999.2500  -999.2500  52.4904 -999.2500 69.4027 0.1542
   13293.5000    0.0000 -999.2500   0.0608 -999.2500  78.8933 -999.2500   2.6260 -999.2500 3.4079  41.8692 -999.2500  -999.2500  49.1898 -999.2500 68.3832 0.1470
   13294.0000    0.0000 -999.2500   0.0550 -999.2500  60.1630 -999.2500   2.6363 -999.2500 3.4307  34.7243 -999.2500  -999.2500  41.5511 -999.2500 66.8603 0.1362
   13294.5000   45.0567 -999.2500   0.0585 -999.2500  68.2595 -999.2500   2.6318 -999.2500 3.4069  36.3823 -999.2500  -999.2500  43.4038 -999.2500 67.6564 0.1418
   13295.0000    0.0000 -999.2500   0.0630 -999.2500  78.2008 -999.2500   2.6260 -999.2500 3.3786  39.1693 -999.2500  -999.2500  46.6011 -999.2500 68.7089 0.1493
   13295.5000    0.0000 -999.2500   0.0722 -999.2500  95.5850 -999.2500   2.6132 -999.2500 3.3648  49.5993 -999.2500  -999.2500  58.6248 -999.2500 70.4702 0.1617
   13296.0000   28.1696 -999.2500   0.0752 -999.2500  95.5998 -999.2500   2.6107 -999.2500 3.3372  46.9066 -999.2500  -999.2500  55.5764 -999.2500 70.6612 0.1631
   13296.5000    0.0000 -999.2500   0.0791 -999.2500  98.3970 -999.2500   2.6060 -999.2500 3.3195  47.3650 -999.2500  -999.2500  56.0340 -999.2500 71.0036 0.1655
   13297.0000    0.0000 -999.2500   0.0767 -999.2500  94.3679 -999.2500   2.6097 -999.2500 3.3106  42.9553 -999.2500  -999.2500  50.8593 -999.2500 70.6729 0.1632
   13297.5000    0.0000 -999.2500   0.0780 -999.2500 101.8334 -999.2500   2.6061 -999.2500 3.3417  51.5175 -999.2500  -999.2500  60.6738 -999.2500 71.2535 0.1673
   13298.0000  -11.2079 -999.2500   0.0700 -999.2500  93.7806 -999.2500   2.6167 -999.2500 3.3906  48.2042 -999.2500  -999.2500  57.0132 -999.2500 70.4908 0.1619
   13298.5000   30.4319 -999.2500   0.0663 -999.2500  90.4414 -999.2500   2.6212 -999.2500 3.4170  47.3470 -999.2500  -999.2500  56.0189 -999.2500 70.1311 0.1593
   13299.0000    0.0000 -999.2500   0.0702 -999.2500  97.3888 -999.2500   2.6144 -999.2500 3.3931  50.8055 -999.2500  -999.2500  59.5054 -999.2500 70.6311 0.1629
   13299.5000    0.0000 -999.2500   0.0678 -999.2500  86.0137 -999.2500   2.6193 -999.2500 3.3161  37.4589 -999.2500  -999.2500  43.8731 -999.2500 69.5373 0.1551
   13300.0000   54.9036 -999.2500   0.0656 -999.2500  71.8593 -999.2500   2.6238 -999.2500 3.2584  28.9252 -999.2500  -999.2500  33.9589 -999.2500 68.1464 0.1453
   13300.5000   83.6082 -999.2500   0.0705 -999.2500  77.8564 -999.2500   2.6163 -999.2500 3.2401  30.8837 -999.2500  -999.2500  36.0092 -999.2500 68.5268 0.1480
   13301.0000    0.0000 -999.2500   0.0738 -999.2500  87.9706 -999.2500   2.6097 -999.2500 3.3166  41.5522 -999.2500  -999.2500  48.3921 -999.2500 69.2639 0.1532
   13301.5000    0.0000 -999.2500   0.0657 -999.2500  77.6274 -999.2500   2.6206 -999.2500 3.4347  43.8492 -999.2500  -999.2500  51.9933 -999.2500 68.2876 0.1463
   13302.0000   29.0536 -999.2500   0.0677 -999.2500  87.9342 -999.2500   2.6154 -999.2500 3.4851  55.7361 -999.2500  -999.2500  65.5941 -999.2500 69.0546 0.1517
   13302.5000   44.0634 -999.2500   0.0630 -999.2500  81.5542 -999.2500   2.6214 -999.2500 3.4757  49.3143 -999.2500  -999.2500  57.8837 -999.2500 68.3938 0.1471
   13303.0000  -32.4781 -999.2500   0.0659 -999.2500  85.9279 -999.2500   2.6164 -999.2500 3.4076  46.6932 -999.2500  -999.2500  53.8582 -999.2500 68.6471 0.1488
   13303.5000    0.0000 -999.2500   0.0648 -999.2500  80.2743 -999.2500   2.6184 -999.2500 3.3741  41.0802 -999.2500  -999.2500  47.2720 -999.2500 68.0960 0.1450
   13304.0000   17.3905 -999.2500   0.0673 -999.2500  81.8229 -999.2500   2.6152 -999.2500 3.3517  40.5508 -999.2500  -999.2500  46.5312 -999.2500 68.2254 0.1459
   13304.5000   17.3972 -999.2500   0.0685 -999.2500  81.9038 -999.2500   2.6141 -999.2500 3.3531  40.9236 -999.2500  -999.2500  47.1171 -999.2500 68.2672 0.1462
