###############################################
##         ENVERUS                           ##
##         ESS - Open Hole                   ##
##         PERMIAN / DELAWARE                ##
##         Nov 03 2023  V4.0                 ##
##         42-109-32620-90-00                ##
###############################################
## Copyright 2017-2023  ENVERUS.  All Rights Reserved. 
## Confidential - Property of ENVERUS, use governed by terms and 
## conditions found within the existing Information Services Subscription Agreement 
## (as may be amended, the “ISSA”) between Customer and ENVERUS. 
## 
~VERSION INFORMATION
# MNEM.UNIT                               DATA : DESCRIPTION OF MNEMONIC
#-----.-----     ----------------------------- : -----------------------------
VERS.                                     2.00 : CWLS LOG ASCII STANDARD - VERSION 2.00
WRAP.                                       NO : MULTIPLE LINES PER DEPTH STEP
VEND.                                  ENVERUS : VENDOR
TYPE.                          ESS - OPEN HOLE : ENVERUS ESSENTIAL CURVES – ACCESSIBLE THROUGH ENVERUS PRISM(TM)
DOC.                                  51092952 : ENVERUS HEADER RAW DOCUMENT ID
#___________________________________________________________________________________________________ 
~WELL INFORMATION 
# LYPeWtxrle9FodilXqet+3VuPRh8A73lGXm1Q3+VPjdIM+tEhu367IfA47DlYFnVF+yDwY76OrXOyADpoj01xA== 
# MNEM.UNIT                                              DATA : DESCRIPTION OF MNEMONIC 
#-----.-----                    ----------------------------- : ----------------------------- 
CNTY.                                               CULBERSON : COUNTY 
STATE.                                                  TEXAS : STATE 
CNTRY.                                                    USA : COUNTRY 
API.                                             42-109-32620 : API (10 Digit) 
API_14.                                    42-109-32620-90-00 : API (14 Digits) 
API_14_std.                                 42-109-32620-9000 : API (14 Digits Standard) 
UWI.                                           42109326209000 : UNIQUE WELL ID 
WELL.                               42109326200000_PREV_API14 : WELL NAME
STRT.FT                                                2339.0 : START DEPTH
STOP.FT                                               10866.0 : STOP DEPTH
STEP.FT                                                   0.5 : STEP BETWEEN DEPTHS
NULL.                                                 -999.25 : NULL VALUE
PREV_APII.                                     42109326200000 : WELL IDENTIFIER
#___________________________________________________________________________________________________ 
~PARAMETER INFORMATION 
# MNEM.UNIT                                              DATA : DESCRIPTION OF MNEMONIC 
#-----.-----                    ----------------------------- : ----------------------------- 
EKB.FT                                                   3330 : ELEVATION ABOVE MSL
#___________________________________________________________________________________________________ 
~CURVE INFORMATION 
# MNEM.UNIT           : CURVE DESCRIPTION 
#-----.-----          : ----------------------------- 
 DEPT.FT               : MEASURED DEPTH 
 GR__A.API             : GAMMA RAY (GAMMA RAY) 
 DT__A.US/FT           : SONIC DELTA TRANSIT TIME (SONIC) 
 #___________________________________________________________________________________________________ 
~A         DEPT          GR__A          DT__A
# ...
         9647.0        219.883         40.127
         9647.5        235.557         36.906
         9648.0        238.292         36.950
         9648.5        234.301         43.405
         9649.0        222.603         47.457
         9649.5        213.782         50.374
         9650.0        206.803         52.800
         9650.5        192.829         60.983
         9651.0        182.692         63.314
         9651.5        185.727         64.393
         9652.0        196.921         64.751
         9652.5        214.435         61.236
         9653.0        213.411         53.433
         9653.5        207.832         51.468
         9654.0        207.484         62.436
         9654.5        204.549         51.729
         9655.0        202.452         52.272
         9655.5        196.659         55.715
         9656.0        185.936         60.124
         9656.5        191.651         57.974
         9657.0        206.779         54.865
         9657.5        217.274         43.514
         9658.0        214.265         40.498
         9658.5        210.527         39.271
         9659.0        215.072         36.528
         9659.5        217.565         33.830
         9660.0        216.952         34.386
         9660.5        210.921         48.034
         9661.0        206.976         63.383
         9661.5        204.011         68.962
         9662.0        196.153         70.612
         9662.5        185.998         73.142
         9663.0        177.153         87.406
         9663.5        160.225         91.476
         9664.0        151.354         89.418
         9664.5        164.209         69.701
         9665.0        179.157         56.852
         9665.5        188.454         66.579
         9666.0        191.185         75.022
         9666.5        183.414         85.731
         9667.0        165.891         90.510
         9667.5        160.179         90.622
         9668.0        163.177         92.052
         9668.5        170.075         87.593
         9669.0        169.661         84.170
         9669.5        173.993         77.539
         9670.0        185.545         63.566
         9670.5        208.426         46.539
         9671.0        223.645         30.280
         9671.5        235.806         27.073
         9672.0        237.550         26.228
         9672.5        221.224         35.397
         9673.0        209.122         45.069
         9673.5        205.623         40.940
         9674.0        205.190         39.347
         9674.5        209.208         39.865
         9675.0        213.423         34.956
         9675.5        214.316         32.356
         9676.0        211.577         32.675
         9676.5        210.430         39.943
         9677.0        206.283         42.232
         9677.5        198.666         42.359
         9678.0        193.281         43.247
         9678.5        194.776         42.929
         9679.0        204.213         41.831
         9679.5        207.817         42.210
         9680.0        206.803         39.792
         9680.5        206.204         37.867
         9681.0        211.427         32.748
         9681.5        215.696         46.770
         9682.0        222.134         45.765
         9682.5        210.580         39.090
         9683.0        184.743         45.105
         9683.5        174.577         55.104
         9684.0        184.315         61.827
         9684.5        188.878         69.172
         9685.0        191.534         61.791
         9685.5        195.559         52.934
         9686.0        202.839         50.092
         9686.5        203.576         60.894
         9687.0        194.211         63.992
         9687.5        186.649         64.298
         9688.0        188.446         60.241
         9688.5        195.043         53.513
         9689.0        193.358         58.331
         9689.5        193.231         60.181
         9690.0        199.552         53.861
         9690.5        204.037         37.076
         9691.0        213.242         23.236
         9691.5        225.390         22.852
         9692.0        217.576         23.964
         9692.5        196.601         32.148
         9693.0        195.575         37.638
         9693.5        190.196         38.315
         9694.0        184.911         38.516
         9694.5        192.213         46.466
         9695.0        172.848         66.760
         9695.5        138.031         87.983
         9696.0        109.345        111.217
         9696.5        105.862        101.199
         9697.0        132.322         84.295
         9697.5        171.354         60.912
         9698.0        188.033         45.087
         9698.5        198.407         46.933
         9699.0        179.582         65.480
         9699.5        151.653         85.298
         9700.0        148.041         89.642
         9700.5        168.268         86.799
         9701.0        183.325         71.580
         9701.5        187.637         58.015
         9702.0        186.559         62.404
         9702.5        183.234         63.591
         9703.0        185.547         62.788
         9703.5        186.325         64.057
         9704.0        177.568         61.585
         9704.5        161.460         68.642
         9705.0        152.875         81.165
         9705.5        150.709         82.954
         9706.0        150.312         83.898
         9706.5        155.791         76.064
         9707.0        164.226         60.018
         9707.5        167.883         56.491
         9708.0        167.364         72.193
         9708.5        161.830         73.420
         9709.0        152.150         72.869
         9709.5        159.256         86.217
         9710.0        162.495         99.993
         9710.5        138.053        108.553
         9711.0        151.026        110.374
         9711.5        180.492        113.970
         9712.0        194.580         91.747
         9712.5        227.811         59.559
         9713.0        233.744         61.971
         9713.5        206.602         61.110
         9714.0        200.890         60.614
         9714.5        212.023         63.075
         9715.0        219.106         78.019
         9715.5        224.538         68.381
         9716.0        228.600         70.067
         9716.5        227.786         69.781
         9717.0        227.047         68.806
         9717.5        223.220         63.538
         9718.0        216.302         62.214
         9718.5        215.968         61.115
         9719.0        208.858         57.377
         9719.5        184.770         58.569
         9720.0        162.787         59.404
         9720.5        148.218         61.972
         9721.0        139.324         67.702
         9721.5        140.580         67.479
         9722.0        154.916         68.343
         9722.5        180.394         60.506
         9723.0        197.805         58.301
         9723.5        202.709         60.477
         9724.0        194.971         62.708
         9724.5        189.785         65.172
         9725.0        192.002         62.076
         9725.5        194.690         64.644
         9726.0        194.110         68.131
         9726.5        182.419         70.937
         9727.0        182.155         71.053
         9727.5        190.310         61.062
         9728.0        201.987         57.577
         9728.5        207.997         51.224
         9729.0        203.921         53.422
         9729.5        186.963         60.801
         9730.0        172.136         65.597
         9730.5        162.471         67.407
         9731.0        155.667         72.072
         9731.5        146.740         73.731
         9732.0        146.046         70.621
         9732.5        153.171         63.635
         9733.0        157.498         58.261
         9733.5        156.651         55.794
