~Version Information Block
 VERS.                2.00:     CWLS LOG ASCII STANDARD - VERSION 2.000000
 WRAP.                  NO:     One Line Per Depth Step
#
~Well Information Block
#MNEM.UNIT                     Data                         Information
#----------   ------------------------------------------   ----------------
 STRT.FT                                     4210.0000:     START DEPTH
 STOP.FT                                    10370.0000:     STOP DEPTH
 STEP.FT                                        0.5000:     STEP
 NULL.                                       -999.2500:     NULL VALUE
 COMP.                       CHESAPEAKE OPERATING INC.:     COMPANY
 WELL.                         UNIVERSITY_LANDS_4627-1:     WELL
 FLD .                                         WILDCAT:     FIELD
 LOC .   1200' FNL & 1995' FEL|Section: 27, Block: 46, Abstract: 2860|University Lands Survey:     LOCATION
 SEC .                                              27:     SECTION
 CNTY.                                       CULBERSON:     COUNTY
 STAT.                                           TEXAS:     STATE
 CTRY.                                             USA:     COUNTRY
 SRVC.                                    SCHLUMBERGER:     SERVICE COMPANY
 DATE.                                      11/15/2016:     DATE
 API .                                  42109322870000:     API NUMBER
 UWI .                                  42109322870000:     UWI NUMBER
 TVD .                                              NO:     TVD flag
 WSTA.                                             LOC:     Well status
#
~Curve Information Block
#MNEM.UNIT       API CODE      Curve Description
#----------    -------------   -------------------
 DEPT.FT                   :   Depth in Feet
 RM_HRLT.OHMM                 :   HRLTB Mud Resistivity
 RXOZ.OHMM                 :   Stan Res MicroCFL Resistivity
 RLA5.OHMM                 :   HRLTB Resistivity 5
 RLA4.OHMM                 :   HRLTB Resistivity 4
 RLA3.OHMM                 :   HRLTB Resistivity 3
 DTCO.US/F                 :   Delta-T Compressional
 DTSM.US/F                 :   Delta-T Shear Measurement
 SPHI.V/V                  :   Sonic Porosity [47.6]
 HSGR.GAPI                 :   HNGS Spectroscopy Gamma Ray
 HCGR.GAPI                 :   HNGS Computed Gamma Ray
 HCAL.IN                   :   HILT Caliper
 DPHI.V/V                  :   Density Porosity
 PEFZ.                     :   Std. Res. Formation PE
 HDRA.G/C3                 :   Density Correction
 RHOB.G/C3                 :   Std. Res. Formation Density
 APLC.V/V                  :   APS Near/Array Corrected Limestone Porosity
 PXND.V/V                  :   Crossplot Porosity For Neutron-Density
#
~Parameter Information Block
#MNEM.UNIT            Value               Description
#----------    --------------------    -------------------
 DATE.                 07-Jun-2007:    Date As Month-Day-Year
 RUN .                         ONE:    Run Number
 PDAT.                         UNK:    Permanent Datum
 EPD .FT                -9999.5000:    Elevation Of Perm. Datum
 LMF .                          KB:    Log Measured From
 FAPD.FT                   40.0000:    Feet Above Perm. Datum
 EKB .FT                 4323.0000:    Elevation Of Kelly Bushing
 TD  .FT                10370.0000:    Total Depth
 DFT .                   Fresh Mud:    Drilling Fluid Type
 DFD .LB/G                  8.6000:    Drilling Fluid Density
 RMS .OHMM                  0.4210:    Resistivity Of Mud Sample
 MST .DEGF                 97.0000:    Mud Sample Temperature
 RMF .OHMM                  0.4210:    Mud Filtrate Resistivity
 MFST.DEGF                 97.0000:    Mud Filtrate Sample Temperature
 MFSS.                        CALC:    Mud Filtrate Sample Source
 MCSS.                        CALC:    Mud Cake Sample Source
 RMB .OHMM                  0.2280:    Mud Resistivity At Bht
 BHT .DEGF                185.0000:    Bottom Hole Temperature
 MRT .DEGF                185.0000:    Maximum Recorded Temperature
 WSTA.                         LOC:    
 LATB.FT                    0.0000:    
 LONB.FT                    0.0000:    
#
~Other Information Block
<DescLogPlotStart>   NEURALOG PLOT DEFINITION
PLOTDEFVERSION: 3
LASFILE: E:\nds\projects\Texas Standard Oil LLC\pdf\42109322870000 D\42-109-322
DEPTHSCALE: 240.000000
RESOLUTION: 196
DEPTHLABELFREQ: 100.000000
HEAVYGRIDFREQ: 100.000000
MEDIUMGRIDFREQ: 50.000000
LIGHTGRIDFREQ: 10.000000
#
#   TRACK 1
#
STARTTRACK: 
 LEFTX: 0.500000 inch
 RIGHTX: 3.000000 inch
 SCALETYPE: Linear
 NUMCHARTDIVISIONS: 10
CURVE: RXOZ  0.200000   2000.000000 (0,0,255)      Solid             2     Y   
BACKUP: 2000.000000 20000000.000000 (0,0,255)      Solid             2    
CURVE: RLA5  0.200000   2000.000000 (0,131,131)    Dot               2     Y   
BACKUP: 2000.000000 20000000.000000 (0,131,131)    Dot               2    
CURVE: RLA4  0.200000   2000.000000 (255,0,255)    Short_Dash        2     Y   
BACKUP: 2000.000000 20000000.000000 (255,0,255)    Short_Dash        2    
CURVE: RLA3  0.200000   2000.000000 (255,0,0)      Medium_Dash       2     Y   
BACKUP: 2000.000000 20000000.000000 (255,0,0)      Medium_Dash       2    
CURVE: DTCO  240.000000 40.000000  (0,0,255)      Solid             2     N    
CURVE: DTSM  240.000000 40.000000  (0,131,131)    Dot               2     Y    
BACKUP: 440.000000 240.000000 (0,131,131)    Dot               2    
CURVE: SPHI  0.300000   -0.100000  (255,0,255)    Short_Dash        2     Y    
BACKUP: 0.700000   0.300000   (255,0,255)    Short_Dash        2    
CURVE: HSGR  0.000000   150.000000 (0,0,255)      Solid             2     Y    
BACKUP: 150.000000 300.000000 (0,0,255)      Solid             2    
CURVE: HCGR  0.000000   150.000000 (0,131,131)    Dot               2     N    
CURVE: HCAL  6.000000   16.000000  (255,0,255)    Short_Dash        2     Y    
BACKUP: -4.000000  6.000000   (255,0,255)    Short_Dash        2    
BACKUP: 16.000000  26.000000  (255,0,255)    Short_Dash        2    
ENDTRACK: 
#
#   TRACK 2
#
STARTTRACK: 
 LEFTX: 3.500000 inch
 RIGHTX: 8.500000 inch
 SCALETYPE: Linear
 NUMCHARTDIVISIONS: 10
CURVE: RM_HRLT 0.020000   200.000000 (255,131,0)    Solid             2     N  
CURVE: DPHI  0.300000   -0.100000  (255,0,0)      Solid             2     Y    
BACKUP: 0.700000   0.300000   (255,0,0)      Solid             2    
BACKUP: -0.100000  -0.500000  (255,0,0)      Solid             2    
CURVE: APLC  0.300000   -0.100000  (255,131,0)    Dot               2     Y    
BACKUP: 0.700000   0.300000   (255,131,0)    Dot               2    
BACKUP: 1.100000   0.700000   (255,131,0)    Dot               2    
CURVE: PXND  0.300000   -0.100000  (255,255,0)    Short_Dash        2     Y    
BACKUP: 0.700000   0.300000   (255,255,0)    Short_Dash        2    
ENDTRACK: 
#
#   TRACK 3
#
STARTTRACK: 
 LEFTX: 0.500000 inch
 RIGHTX: 5.500000 inch
 SCALETYPE: Linear
 NUMCHARTDIVISIONS: 10
ENDTRACK: 
#
#   TRACK 4
#
STARTTRACK: 
 LEFTX: 3.500000 inch
 RIGHTX: 6.000000 inch
 SCALETYPE: Linear
 NUMCHARTDIVISIONS: 10
CURVE: PEFZ  0.000000   10.000000  (0,0,255)      Solid             2     N    
ENDTRACK: 
#
#   TRACK 5
#
STARTTRACK: 
 LEFTX: 3.500000 inch
 RIGHTX: 4.750000 inch
 SCALETYPE: Linear
 NUMCHARTDIVISIONS: 10
CURVE: HDRA  -0.050000  0.200000   (0,131,131)    Solid             2     N    
ENDTRACK: 
#
#   TRACK 6
#
STARTTRACK: 
 LEFTX: 3.500000 inch
 RIGHTX: 8.500000 inch
 SCALETYPE: Linear
 NUMCHARTDIVISIONS: 10
CURVE: RHOB  2.000000   3.000000   (255,0,255)    Solid             2     Y    
BACKUP: 1.000000   2.000000   (255,0,255)    Solid             2    
ENDTRACK: 
<DescLogPlotEnd>
~A DEPTH     RM_HRLT             RXOZ             RLA5             RLA4             RLA3             DTCO             DTSM             SPHI             HSGR             HCGR             HCAL             DPHI             PEFZ             HDRA             RHOB             APLC             PXND            
# ...
    9947.500 0.76306654       54.43744986      70.08000892      70.12285384      74.64801135      70.32384691      121.47058824     0.16471330       93.34882304      70.19972857      9.21799478       0.03311448       3.38936956       0.00663314       2.65540823       0.11470588       0.10137525      
    9948.000 0.76306114       50.64725947      71.35585329      70.76775523      76.69577241      70.71638862      123.03921569     0.16801065       95.03281634      70.46424670      9.23757938       0.03490011       3.39225607       0.01518012       2.65311947       0.11352941       0.10098232      
    9948.500 0.76301710       38.63884350      64.03492000      63.43200138      74.64801135      71.30520118      123.82352941     0.17144259       96.66145956      70.71996469      9.23832951       0.03325888       3.42488185       0.03068720       2.65046892       0.11933284       0.10687623      
    9949.000 0.76314573       29.76009674      58.51127935      57.98582845      65.88000756      71.29232894      123.22549020     0.17144259       98.65585549      70.72156525      9.23833480       0.04261970       3.44831710       0.02684250       2.64152760       0.12607843       0.11159136      
    9949.500 0.76297144       32.07420649      56.94904045      56.43761898      60.09416343      70.70216077      122.45098039     0.16681060       100.72657962     70.43629930      9.25190933       0.05018402       3.46376297       0.01625082       2.63097385       0.12647059       0.11159136      
    9950.000 0.77009254       41.57581133      55.42851300      54.93074638      55.98671916      69.74127081      122.45098039     0.16104024       101.77324888     70.42024186      9.26508412       0.05138711       3.52269431       0.00683980       2.63119977       0.12647059       0.11080550      
    9950.500 0.76995326       40.73452457      48.85230274      48.41359268      54.38561483      69.15131470      122.45098039     0.15848871       101.69378142     70.43909340      9.27780266       0.03426993       3.58613110       0.00118562       2.64652390       0.12529412       0.10962672      
    9951.000 0.77000061       40.78781919      53.46410695      60.11637394      53.46410695      69.35116968      124.16203245     0.15872892       100.82937439     69.18711342      9.29687273       0.02752204       3.57807616       -0.00070948      2.65957530       0.12098039       0.10598767      
    9951.500 0.76999922       44.23744491      68.82697669      58.51127935      62.88997410      69.74266781      123.27683328     0.16119347       100.33539126     68.67499220      9.30435771       0.02321254       3.53665647       -0.00171121      2.66953462       0.11431373       0.09930306      
    9952.000 0.77008277       51.56932015      73.97764719      70.71505381      81.69500800      69.94723747      120.88972754     0.16400308       101.16511969     68.96645510      9.31068501       0.02125367       3.45554050       -0.00226843      2.67427102       0.10803922       0.09544435      
    9952.500 0.77022147       47.97882239      59.04149174      70.71505381      61.76549985      70.55142399      119.89104361     0.16675932       101.49250849     69.53115229      9.31680506       0.01811949       3.41112901       -0.00229532      2.67582578       0.10725490       0.09513092      
    9953.000 0.77027176       46.27612638      70.71505381      61.67183424      66.98931083      70.91265947      124.60784314     0.16918662       100.82323972     68.71307316      9.31320326       0.02948090       3.40120940       -0.00214324      2.66658044       0.11000000       0.09666012      
    9953.500 0.76331013       47.66138453      66.98931083      67.01703103      67.59634869      71.30520118      126.41176471     0.17195438       101.97276471     70.05482104      9.27644712       0.03849167       3.38366187       -0.00032432      2.65542215       0.11313725       0.10019646      
    9954.000 0.76632706       47.69906785      53.94858332      53.35044851      61.76549985      71.69774289      126.56862745     0.17497668       105.29440038     71.97997002      9.27726786       0.03966699       3.36923250       0.00094457       2.64869560       0.11549020       0.10333988      
    9954.500 0.76829192       39.22223451      47.54795649      47.15013850      51.56932015      72.28655545      119.92479988     0.17889889       109.96411417     73.86584661      9.27745653       0.03300686       3.38385560       0.00241517       2.65259558       0.11666667       0.10451866      
    9955.000 0.77000342       38.29185374      48.63245301      48.19571729      54.68354187      72.77128274      121.27111791     0.18090721       111.00738390     74.81299567      9.28387719       0.03065622       3.42787139       -0.00079040      2.65732944       0.11666667       0.10328114      
    9955.500 0.77000083       41.90671983      62.32520105      61.76549985      57.98582845      72.87264516      123.22638142     0.18261694       113.50395135     76.53186400      9.29242260       0.03457395       3.45723108       -0.00322250      2.65726655       0.11352941       0.10125193      
    9956.000 0.76999246       45.45097646      55.93079024      55.42851300      60.66113124      72.69217756      124.59132875     0.18164868       116.67839962     78.95403715      9.29681736       0.03418217       3.46479607       -0.00293976      2.65438772       0.11943059       0.10161448      
    9956.500 0.77000170       42.28646647      41.90671983      41.53038344      45.04281146      71.69774289      125.98039216     0.17654563       122.78654076     80.82566340      9.29935010       0.03849167       3.45766007       -0.00206235      2.64956743       0.12633412       0.11127103      
    9957.000 0.77000170       35.94862613      36.27438224      35.94862613      40.05853200      68.55740922      125.00000000     0.15417076       126.49281201     83.20802739      9.31632706       0.04402195       3.45031630       -0.00035436      2.64262270       0.13323765       0.11591356      
    9957.500 0.77466012       27.42524183      34.05461157      33.74878974      36.27438224      63.45436703      116.37254902     0.11277941       122.75661757     84.87761727      9.31689700       0.04678678       3.44585983       -0.00030186      2.63324370       0.13470588       0.11866405      
    9958.000 0.78040511       28.17757724      32.84770413      32.55272073      34.98880534      59.13640824      115.58823529     0.08115800       114.69458914     73.15511985      9.32015096       0.04406938       3.49825386       -0.00027851      2.63839450       0.12606885       0.11041257      
    9958.500 0.78619271       36.71317743      31.11706692      30.83762523      36.60309026      56.38861629      116.51493246     0.06577036       104.68489421     49.08672040      9.32906744       0.03625204       3.56223518       -0.00027235      2.64807541       0.11392157       0.09548134      
    9959.000 0.79118766       44.55732310      49.05544215      48.61490784      54.12823294      55.21099117      117.92818873     0.05956820       83.09868115      49.84157681      9.34520230       0.03379040       3.73683425       -0.00141507      2.65410120       0.08765697       0.07269155      
    9959.500 0.79118766       54.66294452      491.83942209     453.48589765     500.95942244     57.36997056      119.92314817     0.05839058       66.36373393      36.71190523      9.33646789       0.03496572       4.05076488       -0.00211236      2.65151509       0.05904596       0.05151277      
    9960.000 0.79077479       72.53855459      994.04511983     985.11826147     1512.64603455    63.20902846      123.22297601     0.11786065       54.05254063      26.66341564      9.34554979       0.03104799       4.35668922       0.00210462       2.65091613       0.02003707       0.02946955      
    9960.500 0.78942604       181.90213287     1518.93538763    1505.29483873    1412.21005551    69.53876349      126.91654387     0.15103042       49.33545910      25.98653382      9.37576606       0.03222331       4.52003194       0.01719613       2.66614205       0.02014441       0.02514735      
