~Version Information
 VERS.                  2.0:   CWLS log ASCII Standard -VERSION 2.0
 WRAP.                   NO:   One line per depth step
~Well Information Block
#MNEM.UNIT     VALUE/NAME     DESCRIPTION
#---------     -----------    ---------------------------
 STRT.F              8650.0000: START DEPTH
 STOP.F             14150.0000: STOP DEPTH
 STEP.F                 0.5000: STEP DEPTH
 NULL.                 -999.25: NULL VALUE
 LOC .     A1759-SEC34-BLK58-T2-:  LOCATION
 FL4 .        API 42-109-33169:  LOCATIONLINE4
 FL2 .     T&P RR CO-337FSL-25:  LOCATIONLINE2
 FL1 .     A1759-SEC34-BLK58-T2-:  LOCATIONLINE1
 DMF .                      KB:  DRILL MEAS FROM
 PDAT.                      GL:  PERMANENT DATUM
 CNTY.               CULBERSON:  COUNTY NAME
 FLD .     FORD, WEST (WOLFCAMP):  FIELD NAME
 WELL.         ALICE FEE 34 2H:  WELL NAME
 COMP.     CAPITAN ENERGY INC.:  COMPANY
 DATE.             27-Mar-2018:  DATE
 SVCO.             Halliburton:  SERVICECONAME
 PROV.                   TEXAS:  PROVINCE
 STAT.                   TEXAS:  STATE NAME
 CTRY.                     USA:  COUNTRY NAME
 HIDE.                        :  WELLNAMEOPERAT
 BASI.                 PERMIAN:  BASIN
 UWI .            42-109-33169LAT:  UNIQUE WELL IDENTIFIER
 API .            42-109-33169LAT:  API NUMBER
 RANG.                     N/A:  RANGE
 TOWN.                     N/A:  TOWNSHIP
 SECT.                     N/A:  SECTION
 SRVC.             Halliburton:  SERVICE COMPANY
 LMF .                      KB:  LOG MEASURED FROM
 TVDS.ft             3088.0000:  TVDSS CORRECTN
 EGL .ft             3063.0000:  GROUND ELEVATION
 APD .ft               25.0000:  DEPTH ABOVE PD
 EPD .ft             3063.0000:  ELEVATION
 BAP .ft                0.0000:  GL ELEV ONSHORE
 GVFD.g                 1.0000:  GRAVITY FIELD
 EKB .ft             3088.0000:  KB ELEVATION
 EDF .ft             3087.0000:  DF ELEVATION
~Curve Information Block
#MNEM.UNIT                 API CODE     Curve Description
#---------               -----------    ---------------------------
 DEPT.F                 00 000 000 000:  Depth
 CCL .mV                00 000 000 000:  Casing Collar Locator
 NPHI_OH.pu             00 000 000 000:  NPHI_OH
 NPHI_CHI.pu            00 000 000 000:  NPHI_CHI
 GR_OH.api              00 000 000 000:  GR_OH
 GR_CHI.api             00 000 000 000:  GR_CHI
 RHOB_OH.g/cc           00 000 000 000:  RHOB_OH
 RHOB_CHI.g/cc          00 000 000 000:  RHOB_CHI
 PE_OH.b/e              00 000 000 000:  PE_OH
 PE_CHI.b/e             00 000 000 000:  PE_CHI
 MSFL_OH.ohmm           00 000 000 000:  MSFL_OH
 MSFL_CHI.ohmm          00 000 000 000:  MSFL_CHI
 LLS_OH.ohmm            00 000 000 000:  LLS_OH
 LLS_CHI.ohmm           00 000 000 000:  LLS_CHI
 LLD_OH.ohmm            00 000 000 000:  LLD_OH
 LLD_CHI.ohmm           00 000 000 000:  LLD_CHI
 DTC_OH.uspf            00 000 000 000:  DTC_OH
 DTC_CHI.uspf           00 000 000 000:  DTC_CHI
 SPHI_CHI.pu            00 000 000 000:  SPHI_CHI
 SGF .cu                00 000 000 000:  Formation Sigma
 CRNF.NONE              00 000 000 000:  CM GrsCaptRatio
 RIN .NONE              00 000 000 000:  CM GrsInelRatio
#Other Information
#
#WARRANTY: Halliburton will use its best efforts to furnish customers with 
#accurate information and interpretations that are part of, and incident to, the services 
#provided.  However, Halliburton cannot and does not warrant the accuracy 
#or correctness of such information and interpretations.  Under no circumstances should any 
#such information or interpretation be relied upon as the sole basis for any drilling, 
#completion, production, or financial decision or any procedure involving any risk to the 
#safety of any drilling venture, drilling rig or its crew or any other third party.  The 
#Customer has full responsibility for all drilling, completion and production operation.  
#Halliburton makes no representations or warranties, either expressed or 
#implied, including, but not limited to, the implied warranties of merchantability or fitness 
#for a particular purpose, with respect to the services rendered.  In no event will 
#Halliburton be liable for failure to obtain any particular results or for 
#any damages, including, but not limited to, indirect, special or consequential damages, 
#resulting from the use of any information or interpretation provided by Halliburton.
#
~A    DEPT       CCL    NPHI_OH NPHI_CHI  GR_OH    GR_CHI  RHOB_OH RHOB_CHI  PE_OH  PE_CHI  MSFL_OH   MSFL_CHI  LLS_OH   LLS_CHI   LLD_OH   LLD_CHI  DTC_OH  DTC_CHI SPHI_CHI   SGF    CRNF   RIN   
# ...
   11212.5000    0.0000 -999.25   5.9140  -999.25  46.2784 -999.25   2.6547 -999.25 4.5796    -999.25 123.0289   -999.25 267.0927   -999.25 279.7773 -999.25 59.7452   8.5900 13.5604 0.4634 0.9067
   11213.0000    0.0000 -999.25   5.3530  -999.25  37.3594 -999.25   2.6624 -999.25 4.6387    -999.25 127.8602   -999.25 272.3846   -999.25 286.3947 -999.25 59.2675   8.2500 13.4301 0.4587 0.8979
   11213.5000    0.0000 -999.25   5.0361  -999.25  35.8060 -999.25   2.6667 -999.25 4.6722    -999.25 137.5537   -999.25 281.2731   -999.25 294.3390 -999.25 59.0684   8.1100 13.3444 0.4618 0.8883
   11214.0000  -35.0631 -999.25   4.9013  -999.25  40.0596 -999.25   2.6687 -999.25 4.6738    -999.25 155.7204   -999.25 304.2747   -999.25 314.4235 -999.25 58.9831   8.0500 13.2898 0.4668 0.8795
   11214.5000    0.0000 -999.25   4.4937  -999.25  34.2256 -999.25   2.6742 -999.25 4.7201    -999.25 174.0634   -999.25 330.1794   -999.25 341.9779 -999.25 58.6148   7.7900 13.3302 0.4708 0.8767
   11215.0000    0.0000 -999.25   4.6539  -999.25  36.5898 -999.25   2.6720 -999.25 4.7069    -999.25 162.3129   -999.25 309.9038   -999.25 320.7366 -999.25 58.7966   7.9200 13.3047 0.4668 0.8772
   11215.5000    0.0000 -999.25   5.3133  -999.25  47.3570 -999.25   2.6629 -999.25 4.6340    -999.25 137.1582   -999.25 269.9302   -999.25 277.7680 -999.25 59.3949   8.3400 13.2669 0.4622 0.8803
   11216.0000    0.0000 -999.25   5.4678  -999.25  47.9156 -999.25   2.6608 -999.25 4.6255    -999.25 132.2471   -999.25 267.1650   -999.25 275.5475 -999.25 59.4964   8.4100 13.1803 0.4619 0.8826
   11216.5000    0.0000 -999.25   5.6849  -999.25  52.6402 -999.25   2.6578 -999.25 4.6014    -999.25 128.7340   -999.25 259.8568   -999.25 266.9478 -999.25 59.6701   8.5400 13.0850 0.4649 0.8824
   11217.0000    0.0000 -999.25   5.7414  -999.25  55.6532 -999.25   2.6571 -999.25 4.5921    -999.25 131.6305   -999.25 263.4452   -999.25 269.3253 -999.25 59.6825   8.5400 13.0804 0.4704 0.8815
   11217.5000  -41.6570 -999.25   4.0353  -999.25  24.5860 -999.25   2.6803 -999.25 4.7908    -999.25 185.2172   -999.25 342.5385   -999.25 358.3375 -999.25 58.1921   7.4900 13.1369 0.4744 0.8799
   11218.0000    0.0000 -999.25   4.4020  -999.25  31.7506 -999.25   2.6753 -999.25 4.7499    -999.25 167.6022   -999.25 316.7916   -999.25 329.1624 -999.25 58.5731   7.7600 13.2887 0.4771 0.8826
   11218.5000    0.0000 -999.25   4.7477  -999.25  37.0908 -999.25   2.6706 -999.25 4.7094    -999.25 148.1718   -999.25 283.5352   -999.25 294.0160 -999.25 58.9451   8.0200 13.4812 0.4826 0.8877
   11219.0000    0.0000 -999.25   5.6229  -999.25  51.1896 -999.25   2.6586 -999.25 4.6069    -999.25 119.5724   -999.25 236.1318   -999.25 243.3030 -999.25 59.7383   8.5800 13.7163 0.4902 0.8966
   11219.5000    0.0000 -999.25   4.8084  -999.25  33.3484 -999.25   2.6698 -999.25 4.6962    -999.25 141.9122   -999.25 280.5395   -999.25 293.6998 -999.25 58.9375   8.0200 13.9690 0.5032 0.9060
   11220.0000    0.0000 -999.25   5.2897  -999.25  40.3394 -999.25   2.6633 -999.25 4.6322    -999.25 127.5162   -999.25 257.5512   -999.25 269.0789 -999.25 59.4001   8.3500 14.1850 0.5130 0.9130
   11220.5000    0.0000 -999.25   5.8911  -999.25  49.5532 -999.25   2.6551 -999.25 4.5531    -999.25 111.2320   -999.25 225.3694   -999.25 234.9558 -999.25 60.0183   8.7800 14.3633 0.5177 0.9174
   11221.0000    0.0000 -999.25   5.7207  -999.25  42.3400 -999.25   2.6574 -999.25 4.5692    -999.25 102.8613   -999.25 207.8934   -999.25 219.3907 -999.25 59.9671   8.7500 14.4683 0.5119 0.9152
   11221.5000    0.0000 -999.25   6.2426  -999.25  49.7014 -999.25   2.6501 -999.25 4.5102    -999.25  88.5537   -999.25 178.9330   -999.25 188.7280 -999.25 60.5612   9.1700 14.4997 0.5005 0.9115
   11222.0000    0.0000 -999.25   5.9131  -999.25  42.1284 -999.25   2.6547 -999.25 4.5420    -999.25  90.8118   -999.25 183.2914   -999.25 194.8015 -999.25 60.2598   8.9500 14.4211 0.4862 0.9055
   11222.5000    0.0000 -999.25   6.4920  -999.25  53.4252 -999.25   2.6468 -999.25 4.4714    -999.25  85.6461   -999.25 172.6582   -999.25 182.0357 -999.25 60.8070   9.3400 14.2520 0.4753 0.8988
   11223.0000    0.0000 -999.25   6.0587  -999.25  48.2976 -999.25   2.6528 -999.25 4.5120    -999.25  97.0752   -999.25 194.1722   -999.25 204.4271 -999.25 60.3399   9.0100 14.0264 0.4686 0.8920
   11223.5000    0.0000 -999.25   5.6401  -999.25  44.8766 -999.25   2.6587 -999.25 4.5542    -999.25 111.5522   -999.25 218.1344   -999.25 228.6615 -999.25 59.9066   8.7000 13.8039 0.4683 0.8852
   11224.0000    0.0000 -999.25   5.3672  -999.25  45.0004 -999.25   2.6624 -999.25 4.5901    -999.25 126.9315   -999.25 242.8908   -999.25 252.4560 -999.25 59.6038   8.4900 13.6659 0.4765 0.8816
   11224.5000   31.3418 -999.25   5.0478  -999.25  42.3496 -999.25   2.6668 -999.25 4.6317    -999.25 146.2822   -999.25 277.7832   -999.25 287.5174 -999.25 59.2286   8.2200 13.6167 0.4896 0.8840
   11225.0000    0.0000 -999.25   5.2201  -999.25  45.6864 -999.25   2.6644 -999.25 4.6211    -999.25 140.3784   -999.25 269.8239   -999.25 278.3821 -999.25 59.3682   8.3200 13.6786 0.5032 0.8900
   11225.5000  -37.4562 -999.25   5.2215  -999.25  43.3752 -999.25   2.6642 -999.25 4.6306    -999.25 129.3763   -999.25 248.7817   -999.25 258.1783 -999.25 59.4495   8.3800 13.8283 0.5130 0.8963
   11226.0000    0.0000 -999.25   4.5143  -999.25  25.4706 -999.25   2.6738 -999.25 4.7209    -999.25 134.8768   -999.25 250.8168   -999.25 266.3344 -999.25 58.8388   7.9500 14.0717 0.5184 0.8991
   11226.5000    0.0000 -999.25   5.0916  -999.25  33.3452 -999.25   2.6658 -999.25 4.6584    -999.25 105.8050   -999.25 199.8406   -999.25 211.9669 -999.25 59.5661   8.4600 14.4101 0.5176 0.8999
   11227.0000    0.0000 -999.25   6.0064  -999.25  49.4108 -999.25   2.6533 -999.25 4.5439    -999.25  85.9585   -999.25 165.8530   -999.25 174.1783 -999.25 60.4748   9.1100 14.7416 0.5171 0.9035
   11227.5000    0.0000 -999.25   6.0938  -999.25  47.9364 -999.25   2.6521 -999.25 4.5241    -999.25  83.0074   -999.25 161.7033   -999.25 170.8044 -999.25 60.5907   9.1900 14.9403 0.5172 0.9087
   11228.0000    0.0000 -999.25   6.1408  -999.25  46.6684 -999.25   2.6516 -999.25 4.5048    -999.25  86.7435   -999.25 172.8545   -999.25 183.2204 -999.25 60.5427   9.1500 15.0365 0.5221 0.9158
   11228.5000   48.1079 -999.25   6.0121  -999.25  43.6850 -999.25   2.6535 -999.25 4.5036    -999.25  91.1095   -999.25 182.0510   -999.25 193.6085 -999.25 60.3619   9.0300 15.0717 0.5321 0.9230
   11229.0000    0.0000 -999.25   6.0095  -999.25  43.8104 -999.25   2.6537 -999.25 4.4911    -999.25  92.4135   -999.25 183.6486   -999.25 195.3588 -999.25 60.3511   9.0200 15.1399 0.5462 0.9285
   11229.5000  -74.6611 -999.25   5.5528  -999.25  33.3968 -999.25   2.6599 -999.25 4.5452    -999.25  92.2392   -999.25 180.2880   -999.25 194.0458 -999.25 59.9301   8.7200 15.3250 0.5607 0.9338
   11230.0000    0.0000 -999.25   6.4915  -999.25  49.0310 -999.25   2.6469 -999.25 4.4403    -999.25  77.0858   -999.25 152.8028   -999.25 163.0002 -999.25 60.9896   9.4700 15.6018 0.5736 0.9379
   11230.5000    0.0000 -999.25   6.9131  -999.25  53.5396 -999.25   2.6411 -999.25 4.3902    -999.25  66.1791   -999.25 130.1108   -999.25 139.1870 -999.25 61.5560   9.8700 15.8589 0.5792 0.9406
   11231.0000    0.0000 -999.25   6.9135  -999.25  49.5836 -999.25   2.6410 -999.25 4.3822    -999.25  59.9637   -999.25 117.1462   -999.25 126.4826 -999.25 61.7153   9.9800 16.1227 0.5816 0.9413
   11231.5000    0.0000 -999.25   6.8148  -999.25  44.3620 -999.25   2.6423 -999.25 4.3933    -999.25  55.2356   -999.25 106.9738   -999.25 116.5516 -999.25 61.7616  10.0200 16.2725 0.5824 0.9414
   11232.0000    0.0000 -999.25   7.0801  -999.25  49.0004 -999.25   2.6387 -999.25 4.3471    -999.25  52.7827   -999.25 100.9433   -999.25 109.7612 -999.25 62.1015  10.2600 16.4167 0.5864 0.9423
   11232.5000    0.0000 -999.25   7.2720  -999.25  51.6576 -999.25   2.6361 -999.25 4.3150    -999.25  51.1901   -999.25  97.6025   -999.25 106.1139 -999.25 62.3252  10.4100 16.5810 0.5916 0.9469
