~Version Information
 VERS.                  2.0:   CWLS log ASCII Standard -VERSION 2.0
 WRAP.                   NO:   One line per depth step
~Well Information Block
#MNEM.UNIT     VALUE/NAME     DESCRIPTION
#---------     -----------    ---------------------------
 STRT.F              8683.0000: START DEPTH
 STOP.F             14089.5000: STOP DEPTH
 STEP.F                 0.5000: STEP DEPTH
 NULL.                 -999.25: NULL VALUE
 LOC .       API  42-109-32906:  LOCATION
 FL1 .       API  42-109-32906:  LOCATIONLINE1
 DMF .                      KB:  DRILL MEAS FROM
 PDAT.                      GL:  PERMANENT DATUM
 PROV.                   TEXAS:  PROVINCE
 STAT.                   TEXAS:  STATE NAME
 CNTY.               CULBERSON:  COUNTY NAME
 LUL .                  ODESSA:  LOGGINGUNITLOC
 FLD .     FORD, WEST (WOLFCAMP):  FIELD NAME
 WELL.     SHELLY FEE 40 No. 2H:  WELL NAME
 COMP.     CAPITAN ENERGY, INC.:  COMPANY
 DATE.             08-Jun-2018:  DATE
 SVCO.             Halliburton:  SERVICECONAME
 HIDE.                        :  WELLNAMEOPERAT
 BASI.                   BACIA:  BASIN
 UWI .            42-109-32906Lat:  UNIQUE WELL IDENTIFIER
 API .            42-109-32906Lat:  API NUMBER
 RANG.                     N/A:  RANGE
 TOWN.                     N/A:  TOWNSHIP
 SECT.                     N/A:  SECTION
 SON .               902848974:  JOB NUMBER
 CTRY.                        :  COUNTRY
 SRVC.             Halliburton:  SERVICE COMPANY
 LMF .                      KB:  LOG MEASURED FROM
 BAP .ft                0.0000:  GL ELEV ONSHORE
 GVFD.g                 1.0000:  GRAVITY FIELD
~Curve Information Block
#MNEM.UNIT                 API CODE     Curve Description
#---------               -----------    ---------------------------
 DEPT.F                 00 000 000 000:  Depth
 CCL .mV                00 000 000 000:  Casing Collar Locator
 DTC_CHI.uspf           00 000 000 000:  DTC_CHI
 DTC_OH.uspf            00 000 000 000:  DTC_OH
 GR_CHI.api             00 000 000 000:  GR_CHI
 GR_OH.api              00 000 000 000:  GR_OH
 LLD_CHI.ohmm           00 000 000 000:  LLD_CHI
 LLD_OH.ohmm            00 000 000 000:  LLD_OH
 LLS_CHI.ohmm           00 000 000 000:  LLS_CHI
 LLS_OH.ohmm            00 000 000 000:  LLS_OH
 MSFL_CHI.ohmm          00 000 000 000:  MSFL_CHI
 MSFL_OH.ohmm           00 000 000 000:  MSFL_OH
 NPHI_CHI.pu            00 000 000 000:  NPHI_CHI
 NPHI_OH.pu             00 000 000 000:  NPHI_OH
 PE_CHI.b/e             00 000 000 000:  PE_CHI
 PE_OH.NONE             00 000 000 000:  Pe_OH
 RHOB_CHI.g/cc          00 000 000 000:  RHOB_CHI
 RHOB_OH.g/cc           00 000 000 000:  RHOB_OH
 SPHI_CHI.pu            00 000 000 000:  SPHI_CHI
#Other Information
#
#WARRANTY: Halliburton will use its best efforts to furnish customers with 
#accurate information and interpretations that are part of, and incident to, the services 
#provided.  However, Halliburton cannot and does not warrant the accuracy 
#or correctness of such information and interpretations.  Under no circumstances should any 
#such information or interpretation be relied upon as the sole basis for any drilling, 
#completion, production, or financial decision or any procedure involving any risk to the 
#safety of any drilling venture, drilling rig or its crew or any other third party.  The 
#Customer has full responsibility for all drilling, completion and production operation.  
#Halliburton makes no representations or warranties, either expressed or 
#implied, including, but not limited to, the implied warranties of merchantability or fitness 
#for a particular purpose, with respect to the services rendered.  In no event will 
#Halliburton be liable for failure to obtain any particular results or for 
#any damages, including, but not limited to, indirect, special or consequential damages, 
#resulting from the use of any information or interpretation provided by Halliburton.
#
~A    DEPT       CCL    DTC_CHI DTC_OH   GR_CHI   GR_OH   LLD_CHI   LLD_OH   LLS_CHI   LLS_OH   MSFL_CHI  MSFL_OH     NPHI_CHI   NPHI_OH   PE_CHI    PE_OH   RHOB_CHI  RHOB_OH SPHI_CHI 
# ...
    9035.0000   -2.2643 67.9704 70.3529  66.0072  75.0463   8.1442    6.3120   6.7574    4.5779   4.8414     3.5269      11.6763 10.9700     2.8371  2.4242     2.5910  2.5205 14.4100
    9035.5000   -2.2715 68.8191 71.3784  82.7362  80.8371   8.1182    6.4002   6.7146    4.6755   4.7297     3.7452      12.4576 11.0600     2.7908  2.4524     2.5811  2.5319 15.0100
    9036.0000   -2.2811 69.0781 71.4823  84.0930  85.8713   8.1494    6.3951   6.7672    4.7233   4.7022     3.5692      12.6995 12.1300     2.8020  2.4443     2.5807  2.5460 15.1900
    9036.5000   -2.2882 69.3866 71.1647  87.4030  86.6674   8.2345    6.2823   6.8686    4.5565   4.6923     3.3931      12.9187 12.3500     2.8014  2.4282     2.5784  2.5563 15.4100
    9037.0000   -2.2954 69.8918 70.2617  99.6561  85.0752   8.3648    6.1482   6.9563    4.5031   4.7053     3.4009      13.4926 12.3600     2.7796  2.4556     2.5714  2.5640 15.7700
    9037.5000   -2.3014 69.7026 70.2806  97.8573  86.4100   8.2543    6.7201   6.8142    5.0005   4.6097     3.6886      13.5721 12.8800     2.7935  2.5423     2.5750  2.5682 15.6300
    9038.0000   -2.3086 69.6972 70.4219 106.0711  90.9610   8.1584    6.7194   6.6198    5.0048   4.5360     3.7461      13.8046 13.4600     2.7573  2.6370     2.5716  2.5648 15.6300
    9038.5000   -2.3157 69.5097 70.4540 101.3965  91.0006   8.0997    6.6901   6.5945    4.9822   4.5561     3.7790      13.5224 12.8200     2.7603  2.6626     2.5734  2.5594 15.4900
    9039.0000   -2.3217 68.8292 70.8564  75.0489  83.4314   8.2105    6.6734   6.8703    4.9781   4.7948     3.6799      12.3753 12.7800     2.8340  2.5795     2.5858  2.5533 15.0100
    9039.5000   -2.3289 69.0623 71.2399  80.6702  74.2937   9.3622    6.3798   7.9981    4.8670   5.5383     3.2720      11.8761 12.1600     2.7923  2.4446     2.5747  2.5352 15.1800
    9040.0000   -2.3361 68.8332 71.9011  84.9579  71.8222  10.2158    5.7615   8.7286    4.3910   6.0139     2.8978      11.4727 11.0300     2.7635  2.3776     2.5698  2.5182 15.0200
    9040.5000   -2.3432 68.3594 71.0919  80.1123  70.5983  10.8071    6.0358   9.2364    4.6534   6.3822     2.9107      11.1305 11.2700     2.7840  2.3985     2.5732  2.5214 14.6800
    9041.0000   -2.3528 68.1415 70.0563  76.5939  67.1286  10.9254    6.2864   9.3361    4.9229   6.4779     3.0548      11.0325 11.5200     2.7998  2.4610     2.5759  2.5370 14.5300
    9041.5000   -2.3600 67.9265 69.8618  73.2021  65.8017  10.8022    6.2857   9.2118    4.9250   6.4371     3.3428      10.9646 10.8200     2.8119  2.5912     2.5789  2.5578 14.3800
    9042.0000   -2.3672 67.8673 69.5914  75.1132  62.2924  10.7803    6.3659   9.1608    5.0307   6.4178     3.5806      10.9591 10.2200     2.8022  2.7316     2.5781  2.5695 14.3300
    9042.5000   -2.3731 67.4407 69.4319  68.0047  64.5619  10.6206    7.0219   9.0058    5.3923   6.3655     3.8409      10.7377 10.0500     2.8262  2.7544     2.5835  2.5717 14.0300
    9043.0000   -2.3803 68.0250 70.0625  78.6621  72.0836  10.7856    7.7249   9.1597    5.8438   6.4009     3.7284      11.0512 11.0000     2.7885  2.7019     2.5755  2.5805 14.4400
    9043.5000   -2.3875 68.0621 69.3303  75.3228  74.0204  11.0687    9.0792   9.4675    6.9804   6.5618     3.4610      10.9569 11.2800     2.8054  2.6611     2.5766  2.5895 14.4700
    9044.0000   -2.3947 67.4412 69.1739  54.6379  69.8813  11.4519    9.1907   9.9129    7.0229   6.8596     3.8457      10.3918 11.2400     2.8879  2.6390     2.5891  2.5832 14.0300
    9044.5000   -2.4006 67.1204 69.0647  52.4668  64.6570  11.8194    9.1795  10.2096    7.0345   7.0978     4.6796      10.2827 10.8800     2.9013  2.6523     2.5914  2.5719 13.8100
    9045.0000   -2.4078 67.6816 69.5122  73.4211  64.2371  12.0801    9.2429  10.3408    7.0850   7.1349     5.9308      10.7021  9.8600     2.8231  2.6999     2.5782  2.5807 14.2000
    9045.5000   -2.4150 67.4846 69.1456  73.0438  67.8098  12.8162   11.3783  10.9832    8.5161   7.5184     7.0669      10.5037 10.2000     2.8306  2.7385     2.5784  2.5865 14.0600
    9046.0000   -2.4246 67.1596 68.6240  69.1467  67.8098  13.6870   11.3783  11.7649    8.5161   7.9704     7.0669      10.1693 10.2000     2.8520  2.7385     2.5807  2.5865 13.8300
    9046.5000   -2.4317 67.4005 68.2475  70.0287  65.1323  14.2252   13.1172  12.3128   10.7817   8.2157     8.1478      10.1518  9.9700     2.8541  2.7754     2.5786  2.5773 14.0000
    9047.0000   -2.4389 67.7294 69.1026  64.3613  59.7059  14.2571   12.0264  12.4912    9.6159   8.2714     8.3030      10.2673  9.6700     2.8800  2.7749     2.5801  2.5697 14.2400
    9047.5000   -2.4449 68.1346 70.0520  73.0286  65.9799  13.3753   11.8330  11.6547    9.3829   7.7907     8.0225      10.6884  9.1300     2.8432  2.6600     2.5752  2.5632 14.5200
    9048.0000   -2.4521 68.6898 70.8741  88.2558  79.2052  12.1137   11.8059  10.3930    9.3673   7.0970     6.6724      11.4534  9.5200     2.7828  2.5632     2.5675  2.5579 14.9200
    9048.5000   -2.4592 67.9449 71.2357  69.7569  81.1539  10.8044   11.0490   9.2215    9.1563   6.5286     5.4250      11.3055 11.0700     2.8470  2.5536     2.5830  2.5538 14.3900
    9049.0000   -2.4664 68.3403 71.0732  74.1731  73.5689   9.8365    9.5113   8.3581    8.1695   5.9267     4.9392      11.6027 11.2700     2.8223  2.5007     2.5807  2.5523 14.6700
    9049.5000   -2.4724 69.0709 71.3855  87.8692  75.7593   8.7574    9.4379   7.3463    8.2183   5.1526     4.6821      12.2167 10.9800     2.7597  2.4338     2.5730  2.5505 15.1800
    9050.0000   -2.4796 69.5697 72.3104  98.5766  86.4417   8.4978    9.0865   7.0859    7.9393   4.8819     4.9795      12.5981 11.0200     2.7154  2.4401     2.5662  2.5500 15.5400
    9050.5000   -2.4867 69.6582 72.8783  92.7992  89.5272   8.4775    9.0916   7.1280    7.9350   4.8453     5.5229      12.7133 12.1500     2.7582  2.5043     2.5707  2.5496 15.6000
    9051.0000   -2.4963 69.6842 73.2205  87.5501  89.3331   8.4850    9.0091   7.1756    8.0445   4.8590     5.8308      12.9812 12.1900     2.8150  2.5915     2.5765  2.5406 15.6200
    9051.5000   -2.5035 69.7666 74.2462  87.9084  93.6782   8.4453    9.6426   7.1130    8.4994   4.7833     5.9514      13.5771 12.5300     2.8685  2.6505     2.5813  2.5412 15.6800
    9052.0000   -2.5107 70.3569 76.0528 102.4439 100.1383   8.6336   10.7113   7.1795    9.2569   4.8151     6.5831      14.5522 12.9800     2.8813  2.6392     2.5766  2.5560 16.0900
    9052.5000   -2.5166 69.9756 77.8068 109.3522 109.1176   8.4719   12.7079   6.7886   11.0859   4.6058     7.3072      14.9454 13.8500     2.8645  2.6206     2.5793  2.5496 15.8200
    9053.0000   -2.5238 69.5167 76.6180 121.4199 129.0922   8.3517   14.4843   6.3200   12.5559   4.4393     8.5808      15.4582 15.7500     2.8249  2.7222     2.5816  2.5223 15.5000
    9053.5000   -2.5310 75.6664 74.9232 161.9575 155.6497  34.7717   17.4740  29.6273   15.1107  17.5278    11.7522      16.7978 19.5600     2.9862  2.9357     2.5129  2.5051 19.8500
    9054.0000   -2.5382 74.7802 73.3033 146.2623 168.2690  57.1416   25.0202  51.3699   20.8523  27.9702    21.8063      15.8318 17.6900     3.1534  3.1227     2.5173  2.5076 19.2200
    9054.5000   -2.5441 73.1671 73.1250 133.6111 147.4864  74.8431   45.0906  76.3644   37.2998  39.1228    43.1934      14.1013 16.6000     3.5740  3.2298     2.5329  2.5283 18.0800
    9055.0000   -2.5513 70.0644 72.0989 105.5359 104.2378  79.7439   62.7210  85.6271   58.6505  42.5370   220.8014      11.8797 16.1700     3.8801  3.3785     2.5665  2.5783 15.8900
    9055.5000   -2.5585 68.2680 69.7732  63.7888  71.0815  94.2304   83.8255 102.6929   87.2053  49.0368   158.9447      10.6403 13.2300     4.0844  3.6302     2.5913  2.6487 14.6200
    9056.0000   -2.5681 68.7745 69.6308  64.3573  69.6001  97.9238   75.1639 107.4677   77.3353  49.8022    84.2512      10.8567 10.3100     4.0656  3.7843     2.5858  2.6615 14.9700
    9056.5000   -2.5752 69.2172 71.4994  66.8304  90.3154  97.0238   53.2545 105.2301   52.6436  48.2141    41.6270      11.1421 11.2800     3.9425  3.6771     2.5782  2.6026 15.2900
