# Exported from Transform Software 5.2.0 on 21-Oct-2019 by user kathryn.gehrke
# DI Transform - A Product of Drillinginfo, Inc. - www.drillinginfo.com
#
~VERSION INFORMATION
 VERS.        2.0 : LAS ASCII STANDARD - VERSION 2.0
 WRAP.         NO : ONE LINE PER DEPTH STEP

~WELL INFORMATION
#MNEM.UNIT       DATA TYPE       INFORMATION
#---------       ---------       -----------
 STRT.ft                  30 : Start Depth
 STOP.ft                9000 : Stop Depth
 STEP.ft                 0.5 : Step Length
 NULL.               -999.25 : Null Value
 COMP.                       : Company
 WELL.  42109330470000_API14 : Well Name
 FLD.                        : Field Name
 LOC.                        : Well Location
 CNTY.                       : County
 STAT.                       : State or Province
 CTRY.                       : Country
 SRVC.                       : Service Company
 DATE.                       : Date
 API.         42109330470000 : Well Identifier

~CURVE INFORMATION
#MNEM.UNIT       API CODE       CURVE DESCRIPTION
#---------       --------       -----------------
 DEPT.ft        : <Measured Depth>
 DT.us/ft       : Sonic
 GR.gAPI        : Gamma Ray

~PARAMETER INFORMATION
#MNEM.UNIT       VALUE       DESCRIPTION
#---------       -----       -----------
 EKB.ft      3201 : Elevation above MSL

~A      DEPT          DT          GR
          30     -999.25     -999.25
        30.5    339.4148      4.2758
          31    339.4148      5.2539
        31.5    339.4148      4.3339
          32    339.4148      2.6262
        32.5    339.4974      2.3643
          33    339.3222      2.6257
        33.5    339.4974      2.2315
          34    339.4974      1.8389
        34.5    339.3222       1.443
          35    339.4974      0.2627
        35.5    339.5864      0.2627
          36    339.8476      0.2627
        36.5    339.4974      0.2627
          37    339.4974      0.2656
        37.5    339.4974      2.4987
          38    339.4974      3.1524
        38.5    339.4974      2.3643
          39    339.8476      4.2179
        39.5    339.8476      9.9903
          40    340.0228     10.2411
        40.5    340.2883      5.7707
          41    340.7233      3.9405
        41.5    340.7233      5.7888
          42    340.7233      7.8809
        42.5    340.2889      7.8809
          43    341.0771       8.937
        43.5    341.2487     10.2452
          44    341.2487      7.8694
        44.5    341.2487      6.3047
          45    341.2487       7.099
        45.5    341.2487      9.4698
          46    341.2487     13.9426
        46.5    341.2487     18.5269
          47    341.2487     17.0614
        47.5    341.2487     12.3324
          48    341.2487      8.1362
        48.5    341.4238      6.6912
          49    341.4238      6.5752
        49.5    341.4238      8.5456
          50    341.4238     11.3042
        50.5    341.4238     10.4911
          51    341.4238      6.0248
        51.5    341.4238       4.606
          52    341.5989      8.1707
        52.5    341.5989     13.8193
          53    341.5989      18.145
        53.5    341.4238     21.8231
          54    341.4238     25.5013
        54.5    341.4238     27.8459
          55    341.4238     27.0373
        55.5    341.4238     23.0964
          56    341.4238     18.0835
        56.5    341.4238      12.325
          57    341.4238     11.3181
        57.5    341.2487     16.3098
          58    341.2563      16.527
        58.5    341.4238     12.2037
          59    341.7741     13.4332
        59.5    341.7741     16.2872
          60    341.5989     12.5726
        60.5    341.5989      9.8636
          61    341.4238     14.7619
        61.5    341.4238     19.1769
          62    341.4238     17.3118
        62.5    341.4238     14.5664
          63    341.5989     11.5316
        63.5    341.5989      7.2104
          64    341.5989        5.24
        64.5    341.5989      4.9912
          65    341.5989      6.0564
        65.5    341.5989      7.7641
          66    341.5989     10.2599
        66.5    341.5989     13.5439
          67    341.5989     16.5803
        67.5    341.5989     19.0609
          68    341.5989     18.6359
        68.5    341.5989     16.1401
          69    341.5989     15.2364
        69.5    341.5989     17.6331
          70    341.5989     20.5068
        70.5    341.5989     22.3292
          71    341.5989     23.9222
        71.5    341.5989     25.4816
          72    341.5989     25.2189
        72.5    341.5989     25.2189
          73    341.5989     28.9319
        73.5    341.5989     31.5593
          74    341.5989     28.0545
        74.5    341.5989     23.2304
          75    341.5989     21.0158
        75.5    341.5989     20.7531
          76    341.5989      22.367
        76.5    341.5989     26.0451
          77    341.5989     29.7233
        77.5    341.5989     30.4729
          78    341.5989     27.8065
        78.5    341.5989      24.805
          79    341.5989     24.4308
        79.5    341.5989     25.6333
          80    341.5989     26.2697
        80.5    341.5989     24.6521
          81    341.5989     20.4485
        81.5    341.5989     19.3293
          82    341.5989     21.2998
        82.5    341.5989     21.1256
          83    341.5989     20.2277
        83.5    341.5989     23.0518
          84    341.5989     28.6561
        84.5    341.5989     27.8012
          85    341.5989     23.3575
        85.5    341.5989     24.8476
          86    341.5989     28.1315
        86.5    341.5989     27.2742
          87    341.5989     23.3099
        87.5    341.5989     18.1867
          88    341.5989     13.6365
        88.5    341.5989     13.0275
          89    341.5989     15.2848
        89.5    341.5989     20.9576
          90    341.5989     28.1578
        90.5    341.5989     30.5918
          91    341.5989     21.1534
        91.5    341.5989     14.5545
          92    341.2317     13.9484
        92.5    340.7233     15.2364
          93    341.5989     14.9479
        93.5    341.5989     11.3492
          94    341.5989       7.592
        94.5    341.5989      9.2473
          95    341.5989     13.1882
        95.5    341.5989      14.711
          96    341.5989      14.711
        96.5    341.5989     15.7618
          97    341.5989     17.6282
        97.5    341.5989     17.6007
          98    341.5989     14.9458
        98.5    341.5989     12.6095
          99    341.5989     11.5304
        99.5    341.5989     10.2452
         100    341.5989     11.0907
       100.5    341.5989     14.0832
         101    341.5989     16.3454
       101.5    341.5989     17.8634
         102    341.5989     16.7831
       102.5    341.5989     13.0754
         103    341.5989      9.1345
       103.5    341.5989      6.4059
         104    341.5989      4.4658
       104.5    341.5989      4.2032
         105    341.5989      6.3662
       105.5    341.5989     10.8325
         106    341.5989     12.0529
       106.5    341.5989      9.9732
         107    341.5989     14.2804
       107.5    341.5989     18.2892
         108    341.5989     18.0621
       108.5    341.5989     12.6442
         109    341.5989      6.2399
       109.5    341.5989      5.2184
         110    341.5989      9.2928
       110.5    341.5989      14.777
         111    341.5989     14.3819
       111.5    341.5989     10.0804
         112    341.5989      9.1944
       112.5    341.5989      9.7198
         113    341.5989      9.1604
       113.5    341.5989      7.1899
         114    341.5989      5.4822
       114.5    341.5989      3.9405
         115    341.5989      3.7126
       115.5    341.5989      6.8039
         116    341.5989     13.8013
       116.5    341.5989     17.7675
         117    341.5989     15.6905
       117.5    341.5989     12.4422
         118    341.5989     12.0841
       118.5    341.5989     13.8279
         119    341.5989     15.2364
       119.5    341.5989     14.9737
         120    341.5989      16.361
       120.5    341.5989      20.733
         121    341.5989     24.2054
       121.5    341.5989      23.305
         122    341.5989     18.7633
       122.5    341.5989     11.8389
         123    341.5989      8.8936
       123.5    341.5989      8.8387
         124    341.5989     10.2837
       124.5    341.5989     10.3378
         125    341.5989      7.0149
       125.5    341.5989      5.2539
         126    341.5989      7.1322
       126.5    341.5989       9.628
         127    341.5989      9.9825
       127.5    341.5989     10.2452
         128    341.5989     12.9525
       128.5    341.5989     15.9336
         129    341.5989     16.2872
       129.5    341.5989     15.7618
         130    341.5989     16.0245
       130.5    341.5989     15.0639
         131    341.5989     11.7385
       131.5    341.5989      8.3231
         132    341.5989      6.2629
       132.5    341.5989      6.4781
         133    341.5989      9.0162
       133.5    341.5989     13.4824
         134    341.5989     17.3806
       134.5    341.5989     18.9142
         135    341.5989     17.7773
       135.5    341.5989     14.2737
         136    341.4238      13.441
       136.5    341.4238     19.0012
         137    341.4238     32.5373
       137.5    341.4238     28.4352
         138    341.4238     21.1456
