~Version Information
 VERS.                  2.0:   CWLS log ASCII Standard -VERSION 2.0
 WRAP.                   NO:   One line per depth step
~Well Information Block
#MNEM.UNIT     VALUE/NAME     DESCRIPTION
#---------     -----------    ---------------------------
 STRT.F              8683.0000: START DEPTH
 STOP.F             14089.5000: STOP DEPTH
 STEP.F                 0.5000: STEP DEPTH
 NULL.                 -999.25: NULL VALUE
 LOC .       API  42-109-32906:  LOCATION
 FL1 .       API  42-109-32906:  LOCATIONLINE1
 DMF .                      KB:  DRILL MEAS FROM
 PDAT.                      GL:  PERMANENT DATUM
 PROV.                   TEXAS:  PROVINCE
 STAT.                   TEXAS:  STATE NAME
 CNTY.               CULBERSON:  COUNTY NAME
 LUL .                  ODESSA:  LOGGINGUNITLOC
 FLD .     FORD, WEST (WOLFCAMP):  FIELD NAME
 WELL.     SHELLY FEE 40 No. 2H:  WELL NAME
 COMP.     CAPITAN ENERGY, INC.:  COMPANY
 DATE.             08-Jun-2018:  DATE
 SVCO.             Halliburton:  SERVICECONAME
 HIDE.                        :  WELLNAMEOPERAT
 BASI.                   BACIA:  BASIN
 UWI .            42-109-32906Lat:  UNIQUE WELL IDENTIFIER
 API .            42-109-32906Lat:  API NUMBER
 RANG.                     N/A:  RANGE
 TOWN.                     N/A:  TOWNSHIP
 SECT.                     N/A:  SECTION
 SON .               902848974:  JOB NUMBER
 CTRY.                        :  COUNTRY
 SRVC.             Halliburton:  SERVICE COMPANY
 LMF .                      KB:  LOG MEASURED FROM
 BAP .ft                0.0000:  GL ELEV ONSHORE
 GVFD.g                 1.0000:  GRAVITY FIELD
~Curve Information Block
#MNEM.UNIT                 API CODE     Curve Description
#---------               -----------    ---------------------------
 DEPT.F                 00 000 000 000:  Depth
 CCL .mV                00 000 000 000:  Casing Collar Locator
 DTC_CHI.uspf           00 000 000 000:  DTC_CHI
 DTC_OH.uspf            00 000 000 000:  DTC_OH
 GR_CHI.api             00 000 000 000:  GR_CHI
 GR_OH.api              00 000 000 000:  GR_OH
 LLD_CHI.ohmm           00 000 000 000:  LLD_CHI
 LLD_OH.ohmm            00 000 000 000:  LLD_OH
 LLS_CHI.ohmm           00 000 000 000:  LLS_CHI
 LLS_OH.ohmm            00 000 000 000:  LLS_OH
 MSFL_CHI.ohmm          00 000 000 000:  MSFL_CHI
 MSFL_OH.ohmm           00 000 000 000:  MSFL_OH
 NPHI_CHI.pu            00 000 000 000:  NPHI_CHI
 NPHI_OH.pu             00 000 000 000:  NPHI_OH
 PE_CHI.b/e             00 000 000 000:  PE_CHI
 PE_OH.NONE             00 000 000 000:  Pe_OH
 RHOB_CHI.g/cc          00 000 000 000:  RHOB_CHI
 RHOB_OH.g/cc           00 000 000 000:  RHOB_OH
 SPHI_CHI.pu            00 000 000 000:  SPHI_CHI
#Other Information
#
#WARRANTY: Halliburton will use its best efforts to furnish customers with 
#accurate information and interpretations that are part of, and incident to, the services 
#provided.  However, Halliburton cannot and does not warrant the accuracy 
#or correctness of such information and interpretations.  Under no circumstances should any 
#such information or interpretation be relied upon as the sole basis for any drilling, 
#completion, production, or financial decision or any procedure involving any risk to the 
#safety of any drilling venture, drilling rig or its crew or any other third party.  The 
#Customer has full responsibility for all drilling, completion and production operation.  
#Halliburton makes no representations or warranties, either expressed or 
#implied, including, but not limited to, the implied warranties of merchantability or fitness 
#for a particular purpose, with respect to the services rendered.  In no event will 
#Halliburton be liable for failure to obtain any particular results or for 
#any damages, including, but not limited to, indirect, special or consequential damages, 
#resulting from the use of any information or interpretation provided by Halliburton.
#
~A    DEPT       CCL    DTC_CHI DTC_OH   GR_CHI   GR_OH   LLD_CHI   LLD_OH   LLS_CHI   LLS_OH   MSFL_CHI  MSFL_OH     NPHI_CHI   NPHI_OH   PE_CHI    PE_OH   RHOB_CHI  RHOB_OH SPHI_CHI 
# ...
   11543.0000    0.0000 65.9424 -999.25  91.0134  -999.25  58.1251   -999.25  51.7345   -999.25  28.6236    -999.25      12.2717 -999.25     3.3640 -999.25     2.5849 -999.25 12.9700
   11543.5000  -26.6065 65.4422 -999.25  88.8120  -999.25  56.0531   -999.25  49.3198   -999.25  27.8238    -999.25      11.9426 -999.25     3.3448 -999.25     2.5929 -999.25 12.6200
   11544.0000    0.0000 65.3791 -999.25  78.2664  -999.25  56.8390   -999.25  50.4867   -999.25  28.2282    -999.25      11.7803 -999.25     3.3751 -999.25     2.5979 -999.25 12.5700
   11544.5000   24.6480 66.0233 -999.25  75.8739  -999.25  61.3205   -999.25  55.6546   -999.25  29.9464    -999.25      12.0123 -999.25     3.4326 -999.25     2.5903 -999.25 13.0300
   11545.0000    0.0000 66.4809 -999.25  75.5717  -999.25  66.1055   -999.25  60.9028   -999.25  31.5285    -999.25      11.9430 -999.25     3.4842 -999.25     2.5849 -999.25 13.3500
   11545.5000    0.0000 66.1706 -999.25  68.3150  -999.25  71.2377   -999.25  65.9318   -999.25  33.5491    -999.25      11.3628 -999.25     3.5731 -999.25     2.5947 -999.25 13.1300
   11546.0000  -21.8916 66.3562 -999.25  72.8272  -999.25  70.6766   -999.25  65.3956   -999.25  33.2177    -999.25      11.5118 -999.25     3.5527 -999.25     2.5900 -999.25 13.2600
   11546.5000    0.0000 66.8614 -999.25  82.1267  -999.25  68.1026   -999.25  63.0873   -999.25  32.2089    -999.25      12.1979 -999.25     3.4988 -999.25     2.5776 -999.25 13.6200
   11547.0000   -2.4138 67.2338 -999.25  93.4224  -999.25  64.5170   -999.25  59.3934   -999.25  30.7878    -999.25      12.8691 -999.25     3.4260 -999.25     2.5657 -999.25 13.8900
   11547.5000   -2.3972 66.7581 -999.25  87.1931  -999.25  61.9807   -999.25  56.5748   -999.25  29.8620    -999.25      12.5315 -999.25     3.4002 -999.25     2.5744 -999.25 13.5500
   11548.0000   -2.3774 66.5019 -999.25  83.6230  -999.25  61.3216   -999.25  55.8033   -999.25  29.6943    -999.25      12.3545 -999.25     3.4022 -999.25     2.5796 -999.25 13.3700
   11548.5000   -2.3575 66.6183 -999.25  85.1202  -999.25  61.4702   -999.25  55.9919   -999.25  29.6029    -999.25      12.3421 -999.25     3.3942 -999.25     2.5772 -999.25 13.4500
   11549.0000   -2.3376 66.2291 -999.25  76.2022  -999.25  64.1375   -999.25  58.6226   -999.25  30.8259    -999.25      11.8490 -999.25     3.4617 -999.25     2.5881 -999.25 13.1700
   11549.5000   -2.3211 66.1633 -999.25  75.7773  -999.25  65.2742   -999.25  59.7041   -999.25  31.3225    -999.25      11.7525 -999.25     3.4838 -999.25     2.5900 -999.25 13.1300
   11550.0000   -2.3012 66.0642 -999.25  75.8458  -999.25  65.1012   -999.25  59.4138   -999.25  31.2747    -999.25      11.6750 -999.25     3.4843 -999.25     2.5916 -999.25 13.0600
   11550.5000   -2.2813 65.9806 -999.25  76.3894  -999.25  64.3946   -999.25  58.5898   -999.25  30.9976    -999.25      11.6329 -999.25     3.4748 -999.25     2.5925 -999.25 13.0000
   11551.0000   -2.2549 66.1959 -999.25  82.5139  -999.25  64.4695   -999.25  58.6341   -999.25  30.9231    -999.25      11.8040 -999.25     3.4620 -999.25     2.5871 -999.25 13.1500
   11551.5000   -2.2350 66.0501 -999.25  81.7008  -999.25  66.0136   -999.25  60.0385   -999.25  31.5787    -999.25      11.5880 -999.25     3.4937 -999.25     2.5909 -999.25 13.0500
   11552.0000   -2.2151 66.3538 -999.25  91.0022  -999.25  66.2315   -999.25  60.2021   -999.25  31.5506    -999.25      11.8471 -999.25     3.4827 -999.25     2.5833 -999.25 13.2600
   11552.5000   -2.1953 66.0830 -999.25  87.1846  -999.25  66.5146   -999.25  60.3209   -999.25  31.6908    -999.25      11.5460 -999.25     3.4960 -999.25     2.5893 -999.25 13.0700
   11553.0000   -2.1787 66.0326 -999.25  86.7354  -999.25  66.3463   -999.25  60.1106   -999.25  31.6249    -999.25      11.5015 -999.25     3.4945 -999.25     2.5902 -999.25 13.0400
   11553.5000   -2.1589 66.1216 -999.25  88.7202  -999.25  66.3220   -999.25  60.1019   -999.25  31.5784    -999.25      11.5771 -999.25     3.4898 -999.25     2.5881 -999.25 13.1000
   11554.0000   -2.1390 65.8318 -999.25  81.3258  -999.25  68.2636   -999.25  62.0313   -999.25  32.5291    -999.25      11.2669 -999.25     3.5396 -999.25     2.5963 -999.25 12.8900
   11554.5000   -2.1224 65.5872 -999.25  72.0949  -999.25  72.3903   -999.25  66.2711   -999.25  34.3990    -999.25      10.9441 -999.25     3.6253 -999.25     2.6053 -999.25 12.7200
   11555.0000   -2.1026 66.0196 -999.25  79.1571  -999.25  71.7634   -999.25  65.8493   -999.25  33.8852    -999.25      11.2655 -999.25     3.5896 -999.25     2.5955 -999.25 13.0300
   11555.5000   -2.0827 66.1044 -999.25  80.3029  -999.25  71.0317   -999.25  65.0841   -999.25  33.3435    -999.25      11.2327 -999.25     3.5610 -999.25     2.5930 -999.25 13.0900
   11556.0000   -2.0628 65.9620 -999.25  81.3912  -999.25  70.0122   -999.25  63.7853   -999.25  32.8159    -999.25      11.0495 -999.25     3.5413 -999.25     2.5946 -999.25 12.9900
   11556.5000   -2.0364 65.7232 -999.25  82.1677  -999.25  69.8753   -999.25  63.3139   -999.25  32.8008    -999.25      10.8334 -999.25     3.5473 -999.25     2.5986 -999.25 12.8200
   11557.0000   -2.0165 65.4726 -999.25  81.9176  -999.25  69.6845   -999.25  62.8414   -999.25  32.8245    -999.25      10.6446 -999.25     3.5565 -999.25     2.6031 -999.25 12.6400
   11557.5000   -1.9966 65.5584 -999.25  85.0990  -999.25  69.2921   -999.25  62.4508   -999.25  32.6975    -999.25      10.7686 -999.25     3.5503 -999.25     2.6008 -999.25 12.7000
   11558.0000   -1.9801 65.6984 -999.25  88.2835  -999.25  68.7391   -999.25  61.9444   -999.25  32.4342    -999.25      10.9165 -999.25     3.5360 -999.25     2.5973 -999.25 12.8000
   11558.5000   -1.9602 66.1109 -999.25  92.9035  -999.25  68.7351   -999.25  62.2236   -999.25  32.2590    -999.25      11.2456 -999.25     3.5166 -999.25     2.5888 -999.25 13.0900
   11559.0000   -1.9404 65.9394 -999.25  89.7182  -999.25  70.8113   -999.25  64.2260   -999.25  33.1884    -999.25      11.0209 -999.25     3.5604 -999.25     2.5940 -999.25 12.9700
   11559.5000   -1.9238 65.8876 -999.25  92.7766  -999.25  72.4436   -999.25  65.6592   -999.25  33.8538    -999.25      10.8833 -999.25     3.5922 -999.25     2.5956 -999.25 12.9300
   11560.0000   -1.9039 65.4423 -999.25  90.4678  -999.25  75.1609   -999.25  67.9193   -999.25  35.1766    -999.25      10.3866 -999.25     3.6626 -999.25     2.6063 -999.25 12.6200
   11560.5000   -1.8841 65.2833 -999.25  90.4749  -999.25  75.6456   -999.25  68.2238   -999.25  35.4937    -999.25      10.2382 -999.25     3.6833 -999.25     2.6098 -999.25 12.5100
   11561.0000   -1.8642 65.2634 -999.25  89.0565  -999.25  75.4290   -999.25  68.1377   -999.25  35.6099    -999.25      10.3210 -999.25     3.6940 -999.25     2.6108 -999.25 12.4900
   11561.5000   -1.8377 65.3920 -999.25  88.1464  -999.25  75.5675   -999.25  68.6264   -999.25  35.8989    -999.25      10.5555 -999.25     3.7105 -999.25     2.6093 -999.25 12.5800
   11562.0000   -1.8179 65.1192 -999.25  82.0682  -999.25  76.2108   -999.25  69.1932   -999.25  36.3438    -999.25      10.3485 -999.25     3.7355 -999.25     2.6159 -999.25 12.3900
   11562.5000   -1.7980 64.5800 -999.25  75.0517  -999.25  77.0645   -999.25  69.5413   -999.25  36.7927    -999.25       9.8287 -999.25     3.7636 -999.25     2.6274 -999.25 12.0100
   11563.0000   -1.7814 64.4978 -999.25  75.3670  -999.25  76.9432   -999.25  69.2822   -999.25  36.7419    -999.25       9.7419 -999.25     3.7637 -999.25     2.6287 -999.25 11.9500
   11563.5000   -1.7616 64.4766 -999.25  73.5290  -999.25  79.7059   -999.25  71.8881   -999.25  37.6002    -999.25       9.5175 -999.25     3.7863 -999.25     2.6302 -999.25 11.9400
   11564.0000   -1.7417 66.0081 -999.25  96.8650  -999.25  79.8841   -999.25  73.2082   -999.25  36.9423    -999.25      10.6628 -999.25     3.7293 -999.25     2.5982 -999.25 13.0200
   11564.5000   -1.7218 65.8064 -999.25  90.1003  -999.25  85.0616   -999.25  78.4194   -999.25  39.0802    -999.25      10.2971 -999.25     3.8137 -999.25     2.6062 -999.25 12.8800
