~VERSION INFORMATION
VERS.           1.2   :CWLS Log ASCII Standard - VERSION 1.2
WRAP.           NO    :One Line per depth step
PROD.  Schlumberger   :LAS Producer
PROG.  DLIS to ASCII 10C0-306                          :LAS Program name and version
CREA.        2007/06/08 22:43                          :LAS Creation date {YYYY/MM/DD hh:mm}
SOURCE.     294b92a6-1e54-4f75-8d20-4493e48002f1       :DLIS File Name
#--------------------------------------------------
~WELL INFORMATION
#MNEM.UNIT      DATA             DESCRIPTION
#---- ------ --------------   -----------------------------
STRT .F      4145.5000       :START DEPTH     
STOP .F      10380.0000      :STOP DEPTH     
STEP .F       0.5000         :STEP       
NULL .          -999.25      :NULL VALUE
COMP .                 COMPANY:  Chesapeake Operating Inc.          
WELL .                    WELL:  University Lands 4627-1            
FLD  .                   FIELD:  Wildcat                            
LOC  .                LOCATION:  1200' FNL & 1995; FEL              
CNTY .                  COUNTY:  Culberson                          
STAT .                   STATE:  Texas                              
CTRY .                 COUNTRY:                                     
SRVC .         SERVICE COMPANY:  Schlumberger                       
API  .              API NUMBER:  42-109-32287                       
DATE .                LOG DATE:  7-Jun-2007
UWI  .          UNIQUE WELL ID:  42-109-32287-0000                  
#-----------------------------------------------------------------------------
~PARAMETER INFORMATION
#MNEM.UNIT    VALUE                      DESCRIPTION
#---- -----   --------------------       ------------------------
CN   .        Chesapeake Operating Inc.  :Company Name
WN   .        University Lands 4627-1    :Well Name
FN   .        Wildcat                    :Field Name
FL   .        1200' FNL & 1995  FEL      :Field Location
FL1  .        Secion  27  Block  46  Abstract  2860 :Field Location Line 1
COUN .        Culberson                  :County or Rig Name
STAT .        Texas                      :State or Province
NATI .                                   :Nation
DATE .        7-Jun-2007                 :Date as Month-Day-Year
APIN .        42-109-32287               :API Serial Number
SECT .        27                         :Section
TOWN .        46                         :Township
RANG .        2860                       :Range
DMF  .        Kelly Bushing              :Drilling Measured From
LMF  .        Kelly Bushing              :Log Measured From
PDAT .        Ground Level               :Permanent Datum
ENGI .        Tarek Sheira               :Engineer's Name
WITN .        Wiley Tisdale /Jud Walker  :Witness's Name
LATI .                                   :Latitude
LONG .                                   :Longitude
LUL  .        Midland  TX                :Logging Unit Location
LUN  .              2365                 :Logging Unit Number
RUN  .        2                          :Run Number
SON  .        11592406                   :Service Order Number
BHT  .DEGF     185.00000                 :Bottom Hole Temperature (used in calculations)
BS   .IN         8.75000                 :Bit Size
DFD  .LB/G       8.60000                 :Drilling Fluid Density
DFV  .S         39.00000                 :Drilling Fluid Viscosity
DFL  .C3         8.00000                 :Drilling Fluid Loss
RMFS .OHMM       0.42100                 :Resistivity of Mud Filtrate Sample
EKB  .F       4323.00000                 :Elevation of Kelly Bushing
EGL  .F       4283.00000                 :Elevation of Ground Level
BLI  .F       10360.70020                :Bottom Log Interval
BSAL .PPM      500.00000                 :Borehole Salinity
FLEV .                                   :Fluid Level
MCST .                                   :Mud Cake Sample Temperature
MFST .DEGF      96.90000                 :Mud Filtrate Sample Temperature
MRT  .DEGF     185.00000                 :Maximum Recorded Temperature
MST  .DEGF      96.90000                 :Mud Sample Temperature
RMCS .                                   :Resistivity of Mud Cake Sample
RMS  .OHMM       0.42100                 :Resistivity of Mud Sample
RW   .OHMM       1.00000                 :Resistivity of Connate Water
TDD  .F       10350.00000                :Total Depth - Driller
TDL  .F       10362.00000                :Total Depth - Logger
TLI  .F       4200.00000                 :Top Log Interval
HIDE .        Formation Micro Imager     :Header Identifier
MATR .        LIME                       :Rock Matrix for Neutron Porosity Corrections
FNUM .           1.00000                 :Form Factor Numerator
FEXP .           2.00000                 :Form Factor Exponent
DFT  .        Fresh Mud                  :Drilling Fluid Type
DFPH .           9.00000                 :Drilling Fluid PH
MCSS .        Calculated                 :Mud Cake Sample Source
MFSS .        Calculated                 :Mud Filtrate Sample Source
MSS  .        Circulation Tank           :Mud Sample Source
OS1  .        TLD-APS-HNGS               :Other Services Line 1
OS2  .        HRLA-HNGS                  :Other Services Line 2
OS3  .        FMI-GR                     :Other Services Line 3
OS4  .        DSI-GR                     :Other Services Line 4
OS5  .        HNGS                       :Other Services Line 5
R1   .        -Tool ran as per tool sketch. :Remark Line 1
R2   .        -Hole size & standoff corrections applied to APS porosity. :Remark Line 2
R3   .        -Log performed on a limestone matrix (MDEN = 2.71 g/cc  DTM = 47.6 us/ft) :Remark Line 3
R4   .        -Hole & cement volumes computed using FCD = 7 . :Remark Line 4
R5   .        -Source of max. hole temperature is CTEM = 185 DegF. :Remark Line 5
R6   .        -Source of max. hole deviation is company man = 3 Deg. :Remark Line 6
R7   .        -Repeat performed off bottom for 300' as per client request. :Remark Line 7
R8   .        -Density measurment is affected by washouts. :Remark Line 8
TCS  .        9 00                       :Time Circulation Stopped
TLAB .        22 15                      :Time Logger At Bottom
EPD  .F         4283.000000              :Elevation of Permanent Datum above Mean Sea Level
APD  .F          40.000000               :Elevation of Depth Reference (LMF) above Permanent Datum
#-----------------------------------------------------------------------------
~CURVE INFORMATION
#MNEM.UNIT   API CODE                                  DESCRIPTION
#---- -----  --------                                  -----------------------
DEPT .F                                                :DEPTH (BOREHOLE) {F12.4}
C1   .IN                                               :Caliper 1 {F11.4}
C2   .IN                                               :Caliper 2 {F11.4}
CHRP .                                                 :Label Peak Coherence, Receiver Array, Compressional - Monopole P&S {F11.4}
CHR1 .                                                 :Label Peak Coherence, Receiver Array - Lower Dipole {F11.4}
CHR2 .                                                 :Label Peak Coherence, Receiver Array - Upper Dipole {F11.4}
DCAL .IN                                               :Differential Caliper {F11.4}
DEVI .DEG                                              :Hole Deviation {F11.4}
DT1R .US/F                                             :Delta-T Shear, Receiver Array - Lower Dipole {F11.4}
DT2  .US/F                                             :Delta-T Shear - Upper Dipole {F11.4}
DT2R .US/F                                             :Delta-T Shear, Receiver Array - Upper Dipole {F11.4}
DT4P .US/F                                             :Delta-T Compressional - Monopole P&S {F11.4}
DT4S .US/F                                             :Delta-T Shear - Monopole P&S {F11.4}
DTCO .US/F                                             :Delta-T Compressional {F11.4}
DTRP .US/F                                             :Delta-T Compressional, Receiver Array - Monopole P&S {F11.4}
DTRS .US/F                                             :Delta-T Shear, Receiver Array - Monopole P&S {F11.4}
DTSM .US/F                                             :Delta-T Shear {F11.4}
ED   .F                                                :East Departure {F11.4}
GR_EDTC.GAPI                                           :Gamma Ray {F11.4}
GTEM .DEGF                                             :Generalized Borehole Temperature {F11.4}
HAZI .DEG                                              :Hole Azimuth {F11.4}
ITT  .S                                                :Integrated Transit Time {F11.4}
ND   .F                                                :North Departure {F11.4}
P1AZ .DEG                                              :Pad 1 Azimuth {F11.4}
PR   .                                                 :Poisson's Ratio {F11.4}
RB   .DEG                                              :Relative Bearing {F11.4}
SDEV .DEG                                              :Sonde Deviation {F11.4}
SPHI .CFCF                                             :Sonic Porosity {F11.4}
STIT .F                                                :Stuck Tool Indicator, Total {F11.4}
TENS .LBF                                              :Cable Tension {F11.4}
#-----------------------------------------------------------------------------
# 
#      DEPT         C1         C2        CHRP       CHR1       CHR2       DCAL       DEVI       DT1R       DT2        DT2R       DT4P       DT4S       DTCO       DTRP       DTRS       DTSM        ED      GR_EDTC      GTEM       HAZI       ITT         ND        P1AZ        PR         RB        SDEV       SPHI       STIT       TENS
#
~A  
# ...
   9958.0000     9.2613     9.2631     0.6029     0.9813     0.8221     0.5122     3.8614   109.0454   120.3668   117.9723    59.4852   102.7062    59.4852    59.4852   102.7062   120.3668    27.4545   103.0791   181.5301   291.1312     0.0325   -15.2096     6.2483     0.3384    75.0846     3.8614     0.0841     0.0000  4600.0000
   9958.5000     9.2613     9.2508     0.6233     0.3957     0.9102     0.5061     3.8637   120.2827   113.8586   118.6249    54.6550   102.5535    54.6550    54.6550   102.5535   113.8586    27.4228    79.4141   181.5344   291.2254     0.0324   -15.1959     5.5181     0.3503    74.2586     3.8637     0.0499     0.0000  4503.0000
   9959.0000     9.2613     9.2508     0.5816     0.9696     0.0000     0.5061     3.8754   105.3033   119.7240   121.6330    56.2169   103.6907    56.2169    56.2169   103.6907   119.7240    27.3911    64.4673   181.5387   291.3277     0.0324   -15.1823     5.5425     0.3586    74.1804     3.8754     0.0609     0.0000  4403.0000
   9959.5000     9.2613     9.2508     0.5305     0.9549     0.0000     0.5061     3.8759   110.9950   121.7185   124.6410    56.7013   106.1217    56.7013    56.7013   106.1217   121.7185    27.3594    73.3963   181.5430   291.4007     0.0324   -15.1685     5.5431     0.3614    74.1079     3.8759     0.0644     0.0000  4421.0000
   9960.0000     9.2613     9.2508     0.3977     0.9305     0.6752     0.5061     3.8804   117.3283   123.9156   130.6572    68.7606   117.0051    68.7606    68.7606   117.0051   123.9156    27.3277    79.6365   181.5473   291.5203     0.0324   -15.1547     5.4501     0.2775    73.8947     3.8804     0.1497     0.0000  4415.0000
   9960.5000     9.2613     9.2508     0.5514     0.9245     0.0000     0.5061     3.8865   128.6673   128.2324   134.1335    72.2246   124.2778    72.2246    72.2246   124.2778   128.2324    27.2960    96.1705   181.5516   291.6279     0.0323   -15.1409     5.3047     0.2677    73.6412     3.8865     0.1741     0.0000  4504.0000
   9961.0000     9.2613     9.2508     0.5671     0.9336     0.7538     0.5061     3.8917   125.2611   134.5369   137.6098    76.9703   131.9301    76.9703    76.9703   131.9301   134.5369    27.2643   111.4485   181.5559   291.7472     0.0323   -15.1270     5.5410     0.2567    73.7585     3.8917     0.2077     0.0000  4504.0000
   9961.5000     9.2613     9.2508     0.5219     0.9636     0.9356     0.5061     3.8920   128.6608   133.9361   134.4753    81.1909   136.9484    81.1909    81.1909   136.9484   133.9361    27.2327   137.0441   181.5602   291.8093     0.0322   -15.1131     5.4500     0.2095    73.6049     3.8920     0.2376     0.0000  4395.0000
   9962.0000     9.2613     9.2508     0.5799     0.9464     0.9727     0.5061     3.8986   125.2445   134.7980   136.1644    82.0362   138.4689    82.0362    82.0362   138.4689   134.7980    27.2010   155.1777   181.5645   291.9551     0.0322   -15.0991     5.4448     0.2059    73.4535     3.8986     0.2435     0.0000  4376.0000
   9962.5000     9.3240     9.4102     0.6839     0.9148     0.6975     0.6170     3.9053   129.6114   131.2009   135.2821    73.2662   134.4152    73.2662    73.2662   134.4152   131.2009    27.1694   169.2635   181.5688   292.0224     0.0322   -15.0850     5.4714     0.2734    73.4126     3.9053     0.1815     0.0000  4222.0000
   9963.0000     9.4618     9.4715     0.6814     0.9175     0.0000     0.7166     3.9103   130.9402   129.0912   128.1008    69.4406   118.1488    69.4406    69.4406   118.1488   129.0912    27.1377   156.4135   181.5731   292.1115     0.0321   -15.0710     5.4535     0.2964    73.3053     3.9103     0.1545     0.0000  4358.0000
   9963.5000     9.5621     9.4837     0.6755     0.9271     0.9385     0.7728     3.9142   127.5131   121.3240   120.9195    67.8230   106.3640    67.8230    67.8230   106.3640   121.3240    27.1061   130.6318   181.5773   292.2035     0.0321   -15.0568     5.4962     0.2727    73.2559     3.9142     0.1430     0.0000  4761.0000
   9964.0000     9.5598     9.4715     0.8480     0.8917     0.8975     0.7655     3.9167   125.0379   120.0065   125.8301    68.3513   108.7776    68.3513    68.3513   108.7776   120.0065    27.0744    98.3016   181.5816   292.2809     0.0321   -15.0427     5.8278     0.2599    73.5104     3.9167     0.1468     0.0000  4667.0000
   9964.5000     9.2587     9.2508     0.4775     0.8233     0.7571     0.5047     3.9193   115.9706   112.8369   109.9409    63.6465   106.8014    63.6465    63.6465   106.8014   112.8369    27.0428    78.9874   181.5859   292.3763     0.0320   -15.0285     5.8608     0.2667    73.4478     3.9193     0.1135     0.0000  4626.0000
   9965.0000     9.2864     9.2508     0.8697     0.5918     0.3867     0.5186     3.9227   118.9957   113.6084   113.4723    60.8998   104.8251    60.8998    60.8998   104.8251   113.6084    27.0113    74.1628   181.5902   292.4507     0.0320   -15.0142     5.8643     0.2984    73.3767     3.9227     0.0941     0.0000  4537.0000
   9965.5000     9.3240     9.2508     0.7830     0.9122     0.4126     0.5373     3.9295   106.0350   108.3010   119.7430    59.4064   103.4602    59.4064    59.4064   103.4602   108.3010    26.9797    77.7863   181.5945   292.5346     0.0320   -15.0000     5.8770     0.2848    73.3054     3.9295     0.0835     0.0000  4445.0000
   9966.0000     9.3115     9.2508     0.7397     0.9670     0.6278     0.5311     3.9328   105.8577   112.1223   134.9785    56.1346   102.0954    56.1346    56.1346   102.0954   112.1223    26.9481    80.0752   181.5988   292.6146     0.0319   -14.9856     5.7706     0.3328    73.1184     3.9328     0.0604     0.0000  4507.0000
   9966.5000     9.3616     9.2508     0.6534     0.9462     0.8102     0.5560     3.9385   100.1596   116.9797   111.0772    55.7471    92.5463    55.7471    55.7471    92.5463   116.9797    26.9165    73.3277   181.6031   292.7160     0.0319   -14.9713     5.4239     0.3531    72.6693     3.9385     0.0576     0.0000  4479.0000
   9967.0000     9.3616     9.2753     0.8772     0.9503     0.8481     0.5684     3.9437    95.4776    98.7948   101.1169    54.2784    90.0909    54.2784    54.2784    90.0909    98.7948    26.8850    63.7925   181.6074   292.8153     0.0319   -14.9569     5.2227     0.2838    72.3684     3.9437     0.0472     0.0000  4480.0000
   9967.5000     9.3616     9.2508     0.8130     0.8739     0.8326     0.5560     3.9360   100.1563   111.9855   105.9032    53.6853    89.9435    53.6853    53.6853    89.9435   111.9855    26.8535    51.9791   181.6117   292.8576     0.0318   -14.9424     5.0586     0.3508    72.1615     3.9360     0.0430     0.0000  4536.0000
   9968.0000     9.3616     9.2508     0.7878     0.8592     0.3556     0.5560     3.9464    95.7544   104.3605   108.0103    52.4846    99.2028    52.4846    52.4846    99.2028   104.3605    26.8220    43.1406   181.6160   292.9927     0.0318   -14.9280     4.8409     0.3307    71.8079     3.9464     0.0345     0.0000  4455.0000
   9968.5000     9.3616     9.2508     0.8108     0.9652     0.6993     0.5560     3.9498    93.2699    89.0900    80.1195    53.9159   100.5577    53.9159    53.9159   100.5577    89.0900    26.7905    38.5374   181.6203   293.0339     0.0318   -14.9134     4.6262     0.2110    71.5514     3.9498     0.0447     0.0000  4474.0000
   9969.0000     9.3616     9.2508     0.8771     0.9477     0.7794     0.5560     3.9507    92.4287    97.2954    93.6918    54.5297   100.9450    54.5297    54.5297   100.9450    97.2954    26.7590    41.0006   181.6246   293.1204     0.0318   -14.8989     4.4456     0.2710    71.2837     3.9507     0.0490     0.0000  4459.0000
   9969.5000     9.3616     9.2508     0.6821     0.8189     0.7641     0.5560     3.9546    84.6712    93.8136    91.3556    55.6778   102.6091    55.6778    55.6778   102.6091    93.8136    26.7277    47.5862   181.6289   293.1792     0.0317   -14.8844     4.1906     0.2281    70.9692     3.9546     0.0571     0.0000  4439.0000
   9970.0000     9.3590     9.2508     0.8291     0.9515     0.4789     0.5548     3.9564    96.7638   127.9374   161.6950    55.2780   103.9259    55.2780    55.2780   103.9259   127.9374    26.6963    55.9663   181.6332   293.2614     0.0317   -14.8698     3.8835     0.3852    70.5793     3.9564     0.0543     0.0000  4542.0000
