###############################################
##         ENVERUS                           ##
##         ESS - Open Hole                   ##
##         PERMIAN / DELAWARE                ##
##         Nov 02 2023  V4.0                 ##
##         42-109-31448-00-00                ##
###############################################
## Copyright 2017-2023  ENVERUS.  All Rights Reserved. 
## Confidential - Property of ENVERUS, use governed by terms and 
## conditions found within the existing Information Services Subscription Agreement 
## (as may be amended, the “ISSA”) between Customer and ENVERUS. 
## 
~VERSION INFORMATION
# MNEM.UNIT                               DATA : DESCRIPTION OF MNEMONIC
#-----.-----     ----------------------------- : -----------------------------
VERS.                                     2.00 : CWLS LOG ASCII STANDARD - VERSION 2.00
WRAP.                                       NO : MULTIPLE LINES PER DEPTH STEP
VEND.                                  ENVERUS : VENDOR
TYPE.                          ESS - OPEN HOLE : ENVERUS ESSENTIAL CURVES – ACCESSIBLE THROUGH ENVERUS PRISM(TM)
DOC.                                  31981796 : ENVERUS HEADER RAW DOCUMENT ID
#___________________________________________________________________________________________________ 
~WELL INFORMATION 
# ZFHslD71edIju97HcKZ52TF5U8X6gSJhIkoGhJkY8ckYnZzQD/y6zifgDis2Hn4asra90GxYkgpqCQaJUi2DCw== 
# MNEM.UNIT                                              DATA : DESCRIPTION OF MNEMONIC 
#-----.-----                    ----------------------------- : ----------------------------- 
CNTY.                                               CULBERSON : COUNTY 
STATE.                                                  TEXAS : STATE 
CNTRY.                                                    USA : COUNTRY 
API.                                             42-109-31448 : API (10 Digit) 
API_14.                                    42-109-31448-00-00 : API (14 Digits) 
API_14_std.                                 42-109-31448-0000 : API (14 Digits Standard) 
UWI.                                           42109314480000 : UNIQUE WELL ID 
WELL.                                               TRIKEN  1 : WELL NAME
STRT.FT                                                   4.0 : START DEPTH
STOP.FT                                               13097.0 : STOP DEPTH
STEP.FT                                                   0.5 : STEP BETWEEN DEPTHS
NULL.                                                 -999.25 : NULL VALUE
COMP.                                             MARALO  LLC : COMPANY 
DATE.                                             04-NOV-1984 : LOG DATE
#___________________________________________________________________________________________________ 
~CURVE INFORMATION 
# MNEM.UNIT           : CURVE DESCRIPTION 
#-----.-----          : ----------------------------- 
 DEPT.FT               : MEASURED DEPTH 
 CALI.IN               : CALIPER (CAL - CAL) 
 GR.API                : GAMMA RAY (GR) 
 DT.US/FT              : SONIC DELTA TRANSIT TIME (DT) 
 #___________________________________________________________________________________________________ 
~A         DEPT           CALI             GR             DT
# ...
         1522.0         14.395          7.511         50.875
         1522.5         14.410          6.853         51.025
         1523.0         14.425          6.194         51.176
         1523.5         14.440          5.565         50.685
         1524.0         14.455          5.523         50.169
         1524.5         14.470          5.481         49.652
         1525.0         14.484          5.439         49.136
         1525.5         14.499          5.397         48.619
         1526.0         14.514          5.355         48.103
         1526.5         14.529          5.313         47.586
         1527.0         14.544          5.271         47.069
         1527.5         14.559          5.355         47.660
         1528.0         14.574          5.700         49.553
         1528.5         14.588          6.045         51.445
         1529.0         14.603          6.389         53.337
         1529.5         14.618          6.734         55.229
         1530.0         14.633          7.078         54.554
         1530.5         14.612         11.238         53.866
         1531.0         14.572         15.733         53.179
         1531.5         14.532         17.696         52.491
         1532.0         14.491         17.170         51.803
         1532.5         14.451         15.216         51.149
         1533.0         14.411         13.262         50.958
         1533.5         14.371         11.308         50.768
         1534.0         14.337          9.354         50.577
         1534.5         14.332          8.734         50.386
         1535.0         14.327          8.229         50.195
         1535.5         14.322          7.723         50.005
         1536.0         14.317          7.218         49.814
         1536.5         14.312          6.713         49.712
         1537.0         14.307          7.082         49.763
         1537.5         14.302          7.799         49.814
         1538.0         14.297          8.515         49.865
         1538.5         14.292          9.232         49.916
         1539.0         14.287          9.948         49.967
         1539.5         14.283          9.488         50.018
         1540.0         14.278          8.419         50.069
         1540.5         14.273          7.350         50.120
         1541.0         14.268          6.281         50.171
         1541.5         14.263          5.314         50.222
         1542.0         14.258          6.566         50.273
         1542.5         14.253          7.818         50.255
         1543.0         14.248          9.070         50.095
         1543.5         14.243         10.321         49.936
         1544.0         14.238         11.476         49.776
         1544.5         14.233         10.640         49.617
         1545.0         14.244          9.804         49.457
         1545.5         14.263          8.968         49.298
         1546.0         14.283          8.132         49.138
         1546.5         14.303          7.296         48.979
         1547.0         14.323          6.722         48.954
         1547.5         14.342          7.695         48.970
         1548.0         14.362          8.668         48.987
         1548.5         14.382          9.642         49.003
         1549.0         14.402         10.615         49.019
         1549.5         14.421         10.118         49.036
         1550.0         14.441          9.119         49.052
         1550.5         14.461          8.119         49.068
         1551.0         14.481          7.120         49.085
         1551.5         14.500          6.273         49.101
         1552.0         14.520          6.388         49.118
         1552.5         14.540          6.503         49.134
         1553.0         14.560          6.617         49.150
         1553.5         14.555          6.732         49.167
         1554.0         14.549          6.847         49.183
         1554.5         14.542          7.225         49.199
         1555.0         14.535          8.061         49.216
         1555.5         14.529          8.896         49.232
         1556.0         14.522          9.367         49.248
         1556.5         14.515          8.491         49.265
         1557.0         14.509          7.614         49.281
         1557.5         14.502          7.295         49.297
         1558.0         14.495          7.369         49.314
         1558.5         14.489          7.443         49.330
         1559.0         14.482          7.517         49.376
         1559.5         14.475          7.526         49.435
         1560.0         14.469          6.921         49.495
         1560.5         14.462          6.316         49.554
         1561.0         14.455          5.711         49.613
         1561.5         14.454          6.374         49.672
         1562.0         14.454          7.289         49.731
         1562.5         14.454          8.205         49.791
         1563.0         14.454          9.120         49.850
         1563.5         14.454         10.036         49.909
         1564.0         14.454         10.951         49.968
         1564.5         14.454         11.867         49.983
         1565.0         14.454         12.060         49.909
         1565.5         14.455         10.387         49.835
         1566.0         14.455          8.715         49.761
         1566.5         14.455          7.043         49.687
         1567.0         14.455          7.174         49.613
         1567.5         14.455          7.432         49.539
         1568.0         14.455          7.690         49.568
         1568.5         14.455          7.948         49.604
         1569.0         14.455          8.206         49.639
         1569.5         14.455          8.464         49.675
         1570.0         14.459          8.518         49.710
         1570.5         14.462          8.401         49.746
         1571.0         14.465          8.284         49.723
         1571.5         14.469          8.166         49.651
         1572.0         14.472          8.049         49.580
         1572.5         14.476          7.932         49.509
         1573.0         14.479          7.815         49.437
         1573.5         14.482          7.698         49.366
         1574.0         14.486          7.655         49.294
         1574.5         14.489          7.999         49.223
         1575.0         14.493          8.344         49.151
         1575.5         14.496          8.689         49.119
         1576.0         14.499          9.358         49.263
         1576.5         14.503         10.525         49.408
         1577.0         14.506         10.062         49.552
         1577.5         14.510          9.598         49.697
         1578.0         14.513          9.134         49.622
         1578.5         14.516          8.671         49.514
         1579.0         14.520          8.207         49.407
         1579.5         14.523          7.743         49.300
         1580.0         14.527          7.280         49.192
         1580.5         14.530          7.133         49.085
         1581.0         14.533          7.783         48.978
         1581.5         14.537          8.432         49.180
         1582.0         14.540          7.936         49.382
         1582.5         14.544          7.059         49.584
         1583.0         14.547          6.339         49.735
         1583.5         14.550          6.708         49.724
         1584.0         14.554          7.077         49.712
         1584.5         14.557          7.446         49.700
         1585.0         14.561          7.815         49.688
         1585.5         14.564          7.065         49.676
         1586.0         14.567          5.742         49.664
         1586.5         14.571          5.657         49.652
         1587.0         14.573          6.175         49.640
         1587.5         14.574          6.694         49.629
