###############################################
##         ENVERUS                           ##
##         ESS - Open Hole                   ##
##         PERMIAN / DELAWARE                ##
##         Nov 03 2023  V4.0                 ##
##         42-109-32620-90-00                ##
###############################################
## Copyright 2017-2023  ENVERUS.  All Rights Reserved. 
## Confidential - Property of ENVERUS, use governed by terms and 
## conditions found within the existing Information Services Subscription Agreement 
## (as may be amended, the “ISSA”) between Customer and ENVERUS. 
## 
~VERSION INFORMATION
# MNEM.UNIT                               DATA : DESCRIPTION OF MNEMONIC
#-----.-----     ----------------------------- : -----------------------------
VERS.                                     2.00 : CWLS LOG ASCII STANDARD - VERSION 2.00
WRAP.                                       NO : MULTIPLE LINES PER DEPTH STEP
VEND.                                  ENVERUS : VENDOR
TYPE.                          ESS - OPEN HOLE : ENVERUS ESSENTIAL CURVES – ACCESSIBLE THROUGH ENVERUS PRISM(TM)
DOC.                                  51092896 : ENVERUS HEADER RAW DOCUMENT ID
#___________________________________________________________________________________________________ 
~WELL INFORMATION 
# mS4wxE9S4ErBCd3MEwtzWWb7vaBLyBp2a6hoNdhJ+t1pinRta8/5SsS3wr5CrR4pTncMCKeAGTUU45xlgh6yRQ== 
# MNEM.UNIT                                              DATA : DESCRIPTION OF MNEMONIC 
#-----.-----                    ----------------------------- : ----------------------------- 
CNTY.                                               CULBERSON : COUNTY 
STATE.                                                  TEXAS : STATE 
CNTRY.                                                    USA : COUNTRY 
API.                                             42-109-32620 : API (10 Digit) 
API_14.                                    42-109-32620-90-00 : API (14 Digits) 
API_14_std.                                 42-109-32620-9000 : API (14 Digits Standard) 
UWI.                                           42109326209000 : UNIQUE WELL ID 
WELL.                               42109326200000_PREV_API14 : WELL NAME
STRT.FT                                                2338.5 : START DEPTH
STOP.FT                                               10866.0 : STOP DEPTH
STEP.FT                                                   0.5 : STEP BETWEEN DEPTHS
NULL.                                                 -999.25 : NULL VALUE
PREV_APII.                                     42109326200000 : WELL IDENTIFIER
#___________________________________________________________________________________________________ 
~PARAMETER INFORMATION 
# MNEM.UNIT                                              DATA : DESCRIPTION OF MNEMONIC 
#-----.-----                    ----------------------------- : ----------------------------- 
EKB.FT                                                   3330 : ELEVATION ABOVE MSL
#___________________________________________________________________________________________________ 
~CURVE INFORMATION 
# MNEM.UNIT           : CURVE DESCRIPTION 
#-----.-----          : ----------------------------- 
 DEPT.FT               : MEASURED DEPTH 
 CALI.IN               : CALIPER (CAL - CALIPER) 
 GR.API                : GAMMA RAY (GAMMA RAY) 
 DT.US/FT              : SONIC DELTA TRANSIT TIME (PRESSURE WAVE SONIC) 
 #___________________________________________________________________________________________________ 
~A         DEPT           CALI             GR             DT
# ...
         4582.5          9.286        101.705         64.876
         4583.0          9.297         97.451         65.099
         4583.5          9.338         96.607         65.623
         4584.0          9.399         97.006         65.889
         4584.5          9.535         97.380         66.077
         4585.0          9.494        103.309         66.533
         4585.5          9.493        107.670         66.541
         4586.0          9.513        107.186         66.052
         4586.5          9.555        106.757         65.174
         4587.0          9.593        101.355         64.868
         4587.5          9.593         86.416         65.940
         4588.0          9.653         84.843         67.614
         4588.5          9.693        103.222         68.875
         4589.0          9.713        112.874         69.045
         4589.5          9.733        110.774         68.345
         4590.0          9.733        101.798         67.625
         4590.5          9.753         91.737         66.901
         4591.0          9.773         89.104         67.075
         4591.5          9.792         90.533         67.382
         4592.0          9.807         96.325         67.442
         4592.5          9.832         96.308         67.382
         4593.0          9.892         87.022         66.671
         4593.5          9.912         88.336         66.532
         4594.0          9.931         93.727         66.862
         4594.5          9.952        101.493         68.071
         4595.0          9.952        101.030         68.646
         4595.5          9.974         92.816         68.526
         4596.0          9.992         87.525         68.026
         4596.5          9.992         81.911         67.671
         4597.0         10.012         78.244         67.639
         4597.5         10.012         78.759         67.483
         4598.0         10.012         84.409         67.585
         4598.5         10.012         92.329         67.644
         4599.0         10.012         86.870         67.338
         4599.5         10.012         74.548         66.994
         4600.0         10.012         71.378         66.841
         4600.5         10.012         66.068         66.500
         4601.0         10.012         69.583         66.196
         4601.5          9.972         75.309         65.892
         4602.0          9.952         77.192         65.527
         4602.5          9.952         76.871         65.336
         4603.0          9.952         74.392         65.276
         4603.5          9.952         75.040         65.335
         4604.0          9.952         80.320         65.793
         4604.5          9.912         79.363         66.245
         4605.0          9.912         76.647         66.540
         4605.5          9.912         81.605         66.527
         4606.0          9.912         84.038         66.359
         4606.5          9.912         85.094         66.378
         4607.0          9.912         85.117         66.784
         4607.5          9.912         82.190         67.468
         4608.0          9.912         79.251         67.326
         4608.5          9.912         82.731         67.628
         4609.0          9.912        102.293         67.731
         4609.5          9.852        123.484         65.592
         4610.0          9.852        129.581         64.832
         4610.5          9.855        132.102         66.129
         4611.0          9.892        143.900         67.785
         4611.5          9.892        151.147         70.626
         4612.0          9.832        143.893         70.524
         4612.5          9.793         98.462         67.899
         4613.0          9.792         87.833         66.961
         4613.5          9.792        111.397         67.442
         4614.0          9.792        127.047         67.572
         4614.5          9.812        148.294         68.493
         4615.0          9.812        142.102         68.877
         4615.5          9.812        120.369         67.865
         4616.0          9.812        110.450         67.385
         4616.5          9.812         98.875         65.687
         4617.0          9.773         87.506         64.585
         4617.5          9.753         82.163         64.313
         4618.0          9.753         86.668         64.686
         4618.5          9.773         92.144         65.896
         4619.0          9.773         93.797         66.419
         4619.5          9.773         94.581         66.479
         4620.0          9.773         92.885         66.419
         4620.5          9.773         91.018         65.659
         4621.0          9.734         89.686         64.866
         4621.5          9.713         85.834         64.374
         4622.0          9.672         84.422         64.500
         4622.5          9.653         83.812         65.755
         4623.0          9.633         84.656         66.549
         4623.5          9.633         91.792         66.720
         4624.0          9.613         95.497         66.720
         4624.5          9.586         92.826         66.571
         4625.0          9.573         88.224         66.114
         4625.5          9.573         91.721         65.791
         4626.0          9.563         92.523         65.818
         4626.5          9.533         87.906         66.795
         4627.0          9.533         87.146         67.055
         4627.5          9.533         89.473         67.277
         4628.0          9.533         94.125         67.514
         4628.5          9.513        103.347         67.428
         4629.0          9.493        103.660         67.673
         4629.5          9.493        116.273         69.375
         4630.0          9.473        134.392         72.085
         4630.5          9.433        183.061         73.488
         4631.0          9.332        203.328         73.558
         4631.5          9.212        192.244         70.607
         4632.0          9.174        179.796         70.198
         4632.5          9.174        196.600         73.496
         4633.0          9.174        230.403         75.831
         4633.5          9.214        236.015         76.070
         4634.0          9.261        219.604         74.750
         4634.5          9.274        193.889         73.306
         4635.0          9.254        191.915         73.551
         4635.5          9.214        193.677         72.623
         4636.0          9.266        197.023         72.341
         4636.5          9.333        194.151         71.916
         4637.0          9.373        180.127         70.864
         4637.5          9.393        141.107         70.132
         4638.0          9.393        128.935         68.292
         4638.5          9.451        128.144         67.086
         4639.0          9.473        131.146         64.182
         4639.5          9.473         81.139         59.898
         4640.0          9.473         60.560         57.987
         4640.5          9.473         47.233         57.498
         4641.0          9.496         49.691         59.860
         4641.5          9.533         51.055         62.529
         4642.0          9.538         50.952         63.134
         4642.5          9.573         54.087         64.250
         4643.0          9.573         56.777         64.651
         4643.5          9.593         57.198         64.373
         4644.0          9.623         57.783         64.958
         4644.5          9.633         60.382         65.596
         4645.0          9.653         63.597         65.763
         4645.5          9.653         67.960         65.056
         4646.0          9.673         72.741         65.138
         4646.5          9.688         72.746         65.262
         4647.0          9.693         72.420         66.542
         4647.5          9.713         79.692         68.825
         4648.0          9.713         90.806         69.332
