###############################################
##         ENVERUS                           ##
##         ESS - Open Hole                   ##
##         PERMIAN / DELAWARE                ##
##         Nov 03 2023  V4.0                 ##
##         42-109-33370-00-00                ##
###############################################
## Copyright 2017-2023  ENVERUS.  All Rights Reserved. 
## Confidential - Property of ENVERUS, use governed by terms and 
## conditions found within the existing Information Services Subscription Agreement 
## (as may be amended, the “ISSA”) between Customer and ENVERUS. 
## 
~VERSION INFORMATION
# MNEM.UNIT                               DATA : DESCRIPTION OF MNEMONIC
#-----.-----     ----------------------------- : -----------------------------
VERS.                                     2.00 : CWLS LOG ASCII STANDARD - VERSION 2.00
WRAP.                                       NO : MULTIPLE LINES PER DEPTH STEP
VEND.                                  ENVERUS : VENDOR
TYPE.                          ESS - OPEN HOLE : ENVERUS ESSENTIAL CURVES – ACCESSIBLE THROUGH ENVERUS PRISM(TM)
DOC.                                  52814434 : ENVERUS HEADER RAW DOCUMENT ID
#___________________________________________________________________________________________________ 
~WELL INFORMATION 
# 4wk/Fx8UuugU+iebl2dHJIcndKaYvWbTE+/Vf37HP7rynMiEVi3nAb6NYbehQO/VbM9PVY38flJCaeNisGRn4g== 
# MNEM.UNIT                                              DATA : DESCRIPTION OF MNEMONIC 
#-----.-----                    ----------------------------- : ----------------------------- 
CNTY.                                               CULBERSON : COUNTY 
STATE.                                                  TEXAS : STATE 
CNTRY.                                                    USA : COUNTRY 
API.                                             42-109-33370 : API (10 Digit) 
API_14.                                    42-109-33370-00-00 : API (14 Digits) 
API_14_std.                                 42-109-33370-0000 : API (14 Digits Standard) 
UWI.                                           42109333700000 : UNIQUE WELL ID 
WELL.                                       ROXANNE FEE 46 3H : WELL NAME
STRT.FT                                                8800.0 : START DEPTH
STOP.FT                                               14157.0 : STOP DEPTH
STEP.FT                                                   0.5 : STEP BETWEEN DEPTHS
NULL.                                                 -999.25 : NULL VALUE
LOC.                                        API  42-109-33370 : LOCATION 
FL1.                                        API  42-109-33370 : LOCATIONLINE1 
DMF.                                                       KB : DRILL MEAS FROM 
PDAT.                                                      GL : PERMANENT DATUM 
FLD.                                    FORD, WEST (WOLFCAMP) : FIELD NAME 
COMP.                                          CAPITAN ENERGY : COMPANY 
DATE.                                             29-APR-2019 : DATE 
SVCO.                                             HALLIBURTON : SERVICECONAME 
PROV.                                                   TEXAS : PROVINCE 
BASI.                                                 PERMIAN : BASIN 
RANG.                                                     N/A : RANGE 
TOWN.                                                     N/A : TOWNSHIP 
SECT.                                                     N/A : SECTION 
SON.                                                905631605 : JOB NUMBER 
SRVC.                                             HALLIBURTON : SERVICE COMPANY 
LMF.                                                       KB : LOG MEASURED FROM 
BAP.FT                                                 0.0000 : GL ELEV ONSHORE 
GVFD.G                                                 1.0000 : GRAVITY FIELD
#___________________________________________________________________________________________________ 
~CURVE INFORMATION 
# MNEM.UNIT           : CURVE DESCRIPTION 
#-----.-----          : ----------------------------- 
 DEPT.FT               : MEASURED DEPTH 
 GR.API                : GAMMA RAY (GR_CHI - GR_CHI) 
 GR__01.API            : GAMMA RAY (GR_OH - GR_OH) 
 DT.US/FT              : SONIC DELTA TRANSIT TIME (DTC_CHI - DTC_CHI) 
 DT__01.US/FT          : SONIC DELTA TRANSIT TIME (DTC_OH - DTC_OH) 
 PE.B/E                : PHOTOELECTRIC EFFECT/FACTOR (PE_CHI - PE_CHI) 
 PE__01.B/E            : PHOTOELECTRIC EFFECT/FACTOR (PE_OH - PE_OH) 
 RESS_10.OHMM          : 10 INCH SHALLOW INDUCTION RESISTIVITY (RT10_CHI - RT10_CHI) 
 RESS_10__01.OHMM      : 10 INCH SHALLOW INDUCTION RESISTIVITY (RT10_OH - RT10_OH) 
 RESM_30.OHMM          : 30 INCH MEDIUM INDUCTION RESISTIVITY (RT30_CHI - RT30_CHI) 
 RESM_30__01.OHMM      : 30 INCH MEDIUM INDUCTION RESISTIVITY (RT30_OH - RT30_OH) 
 RESD_90.OHMM          : 90 INCH DEEP INDUCTION RESISTIVITY (RT90_CHI - RT90_CHI) 
 RESD_90__01.OHMM      : 90 INCH DEEP INDUCTION RESISTIVITY (RT90_OH - RT90_OH) 
 NPHI.V/V              : NEUTRON POROSITY (NPHI_CHI - NPHI_CHI) 
 NPHI__01.V/V          : NEUTRON POROSITY (NPHI_OH - NPHI_OH) 
 SPHI.V/V              : SONIC POROSITY (SPHI_CHI - SPHI_CHI) 
 RHOB.G/CC             : BULK DENSITY (RHOB_CHI - RHOB_CHI) 
 RHOB__01.G/CC         : BULK DENSITY (RHOB_OH - RHOB_OH) 
 #___________________________________________________________________________________________________ 
~A         DEPT             GR         GR__01             DT         DT__01             PE         PE__01        RESS_10    RESS_10__01        RESM_30    RESM_30__01        RESD_90    RESD_90__01           NPHI       NPHI__01           SPHI           RHOB       RHOB__01
         8800.0         52.745         49.273         65.553         60.396         4.5513         4.1967         57.816         58.783         59.722         61.675         63.534         67.902        0.09230        0.04500        0.12930         2.6487         2.6308
         8800.5         58.472         50.701         65.686         60.762         4.0720         4.1435         54.575         55.426         56.374         56.803         59.972         61.905        0.07780        0.04850        0.13140         2.6323         2.6319
         8801.0         62.086         55.842         66.421         61.882         3.7846         3.9871         49.614         52.128         51.249         51.834         54.521         55.710        0.07690        0.05610        0.13550         2.6212         2.6270
         8801.5         65.920         62.945         67.435         63.218         3.5581         3.8190         43.691         50.136         45.131         48.334         48.012         51.115        0.08170        0.07050        0.14080         2.6113         2.6208
         8802.0         70.802         69.895         68.455         64.912         3.3803         3.7387         37.950         49.531         39.201         46.659         41.703         48.590        0.08900        0.08330        0.14620         2.6025         2.6177
         8802.5         75.844         76.093         69.265         66.674         3.2598         3.7309         33.287         49.492         34.384         46.466         36.579         47.677        0.09610        0.08960        0.15090         2.5956         2.6138
         8803.0         79.365         80.712         69.700         67.759         3.2037         3.7431         30.472         50.028         31.477         48.176         33.486         48.828        0.10110        0.09160        0.15400         2.5920         2.6067
         8803.5         81.866         81.667         69.842         68.161         3.1932         3.7709         29.652         52.673         30.630         50.835         32.585         50.992        0.10310        0.09100        0.15530         2.5903         2.6009
         8804.0         83.388         77.444         69.707         68.092         3.2097         3.8413         30.357         55.993         31.358         53.234         33.360         52.933        0.10140        0.08640        0.15500         2.5900         2.6005
         8804.5         83.883         70.639         69.368         67.717         3.2314         3.9403         31.545         58.122         32.585         53.699         34.665         53.015        0.09750        0.07930        0.15380         2.5907         2.6059
         8805.0         82.697         65.236         68.998         66.992         3.2440         4.0037         32.098         57.605         33.156         51.559         35.272         50.647        0.09350        0.07520        0.15250         2.5921         2.6146
         8805.5         80.590         63.971         68.849         66.308         3.2308         3.9377         31.333         54.218         32.366         47.400         34.432         46.435        0.09170        0.07400        0.15210         2.5931         2.6216
         8806.0         77.778         67.673         69.014         66.389         3.2007         3.7215         29.439         49.756         30.409         43.143         32.350         42.220        0.09270        0.07790        0.15280         2.5936         2.6212
         8806.5         76.186         74.922         69.384         67.382         3.1666         3.4758         27.104         46.561         27.998         40.715         29.785         39.830        0.09620        0.08690        0.15460         2.5930         2.6117
         8807.0         76.353         82.954         69.814         68.840         3.1388         3.3150         25.070         45.356         25.896         40.672         27.549         39.789        0.10060        0.09860        0.15670         2.5915         2.5966
         8807.5         77.998         88.016         70.173         69.960         3.1271         3.2539         23.822         45.035         24.607         41.803         26.178         40.929        0.10490        0.10430        0.15840         2.5899         2.5848
         8808.0         80.265         87.143         70.356         70.441         3.1249         3.3105         23.463         45.278         24.236         43.363         25.783         42.537        0.10750        0.10380        0.15940         2.5885         2.5890
         8808.5         79.472         81.761         70.330         70.338         3.1434         3.5004         23.921         43.992         24.710         42.835         26.287         42.202        0.10720        0.09850        0.15920         2.5894         2.6076
         8809.0         73.385         77.920         70.032         69.464         3.1844         3.6919         24.999         39.388         25.823         38.531         27.471         38.256        0.10340        0.09260        0.15780         2.5939         2.6230
         8809.5         67.467         79.181         69.672         68.045         3.2311         3.7171         26.559         35.314         27.434         34.245         29.185         34.352        0.09940        0.09200        0.15550         2.5986         2.6285
         8810.0         65.180         82.172         69.342         66.646         3.2861         3.6270         28.673         35.208         29.618         33.201         31.508         33.766        0.09720        0.09150        0.15240         2.6020         2.6300
         8810.5         65.094         81.149         68.905         65.570         3.3672         3.6080         31.581         39.960         32.622         36.466         34.704         37.727        0.09540        0.08480        0.14810         2.6053         2.6322
         8811.0         64.955         73.270         68.055         64.615         3.5024         3.7604         35.599         45.995         36.772         42.181         39.119         44.475        0.09140        0.07450        0.14190         2.6111         2.6383
         8811.5         63.518         60.974         66.747         63.555         3.7055         4.0450         40.925         52.581         42.274         49.704         44.972         53.426        0.08410        0.06490        0.13370         2.6202         2.6478
         8812.0         61.037         50.203         65.142         62.316         3.9544         4.3547         47.424         60.923         48.988         59.852         52.115         65.529        0.07430        0.05610        0.12450         2.6314         2.6557
         8812.5         57.410         43.362         63.564         61.015         4.2109         4.6164         54.665         70.035         56.467         71.586         60.072         79.560        0.06410        0.04850        0.11570         2.6429         2.6616
         8813.0         52.708         38.901         62.453         59.687         4.3757         4.8187         61.733         79.217         63.769         83.818         67.839         94.357        0.05520        0.04420        0.10910         2.6511         2.6683
         8813.5         48.420         36.476         61.947         58.591         4.4512         4.9641         68.049         86.414         70.292         93.932         74.779        106.933        0.04920        0.04020        0.10540         2.6552         2.6746
         8814.0         45.691         37.260         61.957         58.114         4.4329         5.0277         72.557         90.938         74.949        100.581         79.733        115.573        0.04600        0.03840        0.10480         2.6549         2.6747
         8814.5         44.907         40.799         62.437         58.367         4.3343         5.0174         74.319         95.286         76.769        106.301         81.669        123.006        0.04610        0.03960        0.10680         2.6508         2.6676
