~VERSION INFORMATION
VERS. 2.0 : CWLS Log ASCII Standard - Version 2.0
WRAP. NO : One line per depth step
#--------------------------------------------------#
#----------------DRILLING INFO, INC.---------------#
#---------------WWW.DRILLINGINFO.COM---------------#
#------------------COPYRIGHT 2015------------------#
#--------------------------------------------------#
#THIS FILE MAY BE USED ONLY IN ACCORDANCE WITH A CURRENT SUBSCRIPTION AGREEMENT BETWEEN
#THE USER AND DRILLING INFO, INC. NO PART OF THIS FILE MAY BE REPRODUCED, USED, COPIED,
#MODIFIED, PROPAGATED, OR DISTRIBUTED EXCEPT IN ACCORDANCE WITH THE SUBSCRIPTION
#AGREEMENT. UNAUTHORIZED USE OR DISTRIBUTION OF ALL OR ANY PART OF THIS FILE MAY VIOLATE
#COPYRIGHT, TRADEMARK, AND/OR OTHER LAWS AND IS SUBJECT TO CIVIL AS WELL AS CRIMINAL
#SANCTIONS.
#--------------------------------------------------#
#THIS FILE IS PROVIDED "AS-IS" AND ALL WARRANTIES ARE EXPRESSLY DISCLAIMED, WHETHER
#EXPRESS, ORAL, IMPLIED, STATUTORY OR OTHERWISE, INCLUDING ANY IMPLIED WARRANTY OF FITNESS
#FOR A PARTICULAR PURPOSE, MERCHANTABILITY, TITLE OR NON-INFRINGEMENT, AND ANY WARRANTIES
#ARISING BY VIRTUE OF CUSTOM OF TRADE OR COURSE OF DEALING.  FURTHER, DRILLING INFO,
#INC. AND ITS LICENSORS DO NOT REPRESENT OR WARRANT THAT THIS FILE WILL MEET USER'S
#REQUIREMENTS OR ARE SUITABLE FOR USER'S NEEDS OR THAT THE DATA OR RESULTS PROVIDED IN
#CONJUNCTION THEREWITH ARE CORRECT, ACCURATE, TIMELY OR RELIABLE. THESE DISCLAIMERS SHALL
#APPLY REGARDLESS OF ANY FAILURE OF ESSENTIAL PURPOSE OF ANY LIMITED REMEDY.  SOME
#JURISDICTIONS DO NOT ALLOW THE EXCLUSION OF CERTAIN WARRANTIES SO SOME OF THE ABOVE
#EXCLUSIONS MAY NOT APPLY. IN NO EVENT SHALL DRILLING INFO, INC. OR ANY OF ITS AFFILIATES
#BE LIABLE UNDER ANY LEGAL THEORY, WHETHER IN TORT (INCLUDING WITHOUT LIMITATION
#NEGLIGENCE), CONTRACT, STRICT LIABILITY, STATUTORY OR OTHERWISE, FOR ANY SPECIAL,
#INCIDENTAL, CONSEQUENTIAL, EXEMPLARY, PUNITIVE OR INDIRECT DAMAGE OF ANY KIND, INCLUDING
#WITHOUT LIMITATION LOSS OF REVENUE, PROFITS, GOODWILL, USE, AND/OR DATA OR THE COST OF
#PROCUREMENT OF SUBSTITUTE GOODS OR SERVICES, EVEN IF APPRISED OF THE POSSIBILITY OF SUCH
#DAMAGES IN ADVANCE.
#--------------------------------------------------#
~WELL INFORMATION
#MNEMONIC     .UNIT              VALUE :DESCRIPTION
#--------------------------------------------------#
STRT       .ft                51.00000 :START DEPTH
STOP       .ft                9476.00000 :STOP DEPTH
STEP       .ft                0.50000 :STEP
NULL       .                -999.25000 :NULL VALUE
COMP       .                 :COMPANY
WELL       .                 :WELL
FLD       .                 :FIELD
LOC       .                 :LOCATION
CNTY       .                 :COUNTY
STAT       .                 :STATE
CTRY       .                 :COUNTRY
SRVC       .                 :SERVICE COMPANY
DATE       .                 :DATE
API       .                42109100520000 :API NUMBER
~CURVE INFORMATION
#MNEMONIC     .UNIT      API CODE :CURVE DESCRIPTION
#--------------------------------------------------#
DEPTH       .ft                      :Measured Depth
CAL       .in        UNKNOWN   :CAL
DT       .us/ft        UNKNOWN   :DT
GR       .gAPI        UNKNOWN   :GR
~A    DEPTH    CAL    DT    GR
# ...
4483.50000    8.96486    60.99744    57.84068
4484.00000    8.96406    61.61980    55.85079
4484.50000    8.96325    62.24217    60.70976
4485.00000    8.96245    62.86454    65.56874
4485.50000    8.96164    63.28195    70.42771
4486.00000    8.96084    63.49547    72.38472
4486.50000    8.96003    63.70900    71.62734
4487.00000    8.95923    63.92252    70.86996
4487.50000    8.95842    63.91807    70.11258
4488.00000    8.95762    63.74303    69.35520
4488.50000    8.95681    63.56799    68.59782
4489.00000    8.95601    63.17826    67.44772
4489.50000    8.95520    62.40859    65.61589
4490.00000    8.95440    61.63892    63.78405
4490.50000    8.95359    60.96000    61.95222
4491.00000    8.95279    61.26613    60.12038
4491.50000    8.95199    61.57226    60.97955
4492.00000    8.95118    61.87839    63.19739
4492.50000    8.95037    62.18452    65.41524
4493.00000    8.94957    62.49065    67.63308
4493.50000    8.94876    62.57046    69.85092
4494.00000    8.94796    62.49246    68.17885
4494.50000    8.94716    62.23980    65.77675
4495.00000    8.94695    61.27822    63.33886
4495.50000    8.95110    60.31664    59.83696
4496.00000    8.95525    59.35506    56.33506
4496.50000    8.95940    58.39347    52.83316
4497.00000    8.96355    57.57682    49.03056
4497.50000    8.96769    57.20998    44.56383
4498.00000    8.97184    56.84314    40.09711
4498.50000    8.97599    56.47630    35.63038
4499.00000    8.98014    56.10946    32.78974
4499.50000    8.98429    54.24323    30.97406
4500.00000    8.98844    52.06196    29.15838
4500.50000    8.99258    52.06209    27.34269
4501.00000    8.99673    52.06220    25.84492
4501.50000    9.00088    52.06233    24.85922
4502.00000    9.00503    52.06245    23.87352
4502.50000    9.00918    52.06257    23.03661
4503.00000    9.01332    51.81167    24.00800
4503.50000    9.01747    51.53269    25.89997
4504.00000    9.02162    51.25370    28.30752
4504.50000    9.02577    50.97472    30.71507
4505.00000    9.02992    54.98438    35.56029
4505.50000    9.03407    59.56245    47.31761
4506.00000    9.03821    64.14052    59.64184
4506.50000    9.04108    67.82302    74.18752
4507.00000    9.02947    70.66526    88.73319
4507.50000    9.01787    73.50751    103.27886
4508.00000    9.00627    74.14463    117.82453
4508.50000    8.99467    73.62636    132.37021
4509.00000    8.98307    73.10808    109.68419
4509.50000    8.97147    72.58981    105.25806
4510.00000    8.95987    72.07153    108.42126
4510.50000    8.94827    73.61320    114.96375
4511.00000    8.93666    72.04106    129.48291
4511.50000    8.92506    70.46891    139.05958
4512.00000    8.82275    68.89677    128.72927
4512.50000    8.63277    67.32462    118.39896
4513.00000    8.44279    65.75248    84.72061
4513.50000    8.25280    64.36861    85.87573
4514.00000    8.06282    64.16460    84.64182
4514.50000    7.87284    63.96059    81.81382
4515.00000    7.69403    63.75657    76.44557
4515.50000    7.51532    63.70665    71.63144
4516.00000    7.50670    63.66766    72.52191
4516.50000    7.64485    63.62866    73.41237
4517.00000    7.78301    63.58966    73.67546
4517.50000    7.92117    63.55066    71.69197
4518.00000    8.03537    63.51167    69.70849
4518.50000    7.98996    63.47267    66.17760
4519.00000    7.94454    62.70305    62.41914
4519.50000    7.89913    61.71844    57.91512
4520.00000    7.85372    60.73383    47.87678
4520.50000    7.80830    59.74922    47.03977
4521.00000    7.76289    58.76461    46.20276
4521.50000    7.71748    57.78000    45.36574
4522.00000    7.68441    56.87210    44.52873
4522.50000    7.81980    55.96532    44.34858
4523.00000    7.95518    55.05855    44.88931
4523.50000    8.09057    54.83485    45.43004
4524.00000    8.20632    54.91926    45.97076
4524.50000    8.27435    55.00367    44.08416
4525.00000    8.34238    55.08808    43.37042
4525.50000    8.41802    55.17249    46.78618
4526.00000    8.49573    55.64139    50.20195
4526.50000    8.66385    58.35350    57.17061
4527.00000    8.84121    61.06560    71.03699
4527.50000    9.01857    63.77771    84.90337
4528.00000    9.06696    66.48981    94.73910
4528.50000    9.07222    65.59948    88.76710
4529.00000    9.07747    64.02457    80.94870
4529.50000    9.08273    62.44966    70.01591
4530.00000    9.08798    60.87475    59.08311
4530.50000    9.09324    59.29983    51.81748
4531.00000    9.09849    57.72492    54.69701
4531.50000    9.10375    60.17092    57.57654
4532.00000    9.10901    63.02040    60.45607
4532.50000    9.11426    65.86989    63.33561
4533.00000    9.11952    68.71937    77.18767
4533.50000    9.12477    71.56885    91.32156
4534.00000    9.13003    74.41833    103.63592
4534.50000    9.13484    75.43858    115.95027
4535.00000    9.13085    74.49549    128.26462
4535.50000    9.12685    73.55448    122.99132
4536.00000    9.12286    72.95747    107.21766
4536.50000    9.11886    72.36046    100.71471
4537.00000    9.11487    71.76345    94.21175
4537.50000    9.11088    71.16644    89.16527
4538.00000    9.10688    68.97349    89.06632
4538.50000    9.10289    67.51090    88.96737
4539.00000    9.09890    69.60528    92.85626
4539.50000    9.09490    71.69966    97.44316
4540.00000    9.09091    73.79404    102.03006
4540.50000    9.08691    75.88842    110.23914
4541.00000    9.08292    77.98280    118.80550
4541.50000    9.07892    80.07718    127.37186
4542.00000    9.07493    78.87345    135.93823
4542.50000    9.07094    75.35643    141.34626
4543.00000    9.06694    71.83941    141.50787
4543.50000    9.06295    68.32240    113.24661
4544.00000    9.05896    68.62333    85.97155
4544.50000    9.05496    69.37009    67.37961
4545.00000    9.05097    70.11685    80.08425
4545.50000    9.04697    70.86362    92.78890
4546.00000    9.04298    71.23739    105.44048
4546.50000    9.03899    70.57901    100.90505
4547.00000    9.03499    69.92063    96.36962
4547.50000    9.03100    69.26584    91.83419
4548.00000    9.02701    70.24322    97.54438
4548.50000    9.02301    71.22059    122.27093
4549.00000    9.01902    72.19797    134.75861
4549.50000    9.01502    73.17535    134.75762
4550.00000    9.01103    72.43305    128.05173
4550.50000    9.01476    69.24882    116.94487
4551.00000    9.01903    68.42506    105.40827
4551.50000    9.02330    69.09726    87.64661
4552.00000    9.02756    67.70864    75.93882
4552.50000    9.03183    66.32002    77.55155
4553.00000    9.03610    64.93139    79.16428
4553.50000    9.04037    66.55279    82.35406
4554.00000    9.04464    69.52846    87.63998
4554.50000    9.04891    72.50413    92.92591
4555.00000    9.05318    75.47980    101.14194
4555.50000    9.05745    78.45547    109.46293
4556.00000    9.06172    81.41171    117.78393
4556.50000    9.06599    81.41186    126.10493
4557.00000    9.07026    81.41200    134.42593
4557.50000    9.07453    81.41214    142.74692
4558.00000    9.07880    81.30489    140.01146
4558.50000    9.08279    78.59885    136.41377
4559.00000    9.08477    79.26293    132.81608
4559.50000    9.08675    79.92701    129.21838
4560.00000    9.08873    80.49006    125.62069
4560.50000    9.09072    77.62563    120.64582
4561.00000    9.09270    74.84186    115.36490
4561.50000    9.09468    72.32102    110.08399
4562.00000    9.09666    69.80018    101.85105
4562.50000    9.09864    67.27934    91.66670
4563.00000    9.10062    64.75851    82.29102
4563.50000    9.10261    62.23767    73.09258
4564.00000    9.10459    62.74149    63.89415
4564.50000    9.10657    63.45515    63.99271
4565.00000    9.10855    64.16880    68.38461
4565.50000    9.11053    64.88245    72.54947
4566.00000    9.11251    65.59611    76.62810
4566.50000    9.11449    66.30976    80.70673
4567.00000    9.11648    67.02341    83.28900
4567.50000    9.11846    67.53372    82.43818
4568.00000    9.12044    67.27785    81.58736
4568.50000    9.12242    67.02199    80.73654
4569.00000    9.12440    66.76612    79.88572
4569.50000    9.12638    66.54198    78.99909
