###############################################
##         ENVERUS                           ##
##         ESS - Open Hole                   ##
##         PERMIAN / DELAWARE                ##
##         Nov 03 2023  V4.0                 ##
##         42-109-33144-00-00                ##
###############################################
## Copyright 2017-2023  ENVERUS.  All Rights Reserved. 
## Confidential - Property of ENVERUS, use governed by terms and 
## conditions found within the existing Information Services Subscription Agreement 
## (as may be amended, the “ISSA”) between Customer and ENVERUS. 
## 
~VERSION INFORMATION
# MNEM.UNIT                               DATA : DESCRIPTION OF MNEMONIC
#-----.-----     ----------------------------- : -----------------------------
VERS.                                     2.00 : CWLS LOG ASCII STANDARD - VERSION 2.00
WRAP.                                       NO : MULTIPLE LINES PER DEPTH STEP
VEND.                                  ENVERUS : VENDOR
TYPE.                          ESS - OPEN HOLE : ENVERUS ESSENTIAL CURVES – ACCESSIBLE THROUGH ENVERUS PRISM(TM)
DOC.                                  44408038 : ENVERUS HEADER RAW DOCUMENT ID
#___________________________________________________________________________________________________ 
~WELL INFORMATION 
# jhvnPe+1QU9E4rmF00QVhgJB4IQXrbTj+4JQBaOQ+xeerJB1ro+a2ny8/YeKPBUHGPa8yPZn1kHe7+9ZkyRs1A== 
# MNEM.UNIT                                              DATA : DESCRIPTION OF MNEMONIC 
#-----.-----                    ----------------------------- : ----------------------------- 
CNTY.                                               CULBERSON : COUNTY 
STATE.                                                  TEXAS : STATE 
CNTRY.                                                    USA : COUNTRY 
API.                                             42-109-33144 : API (10 Digit) 
API_14.                                    42-109-33144-00-00 : API (14 Digits) 
API_14_std.                                 42-109-33144-0000 : API (14 Digits Standard) 
UWI.                                           42109331440000 : UNIQUE WELL ID 
WELL.                                        PAT FEE 4 NO. 3H : WELL NAME
STRT.FT                                                8880.0 : START DEPTH
STOP.FT                                               14320.0 : STOP DEPTH
STEP.FT                                                   0.5 : STEP BETWEEN DEPTHS
NULL.                                                 -999.25 : NULL VALUE
LOC.                                     API  42-109-33144LAT : LOCATION 
FL1.                                     API  42-109-33144LAT : LOCATIONLINE1 
DMF.                                                       KB : DRILL MEAS FROM 
PDAT.                                                      GL : PERMANENT DATUM 
FLD.                                    FORD, WEST (WOLFCAMP) : FIELD NAME 
COMP.                            CAPITAN ENERGY, INCORPORATED : COMPANY 
DATE.                                             21-SEP-2017 : DATE 
SVCO.                                             HALLIBURTON : SERVICECONAME 
PROV.                                                   TEXAS : PROVINCE 
BASI.                                                 PERMIAN : BASIN 
RANG.                                                     N/A : RANGE 
TOWN.                                                     N/A : TOWNSHIP 
SECT.                                                     N/A : SECTION 
SON.                                                      N/A : JOB NUMBER 
SRVC.                                             HALLIBURTON : SERVICE COMPANY 
LMF.                                                       KB : LOG MEASURED FROM 
EGL.FT                                              3093.0000 : GROUND ELEVATION 
BAP.FT                                                 0.0000 : GL ELEV ONSHORE 
GVFD.G                                                 1.0000 : GRAVITY FIELD 
EKB.FT                                              3114.0000 : KB ELEVATION 
EDF.FT                                              3113.0000 : DF ELEVATION
#___________________________________________________________________________________________________ 
~CURVE INFORMATION 
# MNEM.UNIT           : CURVE DESCRIPTION 
#-----.-----          : ----------------------------- 
 DEPT.FT               : MEASURED DEPTH 
 GR.API                : GAMMA RAY (GR_CHI - GR_CHI) 
 GR__01.API            : GAMMA RAY (GR_OH - GR_OH) 
 DT.US/FT              : SONIC DELTA TRANSIT TIME (DTC_CHI - DTC_CHI) 
 DT__01.US/FT          : SONIC DELTA TRANSIT TIME (DTC_OH - DTC_OH) 
 PE.B/E                : PHOTOELECTRIC EFFECT/FACTOR (PE_CHI - PE_CHI) 
 PE__01.B/E            : PHOTOELECTRIC EFFECT/FACTOR (PE_OH - PE_OH) 
 RESS_LL.OHMM          : SHALLOW LATEROLOG (LLS_CHI - LLS_CHI) 
 RESS_LL__01.OHMM      : SHALLOW LATEROLOG (LLS_OH - LLS_OH) 
 RESD_LL.OHMM          : DEEP LATEROLOG (LLD_CHI - LLD_CHI) 
 RESD_LL__01.OHMM      : DEEP LATEROLOG (LLD_OH - LLD_OH) 
 NPHI.V/V              : NEUTRON POROSITY (NPHI_CHI - NPHI_CHI) 
 NPHI__01.V/V          : NEUTRON POROSITY (NPHI_OH - NPHI_OH) 
 SPHI.V/V              : SONIC POROSITY (SPHI_CHI - SPHI_CHI) 
 RHOB.G/CC             : BULK DENSITY (RHOB_CHI - RHOB_CHI) 
 RHOB__01.G/CC         : BULK DENSITY (RHOB_OH - RHOB_OH) 
 #___________________________________________________________________________________________________ 
~A         DEPT             GR         GR__01             DT         DT__01             PE         PE__01        RESS_LL    RESS_LL__01        RESD_LL    RESD_LL__01           NPHI       NPHI__01           SPHI           RHOB       RHOB__01
# ...
         9237.0        106.600         91.870         70.339         69.352         2.7609         2.7392        10.4849         6.1084        12.6174         7.7688        0.12578        0.14790        0.16080         2.5514         2.5624
         9237.5         73.860         91.069         68.464         69.189         2.7258         2.7553        10.6766         6.0031        13.0435         7.6011        0.11806        0.14460        0.14760         2.5652         2.5697
         9238.0         68.390         81.359         67.406         68.861         2.7294         2.6989        12.3664         5.7814        15.0997         7.4290        0.11197        0.13290        0.14010         2.5706         2.5705
         9238.5         70.435         69.692         66.898         68.861         2.7656         2.5975        14.2949         5.7186        17.4046         7.4466        0.10898        0.12640        0.13650         2.5721         2.5627
         9239.0         65.605         64.198         66.291         67.383         2.7865         2.5277        16.1493         6.3018        19.6824         8.2149        0.10563        0.11850        0.13220         2.5760         2.5585
         9239.5         61.448         60.883         65.632         67.827         2.7781         2.5882        17.6397         7.6966        21.4659         9.9928        0.10108        0.11070        0.12750         2.5813         2.5640
         9240.0         60.748         57.607         65.327         67.518         2.7811         2.7646        18.5239         9.6230        22.5165        12.3350        0.09874        0.11120        0.12540         2.5835         2.5701
         9240.5         57.450         57.607         65.062         66.600         2.7718         2.7646        18.9129         9.6230        23.0209        12.3350        0.09664        0.11120        0.12350         2.5856         2.5701
         9241.0         62.340         55.109         65.435         66.392         2.7918         2.8817        18.0815        12.1678        22.0033        14.8873        0.09904        0.10690        0.12610         2.5817         2.5701
         9241.5         65.611         55.787         65.831         66.693         2.7986         2.8761        17.1980        11.6441        20.9319        14.6697        0.10180        0.10440        0.12890         2.5784         2.5665
         9242.0         59.906         58.018         65.593         67.140         2.7598         2.7919        17.1255        11.1081        20.8552        14.3838        0.10043        0.10310        0.12730         2.5820         2.5572
         9242.5         60.572         58.034         65.708         67.140         2.7442         2.6742        16.7476        10.5215        20.3507        13.2020        0.10132        0.10300        0.12810         2.5822         2.5506
         9243.0         72.440         61.018         66.281         67.615         2.7429         2.6203        15.4641         9.8394        18.6480        12.6200        0.10371        0.10090        0.13210         2.5778         2.5486
         9243.5         83.880         67.098         66.964         68.706         2.7643         2.6021        15.1049        11.2004        18.1048        14.2460        0.10757        0.10230        0.13690         2.5718         2.5438
         9244.0         78.748         68.907         66.860         68.069         2.7669         2.5590        15.2793        12.7117        18.3902        16.2485        0.10794        0.10230        0.13620         2.5727         2.5497
         9244.5         66.976         68.907         66.275         68.066         2.7478         2.5590        15.7553        12.7117        19.0795        16.2485        0.10510        0.10230        0.13210         2.5783         2.5497
         9245.0         70.570         65.600         66.497         68.736         2.7474         2.5676        15.2551        13.6584        18.4415        16.0010        0.10612        0.10790        0.13360         2.5764         2.5630
         9245.5         63.005         64.616         66.387         69.287         2.7198         2.6181        14.3124        13.7360        17.4144        15.2904        0.10539        0.09850        0.13290         2.5778         2.5570
         9246.0         81.449         72.394         67.618         69.287         2.7364         2.6392        12.0098        11.8194        14.5661        13.8114        0.11116        0.10190        0.14160         2.5666         2.5470
         9246.5         86.760         81.769         68.442         69.442         2.7285         2.6548        10.0353         9.8611        12.2514        11.6284        0.11367        0.11360        0.14740         2.5621         2.5559
         9247.0         87.561         87.228         69.141         69.742         2.7136         2.6860         8.5735         9.3877        10.5376        10.9473        0.11538        0.12240        0.15230         2.5613         2.5652
         9247.5         97.360         89.276         70.099         70.100         2.7375         2.7085         8.5832        10.3051        10.5329        11.9469        0.12051        0.12160        0.15910         2.5572         2.5600
         9248.0        106.755         89.276         71.098         71.147         2.7504         2.7085         9.7538        10.3051        11.8763        11.9469        0.12774        0.12160        0.16620         2.5522         2.5600
         9248.5        107.473         92.503         71.812         73.240         2.7754         2.7096        10.9221        11.0695        13.2722        12.9034        0.13300        0.12830        0.17120         2.5505         2.5477
         9249.0        111.337        101.735         72.541         75.496         2.7921         2.7089        12.0921        11.8683        14.6869        14.1691        0.13689        0.14780        0.17640         2.5486         2.5432
         9249.5        120.407        114.091         76.959         76.305         3.0847         2.7069        63.8918        14.4608        74.6348        17.2323        0.15996        0.17290        0.20760         2.5235         2.5478
         9250.0        155.020        135.245         78.738         76.305         3.1075         2.7291        92.5016        17.5932       106.1507        21.0227        0.16128        0.19550        0.22020         2.5196         2.5413
         9250.5        153.551        155.876         76.559         74.528         3.3209         2.8292       136.8698        22.7564       155.0292        28.2174        0.15134        0.19990        0.20480         2.5314         2.5191
         9251.0        126.300        144.628         72.413         70.944         3.5227         2.9478       161.3730        38.3395       183.7971        46.6944        0.13198        0.20390        0.17550         2.5530         2.5116
         9251.5         99.972        106.210         68.766         69.622         3.7612         3.1563       169.2012        60.7204       196.7177        74.0498        0.11110        0.17830        0.14970         2.5766         2.5602
         9252.0         60.490        106.210         65.714         66.445         4.0448         3.1563       191.3561        60.7204       230.6157        74.0498        0.09432        0.17830        0.12810         2.5983         2.5602
         9252.5         61.031         68.541         65.585         64.981         4.0473         3.6257       191.0295       111.2707       229.8345       114.7828        0.09374        0.14080        0.12720         2.5990         2.6627
         9253.0        101.966         51.503         68.105         63.081         3.7792         4.1251       155.9704       155.8185       180.6841       147.5867        0.10634        0.10730        0.14500         2.5798         2.7345
         9253.5        108.757         61.492         69.733         64.351         3.6302         4.2111       125.3605       101.1308       144.2699       100.5673        0.11711        0.09770        0.15650         2.5671         2.7064
