#   WellGreen Tech Inc.   Digitizing Services
#   www.wellgreentech.com
#   email: sales@wellgreentech.com
#
~Version Information Block
 VERS.                2.00:     CWLS LOG ASCII STANDARD - VERSION 2.000000
 WRAP.                  NO:     One Line Per Depth Step
#
~Well Information Block
#MNEM.UNIT                     Data                         Information
#----------   ------------------------------------------   ----------------
 STRT.FT                                      400.0000:     START DEPTH
 STOP.FT                                    10100.0000:     STOP DEPTH
 STEP.FT                                        0.5000:     STEP
 NULL.                                       -999.2500:     NULL VALUE
 COMP.                       ENRON OIL AND GAS COMPANY:     COMPANY
 WELL.                                   TXL "1" NO. 1:     WELL
 FLD .                                         WILDCAT:     FIELD
 LOC .                                              63:     LOCATION
 CNTY.                                       CULBERSON:     COUNTY
 STAT.                                           TEXAS:     STATE
 CTRY.                                             USA:     COUNTRY
 SRVC.                                    SCHLUMBERGER:     SERVICE COMPANY
 DATE.                                      06/28/1989:     DATE
 API .               42109320330000:    API NUMBER
 UWI .               42109320330000:    UWI NUMBER
 TVD .                                              NO:     TVD flag
 MATRIX .G/CC                  :    Matrix Density
#
~Curve Information Block
#MNEM.UNIT       API CODE      Curve Description
#----------    -------------   -------------------
 DEPT.FT                   :   Depth in Feet
 GR  .API      35 310 01 01:   Gamma Ray
 CALI.INCHES   70 280 01 01:   Caliper
 DT  .US/FT    60 520 08 01:   Delta T
 SPHI.V/V      61 890 01 01:   Sonic Porosity
#
~Parameter Information Block
#MNEM.UNIT            Value               Description
#----------    --------------------    -------------------
 RUN .                         ONE:    Run Number
 PDAT.                          GL:    Permanent Datum
 EPD .FT                 3890.3000:    Elevation Of Perm. Datum
 LMF .               KELLY BUSHING:    Log Measured From
 EKB .FT                 3905.1000:    Elevation Of Kelly Bushing
 DF .FT                  3904.1000:    Elevation Of Derrick Floor
 GL .FT                  3890.3000:    Elevation Of Ground Level
 TD .FT                  10100.0000:    Total Depth
 BHT .DEGF               193.00 :  Bottom Hole Temperature
 BLI .FT               10100.0000:   Bottom Log Interval
 CSGSIZE.IN              9.6250:   Casing Size
 BITSIZE.IN               8.750 :  BitSize
 CSGD.FT                      405:    Casing Bottom (Driller) 1
 CSGL.FT                      405:    Casing Bottom (Logger) 1
 MUD .                      SW GEL:    Drilling Fluid Type
 MUDV .CP                  34.0000:    Drilling Fluid Viscosity
 MUDD .LB/USG               9.1000:    Drilling Fluid Density
 FL .ML/30MIN               8.0000:    Drilling Fluid Loss
 PH.                       10.0000:    Drilling Fluid Ph
 MUDS .                  CIRC TANK:    Mud Sample Source
 RM .OHMM                   0.1720:    Resistivity Of Mud Sample
 RMT .DEGF                 75.0000:    Mud Sample Temperature
 RMF .OHMM                  0.1720:    Mud Filtrate Resistivity
 RMFT.DEGF                 75.0000:    Mud Filtrate Sample Temperature
 RMB .OHMM                  0.0710:    Mud Resistivity At Bht
 TMAX .DEGF               193.0000:    Bottom Hole Temperature
#
~Other Information Block
<DescLogPlotStart>   NEURALOG PLOT DEFINITION
PLOTDEFVERSION: 3
LASFILE: D:\nds\projects\20MAY19H\las\42109320330000_BEG_RAS_RS0022815370.las
DEPTHSCALE: 240.000000
RESOLUTION: 400
DEPTHLABELFREQ: 100.000000
HEAVYGRIDFREQ: 100.000000
MEDIUMGRIDFREQ: 50.000000
LIGHTGRIDFREQ: 10.000000
#
#   TRACK 1
#
STARTTRACK: 
 LEFTX: 0.500000 inch
 RIGHTX: 3.000000 inch
 SCALETYPE: Linear
 NUMCHARTDIVISIONS: 10
CURVE: GR    0.000000   125.000000 (0,0,255)      Solid             2     Y    
BACKUP: 125.000000 250.000000 (0,0,255)      Solid             2    
ENDTRACK: 
#
#   TRACK 2
#
STARTTRACK: 
 LEFTX: 0.500000 inch
 RIGHTX: 3.000000 inch
 SCALETYPE: Linear
 NUMCHARTDIVISIONS: 10
CURVE: CALI  6.000000   16.000000  (0,131,131)    Solid             2     N    
ENDTRACK: 
#
#   TRACK 3
#
STARTTRACK: 
 LEFTX: 3.500000 inch
 RIGHTX: 8.500000 inch
 SCALETYPE: Linear
 NUMCHARTDIVISIONS: 10
CURVE: DT    100.000000 40.000000  (255,0,255)    Solid             2     Y    
BACKUP: 160.000000 100.000000 (255,0,255)    Solid             2    
CURVE: SPHI  0.300000   -0.100000  (255,0,0)      Dot               2     Y    
BACKUP: 0.700000   0.300000   (255,0,0)      Dot               2    
BACKUP: -0.100000  -0.500000  (255,0,0)      Dot               2    
ENDTRACK: 
<DescLogPlotEnd>
~A DEPTH     GR               CALI             DT               SPHI            
# ...
    5548.000 80.74            9.91             69.96            0.20            
    5548.500 78.65            9.89             69.96            0.20            
    5549.000 74.81            9.86             70.07            0.20            
    5549.500 70.99            9.83             70.28            0.20            
    5550.000 67.17            9.81             69.93            0.20            
    5550.500 63.74            9.78             68.76            0.19            
    5551.000 63.04            9.76             67.58            0.18            
    5551.500 63.36            9.73             66.42            0.17            
    5552.000 63.91            9.72             65.56            0.17            
    5552.500 65.39            9.73             65.40            0.17            
    5553.000 66.86            9.74             65.43            0.17            
    5553.500 68.34            9.75             65.22            0.17            
    5554.000 69.82            9.73             65.17            0.17            
    5554.500 71.11            9.71             65.63            0.17            
    5555.000 71.43            9.70             66.19            0.17            
    5555.500 71.50            9.70             66.74            0.18            
    5556.000 71.57            9.71             67.30            0.18            
    5556.500 71.64            9.71             67.85            0.19            
    5557.000 72.32            9.72             68.41            0.19            
    5557.500 75.20            9.72             68.96            0.19            
    5558.000 78.03            9.73             69.30            0.20            
    5558.500 80.56            9.73             69.16            0.19            
    5559.000 82.59            9.74             68.85            0.19            
    5559.500 86.14            9.75             68.78            0.19            
    5560.000 91.16            9.76             68.97            0.19            
    5560.500 95.15            9.78             69.64            0.20            
    5561.000 97.13            9.79             70.22            0.20            
    5561.500 96.04            9.81             70.67            0.20            
    5562.000 93.30            9.82             70.82            0.21            
    5562.500 90.55            9.84             70.56            0.20            
    5563.000 88.34            9.85             70.29            0.20            
    5563.500 87.88            9.86             70.21            0.20            
    5564.000 87.64            9.86             70.24            0.20            
    5564.500 85.84            9.86             70.00            0.20            
    5565.000 82.11            9.86             69.62            0.20            
    5565.500 78.34            9.86             69.25            0.20            
    5566.000 77.43            9.86             69.09            0.19            
    5566.500 79.03            9.88             69.22            0.20            
    5567.000 80.71            9.89             69.55            0.20            
    5567.500 78.11            9.91             69.72            0.20            
    5568.000 75.15            9.90             69.55            0.20            
    5568.500 72.18            9.89             69.38            0.20            
    5569.000 70.75            9.88             69.21            0.20            
    5569.500 70.75            9.87             69.17            0.19            
    5570.000 71.65            9.86             69.25            0.20            
    5570.500 73.39            9.85             69.34            0.20            
    5571.000 75.65            9.84             69.29            0.20            
    5571.500 77.92            9.83             69.32            0.20            
    5572.000 79.14            9.82             69.42            0.20            
    5572.500 77.42            9.82             69.25            0.20            
    5573.000 76.36            9.82             69.09            0.19            
    5573.500 77.38            9.83             69.06            0.19            
    5574.000 79.61            9.83             69.04            0.19            
    5574.500 81.00            9.83             69.02            0.19            
    5575.000 80.53            9.84             69.06            0.19            
    5575.500 79.14            9.84             69.23            0.20            
    5576.000 78.33            9.84             69.63            0.20            
    5576.500 78.16            9.85             70.19            0.20            
    5577.000 77.99            9.85             70.61            0.20            
    5577.500 76.65            9.85             70.58            0.20            
    5578.000 74.72            9.83             69.98            0.20            
    5578.500 73.79            9.81             68.99            0.19            
    5579.000 72.88            9.79             67.47            0.18            
    5579.500 69.56            9.77             65.94            0.17            
    5580.000 65.86            9.75             64.41            0.16            
    5580.500 64.01            9.75             63.47            0.15            
    5581.000 65.49            9.76             62.57            0.15            
    5581.500 68.38            9.76             63.11            0.16            
    5582.000 71.15            9.76             64.54            0.17            
    5582.500 71.88            9.77             66.49            0.18            
    5583.000 72.25            9.77             67.74            0.19            
    5583.500 72.25            9.78             68.80            0.19            
    5584.000 71.74            9.78             68.95            0.19            
    5584.500 70.70            9.79             68.63            0.19            
    5585.000 71.03            9.79             68.42            0.19            
    5585.500 73.77            9.80             68.55            0.19            
    5586.000 76.74            9.80             68.99            0.19            
    5586.500 78.41            9.80             69.43            0.20            
    5587.000 76.77            9.81             69.87            0.20            
    5587.500 74.32            9.81             70.32            0.20            
    5588.000 73.28            9.82             70.76            0.20            
    5588.500 74.09            9.82             70.94            0.21            
    5589.000 74.31            9.82             70.97            0.21            
    5589.500 73.74            9.81             70.93            0.21            
    5590.000 72.82            9.80             70.77            0.21            
    5590.500 71.89            9.79             70.57            0.20            
    5591.000 70.99            9.78             70.12            0.20            
    5591.500 71.17            9.78             69.34            0.20            
    5592.000 72.63            9.77             68.57            0.19            
    5592.500 74.15            9.76             67.79            0.19            
    5593.000 73.46            9.75             67.17            0.18            
    5593.500 70.80            9.74             66.63            0.18            
    5594.000 67.48            9.73             66.09            0.17            
    5594.500 64.60            9.72             65.60            0.17            
    5595.000 63.46            9.72             65.51            0.17            
    5595.500 63.39            9.72             65.92            0.18            
    5596.000 65.53            9.72             66.63            0.18            
    5596.500 69.36            9.72             67.58            0.19            
    5597.000 73.28            9.72             68.53            0.19            
