# Exported from Transform Software 5.2.0 on 30-Oct-2019 by user kathryn.gehrke
# DI Transform - A Product of Drillinginfo, Inc. - www.drillinginfo.com
#
~VERSION INFORMATION
 VERS.        2.0 : LAS ASCII STANDARD - VERSION 2.0
 WRAP.         NO : ONE LINE PER DEPTH STEP

~WELL INFORMATION
#MNEM.UNIT       DATA TYPE       INFORMATION
#---------       ---------       -----------
 STRT.ft                  40 : Start Depth
 STOP.ft                9358 : Stop Depth
 STEP.ft                 0.5 : Step Length
 NULL.               -999.25 : Null Value
 COMP.                       : Company
 WELL.  42109330610000_API14 : Well Name
 FLD.                        : Field Name
 LOC.                        : Well Location
 CNTY.                       : County
 STAT.                       : State or Province
 CTRY.                       : Country
 SRVC.                       : Service Company
 DATE.                       : Date
 API.         42109330610000 : Well Identifier

~CURVE INFORMATION
#MNEM.UNIT       API CODE       CURVE DESCRIPTION
#---------       --------       -----------------
 DEPT.ft        : <Measured Depth>
 DT.us/ft       : Sonic
 GR.gAPI        : Gamma Ray

~PARAMETER INFORMATION
#MNEM.UNIT       VALUE       DESCRIPTION
#---------       -----       -----------
 EKB.ft      3200.5 : Elevation above MSL

~A      DEPT          DT          GR
# ...
      5573.5    244.8356     34.4863
        5574    240.2806     33.3749
      5574.5    241.8838     27.9869
        5575    242.6854     29.7347
      5575.5    242.6854     37.6249
        5576    242.3579     44.7812
      5576.5    241.0822     43.2348
        5577     239.479     39.5303
      5577.5    242.3748     33.8561
        5578     255.217     29.1439
      5578.5    272.3612     29.1956
        5579    280.0335     33.1406
      5579.5    273.6944     34.1483
        5580    265.6047     33.2322
      5580.5    264.6557     31.9325
        5581    273.3996     31.8867
      5581.5    280.8512     32.3217
        5582    285.1703     33.4269
      5582.5    285.1703     32.8486
        5583    284.3687     31.2113
      5583.5    283.8939     29.6252
        5584    284.3687     28.8577
      5584.5    285.1703      29.001
        5585    285.1703     29.9168
      5585.5    284.3687     29.7225
        5586    283.5671     29.3897
      5586.5    283.8937     31.3597
        5587    284.3687      33.043
      5587.5    283.5671     32.6083
        5588    283.5671     30.6845
      5588.5    282.7655     29.5329
        5589    282.7655     32.7562
      5589.5    282.4392     35.8317
        5590    281.9639     36.1228
      5590.5    281.9639     39.1056
        5591    281.9639     40.4008
      5591.5    282.7655     37.5615
        5592    282.7655     36.1692
      5592.5    282.7655     39.5399
        5593    282.7655     47.7201
      5593.5    282.7655     60.0776
        5594    282.7655     65.8918
      5594.5    282.7655     61.8968
        5595    282.4397     56.5596
      5595.5    278.2689     55.3106
        5596    273.6222     53.2396
      5596.5    272.3447     43.5236
        5597    275.8767     32.1241
      5597.5    281.4879     26.4529
        5598    281.9639     31.6032
      5598.5    281.9639     39.2016
        5599    281.9639     43.6239
      5599.5    281.9639     44.0549
        5600    281.9639     42.0312
      5600.5    281.9639     36.6938
        5601    281.9639     29.1422
      5601.5    281.9639     26.2124
        5602    281.9639     28.9545
      5602.5    281.9639     31.5997
        5603    281.9639     32.2244
      5603.5    281.9639     31.8402
        5604    281.9639     31.7435
      5604.5    281.9639     32.1278
        5605    282.7655     30.5882
      5605.5    282.7655     30.3973
        5606    282.7655      33.092
      5606.5    282.7655     34.8697
        5607    281.9639     32.1751
      5607.5    281.9639      29.723
        5608    281.9639     28.8577
      5608.5    281.9639     29.9162
        5609    281.9639     31.8893
      5609.5    281.9639     34.7258
        5610    282.2884     34.7732
      5610.5    282.7655     33.2812
        5611    282.7655     28.6156
      5611.5    281.6395     25.5385
        5612    275.4561     26.5509
      5612.5     260.388     31.4555
        5613    245.7206     33.4269
      5613.5    237.5515     32.4174
        5614    237.3983     34.4852
      5614.5     239.479      36.746
        5615    243.7343     43.9127
      5615.5    253.2767     52.2818
        5616    267.5519     58.0523
      5616.5    279.6443     57.4263
        5617    283.5671      55.598
      5617.5    282.7655     50.4524
        5618    282.7655     42.8534
      5618.5    281.9639      39.583
        5619    281.6402     40.2572
      5619.5    281.1623      47.279
        5620    281.1623     48.3367
      5620.5    281.1623     44.3923
        5621    281.1623     40.4971
      5621.5    281.9639       43.96
        5622    281.9639     45.4509
      5622.5    281.9639     41.7954
        5623    279.2357     32.3206
      5623.5    275.2278     24.5771
        5624    272.3447     23.3267
      5624.5    271.8664     25.5872
        5625    273.1463     28.8095
      5625.5    275.0727     31.1182
        5626    279.2422     33.6191
      5626.5    283.8902     35.3507
        5627    284.3687     32.9946
      5627.5    284.3687     27.3675
        5628    284.3687     22.8457
      5628.5    284.3687     23.9997
        5629    285.1703     29.2896
      5629.5    283.2443     35.0618
        5630    275.0616     37.1777
      5630.5    259.9926     39.0539
        5631    254.2305     38.5739
      5631.5    257.4369     34.1493
        5632    260.6433     31.8395
      5632.5     263.048     32.3678
        5633    270.1841     34.7252
      5633.5    281.5677     39.2457
        5634    282.4431     45.3536
      5634.5    277.4723     52.3748
        5635    265.7664      61.513
      5635.5    253.7425     71.1808
        5636    245.8918     73.8277
      5636.5    245.8918     65.8464
        5637     248.776     48.3436
      5637.5    245.8918     35.6906
        5638    248.7797     30.1578
      5638.5    257.5186     29.0493
        5639    264.3287     31.1178
      5639.5    260.5571     31.7435
        5640    249.8966     32.4649
      5640.5    242.6034      31.503
        5641    238.6774     30.5411
      5641.5    238.6774      28.281
        5642    238.6774     27.5596
      5642.5     239.479     24.0015
        5643     239.479     24.9584
      5643.5    238.6774     29.4344
        5644    241.4037     28.3302
      5644.5    247.0964     21.9329
        5645    258.8803     22.9878
      5645.5     271.305     28.2783
        5646    279.0789     30.1557
      5646.5    283.8885     27.8495
        5647    284.3687     27.0788
      5647.5    283.2459     26.3573
        5648    274.5064      26.644
      5648.5    258.0737     27.8958
        5649    242.8447     32.7515
      5649.5    237.5547     38.9085
        5650    237.0741     43.7181
      5650.5    236.7531     44.3935
        5651    234.6693     41.5572
      5651.5    234.1887     38.1905
        5652    247.4163     39.7253
      5652.5     272.667     44.6799
        5653    291.4232     45.5997
      5653.5    293.5068     41.0307
        5654    286.6933     39.6794
      5654.5    285.1703     40.4008
        5655     281.483      39.584
      5655.5    270.0203     47.1574
        5656    255.4313     49.2488
      5656.5    244.0484      49.734
        5657    241.8838     41.3215
      5657.5    246.6124     34.9196
        5658    258.8769     33.1864
      5658.5    269.3781      33.572
        5659    275.0698     32.4649
      5659.5    271.3034     32.1292
        5660    260.9633     31.5983
      5660.5    244.0491     33.2816
        5661    239.7991     32.7054
      5661.5    244.6086      31.503
        5662    246.3734     30.3006
      5662.5     243.007     30.7816
        5663    238.6774      31.022
      5663.5    245.8899     31.2625
        5664    260.6365      31.022
      5664.5    277.9538     30.7816
        5665    285.4901     32.5601
      5665.5    282.5269     34.8195
        5666    270.1857     35.3507
      5666.5    253.2711     32.8508
        5667     239.961     29.7749
      5667.5    239.7985     28.8577
        5668    249.0925     28.7627
      5668.5    266.4081     27.2248
        5669     280.439     25.9719
      5669.5     280.843     28.5668
        5670    270.1061     36.4521
      5670.5    253.1911     42.0336
        5671    239.9613     42.5207
      5671.5    237.0741     39.3501
        5672    238.1949      33.142
      5672.5    240.5997     28.6679
        5673    250.0554     29.5792
      5673.5    267.0484     33.0343
        5674    279.8739     37.1666
      5674.5    284.3687     39.4389
        5675    276.8398     34.7308
      5675.5    262.0922     30.3514
        5676    246.0558     28.6172
      5676.5    243.0041     27.5605
        5677    247.0121     27.0795
      5677.5    245.5731     27.7501
        5678    240.4449     29.8635
      5678.5    235.1524     31.2625
        5679    233.8677     30.8325
      5679.5    233.8677      28.384
        5680     236.591     26.7881
      5680.5    245.4854     26.8828
        5681    261.8357     28.9014
      5681.5    277.1485     33.1353
