###############################################
##         ENVERUS                           ##
##         ESS - Open Hole                   ##
##         PERMIAN / DELAWARE                ##
##         Nov 03 2023  V4.0                 ##
##         42-109-32620-90-00                ##
###############################################
## Copyright 2017-2023  ENVERUS.  All Rights Reserved. 
## Confidential - Property of ENVERUS, use governed by terms and 
## conditions found within the existing Information Services Subscription Agreement 
## (as may be amended, the “ISSA”) between Customer and ENVERUS. 
## 
~VERSION INFORMATION
# MNEM.UNIT                               DATA : DESCRIPTION OF MNEMONIC
#-----.-----     ----------------------------- : -----------------------------
VERS.                                     2.00 : CWLS LOG ASCII STANDARD - VERSION 2.00
WRAP.                                       NO : MULTIPLE LINES PER DEPTH STEP
VEND.                                  ENVERUS : VENDOR
TYPE.                          ESS - OPEN HOLE : ENVERUS ESSENTIAL CURVES – ACCESSIBLE THROUGH ENVERUS PRISM(TM)
DOC.                                  51092952 : ENVERUS HEADER RAW DOCUMENT ID
#___________________________________________________________________________________________________ 
~WELL INFORMATION 
# LYPeWtxrle9FodilXqet+3VuPRh8A73lGXm1Q3+VPjdIM+tEhu367IfA47DlYFnVF+yDwY76OrXOyADpoj01xA== 
# MNEM.UNIT                                              DATA : DESCRIPTION OF MNEMONIC 
#-----.-----                    ----------------------------- : ----------------------------- 
CNTY.                                               CULBERSON : COUNTY 
STATE.                                                  TEXAS : STATE 
CNTRY.                                                    USA : COUNTRY 
API.                                             42-109-32620 : API (10 Digit) 
API_14.                                    42-109-32620-90-00 : API (14 Digits) 
API_14_std.                                 42-109-32620-9000 : API (14 Digits Standard) 
UWI.                                           42109326209000 : UNIQUE WELL ID 
WELL.                               42109326200000_PREV_API14 : WELL NAME
STRT.FT                                                2339.0 : START DEPTH
STOP.FT                                               10866.0 : STOP DEPTH
STEP.FT                                                   0.5 : STEP BETWEEN DEPTHS
NULL.                                                 -999.25 : NULL VALUE
PREV_APII.                                     42109326200000 : WELL IDENTIFIER
#___________________________________________________________________________________________________ 
~PARAMETER INFORMATION 
# MNEM.UNIT                                              DATA : DESCRIPTION OF MNEMONIC 
#-----.-----                    ----------------------------- : ----------------------------- 
EKB.FT                                                   3330 : ELEVATION ABOVE MSL
#___________________________________________________________________________________________________ 
~CURVE INFORMATION 
# MNEM.UNIT           : CURVE DESCRIPTION 
#-----.-----          : ----------------------------- 
 DEPT.FT               : MEASURED DEPTH 
 GR__A.API             : GAMMA RAY (GAMMA RAY) 
 DT__A.US/FT           : SONIC DELTA TRANSIT TIME (SONIC) 
 #___________________________________________________________________________________________________ 
~A         DEPT          GR__A          DT__A
# ...
         6863.0        207.999         72.942
         6863.5        204.303         68.122
         6864.0        215.620         61.710
         6864.5        252.360         64.776
         6865.0        246.710         76.100
         6865.5        218.405         77.910
         6866.0        222.212         77.504
         6866.5        249.018         71.214
         6867.0        240.305         86.892
         6867.5        207.826         90.672
         6868.0        212.321         87.804
         6868.5        262.746         63.190
         6869.0        279.582         49.214
         6869.5        281.851         48.251
         6870.0        252.765         53.665
         6870.5        209.753         56.541
         6871.0        202.836         57.112
         6871.5        200.843         54.725
         6872.0        195.757         61.512
         6872.5        171.107         74.143
         6873.0        168.220         77.432
         6873.5        194.077         74.567
         6874.0        207.261         67.044
         6874.5        209.277         61.809
         6875.0        205.988         60.653
         6875.5        210.097         62.667
         6876.0        215.674         61.835
         6876.5        226.680         56.078
         6877.0        234.331         53.588
         6877.5        222.288         54.632
         6878.0        212.056         56.362
         6878.5        216.380         56.777
         6879.0        230.073         58.846
         6879.5        234.816         56.025
         6880.0        241.594         55.767
         6880.5        266.902         52.277
         6881.0        266.942         47.480
         6881.5        259.457         48.218
         6882.0        254.922         48.662
         6882.5        257.267         48.546
         6883.0        261.876         45.428
         6883.5        263.473         55.585
         6884.0        260.063         60.289
         6884.5        245.430         63.661
         6885.0        225.769         67.974
         6885.5        209.872         62.338
         6886.0        203.780         64.052
         6886.5        188.856         67.934
         6887.0        165.173         84.368
         6887.5        149.687         87.864
         6888.0        151.745         87.043
         6888.5        170.807         82.055
         6889.0        193.852         74.335
         6889.5        202.590         84.155
         6890.0        195.758         85.256
         6890.5        196.643         81.488
         6891.0        270.397         62.575
         6891.5        317.998         48.733
         6892.0        316.992         47.034
         6892.5        281.547         45.628
         6893.0        248.478         54.658
         6893.5        225.126         54.704
         6894.0        214.863         55.117
         6894.5        211.652         56.713
         6895.0        210.778         50.214
         6895.5        219.515         50.151
         6896.0        225.549         49.324
         6896.5        215.673         56.805
         6897.0        203.739         62.619
         6897.5        198.882         61.756
         6898.0        193.013         61.344
         6898.5        189.723         58.725
         6899.0        196.581         56.150
         6899.5        216.345         56.369
         6900.0        235.130         56.369
         6900.5        237.317         54.990
         6901.0        238.323         56.612
         6901.5        242.597         61.703
         6902.0        226.799         62.788
         6902.5        204.511         63.390
         6903.0        214.951         63.238
         6903.5        241.557         61.810
         6904.0        264.182         46.767
         6904.5        281.824         71.804
         6905.0        288.273         78.431
         6905.5        275.977         80.878
         6906.0        233.424         86.551
         6906.5        155.030         98.061
         6907.0        127.664        109.699
         6907.5        127.112        101.606
         6908.0        140.385         94.621
         6908.5        156.383         94.172
         6909.0        163.213         91.088
         6909.5        162.683        100.903
         6910.0        161.064        108.046
         6910.5        157.266        111.786
         6911.0        143.079        113.747
         6911.5        129.233        118.095
         6912.0        122.197        119.517
         6912.5        100.181        124.707
         6913.0         84.397        137.033
         6913.5         68.014        145.565
         6914.0         52.349        141.129
         6914.5         45.487        139.812
         6915.0         42.822        144.280
         6915.5         36.949        156.141
         6916.0         35.610        161.926
         6916.5         40.547        161.808
         6917.0         57.058        153.099
         6917.5         92.145        137.209
         6918.0        114.857        125.568
         6918.5        205.238        112.523
         6919.0        283.243         85.215
         6919.5        335.928         84.321
         6920.0        340.294         89.929
         6920.5        306.587         96.285
         6921.0        293.990        105.500
         6921.5        315.534         90.114
         6922.0        326.096         86.599
         6922.5        372.669         84.513
         6923.0        417.990         80.256
         6923.5        354.651         91.809
         6924.0        333.031         95.934
         6924.5        301.537         96.129
         6925.0        302.595         94.221
         6925.5        292.363         90.433
         6926.0        301.476         86.734
         6926.5        371.504         85.858
         6927.0        397.702         88.506
         6927.5        377.332         92.712
         6928.0        345.529         97.708
         6928.5        293.933        101.100
         6929.0        233.122        113.001
         6929.5        180.902        128.788
         6930.0        159.232        134.989
         6930.5        114.979        143.918
         6931.0        110.199        135.101
         6931.5        135.380        125.371
         6932.0        149.020        122.877
         6932.5        149.662        122.182
         6933.0        146.944        128.307
         6933.5        151.686        130.923
         6934.0        164.211        123.545
         6934.5        209.894        115.206
         6935.0        234.534        107.665
         6935.5        240.456        107.156
         6936.0        234.275        112.365
         6936.5        240.865        112.347
         6937.0        254.984        110.624
         6937.5        259.677        108.325
         6938.0        253.732        106.830
         6938.5        231.478        103.182
         6939.0        193.626        104.041
         6939.5        167.178        102.875
         6940.0        163.724        102.683
         6940.5        159.453        107.186
         6941.0        146.356        110.930
         6941.5        131.067        113.653
         6942.0        127.847        114.224
         6942.5        147.030        107.888
         6943.0        172.947        102.764
         6943.5        221.292         99.310
         6944.0        248.268         98.696
         6944.5        237.781        100.764
         6945.0        201.966        111.794
         6945.5        172.124        121.172
         6946.0        153.952        125.663
         6946.5        154.088        128.882
         6947.0        157.727        121.653
         6947.5        139.411        115.948
         6948.0        130.705        115.795
         6948.5        149.029        113.659
         6949.0        164.618        123.115
         6949.5        158.993        127.569
