###############################################
##         ENVERUS                           ##
##         ESS - Open Hole                   ##
##         PERMIAN / DELAWARE                ##
##         Nov 03 2023  V4.0                 ##
##         42-109-32538-90-00                ##
###############################################
## Copyright 2017-2023  ENVERUS.  All Rights Reserved. 
## Confidential - Property of ENVERUS, use governed by terms and 
## conditions found within the existing Information Services Subscription Agreement 
## (as may be amended, the “ISSA”) between Customer and ENVERUS. 
## 
~VERSION INFORMATION
# MNEM.UNIT                               DATA : DESCRIPTION OF MNEMONIC
#-----.-----     ----------------------------- : -----------------------------
VERS.                                     2.00 : CWLS LOG ASCII STANDARD - VERSION 2.00
WRAP.                                       NO : MULTIPLE LINES PER DEPTH STEP
VEND.                                  ENVERUS : VENDOR
TYPE.                          ESS - OPEN HOLE : ENVERUS ESSENTIAL CURVES – ACCESSIBLE THROUGH ENVERUS PRISM(TM)
DOC.                                  51093252 : ENVERUS HEADER RAW DOCUMENT ID
#___________________________________________________________________________________________________ 
~WELL INFORMATION 
# oCCetX3e+0pvkDd8h//i1tmWwvIHyfHqsQII3M49Y6eU5HggNAlLoqtwY+vCuZvzOG9Fr+Tv1xe2vto6NUMufQ== 
# MNEM.UNIT                                              DATA : DESCRIPTION OF MNEMONIC 
#-----.-----                    ----------------------------- : ----------------------------- 
CNTY.                                               CULBERSON : COUNTY 
STATE.                                                  TEXAS : STATE 
CNTRY.                                                    USA : COUNTRY 
API.                                             42-109-32538 : API (10 Digit) 
API_14.                                    42-109-32538-90-00 : API (14 Digits) 
API_14_std.                                 42-109-32538-9000 : API (14 Digits Standard) 
UWI.                                           42109325389000 : UNIQUE WELL ID 
WELL.                                                  DRD_55 : WELL NAME
STRT.FT                                                2546.5 : START DEPTH
STOP.FT                                               11260.0 : STOP DEPTH
STEP.FT                                                   0.5 : STEP BETWEEN DEPTHS
NULL.                                                 -999.25 : NULL VALUE
PREV_APII.                                     42109325380000 : WELL IDENTIFIER
#___________________________________________________________________________________________________ 
~PARAMETER INFORMATION 
# MNEM.UNIT                                              DATA : DESCRIPTION OF MNEMONIC 
#-----.-----                    ----------------------------- : ----------------------------- 
EKB.FT                                                   3182 : ELEVATION ABOVE MSL
#___________________________________________________________________________________________________ 
~CURVE INFORMATION 
# MNEM.UNIT           : CURVE DESCRIPTION 
#-----.-----          : ----------------------------- 
 DEPT.FT               : MEASURED DEPTH 
 CALI.IN               : CALIPER (CAL - CALIPER) 
 GR.API                : GAMMA RAY (GAMMA RAY) 
 DT.US/FT              : SONIC DELTA TRANSIT TIME (SONIC) 
 RESS.OHMM             : SHALLOW INDUCTION RESISTIVITY (ILS - SHALLOW RESISTIVITY) 
 RESD.OHMM             : DEEP INDUCTION RESISTIVITY (ILD - DEEP RESISTIVITY) 
 DPHI.V/V              : DENSITY POROSITY (DENSITY POROSITY) 
 NPHI.V/V              : NEUTRON POROSITY (NEUTRON POROSITY) 
 RHOB.G/CC             : BULK DENSITY (DENSITY) 
 #___________________________________________________________________________________________________ 
~A         DEPT           CALI             GR             DT           RESS           RESD           DPHI           NPHI           RHOB
# ...
        10600.0          6.147        112.866         79.105         27.566         36.587        0.11961        0.20416         2.5233
        10600.5          6.147        113.857         77.369         27.687         36.587        0.12003        0.19812         2.5482
        10601.0          6.147         93.699         74.282         23.903         34.555        0.10499        0.12514         2.5738
        10601.5          6.147         82.757         71.094         21.431         33.926        0.09020        0.04468         2.5983
        10602.0          6.147         78.655         66.879         23.140         35.698        0.07115        0.05901         2.6243
        10602.5          6.147         62.477         64.257         29.446         48.100        0.06063        0.07584         2.6575
        10603.0          6.147         38.639         62.132         48.921         79.609        0.04084        0.07068         2.6876
        10603.5          6.147         31.451         61.677         89.292        190.268        0.01821        0.06370         2.7086
        10604.0          6.129         31.394         62.424        202.718        435.673        0.00678        0.05671         2.7095
        10604.5          6.120         35.162         64.141        340.346        728.454        0.00557        0.05704         2.6666
        10605.0          6.120         39.507         67.405        381.023        669.490        0.06545        0.06369         2.5636
        10605.5          6.120         42.913         71.569        217.972        248.077        0.09554        0.11240         2.5955
        10606.0          6.120         44.759         77.383        109.387        122.775        0.07245        0.12384         2.5719
        10606.5          6.120         78.624         81.362         71.534         76.906        0.08268        0.10115         2.4993
        10607.0          6.121        124.111         85.101         55.261         56.561        0.13053        0.15992         2.4625
        10607.5          6.138        116.543         87.100         49.351         50.712        0.15560        0.21834         2.4560
        10608.0          6.156        116.124         87.853         41.632         45.425        0.16006        0.22513         2.4722
        10608.5          6.156        115.634         87.659         34.763         36.465        0.15593        0.23345         2.4889
        10609.0          6.145        114.991         87.035         29.982         30.831        0.13803        0.23740         2.5055
        10609.5          6.108        114.566         86.217         25.969         25.376        0.12333        0.21300         2.5062
        10610.0          6.102        112.866         86.208         23.951         23.141        0.13813        0.19864         2.4933
        10610.5          6.102        117.342         85.808         22.831         19.597        0.13292        0.21030         2.4905
        10611.0          6.102        120.276         85.808         22.726         20.498        0.13430        0.22011         2.4864
        10611.5          6.102        127.076         85.808         23.416         21.493        0.14009        0.22187         2.4890
        10612.0          6.093        123.920         84.954         24.985         25.091        0.13281        0.22712         2.4996
        10612.5          6.093        124.230         83.925         29.173         29.149        0.13181        0.22891         2.4990
        10613.0          6.093        128.269         82.896         36.037         34.098        0.13497        0.21590         2.4932
        10613.5          6.093        128.026         82.536         44.481         40.200        0.13497        0.21583         2.4919
        10614.0          6.113        128.964         82.599         48.853         47.176        0.13710        0.24330         2.4927
        10614.5          6.127        131.383         83.628         52.135         50.329        0.13620        0.23743         2.4961
        10615.0          6.129        134.821         84.657         56.526         50.428        0.13610        0.22635         2.5012
        10615.5          6.129        138.838         86.034         57.283         48.631        0.12932        0.21520         2.4929
        10616.0          6.129        134.683         87.124         57.832         50.847        0.13878        0.20735         2.4723
        10616.5          6.129        128.529         87.853         58.596         58.459        0.14570        0.21908         2.4618
        10617.0          6.102        129.363         87.750         67.173         63.486        0.15320        0.21903         2.4626
        10617.5          6.102        128.461         86.721         80.254         66.902        0.15496        0.20549         2.4717
        10618.0          6.099        134.117         84.144         80.615         62.684        0.14622        0.21439         2.4764
        10618.5          6.084        140.168         81.717         74.081         54.869        0.14700        0.21929         2.4829
        10619.0          6.084        143.996         78.939         55.347         46.247        0.14344        0.22946         2.5126
        10619.5          6.101        119.791         76.912         51.531         46.743        0.13826        0.22609         2.5607
        10620.0          6.133         95.716         75.849         54.308         51.254        0.10439        0.13409         2.5724
        10620.5          6.156         99.448         75.937         52.855         49.247        0.07888        0.17103         2.5523
        10621.0          6.165         95.358         77.045         43.483         42.267        0.09656        0.20785         2.5420
        10621.5          6.165         89.818         78.588         42.077         40.143        0.10668        0.21592         2.5400
        10622.0          6.165         99.717         80.252         43.749         38.718        0.10158        0.19732         2.5337
        10622.5          6.165        141.025         81.281         44.978         37.994        0.10364        0.19701         2.5250
        10623.0          6.156        135.720         81.718         45.645         37.329        0.11750        0.27362         2.5326
        10623.5          6.150        127.283         81.718         43.281         32.601        0.11584        0.26090         2.5467
        10624.0          6.154        126.269         81.309         33.262         27.748        0.09960        0.23303         2.5515
        10624.5          6.156         99.236         81.309         32.745         27.962        0.09501        0.18721         2.5523
        10625.0          6.156         83.382         80.491         36.265         30.419        0.10224        0.19372         2.5513
        10625.5          6.147         86.722         80.082         36.149         32.741        0.10068        0.20111         2.5500
        10626.0          6.129         94.899         79.449         30.090         28.247        0.09857        0.18934         2.5497
        10626.5          6.112         93.631         79.264         27.759         23.163        0.09998        0.16971         2.5319
        10627.0          6.120         83.561         79.264         27.419         23.919        0.11610        0.12845         2.5297
        10627.5          6.120         84.860         79.264         31.371         29.008        0.11775        0.12036         2.5400
        10628.0          6.120        119.390         79.264         37.338         33.777        0.10440        0.11813         2.5439
        10628.5          6.120        132.306         79.211         38.913         34.694        0.10476        0.12612         2.5363
        10629.0          6.120        131.933         78.591         32.780         30.765        0.11157        0.14755         2.5359
