~Version Information
 VERS.                  2.0:   CWLS log ASCII Standard -VERSION 2.0
 WRAP.                   NO:   One line per depth step
~Well Information Block
#MNEM.UNIT     VALUE/NAME     DESCRIPTION
#---------     -----------    ---------------------------
 STRT.F              8400.0000: START DEPTH
 STOP.F             14661.0000: STOP DEPTH
 STEP.F                 0.5000: STEP DEPTH
 NULL.                 -999.25: NULL VALUE
 LOC .            42-109-33545:  LOCATION
 FL1 .            42-109-33545:  LOCATIONLINE1
 DMF .             Drill Floor:  DRILL MEAS FROM
 PDAT.                      GL:  PERMANENT DATUM
 CNTY.               CULBERSON:  COUNTY NAME
 FLD .              WOLFCAMP B:  FIELD NAME
 WELL.           DALE STATE 3H:  WELL NAME
 COMP.     CAPITAN ENERGY INC.:  COMPANY
 DATE.             12-Feb-2020:  DATE
 SVCO.             Halliburton:  SERVICECONAME
 PROV.                      TX:  PROVINCE
 STAT.                      TX:  STATE NAME
 HIDE.                        :  WELLNAMEOPERAT
 BASI.                 PERMIAN:  BASIN
 UWI .            42-109-33545:  UNIQUE WELL IDENTIFIER
 API .            42-109-33545:  API NUMBER
 RANG.                     N/A:  RANGE
 TOWN.                     N/A:  TOWNSHIP
 SECT.                     N/A:  SECTION
 SON .               906290460:  JOB NUMBER
 CTRY.                        :  COUNTRY
 SRVC.             Halliburton:  SERVICE COMPANY
 LMF .             Drill Floor:  LOG MEASURED FROM
 TVDS.ft             3291.0000:  TVDSS CORRECTN
 EGL .ft             3266.0000:  GROUND ELEVATION
 APD .ft               25.0000:  DEPTH ABOVE PD
 EPD .ft             3266.0000:  ELEVATION
 BAP .ft                0.0000:  GL ELEV ONSHORE
 GVFD.g                 1.0000:  GRAVITY FIELD
 EKB .ft             3291.0000:  KB ELEVATION
 EDF .ft             3291.0000:  DF ELEVATION
~Curve Information Block
#MNEM.UNIT                 API CODE     Curve Description
#---------               -----------    ---------------------------
 DEPT.F                 00 000 000 000:  Depth
 CCL .V                 00 000 000 000:  Casing Collar Locator
 NPHI_OH.pu             00 000 000 000:  NPHI_OH
 NPHI_CHI.decp          00 000 000 000:  NPHI_CHI
 GR_OH.api              00 000 000 000:  GR_OH
 GR_CHI.api             00 000 000 000:  GR_CHI
 RHOB_OH.g/cc           00 000 000 000:  RHOB_OH
 RHOB_CHI.g/cc          00 000 000 000:  RHOB_CHI
 PE_OH.NONE             00 000 000 000:  PE_OH
 PE_CHI.NONE            00 000 000 000:  PE_CHI
 LLS_CHI.ohmm           00 000 000 000:  LLS_CHI
 LLS_OH.ohmm            00 000 000 000:  LLS_OH
 LLD_OH.ohmm            00 000 000 000:  LLD_OH
 LLD_CHI.ohmm           00 000 000 000:  LLD_CHI
 DTC_OH.uspf            00 000 000 000:  DTC_OH
 DTC_CHI.uspf           00 000 000 000:  DTC_CHI
 SPHW_CHI.decp          00 000 000 000:  SPHW_CHI
#Other Information
#
#WARRANTY: Halliburton will use its best efforts to furnish customers with 
#accurate information and interpretations that are part of, and incident to, the services 
#provided.  However, Halliburton cannot and does not warrant the accuracy 
#or correctness of such information and interpretations.  Under no circumstances should any 
#such information or interpretation be relied upon as the sole basis for any drilling, 
#completion, production, or financial decision or any procedure involving any risk to the 
#safety of any drilling venture, drilling rig or its crew or any other third party.  The 
#Customer has full responsibility for all drilling, completion and production operation.  
#Halliburton makes no representations or warranties, either expressed or 
#implied, including, but not limited to, the implied warranties of merchantability or fitness 
#for a particular purpose, with respect to the services rendered.  In no event will 
#Halliburton be liable for failure to obtain any particular results or for 
#any damages, including, but not limited to, indirect, special or consequential damages, 
#resulting from the use of any information or interpretation provided by Halliburton.
#
~A    DEPT      CCL   NPHI_OH NPHI_CHI  GR_OH    GR_CHI  RHOB_OH RHOB_CHI  PE_OH  PE_CHI  LLS_CHI   LLS_OH    LLD_OH    LLD_CHI  DTC_OH  DTC_CHI SPHW_CHI 
# ...
   14203.5000 -0.0408 -999.25   0.0911  -999.25  60.0684 -999.25   2.6043 -999.25 3.8536  115.1283   -999.25   -999.25  143.7931 -999.25 66.2495 0.1319
   14204.0000 -0.0361 -999.25   0.0897  -999.25  68.7535 -999.25   2.6063 -999.25 3.8793  117.9267   -999.25   -999.25  146.8562 -999.25 66.9171 0.1366
   14204.5000  0.0000 -999.25   0.0869  -999.25  61.1188 -999.25   2.6100 -999.25 3.9221  119.5973   -999.25   -999.25  150.3717 -999.25 65.9063 0.1295
   14205.0000  0.0000 -999.25   0.0867  -999.25  55.6790 -999.25   2.6097 -999.25 3.9303  120.7952   -999.25   -999.25  152.2212 -999.25 65.3460 0.1255
   14205.5000  0.0144 -999.25   0.0875  -999.25  53.4294 -999.25   2.6084 -999.25 3.9270  122.8126   -999.25   -999.25  154.6262 -999.25 65.2118 0.1246
   14206.0000  0.0144 -999.25   0.0888  -999.25  51.1334 -999.25   2.6055 -999.25 3.9156  123.6827   -999.25   -999.25  154.9470 -999.25 65.2046 0.1245
   14206.5000  0.0000 -999.25   0.0917  -999.25  59.4768 -999.25   2.6013 -999.25 3.8838  125.5763   -999.25   -999.25  155.3173 -999.25 66.4267 0.1331
   14207.0000  0.0000 -999.25   0.0906  -999.25  55.0851 -999.25   2.6033 -999.25 3.8920  124.1124   -999.25   -999.25  154.5669 -999.25 65.8343 0.1290
   14207.5000  0.0119 -999.25   0.0907  -999.25  63.1583 -999.25   2.6048 -999.25 3.8879  123.4176   -999.25   -999.25  153.4841 -999.25 66.5953 0.1343
   14208.0000  0.0688 -999.25   0.0888  -999.25  62.0424 -999.25   2.6096 -999.25 3.9068  120.9512   -999.25   -999.25  152.0991 -999.25 66.4234 0.1331
   14208.5000 -0.0120 -999.25   0.0876  -999.25  58.3450 -999.25   2.6121 -999.25 3.9151  117.9430   -999.25   -999.25  149.4955 -999.25 66.0870 0.1307
   14209.0000  0.0000 -999.25   0.0899  -999.25  68.5301 -999.25   2.6092 -999.25 3.8887  118.3092   -999.25   -999.25  148.2844 -999.25 67.2358 0.1389
   14209.5000  0.0278 -999.25   0.0904  -999.25  63.4197 -999.25   2.6071 -999.25 3.8730  116.6889   -999.25   -999.25  146.0185 -999.25 66.6234 0.1345
   14210.0000  0.0602 -999.25   0.0925  -999.25  65.2355 -999.25   2.6014 -999.25 3.8588  120.9581   -999.25   -999.25  149.2864 -999.25 67.0136 0.1373
   14210.5000  0.0000 -999.25   0.0923  -999.25  55.9440 -999.25   2.5990 -999.25 3.8805  125.2419   -999.25   -999.25  154.4052 -999.25 66.2508 0.1319
   14211.0000  0.0000 -999.25   0.0935  -999.25  64.6417 -999.25   2.5967 -999.25 3.8764  129.8651   -999.25   -999.25  158.5555 -999.25 67.2947 0.1393
   14211.5000  0.0571 -999.25   0.0901  -999.25  52.4384 -999.25   2.6012 -999.25 3.9281  130.9588   -999.25   -999.25  162.0700 -999.25 65.6761 0.1278
   14212.0000  0.0000 -999.25   0.0883  -999.25  54.7000 -999.25   2.6053 -999.25 3.9389  128.5930   -999.25   -999.25  160.2139 -999.25 65.5999 0.1273
   14212.5000  0.0000 -999.25   0.0875  -999.25  55.4782 -999.25   2.6071 -999.25 3.9486  129.2656   -999.25   -999.25  161.5406 -999.25 65.5429 0.1269
   14213.0000  0.0000 -999.25   0.0850  -999.25  39.0384 -999.25   2.6107 -999.25 3.9858  130.7549   -999.25   -999.25  166.6407 -999.25 63.3354 0.1113
   14213.5000  0.0248 -999.25   0.0868  -999.25  42.9812 -999.25   2.6084 -999.25 3.9682  134.6553   -999.25   -999.25  170.6680 -999.25 64.0366 0.1162
   14214.0000  0.0483 -999.25   0.0893  -999.25  49.5724 -999.25   2.6046 -999.25 3.9456  139.4068   -999.25   -999.25  174.7752 -999.25 65.0821 0.1236
   14214.5000 -0.0254 -999.25   0.0900  -999.25  47.2170 -999.25   2.6028 -999.25 3.9414  140.7050   -999.25   -999.25  176.1510 -999.25 64.9168 0.1225
   14215.0000  0.0000 -999.25   0.0919  -999.25  51.5995 -999.25   2.5986 -999.25 3.9280  142.0603   -999.25   -999.25  175.6146 -999.25 65.6923 0.1280
   14215.5000  0.0801 -999.25   0.0928  -999.25  56.1730 -999.25   2.5964 -999.25 3.9249  143.4412   -999.25   -999.25  175.8001 -999.25 66.3478 0.1326
   14216.0000  0.0000 -999.25   0.0903  -999.25  51.9908 -999.25   2.5997 -999.25 3.9581  142.3351   -999.25   -999.25  175.4137 -999.25 65.6839 0.1279
   14216.5000  0.0000 -999.25   0.0877  -999.25  54.9281 -999.25   2.6050 -999.25 3.9783  139.6098   -999.25   -999.25  173.1430 -999.25 65.6363 0.1276
   14217.0000  0.0126 -999.25   0.0853  -999.25  56.5263 -999.25   2.6109 -999.25 4.0005  138.1423   -999.25   -999.25  173.2638 -999.25 65.4914 0.1265
   14217.5000 -0.0152 -999.25   0.0845  -999.25  53.6083 -999.25   2.6136 -999.25 4.0082  138.0318   -999.25   -999.25  174.8251 -999.25 65.2741 0.1250
   14218.0000 -0.0294 -999.25   0.0853  -999.25  52.4959 -999.25   2.6130 -999.25 3.9936  136.9635   -999.25   -999.25  173.8038 -999.25 65.2937 0.1251
   14218.5000  0.0000 -999.25   0.0872  -999.25  52.6214 -999.25   2.6085 -999.25 3.9746  139.0972   -999.25   -999.25  174.7901 -999.25 65.2633 0.1249
   14219.0000  0.0000 -999.25   0.0877  -999.25  50.3177 -999.25   2.6055 -999.25 3.9771  139.8320   -999.25   -999.25  174.4962 -999.25 65.0621 0.1235
   14219.5000 -0.0277 -999.25   0.0888  -999.25  59.2446 -999.25   2.6024 -999.25 3.9737  142.1892   -999.25   -999.25  175.0209 -999.25 66.3031 0.1323
   14220.0000  0.0000 -999.25   0.0907  -999.25  65.9334 -999.25   2.5995 -999.25 3.9571  145.6710   -999.25   -999.25  177.7637 -999.25 67.2000 0.1386
   14220.5000  0.0000 -999.25   0.0904  -999.25  61.2371 -999.25   2.6009 -999.25 3.9555  144.5892   -999.25   -999.25  177.5716 -999.25 66.5882 0.1343
   14221.0000  0.0000 -999.25   0.0899  -999.25  56.0333 -999.25   2.6028 -999.25 3.9508  141.5231   -999.25   -999.25  175.1856 -999.25 65.9711 0.1299
   14221.5000 -0.0129 -999.25   0.0906  -999.25  65.8218 -999.25   2.6033 -999.25 3.9378  139.3420   -999.25   -999.25  171.5963 -999.25 67.0690 0.1377
   14222.0000 -0.0118 -999.25   0.0869  -999.25  53.5845 -999.25   2.6091 -999.25 3.9782  136.6486   -999.25   -999.25  171.1890 -999.25 65.5227 0.1268
   14222.5000  0.0000 -999.25   0.0880  -999.25  64.9883 -999.25   2.6083 -999.25 3.9710  138.9752   -999.25   -999.25  172.7331 -999.25 66.8652 0.1362
   14223.0000  0.0689 -999.25   0.0870  -999.25  60.1639 -999.25   2.6101 -999.25 3.9803  138.2289   -999.25   -999.25  173.0049 -999.25 66.3813 0.1328
   14223.5000  0.5489 -999.25   0.0876  -999.25  58.0857 -999.25   2.6088 -999.25 3.9725  137.5306   -999.25   -999.25  171.8165 -999.25 66.2177 0.1317
   14224.0000 -0.0156 -999.25   0.0901  -999.25  65.6885 -999.25   2.6049 -999.25 3.9411  136.5621   -999.25   -999.25  168.4734 -999.25 67.1811 0.1385
   14224.5000  0.0000 -999.25   0.0921  -999.25  68.0386 -999.25   2.6013 -999.25 3.9153  135.1574   -999.25   -999.25  165.2963 -999.25 67.5593 0.1412
   14225.0000  0.0121 -999.25   0.0945  -999.25  70.6263 -999.25   2.5972 -999.25 3.8877  136.1483   -999.25   -999.25  165.1004 -999.25 68.0204 0.1444
   14225.5000 -0.0549 -999.25   0.0945  -999.25  63.8562 -999.25   2.5970 -999.25 3.8847  134.9812   -999.25   -999.25  164.2087 -999.25 67.4669 0.1405
   14226.0000  0.0000 -999.25   0.0955  -999.25  69.8970 -999.25   2.5964 -999.25 3.8778  136.5956   -999.25   -999.25  165.6500 -999.25 68.0749 0.1448
   14226.5000  0.0107 -999.25   0.0924  -999.25  63.1660 -999.25   2.6016 -999.25 3.9142  136.8064   -999.25   -999.25  168.1461 -999.25 67.2555 0.1390
   14227.0000  0.0000 -999.25   0.0896  -999.25  62.8887 -999.25   2.6070 -999.25 3.9487  136.7091   -999.25   -999.25  169.9408 -999.25 67.0974 0.1379
   14227.5000 -0.0305 -999.25   0.0895  -999.25  68.7804 -999.25   2.6078 -999.25 3.9523  138.2426   -999.25   -999.25  171.8186 -999.25 67.5703 0.1412
   14228.0000  0.0000 -999.25   0.0890  -999.25  70.5180 -999.25   2.6082 -999.25 3.9582  139.0296   -999.25   -999.25  172.7397 -999.25 67.4959 0.1407
   14228.5000  0.0367 -999.25   0.0887  -999.25  71.1344 -999.25   2.6076 -999.25 3.9616  139.7658   -999.25   -999.25  173.2008 -999.25 67.3291 0.1395
   14229.0000 -0.0487 -999.25   0.0880  -999.25  68.9722 -999.25   2.6075 -999.25 3.9694  140.0615   -999.25   -999.25  173.5572 -999.25 66.9677 0.1370
   14229.5000  0.0182 -999.25   0.0878  -999.25  69.3821 -999.25   2.6074 -999.25 3.9674  138.3837   -999.25   -999.25  171.3689 -999.25 66.9626 0.1369
