###############################################
##         ENVERUS                           ##
##         ESS - Open Hole                   ##
##         PERMIAN / DELAWARE                ##
##         Nov 02 2023  V4.0                 ##
##         42-109-31408-00-00                ##
###############################################
## Copyright 2017-2023  ENVERUS.  All Rights Reserved. 
## Confidential - Property of ENVERUS, use governed by terms and 
## conditions found within the existing Information Services Subscription Agreement 
## (as may be amended, the “ISSA”) between Customer and ENVERUS. 
## 
~VERSION INFORMATION
# MNEM.UNIT                               DATA : DESCRIPTION OF MNEMONIC
#-----.-----     ----------------------------- : -----------------------------
VERS.                                     2.00 : CWLS LOG ASCII STANDARD - VERSION 2.00
WRAP.                                       NO : MULTIPLE LINES PER DEPTH STEP
VEND.                                  ENVERUS : VENDOR
TYPE.                          ESS - OPEN HOLE : ENVERUS ESSENTIAL CURVES – ACCESSIBLE THROUGH ENVERUS PRISM(TM)
DOC.                                  31850517 : ENVERUS HEADER RAW DOCUMENT ID
#___________________________________________________________________________________________________ 
~WELL INFORMATION 
# bqLd+XSZJOn45CI61XVoQu+UOVndmKoY6sdO6/bnbKn7IExcVbobTFa2ZjWyWmdO1mIol927X6bTh1nHm93KmQ== 
# MNEM.UNIT                                              DATA : DESCRIPTION OF MNEMONIC 
#-----.-----                    ----------------------------- : ----------------------------- 
CNTY.                                               CULBERSON : COUNTY 
STATE.                                                  TEXAS : STATE 
CNTRY.                                                    USA : COUNTRY 
API.                                             42-109-31408 : API (10 Digit) 
API_14.                                    42-109-31408-00-00 : API (14 Digits) 
API_14_std.                                 42-109-31408-0000 : API (14 Digits Standard) 
UWI.                                           42109314080000 : UNIQUE WELL ID 
WELL.                                           CASTILE 48  1 : WELL NAME
STRT.FT                                                2207.0 : START DEPTH
STOP.FT                                               11710.0 : STOP DEPTH
STEP.FT                                                   0.5 : STEP BETWEEN DEPTHS
NULL.                                                 -999.25 : NULL VALUE
COMP.                                         TENNECO OIL CO. : COMPANY 
DATE.                                             28-APR-1980 : LOG DATE
#___________________________________________________________________________________________________ 
~CURVE INFORMATION 
# MNEM.UNIT           : CURVE DESCRIPTION 
#-----.-----          : ----------------------------- 
 DEPT.FT               : MEASURED DEPTH 
 CALI.IN               : CALIPER (CAL - CAL) 
 GR.API                : GAMMA RAY (GR) 
 DT.US/FT              : SONIC DELTA TRANSIT TIME (DT) 
 RESS.OHMM             : SHALLOW INDUCTION RESISTIVITY (ILS - ILS) 
 RESD.OHMM             : DEEP INDUCTION RESISTIVITY (ILD - ILD) 
 #___________________________________________________________________________________________________ 
~A         DEPT           CALI             GR             DT           RESS           RESD
# ...
        11051.0         12.086         90.413        139.642         17.468         21.207
        11051.5         12.075        101.145        135.474         20.337         24.974
        11052.0         12.064        120.823        131.307         23.312         28.741
        11052.5         12.053        120.764        127.139         29.857         32.509
        11053.0         12.042        120.704        122.972         37.497         36.276
        11053.5         12.031        120.645        118.805         45.138         39.349
        11054.0         12.020        118.856        114.637         49.530         36.535
        11054.5         12.009        115.517        110.470         49.644         33.720
        11055.0         11.998        112.177        106.302         49.757         30.906
        11055.5         11.987        108.837        112.153         49.870         30.151
        11056.0         12.091        105.497        122.521         49.984         39.556
        11056.5         12.324        102.157        132.889         50.097         48.962
        11057.0         12.556         96.625        143.257         45.743         46.088
        11057.5         12.789         85.490        153.625         37.781         38.845
        11058.0         13.021         74.356        154.966         29.820         31.663
        11058.5         13.011         69.562        148.788         20.760         24.481
        11059.0         12.652         79.655        142.610         17.154         17.572
        11059.5         12.293         89.747        136.432         18.462         17.573
        11060.0         11.979         99.839        130.254         23.726         21.991
        11060.5         11.970        108.899        124.076         28.989         29.811
        11061.0         11.960        107.413        117.898         34.253         34.853
        11061.5         11.950        105.926        111.720         34.965         35.370
        11062.0         11.941        104.440        110.378         34.968         35.888
        11062.5         11.931        102.954        110.123         39.002         36.405
        11063.0         11.921        101.467        123.472         38.563         36.922
        11063.5         11.912         97.060        138.870         38.124         37.440
        11064.0         11.902         89.367        154.268         37.686         37.847
        11064.5         12.589         81.675        152.207         32.249         22.369
        11065.0         13.467         73.982        146.431         15.776         18.551
        11065.5         13.785         89.757        140.656         12.853         14.733
        11066.0         13.048        106.280        134.880         10.059         11.124
        11066.5         12.310        122.804        129.105         12.368         12.788
        11067.0         11.951        139.328        123.329         14.677         14.453
        11067.5         11.786        147.722        117.553         16.985         18.894
        11068.0         11.713        155.068        111.778         25.671         28.472
        11068.5         11.677        162.415        107.523         43.645         38.049
        11069.0         11.641        169.761        109.688         56.537         47.627
        11069.5         11.605        177.107        111.854         49.928         46.078
        11070.0         11.569        184.454        114.019         43.319         40.006
        11070.5         11.533        177.619        112.040         31.743         33.934
        11071.0         11.497        150.854        107.098         23.088         31.773
        11071.5         11.461        124.089        102.157         23.501         30.908
        11072.0         11.425        122.194         98.334         23.913         29.070
        11072.5         11.389        124.295         95.499         24.326         24.924
        11073.0         11.352        126.395         92.935         24.465         23.611
        11073.5         11.316        128.496         91.075         20.374         22.931
        11074.0         11.280        130.596         89.216         22.238         22.504
        11074.5         11.244        132.697         86.830         24.526         24.008
        11075.0         11.208        128.612         83.933         26.813         28.135
        11075.5         11.172        123.679         82.186         29.101         32.583
        11076.0         11.136        127.389         83.440         31.389         37.030
        11076.5         11.100        131.099         84.695         40.574         41.477
        11077.0         11.064        134.809         85.949         50.436         45.925
        11077.5         11.028        138.519         87.204         60.297         50.372
        11078.0         10.992        142.228         88.458         70.159         54.609
        11078.5         10.956        145.938         89.713         80.021         54.726
        11079.0         10.920        149.648         90.967         83.906         54.843
        11079.5         10.884        136.610         89.908         76.450         54.961
        11080.0         10.872        122.979         87.338         57.983         55.078
        11080.5         10.862        109.348         84.769         55.904         55.195
        11081.0         10.852        102.139         82.200         57.822         58.235
        11081.5         10.842        106.182         79.631         59.740         62.841
        11082.0         10.832        110.224         77.062         61.658         67.447
        11082.5         10.822        114.267         75.893         64.197         72.053
        11083.0         10.812        118.287         78.063         77.138         76.658
        11083.5         10.802        115.189         80.233         90.078         80.843
        11084.0         10.792        112.091         82.403         67.814         65.066
        11084.5         10.782        108.993         84.573         41.722         49.288
        11085.0         10.772        106.156         86.741         39.507         40.335
        11085.5         10.762        110.374         86.741         37.292         37.067
        11086.0         10.752        114.592         86.741         35.076         33.799
        11086.5         10.743        118.810         86.740         32.861         30.965
        11087.0         10.734        123.028         86.804         30.646         28.429
        11087.5         10.724        127.246         87.595         28.431         25.893
        11088.0         10.715        131.464         88.385         28.916         30.957
        11088.5         10.706        102.623         87.575         33.578         36.989
        11089.0         10.697        106.522         85.546         38.240         43.021
        11089.5         10.688        110.420         83.517         42.902         49.054
        11090.0         10.679        114.030         81.489         47.564         55.086
        11090.5         10.670        112.209         79.460         52.226         52.246
        11091.0         10.661        110.388         80.759         52.427         46.589
        11091.5         10.652        108.567         82.141         48.759         40.603
        11092.0         10.642        106.746         83.522         39.463         33.842
        11092.5         10.633        104.925         83.794         25.971         27.081
        11093.0         10.624        103.105         82.256         23.311         21.225
        11093.5         10.615        103.345         80.718         28.283         25.129
        11094.0         10.607        108.476         79.180         33.254         29.034
        11094.5         10.600        113.606         77.641         38.226         32.938
