~VERSION INFORMATION
 VERS.                2.0:   CWLS LOG ASCII STANDARD - VERSION 2.0
 WRAP.                 NO:   ONE LINE PER DEPTH STEP
~WELL INFORMATION
#MNEM.UNIT      DATA TYPE    INFORMATION
#----------   ------------   ------------------------------
 STRT.FT          68.0000:   START DEPTH
 STOP.FT        1517.0000:   STOP DEPTH
 STEP.FT           0.5000:   STEP LENGTH
 NULL.          -999.2500:   NULL VALUE
 COMP. LINCOLN ROCK CORPORATION:   COMPANY
 WELL.        HOLLER #602:   WELL
 FLD .            UNNAMED:   FIELD
 LOC .                   :   LOCATION
 CNTY.          CULBERSON:   COUNTY
 STAT.              TEXAS:   STATE
 CTRY. UNITED STATES OF AMERICA:   COUNTRY
 SRVC.           Gearhart:   SERVICE COMPANY
 DATE.        24-Jun-1984:   LOGDATE
 API .     42109317410000:   API NUMBER
~CURVE INFORMATION
#MNEM.UNIT       API CODE    CURVE DESCRIPTION
#----------   ------------   ------------------------------
 DEPT.F                  :   
 CALXS.IN    60 280 13 00:   CALIPER FROM X AXIS OF X-Y CALIPER(S) FROM SONIC LOG
 GRD .GAPI   45 310 01 00:   GAMMA RAY FROM DENSITY LOG
 GRS .GAPI   60 310 01 00:   GAMMA RAY FROM SONIC LOG
 TEND.LB     45 635 00 00:   TENSION FROM DENSITY LOG
 TENR.LB     11 635 00 00:   TENSION FROM RESISTIVITY LOG
 TENS.LB     60 635 00 00:   TENSION FROM SONIC LOG
 CALYD.IN    45 280 24 00:   CALIPER FROM X AXIS OF X-Y CALIPER(S) FROM DENSITY LOG
 CNS_LS.DEC  42 890 01 00:   COMPENSATED NEUTRON POROSITY
 CDL_LS.DEC  45 890 10 00:   COMPENSATED DENSITY POROSITY LIMESTONE
 RHOB.G/C3   45 350 01 00:   BULK DENSITY
 DRHO.G/C3   45 356 01 00:   BULK DENSITY CORRECTION
 GRR .GAPI   11 310 01 00:   GAMMA RAY FROM RESISTIVITY LOG
 RLLD.OHMM   11 220 10 00:   RAW LATEROLOG DEEP RESISTIVITY
 RLLS.OHMM   11 220 09 00:   RAW LATEROLOG SHALLOW RESISTIVITY
 DT  .US/F   60 500 00 00:   DELTA-T (INTERVAL TRANSIT TIME)
 SPHI.DEC    60 890 00 00:   SONIC POROSITY
~PARAMETER INFORMATION
#MNEM.UNIT          VALUE    DESCRIPTION
#----------   ------------   ------------------------------
 PD  .                 GL:   PERMANENT DATUM
 EPD .FT             3532:   ELEVATION PERMANENT DATUM
 LMF .                 GL:   LOG MEASURED FROM
 DMF .                RKB:   DRILLING MEASURED FROM
 EKB .FT             3544:   KELLY BUSHING
 EDF .FT             3543:   DRILLING FLOOR
 EGL .FT             3532:   GROUND LEVEL
 DATE.           06/24/84:   RUN DATE
 RUN .                  1:   RUN NUMBER
 DD  .FT             1502:   DEPTH DRILLER
 DL  .FT             1506:   DEPTH LOGGER
 BLI .FT             1505:   BOTTOM LOG INTERVAL
 TLI .FT               90:   TOP LOG INTERVAL
 CS  .IN              4.5:   CASING SIZE
 CBD .FT              101:   CASING BOTTOM DRILLER
 CBL .FT             1502:   CASING BOTTOM LOGGER
 BS  .IN            7.875:   BIT SIZE
 BSD .FT             1502:   BIT SIZE AT DEPTH
 DFT .          FRESH H2O:   DRILLING FLUID TYPE
 DFD .                8.4:   DRILLING FLUID DENSITY
 DFV .                 27:   DRILLING FLUID VISCOSITY
 DFPH.                 12:   DRILLING FLUID PH
 MSS .                PIT:   MUD SAMPLE SOURCE
 RMS .OHMM           2.32:   RESISTIVITY MUD SAMPLE
 MST .DEGF             77:   MUD SAMPLE TEMPERATURE
 RMF .OHMM           2.32:   RESISTIVITY MUD FILTRATE SAMPLE
 MFST.DEGF             77:   MUD FILTRATE SAMPLE TEMPERATURE
 MFSS.               MEAS:   MUD FILTRATE SAMPLE SOURCE
 TCS .HRS            0940:   TIME CIRCULATED STOPPED
 TLAB.HRS            1319:   TIME LOGGER AT BOTTOM
 MRT .DEGF            770:   MAXIMUM RECORDED TEMPERATURE
 LUN .               7583:   LOGGING UNIT NUMBER
 LUL .              HOBBS:   LOGGING UNIT LOCATION
 ENGI.             BRYANT:   RECORDING ENGINEER
 WITN.             BURROW:   WITNESSED BY
 CLNT.            :   CLIENT CODE
 ORIG.      1" 2.5" PRINT:   ORIGIN OF DATA
 UWI .     42109317410000:   UNIQUE WELL ID
 
~OTHER INFORMATION
~A   DEPT    CALXS        GRD        GRS       TEND       TENR       TENS      CALYD      CNS_LS     CDL_LS      RHOB       DRHO          GRR     RLLD       RLLS         DT       SPHI   
# ...
 1293.5000     7.9577    11.2719    13.5561  1117.8052   753.6115   967.1140     7.9828    -0.0079     0.2898     2.9001    -0.0207     7.4899 44824.5469 28488.1191    49.6176    -0.0163
 1294.0000     7.9503    10.4563    15.5188  1137.8885   753.7342   970.5080     7.9820    -0.0078     0.2878     2.9052    -0.0184     8.7045 43585.8477 27329.1484    49.6033    -0.0163
 1294.5000     7.9506     9.9420    13.5690  1115.2468   751.9790   967.6139     7.9813    -0.0076     0.2826     2.9104    -0.0187     9.5142 43180.6055 26414.5742    49.6222    -0.0164
 1295.0000     7.9431     9.4278    11.0338  1092.6050   752.1017   971.0082     7.9805    -0.0075     0.2775     2.9155    -0.0191     8.5020 51503.2773 25203.4785    49.7477    -0.0164
 1295.5000     7.9434     9.2164     9.0285  1113.6334   750.3473   968.1126     7.9798    -0.0073     0.2761     2.9206    -0.0195     7.4899 55567.6719 23992.3828    49.7935    -0.0165
 1296.0000     7.9436     9.2068     8.2535  1172.9619   750.4725   965.2169     7.9790    -0.0072     0.2779     2.9164    -0.0199     7.2537 54032.0938 22781.2891    50.0020    -0.0162
 1296.5000     7.9362     9.1972     7.8107  1145.6541   748.7169   968.6137     7.9782    -0.0070     0.2797     2.9140    -0.0203     8.0972 50141.5156 21570.1934    49.8865    -0.0162
 1297.0000     7.9364     9.3694     8.1478  1128.7740   748.8414   965.7168     7.9776    -0.0069     0.2817     2.9179    -0.0193     8.9406 47853.4727 21215.3047    49.7914    -0.0160
 1297.5000     7.9290    10.1821     9.7466  1147.2305   747.7429   969.1124     7.9768    -0.0067     0.2797     2.9238    -0.0176     9.1093 43325.1328 20521.9023    49.7776    -0.0163
 1298.0000     7.9215    10.8892    11.9125  1157.4594   751.1476   972.5080     7.9761    -0.0066     0.2774     2.9273    -0.0159     8.8201 39241.7148 19457.1191    49.7639    -0.0163
 1298.5000     7.9219    11.6471    14.4073  1155.3456   752.6715   969.6123     7.9753    -0.0064     0.2751     2.9258    -0.0143     9.3985 35158.2969 18443.6484    49.7501    -0.0163
 1299.0000     7.9144    12.2280    14.6554  1153.2319   756.0740   973.0079     7.9745    -0.0063     0.2776     2.9219    -0.0247     9.9769 31074.8789 17430.1777    49.7363    -0.0157
 1299.5000     7.9146    12.2724    12.3351  1151.1194   757.5973   970.1135     7.9738    -0.0062     0.2826     2.9179    -0.0338    10.1213 28627.9160 16607.2344    49.6368    -0.0163
 1300.0000     7.9108    11.9885     9.0629  1143.7344   762.7943   971.2836     7.9730    -0.0063     0.2866     2.9139    -0.0357     9.5142 28627.9160 16400.4043    49.6239    -0.0172
 1300.5000     7.9113    11.7045     7.5466  1128.4146   781.1630   951.1277     7.9723    -0.0067     0.2812     2.9119    -0.0323     9.5142 31138.7305 16400.4043    49.3643    -0.0186
 1301.0000     7.9077    11.2694     7.2984  1112.9725   784.7260   951.2815     7.9715    -0.0071     0.2768     2.9205    -0.0261     9.7427 31430.9629 16400.4043    49.3746    -0.0186
 1301.5000     7.9041    10.9946     7.7786  1098.3074   787.2683   951.4341     7.9708    -0.0074     0.2723     2.9302    -0.0198     9.9694 31138.7305 16197.4102    49.2933    -0.0184
 1302.0000     7.9005    11.3599     8.4239  1106.1816   787.7703   951.5880     7.9700    -0.0078     0.2713     2.9293    -0.0143    10.1961 30278.2305 15291.7275    49.1687    -0.0200
 1302.5000     7.8970    11.2483     9.1184  1136.2172   792.3533   951.7418     7.9692    -0.0082     0.2733     2.9281    -0.0170     9.3441 28987.3770 14512.6240    48.9798    -0.0215
 1303.0000     7.8934     9.1785     8.4104  1122.7726   796.9378   951.8956     7.9685    -0.0085     0.2752     2.9273    -0.0195     7.0996 26716.6953 13733.5205    48.9382    -0.0215
 1303.5000     7.8898     7.1086     7.0511  1146.5016   797.4385   952.0494     7.9677    -0.0085     0.2730     2.9309    -0.0154     5.0607 25118.5527 12954.4170    49.2629    -0.0196
 1304.0000     7.8862     5.0388     5.4084  1144.7795   797.9417   952.2020     7.9670    -0.0085     0.2710     2.9383    -0.0076     5.0607 24885.0098 12175.3135    49.6375    -0.0167
 1304.5000     7.8826     5.7774     4.5652  1143.0562   802.5248   952.3558     7.9662    -0.0068     0.2766     2.9233     0.0001     7.1082 31725.9395 11287.1094    50.0453    -0.0137
 1305.0000     7.8790     9.3394     5.6823  1141.3340   803.0267   952.5096     7.9654    -0.0051     0.2996     2.8829     0.0082    11.4806 32023.6836 11147.4043    50.2373    -0.0115
 1305.5000     7.8754    13.3182     9.9314  1139.6107   807.6106   952.6635     7.9647    -0.0038     0.3195     2.8425     0.0018    15.8531 24885.0098 11716.8242    50.1934    -0.0134
 1306.0000     7.8718    18.0470    14.4766  1137.8885   812.1936   952.8173     7.9639    -0.0026     0.3394     2.8022    -0.0048    18.6794 14808.8418 12315.3379    49.6691    -0.0164
 1306.5000     7.8682    22.7758    19.0218  1114.6575   812.6949   952.9699     7.9632    -0.0020     0.3592     2.7712    -0.0115    20.8127  7251.7168 10011.5430    49.2144    -0.0193
 1307.0000     7.8647    22.9773    21.9522  1117.6990   813.1975   953.1237     7.9624    -0.0020     0.3647     2.7612    -0.0163    22.9459 14526.2559  7895.2832    49.3413    -0.0181
 1307.5000     7.8611    23.3805    21.9522  1150.6512   817.7814   953.2775     7.9616    -0.0020     0.3651     2.7513    -0.0163    25.0791 16344.8906  7102.8096    49.7857    -0.0166
 1308.0000     7.8575    24.5899    22.1555  1145.6121   822.3638   955.4301     7.9609     0.0045     0.3690     2.7413    -0.0080    29.1267 12526.6396  4090.0886    50.0240    -0.0137
 1308.5000     7.8539    35.3818    28.0500  1140.5731   822.8651   965.5756     7.9601     0.0272     0.3909     2.7313     0.0000    37.1429  6667.0942  1949.4192    51.0437    -0.0051
 1309.0000     7.8503    45.9548    35.0528  1135.5341   823.3677   971.6419     7.9594     0.0499     0.4230     2.7044     0.0016    45.1590  1889.1321  1012.0419    55.7795     0.0198
 1309.5000     7.8467    55.3372    42.0556  1127.9402   827.9516   961.3948     7.9586     0.0726     0.4550     2.6216     0.0033    52.4170  1013.3631   598.3515    61.5099     0.0684
 1310.0000     7.8431    64.7195    53.2268  1127.7438   830.0147   951.2783     7.9578     0.0907     0.4959     2.5557     0.0041    56.4204   539.0726   256.8232    66.0584     0.1108
 1310.5000     7.8385    69.4071    57.8112  1150.5239   833.1647   957.0333     7.9569     0.0954     0.4940     2.5557    -0.0012    59.5661   387.6551   203.9434    69.2784     0.1278
 1311.0000     7.8338    72.6175    62.3956  1145.8468   836.0591   966.5359     7.9559     0.0931     0.4890     2.5658    -0.0082    62.7119   316.9558   171.3230    68.7425     0.1224
 1311.5000     7.8324    74.9916    65.8810  1117.7039   836.5648   972.9894     7.9555     0.0907     0.4781     2.5775    -0.0105    65.8576   291.6938   159.1326    67.8854     0.1170
 1312.0000     7.8308    76.6256    68.2105  1089.9452   841.5030   973.2191     7.9557     0.0884     0.4667     2.5874    -0.0115    69.0283   314.3024   177.5202    67.5257     0.1133
 1312.5000     7.8252    80.0872    69.8951  1101.3365   840.8341   973.3605     7.9555     0.0858     0.4634     2.5962    -0.0100    81.5115   428.3344   214.5863    67.1661     0.1107
 1313.0000     7.8195    88.1215    72.7587  1101.9592   839.8913   973.5044     7.9553     0.0858     0.4635     2.6022     0.0010    94.0945   501.4115   244.3099    66.8005     0.1086
 1313.5000     7.8180    96.3972    79.4934  1085.7660   834.5155   969.5829     7.9555     0.0922     0.4659     2.5947     0.0102   101.8219   472.3934   219.9392    67.2549     0.1118
 1314.0000     7.8164   111.8777    86.8623  1084.8542   833.5695   965.6601     7.9557     0.0982     0.4716     2.5880     0.0122   102.2024   394.1141   173.5404    68.6359     0.1184
 1314.5000     7.8108   116.7641    99.4836  1085.7561   828.1923   965.8028     7.9555     0.1020     0.4768     2.5813     0.0076    97.5846   342.7459   141.7884    69.7465     0.1331
