#--------------------------------------------------#
#----------------DRILLING INFO, INC.---------------#
#---------------WWW.DRILLINGINFO.COM---------------#
#------------------COPYRIGHT 2018------------------#
#--------------------------------------------------#
#THIS FILE MAY BE USED ONLY IN ACCORDANCE WITH A CURRENT SUBSCRIPTION AGREEMENT BETWEEN
#THE USER AND DRILLING INFO, INC. NO PART OF THIS FILE MAY BE REPRODUCED, USED, COPIED,
#MODIFIED, PROPAGATED, OR DISTRIBUTED EXCEPT IN ACCORDANCE WITH THE SUBSCRIPTION
#AGREEMENT. UNAUTHORIZED USE OR DISTRIBUTION OF ALL OR ANY PART OF THIS FILE MAY VIOLATE
#COPYRIGHT, TRADEMARK, AND/OR OTHER LAWS AND IS SUBJECT TO CIVIL AS WELL AS CRIMINAL
#SANCTIONS.
#--------------------------------------------------#
#THIS FILE IS PROVIDED "AS-IS" AND ALL WARRANTIES ARE EXPRESSLY DISCLAIMED, WHETHER
#EXPRESS, ORAL, IMPLIED, STATUTORY OR OTHERWISE, INCLUDING ANY IMPLIED WARRANTY OF FITNESS
#FOR A PARTICULAR PURPOSE, MERCHANTABILITY, TITLE OR NON-INFRINGEMENT, AND ANY WARRANTIES
#ARISING BY VIRTUE OF CUSTOM OF TRADE OR COURSE OF DEALING.  FURTHER, DRILLING INFO,
#INC. AND ITS LICENSORS DO NOT REPRESENT OR WARRANT THAT THIS FILE WILL MEET USER'S
#REQUIREMENTS OR ARE SUITABLE FOR USER'S NEEDS OR THAT THE DATA OR RESULTS PROVIDED IN
#CONJUNCTION THEREWITH ARE CORRECT, ACCURATE, TIMELY OR RELIABLE. THESE DISCLAIMERS SHALL
#APPLY REGARDLESS OF ANY FAILURE OF ESSENTIAL PURPOSE OF ANY LIMITED REMEDY.  SOME
#JURISDICTIONS DO NOT ALLOW THE EXCLUSION OF CERTAIN WARRANTIES SO SOME OF THE ABOVE
#EXCLUSIONS MAY NOT APPLY. IN NO EVENT SHALL DRILLING INFO, INC. OR ANY OF ITS AFFILIATES
#BE LIABLE UNDER ANY LEGAL THEORY, WHETHER IN TORT (INCLUDING WITHOUT LIMITATION
#NEGLIGENCE), CONTRACT, STRICT LIABILITY, STATUTORY OR OTHERWISE, FOR ANY SPECIAL,
#INCIDENTAL, CONSEQUENTIAL, EXEMPLARY, PUNITIVE OR INDIRECT DAMAGE OF ANY KIND, INCLUDING
#WITHOUT LIMITATION LOSS OF REVENUE, PROFITS, GOODWILL, USE, AND/OR DATA OR THE COST OF
#PROCUREMENT OF SUBSTITUTE GOODS OR SERVICES, EVEN IF APPRISED OF THE POSSIBILITY OF SUCH
#DAMAGES IN ADVANCE.
#--------------------------------------------------#
# Exported from DI Transform
# DI Transform - A Product of Drillinginfo, Inc. - www.drillinginfo.com
#--------------------------------------------------#
#
~VERSION INFORMATION
 VERS.        2.0 : LAS ASCII STANDARD - VERSION 2.0
 WRAP.         NO : ONE LINE PER DEPTH STEP

~WELL INFORMATION
#MNEM.UNIT       DATA TYPE       INFORMATION
#---------       ---------       -----------
 STRT.ft          9043 : Start Depth
 STOP.ft         16870 : Stop Depth
 STEP.ft           0.5 : Step Length
 NULL.         -999.25 : Null Value
 COMP.                 : Company
 WELL.          DRD_55 : Well Name
 FLD.                  : Field Name
 LOC.                  : Well Location
 CNTY.                 : County
 STAT.                 : State or Province
 CTRY.                 : Country
 SRVC.                 : Service Company
 DATE.                 : Date
 API.   42109326310000 : Well Identifier

~CURVE INFORMATION
#MNEM.UNIT       API CODE       CURVE DESCRIPTION
#---------       --------       -----------------
 DEPT.ft          : <Measured Depth>
 CAL.in           : Caliper
 DPHI.%           : Density Porosity
 DT.us/ft         : Sonic
 GR.gAPI          : Gamma Ray
 ILD.ohmm         : Deep Resistivity
 ILS.ohmm         : Shallow Resistivity
 RHOB.g/cm3       : Density

~PARAMETER INFORMATION
#MNEM.UNIT       VALUE       DESCRIPTION
#---------       -----       -----------
 EKB.ft      3382 : Elevation above MSL

~A       DEPT         CAL        DPHI          DT          GR         ILD         ILS        RHOB
# ...
        10109       6.043     10.3356     71.2281    246.7708     28.9086     30.5789       2.537
      10109.5      6.0415       9.853     66.3985         250     27.5694     29.4592      2.5464
        10110      6.0399      9.2558     64.1317         250     25.6842     26.5351      2.5545
      10110.5      6.0384      8.9575     63.6141    249.8378     23.2207     22.6139      2.5588
        10111      6.0368      8.8525     64.2185    248.8851     24.8769     25.1267      2.5588
      10111.5      6.0353      8.9344     64.5348    248.1343     28.1517     28.6154       2.557
        10112      6.0337      8.9908     64.7347    244.7741     31.1935      31.715      2.5544
      10112.5      6.0322      8.8359     64.9048    242.0837     29.6602     28.1873      2.5573
        10113      6.0306      8.6885     65.2123    238.3708     29.4884     28.5215      2.5609
      10113.5      6.0291      8.5246     65.2245    237.9926     31.2358     31.1783       2.564
        10114      6.0276      8.5855     65.2245    240.5237     32.9943     33.0987      2.5631
      10114.5       6.026      8.7096     65.3469    240.3083     29.0348     29.0372       2.561
        10115      6.0245      8.9157     65.3469    238.8515     26.3382     25.6045      2.5582
      10115.5      6.0229      9.2037     65.2245    239.5681     26.1099     25.4234      2.5543
        10116      6.0214      9.3443     65.2245    241.5269     27.3776     26.9597      2.5493
      10116.5      6.0198      9.1546     65.2245     243.278     28.0912     27.8565      2.5446
        10117      6.0183      8.8736     65.4679    244.8871     28.0912     27.3495      2.5556
      10117.5      6.0168       8.727     65.3469    243.4873     28.7175     27.6537      2.5611
        10118      6.0152      9.1917     65.3457    240.6042      30.792     28.9961      2.5499
      10118.5      6.0137      9.7479     65.3469    240.7299     33.4118     31.5725      2.5388
        10119      6.0121     10.2268     65.5957    242.1312     34.1207     33.0738      2.5327
      10119.5      6.0106     10.2953     65.8367    245.4266     31.6877     29.4396      2.5291
        10120       6.009     10.0518     65.7077    247.9675     27.8618     26.6859      2.5347
      10120.5      6.0075      9.7253     65.5386    247.9675     27.7496     26.2314       2.542
        10121      6.0059      9.2713     65.5826    247.9675     31.0141     29.0316      2.5486
      10121.5      6.0044      9.5826     65.3469    247.9675     37.0314     34.1418       2.545
        10122      6.0029     10.1547     65.3589    247.9675     33.4319     31.7504       2.538
      10122.5      6.0013     10.5313     65.5918    243.9024     28.7298     27.8041      2.5317
        10123      5.9998     10.6557     65.5918    243.9024     27.7723     27.2006      2.5281
      10123.5      5.9982     10.7377     65.3922    243.9024     31.4973     31.9735      2.5259
        10124      5.9967     10.9036     65.2418     243.951     36.6066     35.8464       2.523
      10124.5      5.9951     11.1947     65.1446    247.8614     37.1858     36.9124      2.5172
        10125      5.9936     11.3892     65.1221    243.9024     35.7312     34.8525      2.5121
      10125.5       6.002     10.9852     65.3071    240.1616     37.5238     35.9232      2.5352
        10126      5.9754     10.3967     65.4694    239.8374     37.5238     36.9124      2.5394
      10126.5      5.9754     10.1435     65.4694    243.0772     37.1398     35.5457      2.5298
        10127      5.9754     10.2548     65.4694    243.6829     35.9442     34.9114      2.5231
      10127.5      5.9752     10.4863      65.259    241.8699     37.6715     36.2464      2.5179
        10128      5.9746     10.9427     64.9375    245.6585     40.5606     38.6418      2.5156
      10128.5       5.974     11.2404     64.5216    243.1911     38.4984     36.2438      2.5116
        10129      5.9734     11.3114     64.2141    248.3009     33.8002      31.048      2.5078
      10129.5      5.9727     11.3827     64.0802    246.5893     31.4595     28.9058      2.5091
        10130      5.9721     11.5843     64.0129    246.3254     30.9078     29.0289      2.5112
      10130.5      5.9715     11.6511     64.3765    251.4469     30.2941     29.6187      2.5132
        10131      5.9708     11.6213     64.7708      256.25     30.8713     28.5057      2.5153
      10131.5      5.9702     11.3851     64.8571    254.6953     32.3461     29.8506      2.5174
        10132      5.9696     11.1475     64.5734    252.0492     33.9145     31.4606      2.5155
      10132.5       5.969      11.128      64.266    252.5446     33.6143     32.1675      2.5154
        10133      5.9683     11.3341     64.0809    249.4387     32.6714     32.1675      2.5154
      10133.5      5.9677     11.3934          64    250.4415     33.2921     31.3746      2.5154
        10134      5.9671     11.3934     64.2891    248.8851      31.736     29.9465      2.5134
      10134.5      5.9665     11.3934     64.4898    248.3277     29.2691     28.0534      2.5133
        10135      5.9658     11.5026     64.6122    249.8134     28.6517      27.472      2.5133
      10135.5      5.9652     11.6393     64.5028    251.1199     30.6526     29.8423      2.5155
        10136      5.9646     11.4459     64.1953         250     32.6697     31.2712      2.5112
      10136.5      5.9639     11.3831     64.1224         250      31.712     29.5936       2.503
        10137      5.9633     11.5072     64.1747    250.9955     30.3458     29.0315      2.4966
      10137.5      5.9627     11.8282     64.3673    254.3722     32.0018     29.8808      2.5032
        10138      5.9621     12.4128     64.6672    257.4629     33.9983     30.8655      2.5064
      10138.5      5.9614      12.459     64.9746    256.9141     34.1707     32.9521      2.5136
        10139      5.9608      12.204     64.9796     256.873     32.5885     30.3569      2.5196
      10139.5      5.9602     11.5676      64.737    255.1438     32.0589      29.352      2.5217
        10140      5.9595     11.1304     64.5519    250.8883     32.0589     29.2944      2.5237
      10140.5      5.9589     10.9028     65.0417    251.1046     31.4595     29.8368      2.5258
        10141      5.9584     10.8197     65.6566    255.4107     30.8411     28.8626      2.5278
      10141.5      5.9584     10.7365     66.0816     264.015     32.0801     30.6889      2.5296
        10142      5.9844     10.5088     65.9831    275.2852     34.7032     32.0964      2.5263
      10142.5      6.0264     10.4098     65.5831    279.4385     36.9608      33.065      2.5209
        10143      6.0264     10.5374     65.1561    273.2015     35.0156     32.4066      2.5116
      10143.5       6.026     10.8722     64.9796    267.3913      32.307     29.9323      2.5039
        10144      6.0256     11.3732     64.9796    268.7623      30.732      27.689      2.5018
      10144.5      6.0252     11.8564     64.9796    274.7972     29.3097     27.3109      2.5054
        10145      6.0248     12.0492     64.9796    278.5696     29.8766     28.4784      2.5085
      10145.5      6.0244     12.0336      65.102    279.5455     30.8713     30.2029      2.5097
        10146       6.024     11.7508     65.3009    282.1101     29.9747     28.6621      2.5026
      10146.5      6.0236     11.7213     65.4859    279.5455     26.5555     25.2029      2.4985
        10147      6.0232     11.8581     65.6709    281.2602     24.8766     23.3881      2.4944
      10147.5      6.0228     12.2096     65.7335    281.7181     25.4741     23.8021      2.4927
        10148      6.0224     12.5161     65.8367    279.7518     28.5363     27.5252       2.502
      10148.5       6.022     12.6057     65.9592    277.1948     31.0066     29.5147      2.5089
        10149      6.0216     12.3996     66.1661    277.1948     29.9018     28.2744      2.5136
      10149.5      6.0212     11.9397     66.3511    278.1909     27.1591     25.7495      2.5159
