~VERSION INFORMATION
 VERS.                2.0:   CWLS LOG ASCII STANDARD - VERSION 2.0
 WRAP.                 NO:   ONE LINE PER DEPTH STEP
~WELL INFORMATION
#MNEM.UNIT      DATA TYPE    INFORMATION
#----------   ------------   ------------------------------
 STRT.FT        8672.0000:   START DEPTH
 STOP.FT       14432.0000:   STOP DEPTH
 STEP.FT           0.5000:   STEP LENGTH
 NULL.          -999.2500:   NULL VALUE
 COMP. CAPITAN ENERGY, INCORPORATED:   COMPANY
 WELL.  MOTHER FEE 28 #1H:   WELL
 FLD . FORD, WEST (WOLFCAMP)	:   FIELD
 LOC .                   :   LOCATION
 CNTY.          CULBERSON:   COUNTY
 STAT.              TEXAS:   STATE
 CTRY. UNITED STATES OF AMERICA:   COUNTRY
 SRVC.        HALLIBURTON:   SERVICE COMPANY
 DATE.        16-Nov-2015:   LOGDATE
 API .     42109328880000:   API NUMBER
~CURVE INFORMATION
#MNEM.UNIT       API CODE    CURVE DESCRIPTION
#----------   ------------   ------------------------------
 DEPT.FT                 :   
 CALD_C.IN   45 280 60 00:   CALIPER FROM DENSITY COMPOSITE LOG
 DCOR.G/C3   45 356 01 00:   DENSITY CORRECTION
 DPHI_LS.DEC 45 890 10 00:   DENSITY POROSITY LIMESTONE
 DT_CH.US/F  60 501 00 00:   DELTA FROM THE FULL WAVE SONIC IN CASED HOLE
 GRD .GAPI   45 310 01 00:   GAMMA RAY FROM DENSITY LOG
 LLDC.OHMM   11 220 10 00:   CORRECTED LATEROLOG DEEP RESISTIVITY
 LLSC.OHMM   11 220 09 00:   CORRECTED LATEROLOG SHALLOW RESISTIVITY
 MSFLC.OHMM  11 270 04 00:   CORRECTED MICRO SPHERICALLY FOCUSED RESISTIVITY
 NPHI_LS.DEC 42 890 01 00:   NEUTRON POROSITY LIMESTONE
 PE  .B/E    45 358 01 00:   PHOTO ELECTRIC CROSS SECTION
 RHOB_CH.G/C3 45 350 01 00:   
~PARAMETER INFORMATION
#MNEM.UNIT          VALUE    DESCRIPTION
#----------   ------------   ------------------------------
 DATE.           11/16/15:   RUN DATE
 RUN .                  1:   RUN NUMBER
 BLI .FT            14432:   BOTTOM LOG INTERVAL
 TLI .FT             8672:   TOP LOG INTERVAL
 ORIG.     1" 2" 5" PRINT:   ORIGIN OF DATA
 UWI .     42109328880000:   UNIQUE WELL ID
~OTHER INFORMATION
~A   DEPT         CALD_C      DCOR       DPHI_LS      DT_CH       GRD        LLDC        LLSC        MSFLC       NPHI_LS         PE      RHOB_CH
# ...
 10968.0000   -999.2500   -999.2500      0.0924     72.2166    121.2192     38.7888     29.9269     18.0649      0.1623      3.2387      2.5560
 10968.5000   -999.2500   -999.2500      0.0936     72.2184    126.0519     40.8590     33.7661     19.6702      0.1622      3.2639      2.5580
 10969.0000   -999.2500   -999.2500      0.0931     72.2199    127.6442     42.4049     33.7661     19.9223      0.1618      3.2793      2.5600
 10969.5000   -999.2500   -999.2500      0.0950     72.2219    126.6223     41.4705     34.7837     19.9073      0.1627      3.2641      2.5559
 10970.0000   -999.2500   -999.2500      0.1006     72.6669    140.5304     49.6073     38.2971     22.7493      0.1669      3.2617      2.5431
 10970.5000   -999.2500   -999.2500      0.1026     72.8570    149.6096     52.9896     40.4051     24.4658      0.1682      3.2650      2.5451
 10971.0000   -999.2500   -999.2500      0.0979     72.8922    139.6487     44.2512     38.1066     21.2441      0.1661      3.2793      2.5476
 10971.5000   -999.2500   -999.2500      0.0968     72.7017    130.5883     41.7918     35.5449     20.1801      0.1645      3.2793      2.5500
 10972.0000   -999.2500   -999.2500      0.0966     72.4634    129.0360     41.0744     32.9831     19.5149      0.1631      3.2388      2.5520
 10972.5000   -999.2500   -999.2500      0.0967     72.4131    128.9251     38.6450     31.3489     18.7937      0.1626      3.2287      2.5525
 10973.0000   -999.2500   -999.2500      0.1001     72.3913    138.0911     43.0820     35.3706     20.8734      0.1633      3.2388      2.5519
 10973.5000   -999.2500   -999.2500      0.1016     72.3695    138.1755     44.6681     35.5903     21.4950      0.1627      3.2388      2.5509
 10974.0000   -999.2500   -999.2500      0.0974     72.3476    127.2784     38.4482     31.4807     20.3561      0.1591      3.2090      2.5503
 10974.5000   -999.2500   -999.2500      0.0951     72.3258    123.8623     34.7495     28.9251     19.1460      0.1565      3.1983      2.5502
 10975.0000   -999.2500   -999.2500      0.0948     72.3040    125.5924     35.8104     28.8358     18.1086      0.1557      3.1983      2.5505
 10975.5000   -999.2500   -999.2500      0.0961     72.2917    126.6494     37.3151     29.8194     18.0414      0.1557      3.1781      2.5510
 10976.0000   -999.2500   -999.2500      0.0953     72.5584    130.7160     39.2156     31.7055     19.2432      0.1563      3.1847      2.5515
 10976.5000   -999.2500   -999.2500      0.0996     72.8251    136.2963     44.0094     34.6126     20.5854      0.1565      3.1993      2.5519
 10977.0000   -999.2500   -999.2500      0.1001     72.9132    130.6201     42.7211     34.6126     20.5063      0.1537      3.2401      2.5524
 10977.5000   -999.2500   -999.2500      0.0947     72.9121    119.7600     38.2668     31.1781     18.9199      0.1485      3.2793      2.5558
 10978.0000   -999.2500   -999.2500      0.0896     72.9109    109.1451     34.4424     27.9571     17.4287      0.1444      3.3255      2.5601
 10978.5000   -999.2500   -999.2500      0.0899     72.9098    114.2916     41.6248     32.1081     19.6190      0.1419      3.4007      2.5643
 10979.0000   -999.2500   -999.2500      0.0898     72.9086    115.8488     47.5791     38.4532     22.1300      0.1419      3.4412      2.5652
 10979.5000   -999.2500   -999.2500      0.0870     72.9075    109.6413     42.8510     34.6126     19.7967      0.1449      3.4412      2.5652
 10980.0000   -999.2500   -999.2500      0.0926     72.9063    122.1998     50.3049     40.2804     24.1930      0.1489      3.4412      2.5636
 10980.5000   -999.2500   -999.2500      0.0924     72.9052    120.4306     44.8858     35.2614     22.0183      0.1527      3.4336      2.5612
 10981.0000   -999.2500   -999.2500      0.0954     72.9040    130.6208     45.9903     37.1489     21.0087      0.1556      3.3968      2.5489
 10981.5000   -999.2500   -999.2500      0.0995     72.9029    137.4476     49.2543     37.9802     23.3978      0.1608      3.3768      2.5478
 10982.0000   -999.2500   -999.2500      0.0983     72.9017    134.5798     45.7695     37.2815     22.4924      0.1650      3.3568      2.5518
 10982.5000   -999.2500   -999.2500      0.0954     72.9006    129.8801     42.2305     34.2564     20.2506      0.1677      3.3369      2.5589
 10983.0000   -999.2500   -999.2500      0.0916     72.9029    117.2246     35.0737     28.7550     17.5692      0.1664      3.3169      2.5645
 10983.5000   -999.2500   -999.2500      0.0881     72.7482    114.0242     31.1062     25.3994     16.0708      0.1642      3.2970      2.5667
 10984.0000   -999.2500   -999.2500      0.0909     72.5935    117.8472     33.8172     27.2742     16.6229      0.1607      3.2648      2.5631
 10984.5000   -999.2500   -999.2500      0.0926     72.4388    123.4236     36.0093     29.4129     17.4467      0.1564      3.2288      2.5617
 10985.0000   -999.2500   -999.2500      0.0959     72.2841    118.2985     38.6906     30.6772     18.4480      0.1537      3.1838      2.5603
 10985.5000   -999.2500   -999.2500      0.0885     72.1294    109.7507     29.1489     24.0451     14.3841      0.1510      3.1950      2.5661
 10986.0000   -999.2500   -999.2500      0.0914     71.9747    114.9101     31.2798     25.6453     15.3592      0.1535      3.2231      2.5616
 10986.5000   -999.2500   -999.2500      0.0967     71.8825    117.6450     33.6428     27.8814     16.7145      0.1560      3.2511      2.5599
 10987.0000   -999.2500   -999.2500      0.0931     71.8840    119.0096     35.8573     29.0420     17.5784      0.1583      3.2791      2.5616
 10987.5000   -999.2500   -999.2500      0.0910     71.8840    115.1653     33.4826     27.9867     16.6950      0.1580      3.2804      2.5621
 10988.0000   -999.2500   -999.2500      0.0892     71.8880    111.3829     32.3333     26.5242     15.8478      0.1558      3.2543      2.5621
 10988.5000   -999.2500   -999.2500      0.0905     71.8754    113.9641     33.3276     27.2375     16.4253      0.1547      3.2532      2.5615
 10989.0000   -999.2500   -999.2500      0.0929     71.8538    121.3487     35.8227     29.6336     17.4993      0.1547      3.2522      2.5599
 10989.5000   -999.2500   -999.2500      0.0943     71.8322    121.3816     35.8144     29.7421     17.5714      0.1547      3.2511      2.5598
 10990.0000   -999.2500   -999.2500      0.0905     71.8106    112.6232     31.9870     29.1048     16.3190      0.1568      3.2501      2.5615
 10990.5000   -999.2500   -999.2500      0.0882     71.8120    109.8447     29.1416     24.6254     15.1237      0.1572      3.2490      2.5655
 10991.0000   -999.2500   -999.2500      0.0880     71.8134    111.1420     31.5053     26.0362     15.5148      0.1577      3.2479      2.5684
 10991.5000   -999.2500   -999.2500      0.0869     71.8148    109.0848     30.2837     25.4697     14.7904      0.1575      3.2469      2.5713
 10992.0000   -999.2500   -999.2500      0.0851     71.8162    105.1359     28.0791     23.8403     13.9668      0.1561      3.2458      2.5742
 10992.5000   -999.2500   -999.2500      0.0837     71.8177    101.8125     27.5625     22.7920     13.6755      0.1536      3.2447      2.5754
 10993.0000   -999.2500   -999.2500      0.0837     71.8191    102.6134     28.2885     24.1724     14.0671      0.1521      3.2563      2.5742
 10993.5000   -999.2500   -999.2500      0.0898     71.8205    114.3892     37.0981     30.1128     17.8913      0.1532      3.2760      2.5647
 10994.0000   -999.2500   -999.2500      0.0913     71.8219    115.0211     37.9636     29.9269     17.9450      0.1527      3.2956      2.5603
 10994.5000   -999.2500   -999.2500      0.0923     71.8814    116.6568     37.8883     30.1788     18.3763      0.1517      3.2905      2.5586
 10995.0000   -999.2500   -999.2500      0.0941     71.8010    114.3164     36.3825     30.5822     19.0750      0.1518      3.2793      2.5602
 10995.5000   -999.2500   -999.2500      0.0885     71.5505    107.4192     31.8693     24.9321     15.4573      0.1496      3.2631      2.5625
