###############################################
##         ENVERUS                           ##
##         ESS - Open Hole                   ##
##         PERMIAN / DELAWARE                ##
##         Nov 02 2023  V4.0                 ##
##         42-109-31408-00-00                ##
###############################################
## Copyright 2017-2023  ENVERUS.  All Rights Reserved. 
## Confidential - Property of ENVERUS, use governed by terms and 
## conditions found within the existing Information Services Subscription Agreement 
## (as may be amended, the “ISSA”) between Customer and ENVERUS. 
## 
~VERSION INFORMATION
# MNEM.UNIT                               DATA : DESCRIPTION OF MNEMONIC
#-----.-----     ----------------------------- : -----------------------------
VERS.                                     2.00 : CWLS LOG ASCII STANDARD - VERSION 2.00
WRAP.                                       NO : MULTIPLE LINES PER DEPTH STEP
VEND.                                  ENVERUS : VENDOR
TYPE.                          ESS - OPEN HOLE : ENVERUS ESSENTIAL CURVES – ACCESSIBLE THROUGH ENVERUS PRISM(TM)
DOC.                                  31850517 : ENVERUS HEADER RAW DOCUMENT ID
#___________________________________________________________________________________________________ 
~WELL INFORMATION 
# bqLd+XSZJOn45CI61XVoQu+UOVndmKoY6sdO6/bnbKn7IExcVbobTFa2ZjWyWmdO1mIol927X6bTh1nHm93KmQ== 
# MNEM.UNIT                                              DATA : DESCRIPTION OF MNEMONIC 
#-----.-----                    ----------------------------- : ----------------------------- 
CNTY.                                               CULBERSON : COUNTY 
STATE.                                                  TEXAS : STATE 
CNTRY.                                                    USA : COUNTRY 
API.                                             42-109-31408 : API (10 Digit) 
API_14.                                    42-109-31408-00-00 : API (14 Digits) 
API_14_std.                                 42-109-31408-0000 : API (14 Digits Standard) 
UWI.                                           42109314080000 : UNIQUE WELL ID 
WELL.                                           CASTILE 48  1 : WELL NAME
STRT.FT                                                2207.0 : START DEPTH
STOP.FT                                               11710.0 : STOP DEPTH
STEP.FT                                                   0.5 : STEP BETWEEN DEPTHS
NULL.                                                 -999.25 : NULL VALUE
COMP.                                         TENNECO OIL CO. : COMPANY 
DATE.                                             28-APR-1980 : LOG DATE
#___________________________________________________________________________________________________ 
~CURVE INFORMATION 
# MNEM.UNIT           : CURVE DESCRIPTION 
#-----.-----          : ----------------------------- 
 DEPT.FT               : MEASURED DEPTH 
 CALI.IN               : CALIPER (CAL - CAL) 
 GR.API                : GAMMA RAY (GR) 
 DT.US/FT              : SONIC DELTA TRANSIT TIME (DT) 
 RESS.OHMM             : SHALLOW INDUCTION RESISTIVITY (ILS - ILS) 
 RESD.OHMM             : DEEP INDUCTION RESISTIVITY (ILD - ILD) 
 #___________________________________________________________________________________________________ 
~A         DEPT           CALI             GR             DT           RESS           RESD
# ...
         7267.0         11.020         64.109         71.511          3.620          3.954
         7267.5         11.019         65.694         70.811          3.387          3.568
         7268.0         11.018         64.622         69.531          3.699          3.635
         7268.5         11.017         62.496         68.251          4.011          3.703
         7269.0         11.016         60.370         66.972          4.324          4.179
         7269.5         11.016         58.244         65.692          4.636          4.714
         7270.0         11.016         56.118         64.938          4.948          5.249
         7270.5         11.016         53.992         66.717          5.125          5.784
         7271.0         11.016         51.866         68.497          5.148          5.823
         7271.5         11.016         53.957         70.277          5.170          5.408
         7272.0         11.016         56.264         71.661          5.708          5.547
         7272.5         11.016         58.571         71.692          7.068          6.162
         7273.0         11.016         60.878         71.723          7.961          6.777
         7273.5         11.016         63.185         71.754          7.065          6.335
         7274.0         11.016         65.492         71.870          6.169          5.281
         7274.5         11.016         67.799         72.210          5.273          4.554
         7275.0         11.016         69.839         72.551          4.580          4.401
         7275.5         11.016         69.701         72.891          4.671          4.248
         7276.0         11.016         69.564         73.231          4.763          4.169
         7276.5         11.016         69.426         73.571          4.854          4.483
         7277.0         11.016         69.288         72.866          5.004          4.797
         7277.5         11.016         69.002         71.966          5.163          5.209
         7278.0         11.016         65.853         71.067          5.322          5.659
         7278.5         11.016         62.703         70.167          6.580          6.108
         7279.0         11.016         59.554         69.608          6.640          6.558
         7279.5         11.016         58.181         69.574          6.641          6.631
         7280.0         11.016         57.716         69.540          6.643          6.633
         7280.5         11.005         57.252         69.506          6.963          7.249
         7281.0         10.990         56.788         69.471          7.922          8.852
         7281.5         10.976         56.217         69.437          7.519          6.183
         7282.0         10.962         55.091         69.182          5.119          5.240
         7282.5         10.948         53.965         68.917          4.092          4.298
         7283.0         10.933         52.838         68.652          3.871          3.662
         7283.5         10.919         51.712         68.363          3.649          3.492
         7284.0         10.905         50.586         65.088          3.428          3.323
         7284.5         10.891         49.460         64.129          3.384          3.231
         7285.0         10.876         48.334         65.291          3.424          3.481
         7285.5         10.862         47.207         66.453          3.464          3.731
         7286.0         10.848         48.373         67.615          4.200          5.198
         7286.5         10.834         50.443         68.777          6.398          6.670
         7287.0         10.819         52.513         69.939          8.596          8.141
         7287.5         10.805         54.583         70.949         10.795          8.953
         7288.0         10.791         56.653         70.700          6.361          6.475
         7288.5         10.777         58.723         70.450          3.828          3.424
         7289.0         10.762         59.600         70.201          3.660          3.457
         7289.5         10.748         59.517         69.653          3.492          3.490
         7290.0         10.759         59.435         67.480          3.493          3.522
         7290.5         10.769         55.888         65.307          3.549          3.555
         7291.0         10.779         51.149         63.134          3.604          3.857
         7291.5         10.790         46.410         60.961          3.659          4.511
         7292.0         10.800         41.671         58.788          3.962          5.166
         7292.5         10.810         45.591         59.942          4.454          5.820
         7293.0         10.821         51.965         62.442          5.733          6.475
         7293.5         10.831         58.339         64.941          8.427          7.786
         7294.0         10.841         64.713         67.440         11.122         13.927
         7294.5         10.852         64.775         69.362         15.884         20.068
         7295.0         10.862         64.020         69.764         22.536         25.064
         7295.5         10.872         63.264         70.166         16.316         19.424
         7296.0         10.883         62.508         70.568         10.097         13.784
         7296.5         10.893         61.753         70.970          4.250          8.143
         7297.0         10.903         60.997         70.661          4.206          5.028
         7297.5         10.913         60.437         70.210          4.163          5.029
         7298.0         10.924         61.168         69.758          4.119          5.030
         7298.5         10.934         61.899         69.306          4.104          5.031
         7299.0         10.944         62.630         69.436          4.128          5.032
         7299.5         10.955         63.361         69.647          4.153          5.041
         7300.0         10.965         64.092         69.858          4.178          5.233
         7300.5         10.975         64.823         70.069          4.202          5.988
         7301.0         10.986         65.555         70.280          4.221          6.390
         7301.5         10.996         65.676         70.492          4.240          6.017
         7302.0         11.006         65.676         70.483          4.258          5.645
         7302.5         11.017         65.675         70.216          4.131          5.272
         7303.0         11.027         63.311         69.949          3.979          4.900
         7303.5         11.037         58.196         69.682          3.826          4.527
         7304.0         11.033         54.338         69.682          3.820          4.611
         7304.5         11.016         55.683         69.682          3.971          4.729
         7305.0         11.000         57.027         69.682          4.122          4.924
         7305.5         10.983         58.372         69.682          4.711          5.367
         7306.0         10.966         59.716         69.682          4.585          5.810
         7306.5         10.949         58.622         69.681          4.459          6.253
         7307.0         10.932         56.524         69.681          4.333          5.769
         7307.5         10.916         54.427         69.890          4.255          5.182
         7308.0         10.899         52.330         70.244          4.228          5.403
         7308.5         10.882         50.232         70.597          4.201          5.623
         7309.0         10.865         48.355         70.196          4.174          5.843
         7309.5         10.849         49.498         69.348          4.002          4.948
         7310.0         10.832         50.641         68.686          3.719          4.075
         7310.5         10.815         51.785         69.019          3.548          4.075
