~Version Information Block
 VERS.                2.00:     CWLS LOG ASCII STANDARD - VERSION 2.000000
 WRAP.                  NO:     One Line Per Depth Step
#
~Well Information Block
#MNEM.UNIT                     Data                         Information
#----------   ------------------------------------------   ----------------
 STRT.F                                        31.0000:     START DEPTH
 STOP.F                                     15936.0000:     STOP DEPTH
 STEP.F                                         0.5000:     STEP
 NULL.                                       -999.2500:     NULL VALUE
 COMP.                             AMERCN QUASAR PETRO:     COMPANY
 WELL.                                    SCOTT UNIT 1:     WELL
 FLD .                                         WILDCAT:     FIELD
 LOC .        Survey  PSL              - Abs  6331     - Blk  45   - Section  19:     LOCATION
 CNTY.                                              TX:     COUNTY
 STAT.                                              TX:     STATE
 CTRY.                        UNITED STATES OF AMERICA:     COUNTRY
 SRVC.                                      GEOGRAPHIX:     SERVICE COMPANY
 DATE.                                                :     DATE
 API .                                  42109313620000:     API NUMBER
 UWI .                                  42109313620000:     UWI NUMBER
 TVD .                                              NO:     TVD flag
 WSTA.                                             LOC:     Well status
#
~Curve Information Block
#MNEM.UNIT       API CODE      Curve Description
#----------    -------------   -------------------
 DEPT.F                    :   Depth in Feet
 LLD .OHMM                 :   LATEROLOG DEEP
 GRS .GAPI                 :   GAMMA RAY FROM SONIC LOG
 CALS.IN                   :   CALIPER FROM SONIC LOG
 MSFL.OHMM                 :   MICRO SPHERICALLY FOCUSED
 LLS .OHMM                 :   LATEROLOG SHALLOW
 DT  .US/F                 :   DELTA TIME
#
~Parameter Information Block
#MNEM.UNIT            Value               Description
#----------    --------------------    -------------------
 RUN .                         ONE:    Run Number
 PDAT.                          GL:    Permanent Datum
 EPD .FT                          :    Elevation Of Perm. Datum
 LMF .               KELLY BUSHING:    Log Measured From
 EKB .FT                          :    Elevation Of Kelly Bushing
 DF .FT                           :    Elevation Of Derrick Floor
 GL .FT                           :    Elevation Of Ground Level
 TD  .FT                          :    Total Depth
 CSGD.FT                          :    Casing Bottom (Driller) 1
 CSGL.FT                          :    Casing Bottom (Logger) 1
 MUD .                            :    Drilling Fluid Type
 MUDV .CP                         :    Drilling Fluid Viscosity
 MUDD .LB/USG                     :    Drilling Fluid Density
 FL .ML/30MIN                     :    Drilling Fluid Loss
 PH.                              :    Drilling Fluid Ph
 MUDS .                           :    Mud Sample Source
 RM .OHMM                         :    Resistivity Of Mud Sample
 RMT .DEGF                        :    Mud Sample Temperature
 RMF .OHMM                        :    Mud Filtrate Resistivity
 RMFT.DEGF                        :    Mud Filtrate Sample Temperature
 RMC .OHMM                        :    Mud Cake Resistivity
 RMCT.DEGF                        :    Mud Cake Sample Temperature
 RMB .OHMM                        :    Mud Resistivity At Bht
 TMAX .DEGF                       :    Bottom Hole Temperature
#
~Other Information Block
<DescLogPlotStart>   NEURALOG PLOT DEFINITION
PLOTDEFVERSION: 3
LASFILE: E:\Nair Innovations\42_TEXAS\109_Culberson\42109313620000_1.las
DEPTHSCALE: 239.999996
RESOLUTION: 200
DEPTHLABELFREQ: 100.000000
HEAVYGRIDFREQ: 50.000000
MEDIUMGRIDFREQ: 50.000000
LIGHTGRIDFREQ: 10.000000
#
#   TRACK 1
#
STARTTRACK: 
 LEFTX: 0.500000 inch
 RIGHTX: 3.000000 inch
 SCALETYPE: Linear
 NUMCHARTDIVISIONS: 10
CURVE: GRS   1.504600   250.000000 (0,0,255)      Solid             2     N    
CURVE: CALS  6.474400   14.873500  (0,131,131)    Solid             2     N    
ENDTRACK: 
#
#   TRACK 2
#
STARTTRACK: 
 LEFTX: 3.500000 inch
 RIGHTX: 6.000000 inch
 SCALETYPE: Log
 NUMCYCLES: 4
 STARTCYCLE: 2
CURVE: LLS   0.200000   2000.000000 (255,0,0)      Solid             4     Y   
BACKUP: 2000.000000 20000000.000000 (255,0,0)      Solid             4    
BACKUP: 0.000020   0.200000   (255,0,0)      Solid             4    
CURVE: MSFL  0.200000   2000.000000 (0,131,131)    Solid             2     N   
ENDTRACK: 
#
#   TRACK 3
#
STARTTRACK: 
 LEFTX: 6.500000 inch
 RIGHTX: 9.000000 inch
 SCALETYPE: Linear
 NUMCHARTDIVISIONS: 10
CURVE: LLD   0.200000   2000.000000 (255,0,255)    Solid             4     N   
CURVE: DT    190.000000 50.000000  (255,0,131)    Solid             2     N    
ENDTRACK: 
<DescLogPlotEnd>
<DepthTrack type='Reference' track='1' Label='0' color='0' hor='0' />
<Reference font='144,0,-900,0,500,0,16777216,Arial' />
~A DEPTH     LLD              GRS              CALS             MSFL             LLS              DT              
# ...
   14976.000 10.25770000      125.14440000     7.31780000       1.47320000       10.64190000      88.51060000     
   14976.500 10.55000000      124.24930000     7.28710000       1.13620000       10.64110000      88.37260000     
   14977.000 10.82660000      126.04740000     7.25630000       4.75470000       10.64040000      88.32830000     
   14977.500 10.82340000      128.97170000     7.22580000       1.31540000       10.63950000      88.14590000     
   14978.000 10.86330000      131.00600000     7.19520000       2.25810000       10.63880000      87.96350000     
   14978.500 10.96790000      130.63060000     7.19470000       2.93370000       10.78580000      87.41640000     
   14979.000 11.17910000      130.25520000     7.16400000       2.15440000       10.93490000      86.77810000     
   14979.500 11.49860000      130.63060000     7.13340000       5.53980000       11.23980000      86.59570000     
   14980.000 11.99010000      131.00600000     7.12070000       11.62210000      11.55330000      85.95740000     
   14980.500 12.39980000      131.00600000     7.10230000       4.42730000       13.82040000      80.85110000     
   14981.000 11.89490000      128.74160000     7.10180000       1.49160000       14.01130000      80.11680000     
   14981.500 10.65150000      125.00000000     7.10130000       3.13600000       13.58740000      80.34510000     
   14982.000 9.77460000       125.00000000     7.10080000       0.52350000       12.49010000      81.71310000     
   14982.500 9.36110000       121.71430000     7.13060000       0.34390000       10.20050000      86.84440000     
   14983.000 8.84250000       118.99400000     7.19060000       0.29750000       8.76540000       89.06250000     
   14983.500 8.53690000       120.12010000     7.22040000       0.21670000       9.44720000       90.40790000     
   14984.000 9.36300000       120.87090000     7.23620000       1.81620000       10.17610000      91.42860000     
   14984.500 9.90690000       120.12010000     7.21950000       7.45050000       10.99270000      90.72770000     
   14985.000 10.48240000      118.99400000     7.18880000       2.03030000       11.71780000      88.18110000     
   14985.500 11.09180000      119.36940000     7.21860000       1.49100000       12.19910000      84.68090000     
   14986.000 11.54050000      127.81150000     7.21810000       0.68660000       12.19820000      83.40430000     
   14986.500 11.07010000      127.87940000     7.24790000       0.55150000       11.70310000      84.13370000     
   14987.000 10.61930000      126.11550000     7.28700000       0.59880000       10.92280000      85.41030000     
   14987.500 10.04760000      125.15590000     7.31870000       0.36130000       9.78140000       85.95740000     
   14988.000 9.50670000       124.86980000     7.35040000       0.76830000       10.05420000      85.22800000     
   14988.500 9.76950000       126.50150000     7.36690000       3.28030000       10.62350000      83.31310000     
   14989.000 10.46290000      129.50450000     7.34920000       2.00820000       11.22890000      81.94530000     
   14989.500 11.06470000      131.38140000     7.30550000       1.76650000       11.86080000      82.89890000     
   14990.000 11.54750000      131.38140000     7.27490000       4.45960000       12.04680000      83.40430000     
   14990.500 12.19090000      130.63060000     7.24420000       9.90680000       12.22340000      82.49530000     
   14991.000 12.53830000      126.70500000     7.24380000       12.51510000      12.57470000      81.32790000     
   14991.500 12.84580000      121.45820000     7.24330000       11.20620000      13.11580000      80.54890000     
   14992.000 12.84170000      120.12010000     7.21270000       11.21410000      13.60970000      80.48630000     
   14992.500 12.59210000      122.04710000     7.21220000       10.10270000      13.60860000      80.56500000     
   14993.000 12.23630000      125.37540000     7.20900000       2.71130000       13.06050000      81.25970000     
   14993.500 11.64310000      128.00300000     7.18110000       5.32210000       11.82450000      82.06610000     
   14994.000 10.87360000      129.12910000     7.18070000       3.91520000       11.21730000      82.85710000     
   14994.500 10.81980000      130.25520000     7.18890000       4.24720000       11.37220000      83.58660000     
   14995.000 11.17120000      130.63060000     7.21000000       7.45610000       11.85170000      83.99990000     
   14995.500 11.48030000      129.45000000     7.20950000       6.02500000       12.35140000      82.76600000     
   14996.000 11.63630000      126.38300000     7.19460000       6.13860000       13.23200000      81.58050000     
   14996.500 11.63290000      124.18240000     7.17840000       5.57100000       14.37230000      82.12770000     
   14997.000 11.47080000      125.27360000     7.17790000       2.22970000       14.37700000      83.58660000     
   14997.500 11.30650000      133.56700000     7.26810000       3.46010000       13.02560000      84.32490000     
   14998.000 10.97420000      138.65880000     7.35830000       1.33880000       11.59530000      85.08070000     
   14998.500 10.32520000      138.54540000     7.41820000       1.44070000       9.50090000       85.84490000     
   14999.000 9.71330000       133.53490000     7.41780000       0.80390000       9.71910000       86.78440000     
   14999.500 9.74740000       126.12610000     7.38710000       0.55630000       10.58330000      87.46620000     
   15000.000 10.21150000      127.62760000     7.35650000       1.68960000       11.26020000      87.59880000     
   15000.500 10.80510000      131.38140000     7.31730000       2.93700000       11.36310000      85.27260000     
   15001.000 11.13470000      135.51050000     7.27810000       3.09970000       11.44830000      83.52190000     
   15001.500 10.90200000      135.88590000     7.23890000       3.17970000       11.28140000      82.03430000     
   15002.000 10.59360000      135.88590000     7.19970000       2.20120000       10.42120000      82.90840000     
   15002.500 10.45440000      136.64270000     7.17290000       1.29930000       10.12840000      82.49240000     
   15003.000 10.32140000      137.04390000     7.17240000       0.71870000       10.02510000      81.21580000     
   15003.500 10.16760000      138.19720000     7.17200000       0.73860000       10.21660000      79.93920000     
   15004.000 9.87890000       136.68510000     7.17160000       6.32490000       10.57250000      79.57450000     
   15004.500 9.80600000       125.14510000     7.17110000       4.54430000       11.11000000      80.30400000     
   15005.000 9.93710000       124.23010000     7.17070000       0.84710000       11.92820000      80.85110000     
   15005.500 10.64100000      121.97610000     7.17020000       0.91990000       12.65960000      80.48630000     
   15006.000 11.39470000      121.22350000     7.16980000       6.49010000       13.01090000      80.48630000     
   15006.500 11.87040000      121.22170000     7.16930000       8.09540000       13.18890000      79.98850000     
   15007.000 12.19690000      120.84450000     7.16890000       7.78340000       13.18630000      79.64540000     
   15007.500 12.36120000      121.55710000     7.16840000       3.69200000       13.00310000      79.86080000     
   15008.000 12.52740000      129.63490000     7.16800000       6.41830000       12.82240000      80.12160000     
   15008.500 12.35100000      133.75610000     7.16750000       11.40060000      12.47120000      79.20970000     
   15009.000 12.15900000      133.06620000     7.16710000       13.96510000      12.29790000      79.25270000     
   15009.500 11.81350000      129.38710000     7.16660000       14.23040000      11.78300000      80.16130000     
   15010.000 11.32150000      125.71280000     7.16610000       12.44360000      11.13140000      81.76290000     
   15010.500 11.00020000      125.08170000     7.16560000       8.19370000       10.68490000      81.21580000     
