###############################################
##         ENVERUS                           ##
##         ESS - Open Hole                   ##
##         PERMIAN / DELAWARE                ##
##         Nov 03 2023  V4.0                 ##
##         42-109-32507-90-00                ##
###############################################
## Copyright 2017-2023  ENVERUS.  All Rights Reserved. 
## Confidential - Property of ENVERUS, use governed by terms and 
## conditions found within the existing Information Services Subscription Agreement 
## (as may be amended, the “ISSA”) between Customer and ENVERUS. 
## 
~VERSION INFORMATION
# MNEM.UNIT                               DATA : DESCRIPTION OF MNEMONIC
#-----.-----     ----------------------------- : -----------------------------
VERS.                                     2.00 : CWLS LOG ASCII STANDARD - VERSION 2.00
WRAP.                                       NO : MULTIPLE LINES PER DEPTH STEP
VEND.                                  ENVERUS : VENDOR
TYPE.                          ESS - OPEN HOLE : ENVERUS ESSENTIAL CURVES – ACCESSIBLE THROUGH ENVERUS PRISM(TM)
DOC.                                  51094130 : ENVERUS HEADER RAW DOCUMENT ID
#___________________________________________________________________________________________________ 
~WELL INFORMATION 
# OeTAuI96vYP/1gAnXdiC+b2e5mg9bdq0rVS4GA6NX+ctg1PKQ5RhcqUsdOd2aOUDNf5EtC5635oDT1THDUi6iw== 
# MNEM.UNIT                                              DATA : DESCRIPTION OF MNEMONIC 
#-----.-----                    ----------------------------- : ----------------------------- 
CNTY.                                               CULBERSON : COUNTY 
STATE.                                                  TEXAS : STATE 
CNTRY.                                                    USA : COUNTRY 
API.                                             42-109-32507 : API (10 Digit) 
API_14.                                    42-109-32507-90-00 : API (14 Digits) 
API_14_std.                                 42-109-32507-9000 : API (14 Digits Standard) 
UWI.                                           42109325079000 : UNIQUE WELL ID 
WELL.                               42109325070000_PREV_API14 : WELL NAME
STRT.FT                                                2104.5 : START DEPTH
STOP.FT                                                9085.0 : STOP DEPTH
STEP.FT                                                   0.5 : STEP BETWEEN DEPTHS
NULL.                                                 -999.25 : NULL VALUE
PREV_APII.                                     42109325070000 : WELL IDENTIFIER
#___________________________________________________________________________________________________ 
~PARAMETER INFORMATION 
# MNEM.UNIT                                              DATA : DESCRIPTION OF MNEMONIC 
#-----.-----                    ----------------------------- : ----------------------------- 
EKB.FT                                                 3578.5 : ELEVATION ABOVE MSL
#___________________________________________________________________________________________________ 
~CURVE INFORMATION 
# MNEM.UNIT           : CURVE DESCRIPTION 
#-----.-----          : ----------------------------- 
 DEPT.FT               : MEASURED DEPTH 
 GR__A.API             : GAMMA RAY (GAMMA RAY) 
 DT__A.US/FT           : SONIC DELTA TRANSIT TIME (SONIC) 
 #___________________________________________________________________________________________________ 
~A         DEPT          GR__A          DT__A
# ...
         4888.5         86.160        105.550
         4889.0         87.996        105.550
         4889.5         93.873        106.351
         4890.0         98.748        107.080
         4890.5        102.144        103.044
         4891.0         98.194         96.686
         4891.5         92.306         94.015
         4892.0         92.891         93.035
         4892.5         94.565         92.027
         4893.0         88.120         89.561
         4893.5         84.073         85.668
         4894.0         85.530         83.598
         4894.5         90.186         85.952
         4895.0         91.618         87.915
         4895.5         90.448         89.089
         4896.0         82.844         90.264
         4896.5         77.193         91.295
         4897.0         84.700         92.820
         4897.5         86.592         93.981
         4898.0         81.628         95.156
         4898.5         80.099         95.746
         4899.0         84.611         96.203
         4899.5         85.102         96.397
         4900.0         85.670         96.397
         4900.5         90.133         96.203
         4901.0         98.842         96.592
         4901.5        113.809         96.754
         4902.0        123.583         96.619
         4902.5        119.413         97.535
         4903.0        115.597         99.102
         4903.5        132.950        102.412
         4904.0        148.120        105.352
         4904.5        150.092        107.798
         4905.0        146.360        109.047
         4905.5        141.752        108.241
         4906.0        133.293        104.249
         4906.5        122.349        109.005
         4907.0        102.959        122.440
         4907.5         91.938        126.542
         4908.0         85.444        124.623
         4908.5         83.431        118.366
         4909.0         86.102        105.749
         4909.5         91.278        100.120
         4910.0         93.043         98.473
         4910.5         92.398         97.639
         4911.0         91.618         98.618
         4911.5         90.838         99.699
         4912.0         91.694        102.472
         4912.5        111.275        105.400
         4913.0        161.220        109.677
         4913.5        186.616        115.406
         4914.0        180.700        116.456
         4914.5        161.600        116.965
         4915.0        143.037        116.971
         4915.5        133.588        117.624
         4916.0        129.825        117.819
         4916.5        136.064        116.871
         4917.0        151.622        117.383
         4917.5        143.757        117.080
         4918.0        123.437        113.477
         4918.5        116.265        111.046
         4919.0        116.569        108.883
         4919.5        135.014        107.887
         4920.0        150.455        108.288
         4920.5        146.091        107.882
         4921.0        138.012        109.056
         4921.5        140.001        110.613
         4922.0        133.391        110.601
         4922.5        120.321        106.989
         4923.0        102.486        102.277
         4923.5         93.642         95.139
         4924.0         92.859         85.233
         4924.5         94.820         80.102
         4925.0         96.781         78.942
         4925.5         96.969         80.447
         4926.0         94.737         82.075
         4926.5         96.297         83.837
         4927.0        102.552         85.731
         4927.5        104.873         87.885
         4928.0        105.653         89.316
         4928.5        107.213         91.228
         4929.0        104.307         92.402
         4929.5         98.213         95.190
         4930.0         98.738         99.238
         4930.5        106.049        100.876
         4931.0        106.153        100.876
         4931.5         97.686         96.523
         4932.0         94.737         93.932
         4932.5         94.737         92.135
         4933.0         94.737         92.526
         4933.5         95.421        104.644
         4934.0         98.688        112.671
         4934.5        102.072        111.714
         4935.0        101.425        103.399
         4935.5        100.244         91.553
         4936.0         97.893         84.727
         4936.5         93.268         87.971
         4937.0         94.702         83.017
         4937.5        102.532         71.868
         4938.0        104.094         63.681
         4938.5        102.945         69.119
         4939.0        108.578         83.091
         4939.5        115.444         90.343
         4940.0        113.004         91.501
         4940.5        104.933         88.261
         4941.0        102.534         82.529
         4941.5        100.863         76.683
         4942.0         92.685         76.001
         4942.5         92.993         81.630
         4943.0         97.592         99.952
         4943.5         97.718        114.257
         4944.0         97.226        112.831
         4944.5         98.797        103.744
         4945.0        100.758         90.665
         4945.5        104.555         86.281
         4946.0        107.213         83.495
         4946.5        106.316         81.727
         4947.0        102.314         77.245
         4947.5         89.462         76.923
         4948.0         80.158         75.354
         4948.5         90.140         72.968
         4949.0         98.562         74.955
         4949.5        111.055         78.216
         4950.0        115.351         81.912
         4950.5        112.784         83.736
         4951.0         95.227         86.410
         4951.5         89.440         89.046
         4952.0         86.107         89.387
         4952.5         89.237         87.793
         4953.0         90.809         86.076
         4953.5         93.159         86.271
         4954.0         97.840         86.660
         4954.5        104.497         87.437
         4955.0        108.789         86.156
         4955.5        106.542         84.003
         4956.0         98.312         82.591
         4956.5         94.061         87.232
         4957.0        102.059         98.051
         4957.5        122.531        105.990
         4958.0        148.087        110.442
         4958.5        158.194        112.171
         4959.0        146.318        110.754
         4959.5        112.996        108.471
         4960.0        102.081        108.015
         4960.5        104.702        107.230
         4961.0        105.181        106.445
         4961.5         97.140        104.700
         4962.0         91.047        102.539
         4962.5         91.228        101.949
         4963.0         93.874        101.210
         4963.5         94.953         99.925
         4964.0         97.304         98.312
         4964.5        103.491         98.000
         4965.0        105.263        101.044
         4965.5        103.704        103.702
         4966.0        114.504        106.098
         4966.5        125.904        112.179
         4967.0        159.702        118.655
         4967.5        169.981        120.740
         4968.0        161.782        119.514
         4968.5        152.194        113.794
         4969.0        133.433        105.704
         4969.5        113.922        104.399
         4970.0         95.553        102.646
         4970.5         87.802        101.271
         4971.0         84.211         97.369
         4971.5         85.783         95.511
         4972.0         87.354         94.657
         4972.5         87.293         97.587
         4973.0         81.900        101.290
         4973.5         74.195        101.461
         4974.0         74.874         93.916
         4974.5         80.380         86.759
         4975.0         81.776         84.276
