###############################################
##         ENVERUS                           ##
##         ESS - Open Hole                   ##
##         PERMIAN / DELAWARE                ##
##         Nov 02 2023  V4.0                 ##
##         42-109-32346-90-00                ##
###############################################
## Copyright 2017-2023  ENVERUS.  All Rights Reserved. 
## Confidential - Property of ENVERUS, use governed by terms and 
## conditions found within the existing Information Services Subscription Agreement 
## (as may be amended, the “ISSA”) between Customer and ENVERUS. 
## 
~VERSION INFORMATION
# MNEM.UNIT                               DATA : DESCRIPTION OF MNEMONIC
#-----.-----     ----------------------------- : -----------------------------
VERS.                                     2.00 : CWLS LOG ASCII STANDARD - VERSION 2.00
WRAP.                                       NO : MULTIPLE LINES PER DEPTH STEP
VEND.                                  ENVERUS : VENDOR
TYPE.                          ESS - OPEN HOLE : ENVERUS ESSENTIAL CURVES – ACCESSIBLE THROUGH ENVERUS PRISM(TM)
DOC.                                  51092887 : ENVERUS HEADER RAW DOCUMENT ID
#___________________________________________________________________________________________________ 
~WELL INFORMATION 
# XhrHiXkIrwGIJmPLTIo0+WseqdI1VWn+o0JF90EYfb9BJ/ikjsIPmHpj3yVLlwnYQ/npclNvflN3Ll99f4ZCqQ== 
# MNEM.UNIT                                              DATA : DESCRIPTION OF MNEMONIC 
#-----.-----                    ----------------------------- : ----------------------------- 
CNTY.                                               CULBERSON : COUNTY 
STATE.                                                  TEXAS : STATE 
CNTRY.                                                    USA : COUNTRY 
API.                                             42-109-32346 : API (10 Digit) 
API_14.                                    42-109-32346-90-00 : API (14 Digits) 
API_14_std.                                 42-109-32346-9000 : API (14 Digits Standard) 
UWI.                                           42109323469000 : UNIQUE WELL ID 
WELL.                                                  DRD_55 : WELL NAME
STRT.FT                                                 334.5 : START DEPTH
STOP.FT                                                4950.0 : STOP DEPTH
STEP.FT                                                   0.5 : STEP BETWEEN DEPTHS
NULL.                                                 -999.25 : NULL VALUE
PREV_APII.                                     42109323460000 : WELL IDENTIFIER
#___________________________________________________________________________________________________ 
~PARAMETER INFORMATION 
# MNEM.UNIT                                              DATA : DESCRIPTION OF MNEMONIC 
#-----.-----                    ----------------------------- : -----------------------------
#___________________________________________________________________________________________________ 
~CURVE INFORMATION 
# MNEM.UNIT           : CURVE DESCRIPTION 
#-----.-----          : ----------------------------- 
 DEPT.FT               : MEASURED DEPTH 
 CALI.IN               : CALIPER (CAL - CALIPER) 
 GR.API                : GAMMA RAY (GAMMA RAY) 
 DT.US/FT              : SONIC DELTA TRANSIT TIME (SONIC) 
 #___________________________________________________________________________________________________ 
~A         DEPT           CALI             GR             DT
# ...
         4888.5          8.027         86.098         63.674
         4889.0          8.027         87.970         63.940
         4889.5          8.027         97.127         64.876
         4890.0          8.027        101.793         65.488
         4890.5          8.027        101.793         66.757
         4891.0          8.027         89.502         65.091
         4891.5          8.027         80.962         63.277
         4892.0          8.027         78.516         62.168
         4892.5          8.027         70.208         59.502
         4893.0          8.008         53.202         58.539
         4893.5          8.027         42.917         58.309
         4894.0          8.027         41.372         58.591
         4894.5          8.027         43.689         59.157
         4895.0          8.027         51.176         60.016
         4895.5          8.027         58.667         60.378
         4896.0          8.027         60.683         61.078
         4896.5          8.027         68.309         61.079
         4897.0          8.027         70.504         60.007
         4897.5          8.027         63.496         59.503
         4898.0          8.027         61.290         59.592
         4898.5          8.027         66.050         60.503
         4899.0          8.027         77.867         62.942
         4899.5          8.027         94.402         63.924
         4900.0          8.027         98.682         64.594
         4900.5          8.027         93.480         64.445
         4901.0          8.027         81.769         63.678
         4901.5          8.027         71.977         62.891
         4902.0          8.027         69.884         62.507
         4902.5          8.047         67.807         61.888
         4903.0          8.047         65.857         61.335
         4903.5          8.047         64.492         60.940
         4904.0          8.047         63.548         60.700
         4904.5          8.047         64.139         61.811
         4905.0          8.047         69.434         63.358
         4905.5          8.047         82.578         64.316
         4906.0          8.047         87.808         64.772
         4906.5          8.047         88.569         62.820
         4907.0          8.047         73.976         60.143
         4907.5          8.047         52.771         58.680
         4908.0          8.047         48.990         58.695
         4908.5          8.047         48.475         59.292
         4909.0          8.047         49.123         59.693
         4909.5          8.047         48.472         59.277
         4910.0          8.047         46.232         57.969
         4910.5          8.047         44.100         57.506
         4911.0          8.047         41.948         56.913
         4911.5          8.047         39.772         56.793
         4912.0          8.047         39.973         56.383
         4912.5          8.047         43.639         56.205
         4913.0          8.047         44.973         56.093
         4913.5          8.047         39.809         55.965
         4914.0          8.047         38.320         56.050
         4914.5          8.047         42.866         56.604
         4915.0          8.047         45.035         57.086
         4915.5          8.047         44.482         58.330
         4916.0          8.047         43.097         59.852
         4916.5          8.047         41.326         61.721
         4917.0          8.047         41.326         61.957
         4917.5          8.027         41.910         61.539
         4918.0          8.027         41.715         59.232
         4918.5          8.027         41.715         58.559
         4919.0          8.027         42.255         58.323
         4919.5          8.027       -999.250         57.853
         4920.0          8.027       -999.250         57.952
         4920.5          8.027       -999.250         58.363
         4921.0          8.027       -999.250         59.557
         4921.5          8.027       -999.250         60.585
         4922.0          8.027       -999.250         61.341
         4922.5          8.027       -999.250         60.867
         4923.0          8.027       -999.250         60.625
         4923.5          8.027       -999.250         60.242
         4924.0          8.027       -999.250         58.875
         4924.5          8.027       -999.250         56.352
         4925.0          8.027       -999.250         55.330
         4925.5          8.027       -999.250         54.438
         4926.0          8.027       -999.250         54.373
         4926.5          8.027       -999.250         55.256
         4927.0          8.027       -999.250         56.578
         4927.5          8.027       -999.250         58.861
         4928.0          8.027       -999.250         61.849
         4928.5          8.027       -999.250         65.162
         4929.0          8.027       -999.250         65.926
         4929.5          8.027       -999.250         66.181
         4930.0          8.027       -999.250         67.509
         4930.5          8.027       -999.250         69.645
         4931.0          8.027       -999.250         71.577
         4931.5          8.027       -999.250         71.949
         4932.0          8.027       -999.250         71.072
         4932.5          8.047       -999.250         70.484
         4933.0          8.066       -999.250         66.808
         4933.5          8.105       -999.250         64.137
         4934.0          8.105       -999.250         61.157
         4934.5          8.183       -999.250         61.687
         4935.0          8.192       -999.250         62.932
         4935.5          8.203       -999.250         65.985
         4936.0          8.203       -999.250         68.778
         4936.5          8.203       -999.250         69.656
         4937.0          8.190       -999.250         70.475
         4937.5          7.959       -999.250         69.949
         4938.0          6.115       -999.250         66.422
         4938.5       -999.250       -999.250         62.787
         4939.0       -999.250       -999.250         62.145
         4939.5       -999.250       -999.250         61.691
         4940.0       -999.250       -999.250         63.380
         4940.5       -999.250       -999.250         65.776
         4941.0       -999.250       -999.250         66.565
         4941.5       -999.250       -999.250         67.943
         4942.0       -999.250       -999.250         68.639
         4942.5       -999.250       -999.250         69.718
         4943.0       -999.250       -999.250         69.667
         4943.5       -999.250       -999.250         69.471
         4944.0       -999.250       -999.250         69.374
         4944.5       -999.250       -999.250         69.355
         4945.0       -999.250       -999.250         72.412
         4945.5       -999.250       -999.250         72.872
         4946.0       -999.250       -999.250         72.932
         4946.5       -999.250       -999.250         71.911
         4947.0       -999.250       -999.250         62.284
         4947.5       -999.250       -999.250         58.628
         4948.0       -999.250       -999.250         57.593
         4948.5       -999.250       -999.250         57.257
         4949.0       -999.250       -999.250         58.589
         4949.5       -999.250       -999.250         58.711
         4950.0       -999.250       -999.250         58.711
