~Version Information
 VERS.                  2.0:   CWLS log ASCII Standard -VERSION 2.0
 WRAP.                   NO:   One line per depth step
~Well Information Block
#MNEM.UNIT       Data Type    Information
#---------     -----------    ---------------------------
 STRT.F              3503.5000:
 STOP.F             12186.0000:
 STEP.F                 0.5000:
 NULL.               -999.2500:
 UWI .            42-109-32278:  API WELLHOLE NUMBER
 COMP.     SAMSON LONE STAR LP:  COMPANY NAME
 COUN.               CULBERSON:  COUNTY
 DAT2.                   02000:  LOGGING DATE 2
 DAT3.                   02000:  LOGGING DATE 3
 DAT4.                   02000:  LOGGING DATE 4
 DATE.                   02000:  LOGGING DATE
 DMF .           KELLY BUSHING:  DRILLING MEASURED
 LOC .    1521' FWL AND 2040' FSL:  FIELD LOCATION
 FL1 .    1521' FWL AND 2040' FSL:  FIELD LOCATION LINE 1
 FL2 .        SEC. 14, BLK. 46:  FIELD LOCATION LINE 2
 FLD .                 WILDCAT:  FIELD NAME
 HDAT.                   02000:  DATUM
 LMF .                    K.B.:  LOG MEASURED FROM
 OS1 .                    XRMI:  OTHER SERVICES LINE 1
 OS2 .               LSS / FWS:  OTHER SERVICES LINE 2
 OS3 .                 SDL/DSN:  OTHER SERVICES LINE 3
 OS4 .                DLL/MGRD:  OTHER SERVICES LINE 4
 PDAT.            GROUND LEVEL:  PERMANENT DATUM
 R1  .    TOOLSTRING: RWCH/D4TS/NGRT/LFS_D2/XRMI/CENT:  REMARKS LINE 1
 R2  .    LOGGING INTERVALS AS PER CUSTOMER REQUEST.:  REMARKS LINE 2
 RDT2.                   02000:  CASING DATE 2
 RDT3.                   02000:  CASING DATE 3
 RDT4.                   02000:  CASING DATE 4
 RDT5.                   02000:  CASING DATE 5
 SON .                 4992511:  SERVICE/TICKET ORDER NUMBER
 PROV.                   TEXAS:  STATE
 WELL.    UNIVERSITY LANDS 46-14 No. 2:  WELL NAME
~Parameter Information Block
#MNEM.UNIT       Value        Description
#---------     -----------    ---------------------------
~Curve Information Block
#MNEM.UNIT                 API CODE     Curve Description
#---------               -----------    ---------------------------
 DEPT.F                 00 000 000 000:  
 LLD .ohmm              00 000 000 000:  LLD                                    
 LLS .ohmm              00 000 000 000:  LLS                                    
 NPHI.decp              00 000 000 000:  Neutron Porosity                       
 GR  .api               00 000 000 000:  Gamma API                              
 MGRD.ohmm              00 000 000 000:  MCGRD                                  
 DRHO.g/cc              00 000 000 000:  DensityCorr                            
 DPHI.decp              00 000 000 000:  DensityPorosity                        
 PE  .b/e               00 000 000 000:  Pe                                     
 RHOB.g/cc              00 000 000 000:  Density                                
 XPHI.decp              00 000 000 000:  CrossplotPhi                           
 CALI.in                00 000 000 000:  Caliper                                
 DTC .                  00 000 000 000:  DELTA-T COMPRESSIONAL - FWS
 GR2 .GAPI              00 000 000 000:  NATURAL GAMMA - FWS
 SPHI.DECP              00 000 000 000:  SONIC POROSITY MTX=47.6 (DTC)
~A  DEPT        LLD        LLS        NPHI       GR         MGRD       DRHO       DPHI       PE         RHOB       XPHI       CALI       DTC        GR2        SPHI   
# ...
 7056.0000    67.1626    65.7099     0.1545    89.9220    23.3527     0.2077     0.1130     3.3055     2.5168     0.1269    10.0824    67.3908    83.7277     0.1400 
 7056.5000    47.2744    48.5740     0.1952    87.6820    19.4783     0.2768     0.1011     2.9667     2.5372     0.1517    10.0824    71.0804    90.7732     0.1661 
 7057.0000    34.7165    35.6868     0.2055   103.0423    12.1102     0.2445     0.0907     2.8638     2.5549     0.1602    10.0977    73.6050    96.5509     0.1839 
 7057.5000    27.9670    27.0050     0.1986   110.1358     8.8808     0.1474     0.0887     2.9793     2.5583     0.1574    10.1053    73.3261    98.8305     0.1819 
 7058.0000    25.4366    23.8332     0.2009    95.7888     8.9716     0.0765     0.0808     3.1886     2.5718     0.1541    10.1130    71.9528    92.6657     0.1722 
 7058.5000    26.2040    24.9173     0.1881    79.9485    12.2339     0.0587     0.0591     3.3437     2.6089     0.1478    10.1053    71.5020    83.5303     0.1690 
 7059.0000    29.6118    29.1996     0.1814    81.4418    16.1668     0.0670     0.0421     3.4445     2.6380     0.1314    10.1053    71.2052    79.2000     0.1669 
 7059.5000    35.1532    34.4624     0.1897    85.3353    17.0957     0.0729     0.0582     3.4252     2.6104     0.1401    10.0977    71.6253    82.4062     0.1699 
 7060.0000    41.8372    40.6028     0.1921    86.6686    17.4513     0.0793     0.0926     3.2780     2.5517     0.1473    10.0977    72.2438    88.5013     0.1743 
 7060.5000    47.5585    45.1276     0.2080    92.2154    20.3001     0.0998     0.1081     3.1953     2.5251     0.1682    10.1130    73.1112    93.5574     0.1804 
 7061.0000    52.5552    49.5468     0.2112    94.1888    21.1986     0.1289     0.1121     3.2759     2.5182     0.1714    10.1130    74.8798    96.1927     0.1929 
 7061.5000    57.1817    53.9508     0.2082    93.3888    18.9020     0.1516     0.1125     3.3860     2.5176     0.1700    10.1130    75.5293    96.9483     0.1975 
 7062.0000    57.1503    54.1776     0.2036    98.7756    21.3588     0.1523     0.1030     3.3635     2.5339     0.1639    10.1206    75.5775    97.7481     0.1979 
 7062.5000    54.0665    50.9651     0.1956   106.4024    18.5061     0.1190     0.0992     3.2104     2.5404     0.1581    10.1053    75.4643    98.8969     0.1971 
 7063.0000    50.7208    46.3567     0.1955   111.0958    12.6401     0.0787     0.0984     3.0796     2.5417     0.1578    10.0977    74.9080   102.9897     0.1931 
 7063.5000    48.3110    42.3579     0.1912   103.3623    14.3674     0.0723     0.0866     3.1205     2.5620     0.1510    10.0824    74.1735   107.3464     0.1879 
 7064.0000    53.0939    46.8698     0.1855   103.8957    23.5056     0.0896     0.0802     3.2672     2.5729     0.1455    10.0824    73.6355   109.1375     0.1841 
 7064.5000    56.9534    51.0932     0.1762   113.1225    22.1436     0.1068     0.0846     3.3682     2.5653     0.1420    10.0824    72.7610   107.3158     0.1779 
 7065.0000    54.3242    51.5399     0.1735   103.8423    22.1100     0.1293     0.0753     3.3839     2.5813     0.1371    10.0824    72.5669   103.1616     0.1766 
 7065.5000    43.7575    44.7053     0.1817    90.0820    21.8787     0.1463     0.0632     3.3515     2.6019     0.1374    10.0824    72.7051    99.7776     0.1775 
 7066.0000    31.2564    33.2718     0.1864    92.1621    15.3295     0.1337     0.0656     3.3407     2.5979     0.1408    10.0824    73.3027    99.0313     0.1818 
 7066.5000    22.5272    23.6624     0.2058    99.6289     9.4656     0.1075     0.0610     3.3765     2.6058     0.1497    10.0901    73.8567    97.6647     0.1857 
 7067.0000    17.7876    18.1443     0.2157    98.5089     7.3033     0.0905     0.0500     3.3976     2.6245     0.1513    10.0901    73.8157    95.3256     0.1854 
 7067.5000    16.5186    16.7049     0.1967    91.8421     8.1746     0.0836     0.0479     3.3891     2.6281     0.1405    10.0977    72.6360    87.1220     0.1771 
 7068.0000    18.7381    20.7651     0.1676    84.2437    13.6407     0.0879     0.0400     3.5257     2.6417     0.1218    10.1130    69.3686    75.2893     0.1540 
 7068.5000    24.1426    29.6441     0.1378    69.8220    37.8358     0.0907     0.0180     3.9222     2.6792     0.0979    10.0977    65.5704    60.3813     0.1271 
 7069.0000    29.3621    34.9227     0.1069    47.6348   109.6143     0.0751     0.0045     4.3204     2.7024     0.0755    10.0901    62.4986    52.7019     0.1054 
 7069.5000    29.0930    34.2288     0.0773    46.8562    21.5276     0.0570     0.0105     4.3490     2.6920     0.0587    10.0672    60.6312    57.2449     0.0922 
 7070.0000    25.0287    27.4050     0.0807    75.3084    11.1950     0.0615     0.0235     4.0199     2.6698     0.0648    10.0672    61.0714    71.6295     0.0953 
 7070.5000    22.3620    22.3153     0.1357    95.4155     9.6224     0.0802     0.0443     3.6516     2.6342     0.1049    10.0748    63.8525    87.9414     0.1149 
 7071.0000    23.2464    23.2143     0.2021    97.8689     9.8334     0.0923     0.0747     3.3798     2.5823     0.1526    10.1206    69.7771    98.4110     0.1568 
 7071.5000    28.1709    29.2912     0.2275   101.2823    10.9225     0.0993     0.0997     3.1778     2.5396     0.1674    10.1435    74.6280   101.6393     0.1911 
 7072.0000    37.7446    38.4785     0.2188   104.3757    10.5727     0.1005     0.1331     3.0747     2.4824     0.1780    10.1435    77.4242    98.9283     0.2109 
 7072.5000    52.3485    50.0019     0.2161   112.3759     8.2510     0.1027     0.1782     3.0759     2.4053     0.1918    10.1435    78.4760    92.9235     0.2184 
 7073.0000    63.4816    56.0597     0.2170   112.4292     8.0203     0.1276     0.1861     3.2013     2.3918     0.2066    10.1435    77.3260    85.9528     0.2102 
 7073.5000    67.8412    56.9630     0.2049    81.8685    12.5909     0.1346     0.1481     3.5529     2.4567     0.1971    10.1511    75.2372    77.5033     0.1955 
 7074.0000    69.4273    57.0897     0.1824    59.5213    15.2890     0.0947     0.1012     3.9156     2.5370     0.1517    10.1511    72.7048    72.4447     0.1775 
 7074.5000    70.9387    55.6965     0.1397    74.2950    13.6757     0.0585     0.0719     3.8368     2.5870     0.1167    10.1511    69.9608    77.8641     0.1581 
 7075.0000    77.7413    62.3803     0.1376    98.1355    20.4376     0.0540     0.0694     3.4666     2.5913     0.1106    10.1359    68.4575    86.8514     0.1475 
 7075.5000    71.4592    62.6167     0.1686   100.0556    30.6235     0.0769     0.0751     3.2934     2.5816     0.1343    10.1511    67.9871    94.5359     0.1442 
 7076.0000    48.2935    49.1566     0.1955    97.4422    31.5346     0.1167     0.0799     3.3656     2.5735     0.1442    10.1740    70.2271    95.9791     0.1600 
 7076.5000    30.2488    34.4802     0.2049   103.4690    13.9271     0.1478     0.0849     3.4366     2.5648     0.1547    10.2046    73.0925   100.0677     0.1803 
 7077.0000    19.0406    18.9341     0.2102   105.0157     7.0480     0.1525     0.0723     3.4341     2.5863     0.1560    10.2351    74.6431   104.2746     0.1913 
 7077.5000    13.7382    12.6440     0.2122   102.8290     4.8381     0.1345     0.0535     3.4369     2.6185     0.1506    10.2427    76.3158   107.8263     0.2031 
 7078.0000    11.3244    10.7649     0.2347   112.4292     5.0502     0.1090     0.0532     3.4111     2.6191     0.1623    10.2504    76.7317   107.4732     0.2060 
 7078.5000    10.4165    10.4302     0.2307   106.1357     5.3187     0.0997     0.0557     3.3585     2.6148     0.1611    10.2580    76.2565   104.5095     0.2027 
 7079.0000    10.3703    10.9883     0.2073    88.1620     5.8051     0.1047     0.0521     3.3723     2.6210     0.1475    10.2809    75.6623    98.6484     0.1985 
 7079.5000    10.8787    11.8706     0.1974    88.9620     7.0335     0.0921     0.0487     3.4079     2.6268     0.1411    10.2809    74.0899    94.8423     0.1873 
 7080.0000    11.6477    12.8101     0.1827    89.1753     7.3665     0.0628     0.0444     3.3975     2.6340     0.1316    10.2580    72.6228    93.0571     0.1770 
