~VERSION INFORMATION
VERS. 2.0 : CWLS Log ASCII Standard - version 2.0
WRAP.  NO : One line per depth step
#--------------------------------------------------#
#----------------DRILLING INFO, INC.---------------#
#---------------WWW.DRILLINGINFO.COM---------------#
#------------------COPYRIGHT 2015------------------#
#--------------------------------------------------#
#THIS FILE MAY BE USED ONLY IN ACCORDANCE WITH A CURRENT SUBSCRIPTION AGREEMENT BETWEEN
#THE USER AND DRILLING INFO, INC. NO PART OF THIS FILE MAY BE REPRODUCED, USED, COPIED,
#MODIFIED, PROPAGATED, OR DISTRIBUTED EXCEPT IN ACCORDANCE WITH THE SUBSCRIPTION
#AGREEMENT. UNAUTHORIZED USE OR DISTRIBUTION OF ALL OR ANY PART OF THIS FILE MAY VIOLATE
#COPYRIGHT, TRADEMARK, AND/OR OTHER LAWS AND IS SUBJECT TO CIVIL AS WELL AS CRIMINAL
#SANCTIONS.
#--------------------------------------------------#
#THIS FILE IS PROVIDED "AS-IS" AND ALL WARRANTIES ARE EXPRESSLY DISCLAIMED, WHETHER
#EXPRESS, ORAL, IMPLIED, STATUTORY OR OTHERWISE, INCLUDING ANY IMPLIED WARRANTY OF FITNESS
#FOR A PARTICULAR PURPOSE, MERCHANTABILITY, TITLE OR NON-INFRINGEMENT, AND ANY WARRANTIES
#ARISING BY VIRTUE OF CUSTOM OF TRADE OR COURSE OF DEALING.  FURTHER, DRILLING INFO,
#INC. AND ITS LICENSORS DO NOT REPRESENT OR WARRANT THAT THIS FILE WILL MEET USER'S
#REQUIREMENTS OR ARE SUITABLE FOR USER'S NEEDS OR THAT THE DATA OR RESULTS PROVIDED IN
#CONJUNCTION THEREWITH ARE CORRECT, ACCURATE, TIMELY OR RELIABLE. THESE DISCLAIMERS SHALL
#APPLY REGARDLESS OF ANY FAILURE OF ESSENTIAL PURPOSE OF ANY LIMITED REMEDY.  SOME
#JURISDICTIONS DO NOT ALLOW THE EXCLUSION OF CERTAIN WARRANTIES SO SOME OF THE ABOVE
#EXCLUSIONS MAY NOT APPLY. IN NO EVENT SHALL DRILLING INFO, INC. OR ANY OF ITS AFFILIATES
#BE LIABLE UNDER ANY LEGAL THEORY, WHETHER IN TORT (INCLUDING WITHOUT LIMITATION
#NEGLIGENCE), CONTRACT, STRICT LIABILITY, STATUTORY OR OTHERWISE, FOR ANY SPECIAL,
#INCIDENTAL, CONSEQUENTIAL, EXEMPLARY, PUNITIVE OR INDIRECT DAMAGE OF ANY KIND, INCLUDING
#WITHOUT LIMITATION LOSS OF REVENUE, PROFITS, GOODWILL, USE, AND/OR DATA OR THE COST OF
#PROCUREMENT OF SUBSTITUTE GOODS OR SERVICES, EVEN IF APPRISED OF THE POSSIBILITY OF SUCH
#DAMAGES IN ADVANCE.
#--------------------------------------------------#
~WELL INFORMATION
#MNEMONIC     .UNIT              VALUE :DESCRIPTION
#--------------------------------------------------#
STRT       .FT                4 :START DEPTH
STOP       .FT                10042 :STOP DEPTH
STEP       .FT                   0.500 :STEP
NULL       .                  -999.250 :NULL
API        .                421093139500 :API NUMBER
COMP       .         MOBIL OIL CORPORATION :COMPANY
WELL       .        MADERA-BROMAN  1 :WELL
DATE       .                27-Jun-1979 :LOG DATE
~CURVE INFORMATION
#MNEMONIC     .UNIT      API CODE :CURVE DESCRIPTION
#--------------------------------------------------#
DEPTH       .FT                      :Measured Depth
DT.US/FT        UNKNOWN   :DT
GR.API        UNKNOWN   :GR
CAL.INCH        UNKNOWN   :CAL
~A    DEPTH    DT    GR    CAL
# ...
 3175     54.061   24.513   13.046
 3175.5     55.496   26.605   13.046
 3176     55.72   28.698   13.046
 3176.5     55.421   30.79   13.045
 3177     55.122   29.775   13.045
 3177.5     55.872   25.851   13.045
 3178     60.026   27.707   13.044
 3178.5     60.473   32.796   13.044
 3179     57.914   37.884   13.044
 3179.5     56.277   42.973   13.043
 3180     54.958   44.302   13.043
 3180.5     53.639   36.884   13.043
 3181     52.321   29.465   13.042
 3181.5     52.674   22.046   13.042
 3182     53.987   15.591   13.041
 3182.5     54.166   23.047   13.041
 3183     53.912   28.858   13.041
 3183.5     53.657   29.51   13.04
 3184     53.954   30.093   13.04
 3184.5     54.579   29.715   13.04
 3185     56.206   29.336   13.039
 3185.5     57.95   33.175   13.039
 3186     59.694   37.888   13.039
 3186.5     60.513   42.601   13.038
 3187     59.271   47.314   13.038
 3187.5     58.029   52.027   13.038
 3188     56.787   48.444   13.037
 3188.5     57.566   44.522   13.037
 3189     58.673   40.6   13.036
 3189.5     59.781   37.528   13.036
 3190     60.888   37.7   13.036
 3190.5     61.166   39.647   13.035
 3191     61.056   43.017   13.035
 3191.5     60.947   46.388   13.035
 3192     59.826   48.319   13.034
 3192.5     57.815   48.972   13.036
 3193     56.106   48.954   13.04
 3193.5     54.417   46.344   13.043
 3194     52.728   38.464   13.046
 3194.5     53.197   30.584   13.05
 3195     54.848   22.704   13.053
 3195.5     56.498   22.417   13.056
 3196     58.149   26.896   13.052
 3196.5     59.802   31.18   13.044
 3197     61.478   35.362   13.037
 3197.5     63.011   39.544   13.029
 3198     63.01   43.344   13.021
 3198.5     63.01   45.618   13.013
 3199     63.01   47.891   13.006
 3199.5     61.197   50.231   13.001
 3200     59.165   53.299   13.001
 3200.5     57.191   55.838   13.001
 3201     56.919   48.828   13
 3201.5     56.648   41.819   13
 3202     56.377   36.848   13
 3202.5     54.881   37.519   12.999
 3203     53.313   38.191   12.999
 3203.5     52.242   38.862   12.999
 3204     52.481   37.881   12.998
 3204.5     52.72   34.993   12.998
 3205     52.959   32.106   12.998
 3205.5     53.198   29.218   12.997
 3206     53.315   29.746   12.997
 3206.5     53.19   30.938   12.997
 3207     53.064   29.286   12.996
 3207.5     54.126   26.398   12.996
 3208     56.033   23.511   12.996
 3208.5     57.939   21.105   12.995
 3209     59.652   25.103   12.995
 3209.5     61.111   29.101   12.995
 3210     62.57   33.715   12.994
 3210.5     64.029   44.259   12.994
 3211     63.246   51.678   12.994
 3211.5     60.398   54.445   12.993
 3212     57.551   57.213   12.993
 3212.5     54.703   51.923   12.993
 3213     55.653   45.124   12.994
 3213.5     58.235   38.325   12.995
 3214     60.817   32.844   12.995
 3214.5     63.113   29.463   12.996
 3215     63.831   37.217   12.996
 3215.5     64.549   45.315   12.997
 3216     63.329   50.364   12.997
 3216.5     62.024   51.204   12.998
 3217     60.72   52.044   12.999
 3217.5     59.415   52.159   12.999
 3218     59.655   51.894   13
 3218.5     60.181   49.814   13
 3219     60.707   47.733   13.001
 3219.5     62.883   45.653   13.001
 3220     65.349   47.472   13.002
 3220.5     65.525   52.997   13.003
 3221     63.706   58.522   13.003
 3221.5     61.887   62.297   13.004
 3222     60.069   58.098   13.004
 3222.5     58.621   53.899   13.005
 3223     57.993   49.701   13.005
 3223.5     57.366   45.502   13.006
 3224     57.408   41.303   13.007
 3224.5     57.709   37.105   13.007
 3225     58.011   34.535   13.008
 3225.5     58.313   37.302   13.008
 3226     58.328   40.068   13.009
 3226.5     56.783   39.672   13.009
 3227     55.438   37.742   13.01
 3227.5     55.249   35.811   13.011
 3228     55.059   34.178   13.011
 3228.5     54.87   34.179   13.012
 3229     54.68   34.181   13.012
 3229.5     54.478   34.412   13.013
 3230     54.26   35.007   13.013
 3230.5     54.043   35.603   13.014
 3231     53.626   36.199   13.015
 3231.5     53.14   34.763   13.015
 3232     52.844   31.838   13.016
 3232.5     54.08   29.07   13.016
 3233     55.316   27.139   13.017
 3233.5     56.553   27.825   13.017
 3234     57.862   32.476   13.018
 3234.5     59.188   37.126   13.019
 3235     60.514   41.861   13.019
 3235.5     61.841   46.598   13.02
 3236     63.136   51.336   13.02
 3236.5     62.793   55.629   13.021
 3237     62.45   54.35   13.021
 3237.5     62.52   53.071   13.022
 3238     62.75   52.406   13.023
 3238.5     62.98   54.227   13.023
 3239     63.21   56.048   13.024
 3239.5     63.44   57.869   13.024
 3240     62.628   59.69   13.025
 3240.5     60.095   57.627   13.025
 3241     57.563   54.331   13.026
 3241.5     55.489   46.889   13.027
 3242     54.284   39.447   13.027
 3242.5     53.713   32.004   13.028
 3243     54.941   28.996   13.028
 3243.5     56.17   28.003   13.029
 3244     57.399   29.422   13.029
 3244.5     58.628   34.343   13.03
 3245     59.857   39.263   13.031
 3245.5     60.736   44.183   13.031
 3246     59.318   49.103   13.032
 3246.5     57.899   48.75   13.032
 3247     56.481   44.431   13.033
 3247.5     55.063   40.112   13.033
 3248     53.645   35.793   13.034
 3248.5     52.315   33.662   13.035
 3249     54.79   32.193   13.035
 3249.5     57.264   30.725   13.036
 3250     59.739   29.256   13.036
 3250.5     65.316   35.176   13.037
 3251     68.397   43.961   13.037
 3251.5     70.038   52.747   13.038
 3252     70.087   61.533   13.039
 3252.5     70.136   70.318   13.039
 3253     70.184   73.016   13.04
 3253.5     70.148   74.91   13.04
 3254     69.419   72.761   13.041
 3254.5     62.7   66.889   13.041
 3255     60.348   58.975   13.042
 3255.5     58.134   51.061   13.043
 3256     55.92   43.147   13.043
 3256.5     54.22   37.861   13.044
 3257     54.43   41.238   13.044
 3257.5     54.64   44.615   13.045
 3258     54.849   46.965   13.045
 3258.5     55.059   45.497   13.046
 3259     55.269   44.489   13.047
 3259.5     55.479   43.986   13.047
 3260     55.902   43.482   13.048
 3260.5     56.439   42.979   13.048
 3261     56.976   43.243   13.049
 3261.5     57.512   44.145   13.049
 3262     58.049   45.047   13.05
 3262.5     58.363   45.949   13.051
 3263     58.471   45.622   13.051
 3263.5     58.579   44.934   13.052
 3264     58.687   44.246   13.052
 3264.5     57.231   43.557   13.053
 3265     55.553   41.081   13.053
 3265.5     53.875   33.352   13.054
 3266     53.192   25.623   13.055
 3266.5     55.685   24.866   13.055
 3267     58.178   34.775   13.056
 3267.5     57.917   44.685   13.056
 3268     57.446   49.882   13.057
 3268.5     56.976   47.8   13.057
 3269     56.505   45.718   13.058
 3269.5     56.034   43.636   13.059
 3270     55.563   41.542   13.059
 3270.5     55.092   39.446   13.06
 3271     54.621   37.35   13.06
 3271.5     54.262   35.254   13.061
 3272     54.237   33.158   13.061
 3272.5     54.212   31.062   13.062
 3273     54.187   29.747   13.062
 3273.5     54.491   29.748   13.063
 3274     55.689   32.866   13.063
 3274.5     56.886   37.244   13.064
 3275     60.34   41.621   13.064
 3275.5     63.973   45.998   13.065
 3276     66.019   50.376   13.065
 3276.5     67.522   54.753   13.065
 3277     67.606   59.13   13.066
 3277.5     67.294   59.978   13.066
 3278     66.982   60.2   13.067
 3278.5     66.67   60.422   13.067
 3279     66.358   60.644   13.067
 3279.5     66.046   61.165   13.068
 3280     65.734   61.687   13.068
 3280.5     65.422   62.208   13.069
 3281     65.11   62.729   13.069
 3281.5     65.241   61.822   13.07
 3282     65.399   60.121   13.07
 3282.5     65.558   58.419   13.07
 3283     65.716   57.066   13.071
 3283.5     65.875   57.72   13.071
 3284     66.033   58.374   13.072
 3284.5     65.849   57.897   13.072
 3285     65.202   57.394   13.073
 3285.5     64.555   56.426   13.073
 3286     63.908   53.185   13.073
 3286.5     63.262   49.945   13.074
 3287     62.948   46.704   13.074
