~Version Information Block
 VERS.                2.00:     CWLS LOG ASCII STANDARD - VERSION 2.000000
 WRAP.                  NO:     One Line Per Depth Step
#
~Well Information Block
#MNEM.UNIT                     Data                         Information
#----------   ------------------------------------------   ----------------
 STRT.F                                        31.0000:     START DEPTH
 STOP.F                                     15936.0000:     STOP DEPTH
 STEP.F                                         0.5000:     STEP
 NULL.                                       -999.2500:     NULL VALUE
 COMP.                             AMERCN QUASAR PETRO:     COMPANY
 WELL.                                    SCOTT UNIT 1:     WELL
 FLD .                                         WILDCAT:     FIELD
 LOC .        Survey  PSL              - Abs  6331     - Blk  45   - Section  19:     LOCATION
 CNTY.                                              TX:     COUNTY
 STAT.                                              TX:     STATE
 CTRY.                        UNITED STATES OF AMERICA:     COUNTRY
 SRVC.                                      GEOGRAPHIX:     SERVICE COMPANY
 DATE.                                                :     DATE
 API .                                  42109313620000:     API NUMBER
 UWI .                                  42109313620000:     UWI NUMBER
 TVD .                                              NO:     TVD flag
 WSTA.                                             LOC:     Well status
#
~Curve Information Block
#MNEM.UNIT       API CODE      Curve Description
#----------    -------------   -------------------
 DEPT.F                    :   Depth in Feet
 LLD .OHMM                 :   LATEROLOG DEEP
 GRS .GAPI                 :   GAMMA RAY FROM SONIC LOG
 CALS.IN                   :   CALIPER FROM SONIC LOG
 MSFL.OHMM                 :   MICRO SPHERICALLY FOCUSED
 LLS .OHMM                 :   LATEROLOG SHALLOW
 DT  .US/F                 :   DELTA TIME
#
~Parameter Information Block
#MNEM.UNIT            Value               Description
#----------    --------------------    -------------------
 RUN .                         ONE:    Run Number
 PDAT.                          GL:    Permanent Datum
 EPD .FT                          :    Elevation Of Perm. Datum
 LMF .               KELLY BUSHING:    Log Measured From
 EKB .FT                          :    Elevation Of Kelly Bushing
 DF .FT                           :    Elevation Of Derrick Floor
 GL .FT                           :    Elevation Of Ground Level
 TD  .FT                          :    Total Depth
 CSGD.FT                          :    Casing Bottom (Driller) 1
 CSGL.FT                          :    Casing Bottom (Logger) 1
 MUD .                            :    Drilling Fluid Type
 MUDV .CP                         :    Drilling Fluid Viscosity
 MUDD .LB/USG                     :    Drilling Fluid Density
 FL .ML/30MIN                     :    Drilling Fluid Loss
 PH.                              :    Drilling Fluid Ph
 MUDS .                           :    Mud Sample Source
 RM .OHMM                         :    Resistivity Of Mud Sample
 RMT .DEGF                        :    Mud Sample Temperature
 RMF .OHMM                        :    Mud Filtrate Resistivity
 RMFT.DEGF                        :    Mud Filtrate Sample Temperature
 RMC .OHMM                        :    Mud Cake Resistivity
 RMCT.DEGF                        :    Mud Cake Sample Temperature
 RMB .OHMM                        :    Mud Resistivity At Bht
 TMAX .DEGF                       :    Bottom Hole Temperature
#
~Other Information Block
<DescLogPlotStart>   NEURALOG PLOT DEFINITION
PLOTDEFVERSION: 3
LASFILE: E:\Nair Innovations\42_TEXAS\109_Culberson\42109313620000_1.las
DEPTHSCALE: 239.999996
RESOLUTION: 200
DEPTHLABELFREQ: 100.000000
HEAVYGRIDFREQ: 50.000000
MEDIUMGRIDFREQ: 50.000000
LIGHTGRIDFREQ: 10.000000
#
#   TRACK 1
#
STARTTRACK: 
 LEFTX: 0.500000 inch
 RIGHTX: 3.000000 inch
 SCALETYPE: Linear
 NUMCHARTDIVISIONS: 10
CURVE: GRS   1.504600   250.000000 (0,0,255)      Solid             2     N    
CURVE: CALS  6.474400   14.873500  (0,131,131)    Solid             2     N    
ENDTRACK: 
#
#   TRACK 2
#
STARTTRACK: 
 LEFTX: 3.500000 inch
 RIGHTX: 6.000000 inch
 SCALETYPE: Log
 NUMCYCLES: 4
 STARTCYCLE: 2
CURVE: LLS   0.200000   2000.000000 (255,0,0)      Solid             4     Y   
BACKUP: 2000.000000 20000000.000000 (255,0,0)      Solid             4    
BACKUP: 0.000020   0.200000   (255,0,0)      Solid             4    
CURVE: MSFL  0.200000   2000.000000 (0,131,131)    Solid             2     N   
ENDTRACK: 
#
#   TRACK 3
#
STARTTRACK: 
 LEFTX: 6.500000 inch
 RIGHTX: 9.000000 inch
 SCALETYPE: Linear
 NUMCHARTDIVISIONS: 10
CURVE: LLD   0.200000   2000.000000 (255,0,255)    Solid             4     N   
CURVE: DT    190.000000 50.000000  (255,0,131)    Solid             2     N    
ENDTRACK: 
<DescLogPlotEnd>
<DepthTrack type='Reference' track='1' Label='0' color='0' hor='0' />
<Reference font='144,0,-900,0,500,0,16777216,Arial' />
~A DEPTH     LLD              GRS              CALS             MSFL             LLS              DT              
# ...
    7836.000 29.27740000      64.60770000      10.84700000      -999.25000000    27.95180000      69.30340000     
    7836.500 28.47100000      61.77560000      10.84650000      -999.25000000    24.95870000      68.92760000     
    7837.000 32.23590000      62.73680000      10.84610000      -999.25000000    25.91720000      68.12840000     
    7837.500 38.04470000      59.72300000      10.84560000      -999.25000000    29.84840000      65.98950000     
    7838.000 53.74370000      52.19100000      10.84520000      -999.25000000    38.26040000      62.72370000     
    7838.500 68.91570000      48.42410000      10.84470000      -999.25000000    57.08810000      63.06990000     
    7839.000 74.85780000      46.53980000      10.84430000      -999.25000000    62.00270000      65.07600000     
    7839.500 78.00780000      52.93850000      10.81370000      -999.25000000    62.84940000      68.54100000     
    7840.000 66.98150000      60.09030000      10.81320000      -999.25000000    62.83100000      73.64740000     
    7840.500 64.24170000      67.24210000      10.81270000      -999.25000000    58.62350000      75.74470000     
    7841.000 63.34180000      72.21020000      10.81230000      -999.25000000    53.94760000      75.56230000     
    7841.500 62.45460000      74.39200000      10.78170000      -999.25000000    53.18610000      75.37990000     
    7842.000 62.43730000      73.15020000      10.78130000      -999.25000000    52.40630000      74.82550000     
    7842.500 62.42010000      71.60170000      10.78080000      -999.25000000    51.71660000      74.34990000     
    7843.000 62.66350000      69.29780000      10.78040000      -999.25000000    52.42160000      73.40950000     
    7843.500 64.76460000      65.63860000      10.78000000      -999.25000000    53.13610000      71.64280000     
    7844.000 72.33920000      63.19220000      10.77950000      -999.25000000    55.38880000      70.00000000     
    7844.500 88.65680000      61.64510000      10.77910000      -999.25000000    66.73720000      70.61100000     
    7845.000 89.92770000      64.79180000      10.77860000      -999.25000000    72.64190000      71.93360000     
    7845.500 85.54260000      76.91740000      10.77820000      -999.25000000    73.93490000      74.80150000     
    7846.000 74.56550000      91.38880000      10.77770000      -999.25000000    69.08920000      76.98090000     
    7846.500 64.02580000      95.07420000      10.77730000      -999.25000000    62.65160000      76.77160000     
    7847.000 56.51760000      85.66610000      10.77680000      -999.25000000    55.93170000      75.74470000     
    7847.500 51.28900000      77.75770000      10.77640000      -999.25000000    46.81890000      74.10330000     
    7848.000 54.19150000      72.10820000      10.77590000      -999.25000000    45.93870000      71.18540000     
    7848.500 60.51490000      68.34130000      10.77550000      -999.25000000    50.13860000      67.99390000     
    7849.000 66.64800000      64.19790000      10.77500000      -999.25000000    56.75810000      64.16410000     
    7849.500 74.42480000      59.67800000      10.77450000      -999.25000000    67.90040000      63.79940000     
    7850.000 84.26640000      56.28770000      10.77400000      -999.25000000    77.93360000      65.34950000     
    7850.500 93.00260000      55.53280000      10.77360000      -999.25000000    80.57550000      66.68470000     
    7851.000 99.42420000      62.25140000      10.71290000      -999.25000000    82.31860000      68.33350000     
    7851.500 99.60300000      68.43660000      10.65220000      -999.25000000    82.29300000      68.99700000     
    7852.000 103.30960000     74.35260000      10.62170000      -999.25000000    83.09950000      66.71840000     
    7852.500 121.85120000     61.14870000      10.62120000      -999.25000000    92.15780000      60.37120000     
    7853.000 188.90760000     46.66530000      10.62080000      -999.25000000    107.95900000     58.60180000     
    7853.500 226.97690000     40.46800000      10.62030000      -999.25000000    173.97810000     61.11480000     
    7854.000 264.98150000     37.55260000      10.61990000      -999.25000000    236.95840000     67.42750000     
    7854.500 219.04830000     50.89930000      10.61940000      -999.25000000    239.38710000     68.18340000     
    7855.000 132.06550000     57.84950000      10.61900000      -999.25000000    146.68200000     68.54100000     
    7855.500 106.13930000     59.36970000      10.61850000      -999.25000000    108.22450000     68.99700000     
    7856.000 106.24670000     57.77080000      10.61810000      -999.25000000    100.97720000     70.54710000     
    7856.500 104.75350000     67.18160000      10.61760000      -999.25000000    100.95000000     73.37390000     
    7857.000 99.08950000      76.59240000      10.61720000      -999.25000000    99.53880000      75.47110000     
    7857.500 82.76220000      82.61460000      10.61670000      -999.25000000    86.67730000      74.46810000     
    7858.000 68.17590000      74.70620000      10.61630000      -999.25000000    66.65690000      71.36780000     
    7858.500 56.94240000      67.17420000      10.61580000      -999.25000000    54.17180000      70.17320000     
    7859.000 52.39410000      64.91340000      10.61530000      -999.25000000    52.68170000      69.54410000     
    7859.500 51.66060000      63.01310000      10.61480000      -999.25000000    52.66710000      70.24660000     
    7860.000 52.36580000      62.65070000      10.58430000      -999.25000000    53.38570000      70.54710000     
    7860.500 53.08070000      68.94500000      10.58380000      -999.25000000    54.24900000      69.85100000     
    7861.000 53.80540000      72.50160000      10.55330000      -999.25000000    55.78970000      67.90270000     
    7861.500 55.29940000      71.25480000      10.55280000      -999.25000000    57.37590000      68.22380000     
    7862.000 56.99070000      68.93860000      10.55240000      -999.25000000    59.00540000      69.02610000     
    7862.500 59.43110000      69.66930000      10.55200000      -999.25000000    59.54090000      69.63470000     
    7863.000 57.68310000      71.35930000      10.52140000      -999.25000000    58.02850000      70.90410000     
    7863.500 51.04250000      73.51160000      10.52090000      -999.25000000    50.27540000      71.31120000     
    7864.000 44.52220000      72.08520000      10.52050000      -999.25000000    43.88350000      66.71730000     
    7864.500 47.56450000      64.58270000      10.52000000      -999.25000000    47.60520000      61.70210000     
    7865.000 58.42590000      56.98380000      10.51960000      -999.25000000    59.45260000      59.69600000     
    7865.500 75.93030000      51.71090000      10.51910000      -999.25000000    92.46080000      59.87840000     
    7866.000 139.31870000     46.81450000      10.51870000      -999.25000000    141.82340000     62.24920000     
    7866.500 152.23130000     52.08370000      10.50540000      -999.25000000    152.93980000     66.07900000     
    7867.000 107.06830000     64.50660000      10.48770000      -999.25000000    113.64800000     70.78890000     
    7867.500 73.68550000      73.16440000      10.47110000      -999.25000000    82.70150000      73.42890000     
    7868.000 65.95030000      70.90350000      10.43900000      -999.25000000    70.05390000      73.73860000     
    7868.500 70.65280000      64.12460000      10.36570000      -999.25000000    64.46640000      68.34290000     
    7869.000 88.12680000      58.38010000      10.33520000      -999.25000000    76.10440000      62.14410000     
    7869.500 119.43270000     46.86040000      10.24440000      -999.25000000    105.18860000     57.66800000     
    7870.000 157.44400000     29.63470000      10.24390000      -999.25000000    129.58690000     54.82670000     
    7870.500 197.53310000     23.24390000      10.18330000      -999.25000000    146.66060000     56.42930000     
