###############################################
##         ENVERUS                           ##
##         ESS - Open Hole                   ##
##         PERMIAN / DELAWARE                ##
##         Nov 02 2023  V4.0                 ##
##         42-109-10429-00-00                ##
###############################################
## Copyright 2017-2023  ENVERUS.  All Rights Reserved. 
## Confidential - Property of ENVERUS, use governed by terms and 
## conditions found within the existing Information Services Subscription Agreement 
## (as may be amended, the “ISSA”) between Customer and ENVERUS. 
## 
~VERSION INFORMATION
# MNEM.UNIT                               DATA : DESCRIPTION OF MNEMONIC
#-----.-----     ----------------------------- : -----------------------------
VERS.                                     2.00 : CWLS LOG ASCII STANDARD - VERSION 2.00
WRAP.                                       NO : MULTIPLE LINES PER DEPTH STEP
VEND.                                  ENVERUS : VENDOR
TYPE.                          ESS - OPEN HOLE : ENVERUS ESSENTIAL CURVES – ACCESSIBLE THROUGH ENVERUS PRISM(TM)
DOC.                                  32032754 : ENVERUS HEADER RAW DOCUMENT ID
#___________________________________________________________________________________________________ 
~WELL INFORMATION 
# hXqYWT5FmhW7UEcPXxReyvN++rqgSwBrBdup88XCyeQNQmx1Fo1vv7xYmZNr9HC+TZh0ltY2ePdKOSE9Z1hlZw== 
# MNEM.UNIT                                              DATA : DESCRIPTION OF MNEMONIC 
#-----.-----                    ----------------------------- : ----------------------------- 
CNTY.                                               CULBERSON : COUNTY 
STATE.                                                  TEXAS : STATE 
CNTRY.                                                    USA : COUNTRY 
API.                                             42-109-10429 : API (10 Digit) 
API_14.                                    42-109-10429-00-00 : API (14 Digits) 
API_14_std.                                 42-109-10429-0000 : API (14 Digits Standard) 
UWI.                                           42109104290000 : UNIQUE WELL ID 
WELL.                                          ROUNSAVILLE  1 : WELL NAME
STRT.FT                                                     0 : START DEPTH
STOP.FT                                                8409.0 : STOP DEPTH
STEP.FT                                                   0.5 : STEP BETWEEN DEPTHS
NULL.                                                 -999.25 : NULL VALUE
COMP.                                     EOG RESOURCES  INC. : COMPANY
#___________________________________________________________________________________________________ 
~CURVE INFORMATION 
# MNEM.UNIT           : CURVE DESCRIPTION 
#-----.-----          : ----------------------------- 
 DEPT.FT               : MEASURED DEPTH 
 CALI.IN               : CALIPER (CAL - CAL) 
 GR.API                : GAMMA RAY (GR) 
 SP.MV                 : SPONTANEOUS POTENTIAL (SP) 
 DT.US/FT              : SONIC DELTA TRANSIT TIME (DT) 
 RESD.OHMM             : DEEP INDUCTION RESISTIVITY (ILD - ILD) 
 #___________________________________________________________________________________________________ 
~A         DEPT           CALI             GR             SP             DT           RESD
# ...
         7304.0          9.092         72.776        -26.098         81.441         35.557
         7304.5          9.095         75.652        -26.233         84.745         35.049
         7305.0          9.099         78.849        -26.373         87.840         32.006
         7305.5          9.102         82.599        -26.513         88.484         31.742
         7306.0          9.106         86.350        -26.654         87.730         32.322
         7306.5          9.109         81.675        -26.794         86.977         32.902
         7307.0          9.113         75.887        -26.934         86.345         33.510
         7307.5          9.116         74.149        -27.075         86.082         35.152
         7308.0          9.120         74.034        -27.215         85.819         36.794
         7308.5          9.111         78.052        -26.928         85.382         38.437
         7309.0          9.099         75.127        -26.373         84.396         40.079
         7309.5          9.087         72.203        -25.818         82.828         41.721
         7310.0          9.074         69.454        -25.263         81.174         43.363
         7310.5          9.038         70.930        -24.920         79.521         43.721
         7311.0          9.001         69.442        -24.654         78.532         43.012
         7311.5          8.964         64.321        -24.387         77.627         42.304
         7312.0          8.928         58.977        -24.233         76.722         41.595
         7312.5          8.891         56.556        -24.423         74.824         46.294
         7313.0          8.854         57.074        -24.613         72.895         54.715
         7313.5          8.818         57.668        -24.804         70.966         63.137
         7314.0          8.781         56.797        -24.994         69.266         71.558
         7314.5          8.744         56.329        -25.184         67.962         79.734
         7315.0          8.750         57.119        -25.376         67.518         84.799
         7315.5          8.838         57.909        -25.594         68.727         72.955
         7316.0          8.926         58.648        -25.812         69.937         68.733
         7316.5          8.929         58.968        -26.030         70.876         78.967
         7317.0          8.866         59.288        -26.248         69.607         83.044
         7317.5          8.864         59.908        -26.467         68.810         77.990
         7318.0          8.894         60.844        -26.297         69.415         67.533
         7318.5          8.919         62.431        -25.859         70.206         59.854
         7319.0          8.907         68.031        -25.420         71.127         53.969
         7319.5          8.895         70.809        -24.981         71.164         48.085
         7320.0          8.883         69.119        -24.543         70.416         42.495
         7320.5          8.901         67.430        -24.104         70.560         38.020
         7321.0          8.980         66.603        -24.086         70.926         33.544
         7321.5          9.060         65.790        -24.080         71.316         29.945
         7322.0          9.058         66.066        -24.075         72.067         27.628
         7322.5          8.991         68.516        -24.034         71.457         25.310
         7323.0          9.033         70.966        -23.953         71.214         23.019
         7323.5          9.219         73.415        -23.873         72.470         22.174
         7324.0          9.206         73.890        -23.793         73.483         21.369
         7324.5          9.192         74.556        -23.887         74.496         21.617
         7325.0          9.179         76.369        -24.243         74.055         21.865
         7325.5          9.166         77.504        -24.599         73.610         22.113
         7326.0          9.153         77.353        -24.954         74.821         22.361
         7326.5          9.167         77.203        -25.310         73.759         22.609
         7327.0          9.185         77.053        -25.474         74.903         21.277
         7327.5          9.196         70.897        -25.272         76.190         19.794
         7328.0          9.095         72.302        -25.070         75.856         19.187
         7328.5          9.026         73.708        -24.869         75.211         19.376
         7329.0          9.132         75.114        -24.667         75.962         20.880
         7329.5          9.021         73.390        -25.009         72.375         23.444
         7330.0          8.909         71.533        -25.597         70.278         26.009
         7330.5          8.940         69.677        -26.185         68.797         28.283
         7331.0          8.997         69.479        -26.773         68.949         24.558
         7331.5          9.055         69.592        -27.361         71.475         21.518
         7332.0          9.112         68.575        -27.884         77.192         18.477
         7332.5          9.169         69.139        -27.092         79.939         15.466
         7333.0          9.242         69.796        -26.301         82.018         13.478
         7333.5          9.358         67.916        -25.509         82.849         11.491
         7334.0          9.474         67.161        -24.718         82.235         10.631
         7334.5          9.482         67.981        -24.211         83.200         10.475
         7335.0          9.451         68.585        -24.131         84.650         10.320
         7335.5          9.420         66.190        -24.051         86.101         10.596
         7336.0          9.508         63.796        -23.971         85.076         11.393
         7336.5          9.655         60.502        -24.033         83.199         12.190
         7337.0          9.467         57.126        -24.389         76.821         15.717
         7337.5          9.247         47.429        -24.744         65.551         19.516
         7338.0          9.272         35.574        -25.100         61.439         31.947
         7338.5          9.298         28.119        -25.456         53.464         46.544
         7339.0          9.323         27.032        -25.664         52.509         61.140
         7339.5          9.349         29.150        -25.473         57.964         56.167
         7340.0          9.335         38.356        -25.283         63.423         50.652
         7340.5          9.173         48.189        -25.093         75.961         41.269
         7341.0          9.010         53.755        -25.083         86.258         25.450
         7341.5          9.160         58.552        -25.077         83.301         21.029
         7342.0          9.565         61.855        -25.072         82.790         17.687
         7342.5          9.442         65.159        -25.066         86.676         14.346
         7343.0          9.320         66.949        -25.061         86.473         11.005
         7343.5          9.432         67.404        -25.055         89.317          9.831
         7344.0          9.516         69.356        -25.050         89.839          8.990
         7344.5          9.399         71.956        -25.147         89.836          8.149
         7345.0          9.590         73.352        -25.636         89.833          7.698
         7345.5          9.627         72.846        -26.125         89.830          7.437
         7346.0          9.567         72.709        -26.614         89.827          7.176
         7346.5          9.528         73.552        -26.374         87.901          7.504
         7347.0          9.536         70.982        -25.443         89.051          8.082
         7347.5          9.544         69.646        -24.512         86.435          8.661
