###############################################
##         ENVERUS                           ##
##         ESS - Open Hole                   ##
##         PERMIAN / DELAWARE                ##
##         Nov 03 2023  V4.0                 ##
##         42-109-32978-00-00                ##
###############################################
## Copyright 2017-2023  ENVERUS.  All Rights Reserved. 
## Confidential - Property of ENVERUS, use governed by terms and 
## conditions found within the existing Information Services Subscription Agreement 
## (as may be amended, the “ISSA”) between Customer and ENVERUS. 
## 
~VERSION INFORMATION
# MNEM.UNIT                               DATA : DESCRIPTION OF MNEMONIC
#-----.-----     ----------------------------- : -----------------------------
VERS.                                     2.00 : CWLS LOG ASCII STANDARD - VERSION 2.00
WRAP.                                       NO : MULTIPLE LINES PER DEPTH STEP
VEND.                                  ENVERUS : VENDOR
TYPE.                          ESS - OPEN HOLE : ENVERUS ESSENTIAL CURVES – ACCESSIBLE THROUGH ENVERUS PRISM(TM)
DOC.                                  43644371 : ENVERUS HEADER RAW DOCUMENT ID
#___________________________________________________________________________________________________ 
~WELL INFORMATION 
# sF+t5dzO8TjfhJXm5BhYJSGKqyGjnVcKAr1GJS+XHP+EILfiOmlFF7qBSMjafOrEHsreRpz+nmfYFwcq0MlVOA== 
# MNEM.UNIT                                              DATA : DESCRIPTION OF MNEMONIC 
#-----.-----                    ----------------------------- : ----------------------------- 
CNTY.                                               CULBERSON : COUNTY 
STATE.                                                  TEXAS : STATE 
CNTRY.                                                    USA : COUNTRY 
API.                                             42-109-32978 : API (10 Digit) 
API_14.                                    42-109-32978-00-00 : API (14 Digits) 
API_14_std.                                 42-109-32978-0000 : API (14 Digits Standard) 
UWI.                                           42109329780000 : UNIQUE WELL ID 
WELL.                                    42109329780000_API14 : WELL NAME
STRT.FT                                                 179.0 : START DEPTH
STOP.FT                                                9893.5 : STOP DEPTH
STEP.FT                                                   0.5 : STEP BETWEEN DEPTHS
NULL.                                                 -999.25 : NULL VALUE
#___________________________________________________________________________________________________ 
~PARAMETER INFORMATION 
# MNEM.UNIT                                              DATA : DESCRIPTION OF MNEMONIC 
#-----.-----                    ----------------------------- : ----------------------------- 
EKB.FT                                                   3282 : ELEVATION ABOVE MSL
#___________________________________________________________________________________________________ 
~CURVE INFORMATION 
# MNEM.UNIT           : CURVE DESCRIPTION 
#-----.-----          : ----------------------------- 
 DEPT.FT               : MEASURED DEPTH 
 GR.API                : GAMMA RAY (GAMMA RAY) 
 DT.US/FT              : SONIC DELTA TRANSIT TIME (SONIC) 
 #___________________________________________________________________________________________________ 
~A         DEPT             GR             DT
# ...
         9836.0         43.199        276.880
         9836.5         43.876        276.880
         9837.0         41.794        276.880
         9837.5         38.858        276.880
         9838.0         39.936        276.880
         9838.5         44.360        276.880
         9839.0         48.873        276.880
         9839.5         50.482        276.880
         9840.0         45.554        276.880
         9840.5         41.045        276.880
         9841.0         38.348        276.880
         9841.5         41.361        276.880
         9842.0         40.111        276.880
         9842.5         38.739        276.880
         9843.0         36.856        276.880
         9843.5         36.932        276.880
         9844.0         38.440        276.880
         9844.5         37.468        276.880
         9845.0         41.783        276.880
         9845.5         42.696        276.880
         9846.0         45.661        276.880
         9846.5         48.459        276.880
         9847.0         51.972        276.880
         9847.5         52.486        276.880
         9848.0         48.059        276.880
         9848.5         44.507        276.880
         9849.0         42.615        276.880
         9849.5         46.161        276.880
         9850.0         49.962        276.323
         9850.5         53.395        276.323
         9851.0         52.482        276.323
         9851.5         50.560        276.323
         9852.0         49.056        276.653
         9852.5         47.970        278.102
         9853.0         47.301        279.666
         9853.5         45.424        279.666
         9854.0         42.622        279.666
         9854.5         44.243        279.666
         9855.0         47.456        279.666
         9855.5         50.888        279.666
         9856.0         48.520        276.661
         9856.5         43.670        276.323
         9857.0         41.117        276.323
         9857.5         41.398        276.323
         9858.0         46.206        276.323
         9858.5         48.215        276.323
         9859.0         48.471        276.323
         9859.5         48.298        276.323
         9860.0         49.721        276.323
         9860.5         48.806        276.323
         9861.0         45.796        276.323
         9861.5         45.541        276.323
         9862.0         49.173        276.323
         9862.5         50.894        275.766
         9863.0         48.849        275.766
         9863.5         45.796        275.813
         9864.0         45.959        275.766
         9864.5         47.463        275.766
         9865.0         47.632        275.766
         9865.5         47.134        275.766
         9866.0         43.872        275.766
         9866.5         43.874        275.766
         9867.0         43.533        275.766
         9867.5         47.632        275.766
         9868.0         47.632        275.766
         9868.5         49.051        275.766
         9869.0         49.723        275.766
         9869.5         47.677        275.766
         9870.0         43.550        275.766
         9870.5         34.979        275.766
         9871.0         33.674        275.766
         9871.5         37.181        275.766
         9872.0         44.157        275.766
         9872.5         50.344        275.766
         9873.0         53.354        276.323
         9873.5         54.901        276.323
         9874.0         54.319        276.323
         9874.5         51.103        276.323
         9875.0         48.386        276.323
         9875.5         47.547        276.323
         9876.0         50.179        276.323
         9876.5         51.393        276.323
         9877.0         49.472        276.323
         9877.5         47.718        276.323
         9878.0         45.628        276.323
         9878.5         43.749        276.323
         9879.0         41.366        276.323
         9879.5         42.450        276.323
         9880.0         44.290        276.323
         9880.5         44.290        276.323
         9881.0         44.959        276.323
         9881.5         43.873        276.323
         9882.0         42.369        276.323
         9882.5         40.864        276.323
         9883.0         41.447        276.323
         9883.5         45.332        276.323
         9884.0         49.511        276.323
         9884.5         51.561        276.656
         9885.0         48.553        277.437
         9885.5         47.215        277.437
         9886.0         47.381        277.437
         9886.5         48.885        277.437
         9887.0         50.389        277.437
         9887.5         50.557        277.437
         9888.0         49.639        277.437
         9888.5         47.382        277.437
         9889.0         45.503        277.437
         9889.5       -999.250        277.437
         9890.0       -999.250        277.437
         9890.5       -999.250        277.437
         9891.0       -999.250        277.437
         9891.5       -999.250        277.437
         9892.0       -999.250        277.437
         9892.5       -999.250        277.437
         9893.0       -999.250        276.880
         9893.5       -999.250        276.983
