###############################################
##         ENVERUS                           ##
##         ESS - Open Hole                   ##
##         PERMIAN / DELAWARE                ##
##         Nov 03 2023  V4.0                 ##
##         42-109-33370-00-00                ##
###############################################
## Copyright 2017-2023  ENVERUS.  All Rights Reserved. 
## Confidential - Property of ENVERUS, use governed by terms and 
## conditions found within the existing Information Services Subscription Agreement 
## (as may be amended, the “ISSA”) between Customer and ENVERUS. 
## 
~VERSION INFORMATION
# MNEM.UNIT                               DATA : DESCRIPTION OF MNEMONIC
#-----.-----     ----------------------------- : -----------------------------
VERS.                                     2.00 : CWLS LOG ASCII STANDARD - VERSION 2.00
WRAP.                                       NO : MULTIPLE LINES PER DEPTH STEP
VEND.                                  ENVERUS : VENDOR
TYPE.                          ESS - OPEN HOLE : ENVERUS ESSENTIAL CURVES – ACCESSIBLE THROUGH ENVERUS PRISM(TM)
DOC.                                  52814434 : ENVERUS HEADER RAW DOCUMENT ID
#___________________________________________________________________________________________________ 
~WELL INFORMATION 
# 4wk/Fx8UuugU+iebl2dHJIcndKaYvWbTE+/Vf37HP7rynMiEVi3nAb6NYbehQO/VbM9PVY38flJCaeNisGRn4g== 
# MNEM.UNIT                                              DATA : DESCRIPTION OF MNEMONIC 
#-----.-----                    ----------------------------- : ----------------------------- 
CNTY.                                               CULBERSON : COUNTY 
STATE.                                                  TEXAS : STATE 
CNTRY.                                                    USA : COUNTRY 
API.                                             42-109-33370 : API (10 Digit) 
API_14.                                    42-109-33370-00-00 : API (14 Digits) 
API_14_std.                                 42-109-33370-0000 : API (14 Digits Standard) 
UWI.                                           42109333700000 : UNIQUE WELL ID 
WELL.                                       ROXANNE FEE 46 3H : WELL NAME
STRT.FT                                                8800.0 : START DEPTH
STOP.FT                                               14157.0 : STOP DEPTH
STEP.FT                                                   0.5 : STEP BETWEEN DEPTHS
NULL.                                                 -999.25 : NULL VALUE
LOC.                                        API  42-109-33370 : LOCATION 
FL1.                                        API  42-109-33370 : LOCATIONLINE1 
DMF.                                                       KB : DRILL MEAS FROM 
PDAT.                                                      GL : PERMANENT DATUM 
FLD.                                    FORD, WEST (WOLFCAMP) : FIELD NAME 
COMP.                                          CAPITAN ENERGY : COMPANY 
DATE.                                             29-APR-2019 : DATE 
SVCO.                                             HALLIBURTON : SERVICECONAME 
PROV.                                                   TEXAS : PROVINCE 
BASI.                                                 PERMIAN : BASIN 
RANG.                                                     N/A : RANGE 
TOWN.                                                     N/A : TOWNSHIP 
SECT.                                                     N/A : SECTION 
SON.                                                905631605 : JOB NUMBER 
SRVC.                                             HALLIBURTON : SERVICE COMPANY 
LMF.                                                       KB : LOG MEASURED FROM 
BAP.FT                                                 0.0000 : GL ELEV ONSHORE 
GVFD.G                                                 1.0000 : GRAVITY FIELD
#___________________________________________________________________________________________________ 
~CURVE INFORMATION 
# MNEM.UNIT           : CURVE DESCRIPTION 
#-----.-----          : ----------------------------- 
 DEPT.FT               : MEASURED DEPTH 
 GR.API                : GAMMA RAY (GR_CHI - GR_CHI) 
 GR__01.API            : GAMMA RAY (GR_OH - GR_OH) 
 DT.US/FT              : SONIC DELTA TRANSIT TIME (DTC_CHI - DTC_CHI) 
 DT__01.US/FT          : SONIC DELTA TRANSIT TIME (DTC_OH - DTC_OH) 
 PE.B/E                : PHOTOELECTRIC EFFECT/FACTOR (PE_CHI - PE_CHI) 
 PE__01.B/E            : PHOTOELECTRIC EFFECT/FACTOR (PE_OH - PE_OH) 
 RESS_10.OHMM          : 10 INCH SHALLOW INDUCTION RESISTIVITY (RT10_CHI - RT10_CHI) 
 RESS_10__01.OHMM      : 10 INCH SHALLOW INDUCTION RESISTIVITY (RT10_OH - RT10_OH) 
 RESM_30.OHMM          : 30 INCH MEDIUM INDUCTION RESISTIVITY (RT30_CHI - RT30_CHI) 
 RESM_30__01.OHMM      : 30 INCH MEDIUM INDUCTION RESISTIVITY (RT30_OH - RT30_OH) 
 RESD_90.OHMM          : 90 INCH DEEP INDUCTION RESISTIVITY (RT90_CHI - RT90_CHI) 
 RESD_90__01.OHMM      : 90 INCH DEEP INDUCTION RESISTIVITY (RT90_OH - RT90_OH) 
 NPHI.V/V              : NEUTRON POROSITY (NPHI_CHI - NPHI_CHI) 
 NPHI__01.V/V          : NEUTRON POROSITY (NPHI_OH - NPHI_OH) 
 SPHI.V/V              : SONIC POROSITY (SPHI_CHI - SPHI_CHI) 
 RHOB.G/CC             : BULK DENSITY (RHOB_CHI - RHOB_CHI) 
 RHOB__01.G/CC         : BULK DENSITY (RHOB_OH - RHOB_OH) 
 #___________________________________________________________________________________________________ 
~A         DEPT             GR         GR__01             DT         DT__01             PE         PE__01        RESS_10    RESS_10__01        RESM_30    RESM_30__01        RESD_90    RESD_90__01           NPHI       NPHI__01           SPHI           RHOB       RHOB__01
# ...
         9865.0         55.949       -999.250         72.320       -999.250         3.6328      -999.2500         43.573       -999.250         45.009       -999.250         47.882       -999.250        0.11690     -999.25000        0.17470         2.6035      -999.2500
         9865.5         57.457       -999.250         72.382       -999.250         3.6524      -999.2500         45.058       -999.250         46.543       -999.250         49.514       -999.250        0.11850     -999.25000        0.17470         2.6032      -999.2500
         9866.0         58.321       -999.250         72.341       -999.250         3.6682      -999.2500         46.632       -999.250         48.169       -999.250         51.244       -999.250        0.11860     -999.25000        0.17440         2.6033      -999.2500
         9866.5         58.276       -999.250         72.207       -999.250         3.6809      -999.2500         48.294       -999.250         49.886       -999.250         53.070       -999.250        0.11720     -999.25000        0.17360         2.6039      -999.2500
         9867.0         56.808       -999.250         72.011       -999.250         3.6932      -999.2500         50.077       -999.250         51.728       -999.250         55.030       -999.250        0.11450     -999.25000        0.17240         2.6053      -999.2500
         9867.5         54.450       -999.250         71.797       -999.250         3.7122      -999.2500         52.066       -999.250         53.783       -999.250         57.216       -999.250        0.11150     -999.25000        0.17110         2.6072      -999.2500
         9868.0         52.051       -999.250         71.574       -999.250         3.7352      -999.2500         54.186       -999.250         55.972       -999.250         59.545       -999.250        0.10850     -999.25000        0.16970         2.6093      -999.2500
         9868.5         49.586       -999.250         71.369       -999.250         3.7632      -999.2500         56.298       -999.250         58.154       -999.250         61.866       -999.250        0.10600     -999.25000        0.16840         2.6116      -999.2500
         9869.0         47.829       -999.250         71.209       -999.250         3.7892      -999.2500         58.209       -999.250         60.128       -999.250         63.966       -999.250        0.10420     -999.25000        0.16740         2.6133      -999.2500
         9869.5         47.099       -999.250         71.127       -999.250         3.8031      -999.2500         59.725       -999.250         61.694       -999.250         65.632       -999.250        0.10310     -999.25000        0.16670         2.6142      -999.2500
         9870.0         47.485       -999.250         71.087       -999.250         3.8022      -999.2500         60.856       -999.250         62.863       -999.250         66.875       -999.250        0.10240     -999.25000        0.16610         2.6140      -999.2500
         9870.5         48.282       -999.250         71.044       -999.250         3.7959      -999.2500         61.915       -999.250         63.956       -999.250         68.039       -999.250        0.10170     -999.25000        0.16550         2.6135      -999.2500
         9871.0         48.540       -999.250         70.940       -999.250         3.7998      -999.2500         63.291       -999.250         65.377       -999.250         69.550       -999.250        0.10040     -999.25000        0.16480         2.6137      -999.2500
         9871.5         48.003       -999.250         70.796       -999.250         3.8126      -999.2500         65.098       -999.250         67.244       -999.250         71.536       -999.250        0.09860     -999.25000        0.16380         2.6145      -999.2500
         9872.0         46.342       -999.250         70.624       -999.250         3.8313      -999.2500         67.225       -999.250         69.441       -999.250         73.874       -999.250        0.09630     -999.25000        0.16270         2.6160      -999.2500
         9872.5         43.730       -999.250         70.458       -999.250         3.8532      -999.2500         69.597       -999.250         71.892       -999.250         76.481       -999.250        0.09380     -999.25000        0.16150         2.6179      -999.2500
         9873.0         40.871       -999.250         70.272       -999.250         3.8719      -999.2500         71.992       -999.250         74.365       -999.250         79.112       -999.250        0.09090     -999.25000        0.16010         2.6199      -999.2500
         9873.5         38.239       -999.250         70.033       -999.250         3.8941      -999.2500         74.311       -999.250         76.761       -999.250         81.661       -999.250        0.08810     -999.25000        0.15860         2.6221      -999.2500
         9874.0         36.821       -999.250         69.768       -999.250         3.9239      -999.2500         76.614       -999.250         79.139       -999.250         84.191       -999.250        0.08600     -999.25000        0.15710         2.6242      -999.2500
         9874.5         36.285       -999.250         69.536       -999.250         3.9583      -999.2500         78.970       -999.250         81.573       -999.250         86.780       -999.250        0.08450     -999.25000        0.15580         2.6259      -999.2500
         9875.0         36.254       -999.250         69.424       -999.250         3.9802      -999.2500         81.252       -999.250         83.930       -999.250         89.288       -999.250        0.08360     -999.25000        0.15510         2.6267      -999.2500
         9875.5         36.284       -999.250         69.427       -999.250         3.9870      -999.2500         83.341       -999.250         86.089       -999.250         91.584       -999.250        0.08310     -999.25000        0.15490         2.6266      -999.2500
         9876.0         36.041       -999.250         69.488       -999.250         3.9816      -999.2500         85.259       -999.250         88.069       -999.250         93.691       -999.250        0.08270     -999.25000        0.15500         2.6262      -999.2500
         9876.5         35.388       -999.250         69.584       -999.250         3.9707      -999.2500         87.247       -999.250         90.123       -999.250         95.876       -999.250        0.08210     -999.25000        0.15520         2.6257      -999.2500
         9877.0         34.190       -999.250         69.641       -999.250         3.9687      -999.2500         89.653       -999.250         92.609       -999.250         98.520       -999.250        0.08140     -999.25000        0.15530         2.6257      -999.2500
         9877.5         32.480       -999.250         69.625       -999.250         3.9823      -999.2500         92.872       -999.250         95.933       -999.250        102.057       -999.250        0.08030     -999.25000        0.15490         2.6266      -999.2500
         9878.0         30.696       -999.250         69.481       -999.250         4.0147      -999.2500         96.923       -999.250        100.118       -999.250        106.508       -999.250        0.07840     -999.25000        0.15380         2.6283      -999.2500
         9878.5         29.254       -999.250         69.223       -999.250         4.0524      -999.2500        101.246       -999.250        104.584       -999.250        111.260       -999.250        0.07580     -999.25000        0.15210         2.6303      -999.2500
         9879.0         28.501       -999.250         68.834       -999.250         4.0991      -999.2500        105.083       -999.250        108.547       -999.250        115.476       -999.250        0.07290     -999.25000        0.14980         2.6327      -999.2500
         9879.5         27.643       -999.250         68.367       -999.250         4.1530      -999.2500        107.720       -999.250        111.272       -999.250        118.374       -999.250        0.07000     -999.25000        0.14710         2.6357      -999.2500
