~Version Information
 VERS.                  2.0:   CWLS log ASCII Standard -VERSION 2.0
 WRAP.                   NO:   One line per depth step
~Well Information Block
#MNEM.UNIT     VALUE/NAME     DESCRIPTION
#---------     -----------    ---------------------------
 STRT.F              8400.0000: START DEPTH
 STOP.F             14130.0000: STOP DEPTH
 STEP.F                 0.5000: STEP DEPTH
 NULL.                 -999.25: NULL VALUE
 LOC .            42-109-33596:  LOCATION
 FL1 .            42-109-33596:  LOCATIONLINE1
 PROV.                      TX:  PROVINCE
 STAT.                      TX:  STATE NAME
 CNTY.               CULBERSON:  COUNTY NAME
 FLD .              WOLFCAMP B:  FIELD NAME
 WELL.           DALE STATE 5H:  WELL NAME
 COMP.     CAPITAN ENERGY INC.:  COMPANY
 DMF .             Drill Floor:  DRILL MEAS FROM
 PDAT.                      GL:  PERMANENT DATUM
 DATE.             11-Feb-2020:  DATE
 SVCO.             Halliburton:  SERVICECONAME
 HIDE.                        :  WELLNAMEOPERAT
 BASI.                 PERMIAN:  BASIN
 UWI .            42-109-33596:  UNIQUE WELL IDENTIFIER
 API .            42-109-33596:  API NUMBER
 RANG.                     N/A:  RANGE
 TOWN.                     N/A:  TOWNSHIP
 SECT.                     N/A:  SECTION
 SON .               906289953:  JOB NUMBER
 CTRY.                        :  COUNTRY
 SRVC.             Halliburton:  SERVICE COMPANY
 LMF .             Drill Floor:  LOG MEASURED FROM
 TVDS.ft             3291.0000:  TVDSS CORRECTN
 EGL .ft             3266.0000:  GROUND ELEVATION
 APD .ft               25.0000:  DEPTH ABOVE PD
 EPD .ft             3266.0000:  ELEVATION
 BAP .ft                0.0000:  GL ELEV ONSHORE
 GVFD.g                 1.0000:  GRAVITY FIELD
 EKB .ft             3291.0000:  KB ELEVATION
 EDF .ft             3291.0000:  DF ELEVATION
~Curve Information Block
#MNEM.UNIT                 API CODE     Curve Description
#---------               -----------    ---------------------------
 DEPT.F                 00 000 000 000:  Depth
 CCL .V                 00 000 000 000:  Casing Collar Locator
 NPHI_OH.pu             00 000 000 000:  NPHI_OH
 NPHI_CHI.decp          00 000 000 000:  NPHI_CHI
 GR_OH.api              00 000 000 000:  GR_OH
 GR_CHI.api             00 000 000 000:  GR_CHI
 RHOB_OH.g/cc           00 000 000 000:  RHOB_OH
 RHOB_CHI.g/cc          00 000 000 000:  RHOB_CHI
 PE_OH.NONE             00 000 000 000:  PE_OH
 PE_CHI.NONE            00 000 000 000:  PE_CHI
 LLS_CHI.ohmm           00 000 000 000:  LLS_CHI
 LLS_OH.ohmm            00 000 000 000:  LLS_OH
 LLD_OH.ohmm            00 000 000 000:  LLD_OH
 LLD_CHI.ohmm           00 000 000 000:  LLD_CHI
 DTC_OH.uspf            00 000 000 000:  DTC_OH
 DTC_CHI.uspf           00 000 000 000:  DTC_CHI
 SPHW_CHI.decp          00 000 000 000:  SPHW_CHI
#Other Information
#
#WARRANTY: Halliburton will use its best efforts to furnish customers with 
#accurate information and interpretations that are part of, and incident to, the services 
#provided.  However, Halliburton cannot and does not warrant the accuracy 
#or correctness of such information and interpretations.  Under no circumstances should any 
#such information or interpretation be relied upon as the sole basis for any drilling, 
#completion, production, or financial decision or any procedure involving any risk to the 
#safety of any drilling venture, drilling rig or its crew or any other third party.  The 
#Customer has full responsibility for all drilling, completion and production operation.  
#Halliburton makes no representations or warranties, either expressed or 
#implied, including, but not limited to, the implied warranties of merchantability or fitness 
#for a particular purpose, with respect to the services rendered.  In no event will 
#Halliburton be liable for failure to obtain any particular results or for 
#any damages, including, but not limited to, indirect, special or consequential damages, 
#resulting from the use of any information or interpretation provided by Halliburton.
#
~A    DEPT      CCL   NPHI_OH NPHI_CHI  GR_OH    GR_CHI  RHOB_OH RHOB_CHI  PE_OH  PE_CHI LLS_CHI   LLS_OH    LLD_OH    LLD_CHI  DTC_OH  DTC_CHI SPHW_CHI 
# ...
   12587.0000 -0.0261 -999.25   0.1106  -999.25 106.2164 -999.25   2.5765 -999.25 3.3087  50.3113   -999.25   -999.25   47.7790 -999.25 70.2421 0.1601
   12587.5000  0.0570 -999.25   0.1109  -999.25 107.3660 -999.25   2.5765 -999.25 3.2944  48.1003   -999.25   -999.25   45.4506 -999.25 70.2916 0.1605
   12588.0000  0.0041 -999.25   0.1082  -999.25 100.8483 -999.25   2.5779 -999.25 3.2595  43.4254   -999.25   -999.25   42.1151 -999.25 70.1222 0.1593
   12588.5000 -0.0099 -999.25   0.1066  -999.25  95.6454 -999.25   2.5788 -999.25 3.2370  40.9409   -999.25   -999.25   40.7594 -999.25 70.0652 0.1589
   12589.0000 -0.0174 -999.25   0.1140  -999.25 111.3876 -999.25   2.5738 -999.25 3.2729  47.4334   -999.25   -999.25   44.9766 -999.25 70.6541 0.1630
   12589.5000 -0.0135 -999.25   0.1167  -999.25 114.3268 -999.25   2.5708 -999.25 3.2831  50.8214   -999.25   -999.25   48.2208 -999.25 71.0881 0.1661
   12590.0000  0.4334 -999.25   0.1158  -999.25 108.9414 -999.25   2.5702 -999.25 3.2649  49.9087   -999.25   -999.25   48.8945 -999.25 71.0990 0.1662
   12590.5000 -0.0544 -999.25   0.1187  -999.25 112.4111 -999.25   2.5690 -999.25 3.2621  51.2627   -999.25   -999.25   50.5175 -999.25 71.3428 0.1679
   12591.0000 -0.0271 -999.25   0.1202  -999.25 113.2134 -999.25   2.5697 -999.25 3.2524  50.8346   -999.25   -999.25   50.8411 -999.25 71.3385 0.1679
   12591.5000  0.0165 -999.25   0.1131  -999.25  95.3357 -999.25   2.5773 -999.25 3.1854  39.7610   -999.25   -999.25   43.3300 -999.25 70.5538 0.1623
   12592.0000  0.0134 -999.25   0.1158  -999.25  99.2400 -999.25   2.5759 -999.25 3.1628  38.4987   -999.25   -999.25   41.7321 -999.25 70.7398 0.1636
   12592.5000 -0.0324 -999.25   0.1217  -999.25 110.7067 -999.25   2.5714 -999.25 3.1577  40.0713   -999.25   -999.25   41.9737 -999.25 71.4471 0.1687
   12593.0000 -0.0019 -999.25   0.1229  -999.25 112.6410 -999.25   2.5693 -999.25 3.1356  38.7158   -999.25   -999.25   40.6577 -999.25 71.7738 0.1710
   12593.5000 -0.0024 -999.25   0.1236  -999.25 113.2355 -999.25   2.5678 -999.25 3.1082  36.8041   -999.25   -999.25   38.9740 -999.25 72.0053 0.1726
   12594.0000  0.0285 -999.25   0.1250  -999.25 115.5481 -999.25   2.5670 -999.25 3.0914  35.2861   -999.25   -999.25   37.2196 -999.25 72.2914 0.1746
   12594.5000 -0.0082 -999.25   0.1224  -999.25 109.4901 -999.25   2.5695 -999.25 3.0516  30.6747   -999.25   -999.25   33.0122 -999.25 71.9859 0.1725
   12595.0000  0.0248 -999.25   0.1208  -999.25 106.5757 -999.25   2.5723 -999.25 3.0438  28.6386   -999.25   -999.25   30.7234 -999.25 71.7734 0.1710
   12595.5000  0.0159 -999.25   0.1211  -999.25 107.0237 -999.25   2.5735 -999.25 3.0577  28.8932   -999.25   -999.25   30.6074 -999.25 71.8149 0.1713
   12596.0000  0.0198 -999.25   0.1236  -999.25 111.6033 -999.25   2.5728 -999.25 3.0886  31.3614   -999.25   -999.25   32.5854 -999.25 72.1211 0.1734
   12596.5000  0.0012 -999.25   0.1180  -999.25  96.5252 -999.25   2.5777 -999.25 3.0614  27.7721   -999.25   -999.25   30.8105 -999.25 71.4690 0.1688
   12597.0000 -0.0156 -999.25   0.1182  -999.25  94.1918 -999.25   2.5787 -999.25 3.0600  27.2506   -999.25   -999.25   31.0177 -999.25 71.4754 0.1689
   12597.5000  0.0281 -999.25   0.1283  -999.25 113.6207 -999.25   2.5723 -999.25 3.0948  32.4797   -999.25   -999.25   34.8491 -999.25 72.5261 0.1763
   12598.0000 -0.0092 -999.25   0.1320  -999.25 121.7629 -999.25   2.5704 -999.25 3.1135  34.5632   -999.25   -999.25   36.2698 -999.25 73.0934 0.1803
   12598.5000 -0.0067 -999.25   0.1231  -999.25 102.0164 -999.25   2.5763 -999.25 3.0395  26.6308   -999.25   -999.25   29.8646 -999.25 71.8679 0.1716
   12599.0000  0.0048 -999.25   0.1184  -999.25  93.5573 -999.25   2.5799 -999.25 3.0224  24.2093   -999.25   -999.25   27.7636 -999.25 71.4245 0.1685
   12599.5000  0.0046 -999.25   0.1225  -999.25 102.9921 -999.25   2.5763 -999.25 3.0369  26.3018   -999.25   -999.25   28.9263 -999.25 71.8765 0.1717
   12600.0000  0.0000 -999.25   0.1206  -999.25  99.3384 -999.25   2.5772 -999.25 3.0339  25.8540   -999.25   -999.25   28.7803 -999.25 71.6958 0.1704
   12600.5000 -0.0243 -999.25   0.1272  -999.25 113.0578 -999.25   2.5718 -999.25 3.0730  30.6136   -999.25   -999.25   32.7565 -999.25 72.5142 0.1762
   12601.0000 -0.0382 -999.25   0.1243  -999.25 104.4660 -999.25   2.5729 -999.25 3.0560  29.2257   -999.25   -999.25   32.8996 -999.25 72.1587 0.1737
   12601.5000  0.0051 -999.25   0.1256  -999.25 106.0467 -999.25   2.5719 -999.25 3.0737  31.4019   -999.25   -999.25   35.6612 -999.25 72.2147 0.1741
   12602.0000  0.0000 -999.25   0.1253  -999.25 104.8930 -999.25   2.5721 -999.25 3.0897  32.7869   -999.25   -999.25   37.6162 -999.25 72.1385 0.1735
   12602.5000  0.0000 -999.25   0.1238  -999.25 103.0027 -999.25   2.5735 -999.25 3.1218  35.2943   -999.25   -999.25   40.2972 -999.25 71.8995 0.1718
   12603.0000  0.0000 -999.25   0.1277  -999.25 112.1463 -999.25   2.5701 -999.25 3.1485  39.6398   -999.25   -999.25   43.0863 -999.25 72.3828 0.1753
   12603.5000 -0.0010 -999.25   0.1297  -999.25 117.1948 -999.25   2.5685 -999.25 3.1700  42.3830   -999.25   -999.25   44.7813 -999.25 72.7835 0.1781
   12604.0000 -0.0172 -999.25   0.1279  -999.25 112.8932 -999.25   2.5689 -999.25 3.1418  38.9025   -999.25   -999.25   41.8856 -999.25 72.6722 0.1773
   12604.5000 -0.0087 -999.25   0.1228  -999.25 101.4887 -999.25   2.5728 -999.25 3.0897  31.9938   -999.25   -999.25   36.4762 -999.25 72.1307 0.1735
   12605.0000  0.0041 -999.25   0.1247  -999.25 103.5335 -999.25   2.5716 -999.25 3.0622  30.0983   -999.25   -999.25   34.6861 -999.25 72.3527 0.1751
   12605.5000 -0.0049 -999.25   0.1170  -999.25  89.7138 -999.25   2.5797 -999.25 3.0323  24.2743   -999.25   -999.25   29.8367 -999.25 71.5408 0.1693
   12606.0000  0.0056 -999.25   0.1176  -999.25  89.8406 -999.25   2.5797 -999.25 3.0006  22.2534   -999.25   -999.25   27.5218 -999.25 71.5533 0.1694
   12606.5000 -0.0052 -999.25   0.1303  -999.25 112.5359 -999.25   2.5688 -999.25 2.9975  25.5406   -999.25   -999.25   29.1319 -999.25 73.0328 0.1799
   12607.0000  0.0040 -999.25   0.1322  -999.25 115.6721 -999.25   2.5668 -999.25 2.9842  24.6770   -999.25   -999.25   27.9781 -999.25 73.5191 0.1833
   12607.5000 -0.0017 -999.25   0.1273  -999.25 103.9398 -999.25   2.5698 -999.25 2.9563  21.7182   -999.25   -999.25   25.8334 -999.25 73.1029 0.1804
   12608.0000  0.0119 -999.25   0.1277  -999.25 104.4677 -999.25   2.5698 -999.25 2.9780  22.9984   -999.25   -999.25   27.0838 -999.25 73.1745 0.1809
   12608.5000  0.0044 -999.25   0.1316  -999.25 111.7537 -999.25   2.5675 -999.25 3.0326  27.6575   -999.25   -999.25   31.4695 -999.25 73.5740 0.1837
   12609.0000 -0.0019 -999.25   0.1341  -999.25 116.8898 -999.25   2.5675 -999.25 3.0951  33.2550   -999.25   -999.25   36.8475 -999.25 73.6907 0.1845
   12609.5000 -0.0144 -999.25   0.1276  -999.25 102.9711 -999.25   2.5741 -999.25 3.0985  31.1726   -999.25   -999.25   36.2208 -999.25 72.6014 0.1768
   12610.0000 -0.0064 -999.25   0.1256  -999.25  98.5403 -999.25   2.5769 -999.25 3.1036  30.2908   -999.25   -999.25   35.8500 -999.25 72.2973 0.1747
   12610.5000 -0.0001 -999.25   0.1297  -999.25 105.8342 -999.25   2.5736 -999.25 3.0966  31.1960   -999.25   -999.25   36.0103 -999.25 72.7505 0.1779
   12611.0000  0.0004 -999.25   0.1300  -999.25 105.7802 -999.25   2.5727 -999.25 3.0687  28.5448   -999.25   -999.25   33.0734 -999.25 73.0058 0.1797
   12611.5000  0.0095 -999.25   0.1277  -999.25 100.7269 -999.25   2.5741 -999.25 3.0380  25.1063   -999.25   -999.25   29.6352 -999.25 72.9522 0.1793
   12612.0000 -0.0152 -999.25   0.1310  -999.25 106.5992 -999.25   2.5711 -999.25 3.0421  26.1751   -999.25   -999.25   30.2107 -999.25 73.4869 0.1831
   12612.5000 -0.0339 -999.25   0.1361  -999.25 117.2440 -999.25   2.5682 -999.25 3.0925  31.2852   -999.25   -999.25   34.6008 -999.25 74.1522 0.1878
   12613.0000 -0.0236 -999.25   0.1372  -999.25 119.4375 -999.25   2.5684 -999.25 3.1312  35.3492   -999.25   -999.25   38.7048 -999.25 74.1508 0.1878
