~Version Information
 VERS.                  2.0:   CWLS log ASCII Standard -VERSION 2.0
 WRAP.                   NO:   One line per depth step
~Well Information Block
#MNEM.UNIT       Data Type    Information
#---------     -----------    ---------------------------
 STRT.F              3503.5000:
 STOP.F             12186.0000:
 STEP.F                 0.5000:
 NULL.               -999.2500:
 UWI .            42-109-32278:  API WELLHOLE NUMBER
 COMP.     SAMSON LONE STAR LP:  COMPANY NAME
 COUN.               CULBERSON:  COUNTY
 DAT2.                   02000:  LOGGING DATE 2
 DAT3.                   02000:  LOGGING DATE 3
 DAT4.                   02000:  LOGGING DATE 4
 DATE.                   02000:  LOGGING DATE
 DMF .           KELLY BUSHING:  DRILLING MEASURED
 LOC .    1521' FWL AND 2040' FSL:  FIELD LOCATION
 FL1 .    1521' FWL AND 2040' FSL:  FIELD LOCATION LINE 1
 FL2 .        SEC. 14, BLK. 46:  FIELD LOCATION LINE 2
 FLD .                 WILDCAT:  FIELD NAME
 HDAT.                   02000:  DATUM
 LMF .                    K.B.:  LOG MEASURED FROM
 OS1 .                    XRMI:  OTHER SERVICES LINE 1
 OS2 .               LSS / FWS:  OTHER SERVICES LINE 2
 OS3 .                 SDL/DSN:  OTHER SERVICES LINE 3
 OS4 .                DLL/MGRD:  OTHER SERVICES LINE 4
 PDAT.            GROUND LEVEL:  PERMANENT DATUM
 R1  .    TOOLSTRING: RWCH/D4TS/NGRT/LFS_D2/XRMI/CENT:  REMARKS LINE 1
 R2  .    LOGGING INTERVALS AS PER CUSTOMER REQUEST.:  REMARKS LINE 2
 RDT2.                   02000:  CASING DATE 2
 RDT3.                   02000:  CASING DATE 3
 RDT4.                   02000:  CASING DATE 4
 RDT5.                   02000:  CASING DATE 5
 SON .                 4992511:  SERVICE/TICKET ORDER NUMBER
 PROV.                   TEXAS:  STATE
 WELL.    UNIVERSITY LANDS 46-14 No. 2:  WELL NAME
~Parameter Information Block
#MNEM.UNIT       Value        Description
#---------     -----------    ---------------------------
~Curve Information Block
#MNEM.UNIT                 API CODE     Curve Description
#---------               -----------    ---------------------------
 DEPT.F                 00 000 000 000:  
 LLD .ohmm              00 000 000 000:  LLD                                    
 LLS .ohmm              00 000 000 000:  LLS                                    
 NPHI.decp              00 000 000 000:  Neutron Porosity                       
 GR  .api               00 000 000 000:  Gamma API                              
 MGRD.ohmm              00 000 000 000:  MCGRD                                  
 DRHO.g/cc              00 000 000 000:  DensityCorr                            
 DPHI.decp              00 000 000 000:  DensityPorosity                        
 PE  .b/e               00 000 000 000:  Pe                                     
 RHOB.g/cc              00 000 000 000:  Density                                
 XPHI.decp              00 000 000 000:  CrossplotPhi                           
 CALI.in                00 000 000 000:  Caliper                                
 DTC .                  00 000 000 000:  DELTA-T COMPRESSIONAL - FWS
 GR2 .GAPI              00 000 000 000:  NATURAL GAMMA - FWS
 SPHI.DECP              00 000 000 000:  SONIC POROSITY MTX=47.6 (DTC)
~A  DEPT        LLD        LLS        NPHI       GR         MGRD       DRHO       DPHI       PE         RHOB       XPHI       CALI       DTC        GR2        SPHI   
# ...
 6492.5000    17.9159    14.0650     0.0970    92.9621    21.4601     0.0301     0.0600     2.9743     2.6073     0.0908    10.3191    65.6499    73.0675     0.1277 
 6493.0000    19.6156    15.3697     0.0850    92.4287    23.8031     0.0270     0.0514     3.0347     2.6221     0.0822    10.2885    63.9183    72.6676     0.1154 
 6493.5000    19.3872    15.2931     0.0818   100.9623    17.5617     0.0354     0.0515     3.0708     2.6220     0.0744    10.2809    63.5156    73.8419     0.1126 
 6494.0000    17.2083    13.6497     0.0873    96.8555    13.0204     0.0608     0.0581     3.0079     2.6107     0.0802    10.2809    64.0259    74.2673     0.1162 
 6494.5000    14.7714    11.7033     0.1043    92.2687    12.3855     0.0878     0.0625     2.9163     2.6031     0.0923    10.2962    64.6367    73.4249     0.1205 
 6495.0000    12.9100    10.1956     0.1206    99.3622    11.4052     0.0917     0.0710     2.8348     2.5886     0.1051    10.3115    66.3034    72.8463     0.1323 
 6495.5000    11.9711     9.4715     0.1265   100.4289    10.4956     0.0861     0.0766     2.7928     2.5790     0.1107    10.3344    68.2902    73.3739     0.1463 
 6496.0000    11.7120     9.3682     0.1258    96.9088    10.1623     0.0823     0.0778     2.8083     2.5770     0.1092    10.3420    68.9617    75.1267     0.1511 
 6496.5000    11.7305     9.4839     0.1232    92.6421    11.0242     0.0741     0.0822     2.8113     2.5694     0.1092    10.3344    69.0437    76.0117     0.1517 
 6497.0000    11.7945     9.6836     0.1229    94.6155    11.4888     0.0657     0.0902     2.8224     2.5557     0.1136    10.3191    69.6048    78.0624     0.1556 
 6497.5000    11.6960     9.6452     0.1184   107.6291    11.1945     0.0581     0.1000     2.8539     2.5390     0.1148    10.3344    69.5747    80.2066     0.1554 
 6498.0000    11.5855     9.5360     0.1186   113.3892    10.4042     0.0523     0.1036     2.7950     2.5329     0.1156    10.3420    69.2622    83.0827     0.1532 
 6498.5000    11.5786     9.5446     0.1184   106.4379    11.3242     0.0495     0.0974     2.7007     2.5435     0.1138    10.3496    69.0073    84.2910     0.1514 
 6499.0000    11.6853     9.6138     0.1206    98.9711    13.3835     0.0473     0.0886     2.7234     2.5585     0.1116    10.3420    68.7060    83.2869     0.1493 
 6499.5000    11.8501     9.8042     0.1207   102.0290    13.2695     0.0456     0.0869     2.8249     2.5614     0.1108    10.3496    68.7355    82.6403     0.1495 
 6500.0000    11.8104     9.7007     0.1200   108.4291    11.7133     0.0420     0.0924     2.8617     2.5520     0.1144    10.3649    69.0117    82.6658     0.1514 
 6500.5000    11.6617     9.5545     0.1227   103.1490    11.1357     0.0380     0.0938     2.8410     2.5497     0.1147    10.3802    69.1308    81.8149     0.1523 
 6501.0000    11.5021     9.4321     0.1239    98.7222    11.3588     0.0350     0.0896     2.8419     2.5567     0.1147    10.3802    69.0407    77.7901     0.1516 
 6501.5000    11.3341     9.3343     0.1247    93.2288    11.5281     0.0328     0.0874     2.8333     2.5605     0.1136    10.3725    68.8436    76.0329     0.1502 
 6502.0000    11.3060     9.3661     0.1214    89.2287    11.2174     0.0340     0.0864     2.8144     2.5622     0.1113    10.3649    68.5820    80.1760     0.1484 
 6502.5000    11.2157     9.2603     0.1176    95.0421    10.6409     0.0365     0.0819     2.8138     2.5699     0.1074    10.3573    68.1320    83.2359     0.1452 
 6503.0000    11.1739     9.2343     0.1163    99.2556    10.7699     0.0387     0.0743     2.8081     2.5829     0.1038    10.3573    68.1399    83.1823     0.1453 
 6503.5000    11.2312     9.2755     0.1190   102.7223    11.4354     0.0417     0.0690     2.7685     2.5921     0.1039    10.3573    68.2254    80.1837     0.1459 
 6504.0000    11.2613     9.3411     0.1211   106.0290    11.4716     0.0429     0.0685     2.7331     2.5929     0.1050    10.3573    68.6960    80.4534     0.1492 
 6504.5000    11.3173     9.3807     0.1228   101.6556    11.4961     0.0408     0.0695     2.7725     2.5911     0.1078    10.3573    68.7665    83.1329     0.1497 
 6505.0000    11.3688     9.4056     0.1291    93.4421    11.0499     0.0387     0.0676     2.8326     2.5943     0.1091    10.3573    67.5390    83.5277     0.1410 
 6505.5000    11.6779     9.6143     0.1304    86.0286    11.3727     0.0369     0.0649     2.8569     2.5989     0.1076    10.3573    67.2177    81.5630     0.1387 
 6506.0000    12.4199    10.2555     0.1249    83.3085    12.5440     0.0370     0.0672     2.9162     2.5950     0.1036    10.3496    67.3024    77.7645     0.1393 
 6506.5000    13.5567    11.2724     0.1119    86.0286    16.8230     0.0405     0.0665     3.0542     2.5964     0.0983    10.3267    67.1994    74.8034     0.1386 
 6507.0000    14.7705    12.4213     0.1030    92.0554    18.4355     0.0421     0.0560     3.1699     2.6143     0.0856    10.2962    67.0308    75.0672     0.1374 
 6507.5000    15.3604    12.9895     0.0969    91.3087    16.6893     0.0434     0.0462     3.1888     2.6310     0.0822    10.2733    66.5823    77.0200     0.1342 
 6508.0000    15.3959    13.0927     0.0994    88.0020    14.6207     0.0564     0.0363     3.1676     2.6480     0.0804    10.2580    66.0671    78.4155     0.1306 
 6508.5000    15.1270    12.9990     0.1036    89.1753    14.0417     0.0770     0.0345     3.1236     2.6510     0.0844    10.2580    65.6770    78.7346     0.1278 
 6509.0000    14.9488    13.0070     0.1026    95.0421    15.8213     0.0877     0.0487     3.0681     2.6267     0.0844    10.2504    65.4396    77.9049     0.1262 
 6509.5000    14.9916    13.4604     0.0985   106.6691    17.0302     0.0931     0.0541     3.0723     2.6174     0.0858    10.2504    66.1315    80.5079     0.1311 
 6510.0000    14.7319    13.4754     0.0988   108.8558    15.7472     0.1018     0.0449     3.1476     2.6332     0.0833    10.2580    66.4958    83.3278     0.1336 
 6510.5000    14.0325    13.0972     0.1087    95.0955    13.2529     0.1071     0.0388     3.2255     2.6437     0.0870    10.2809    66.5700    86.0915     0.1342 
 6511.0000    13.0008    12.1771     0.1177    88.8553    11.8612     0.1055     0.0433     3.2396     2.6359     0.0939    10.3267    67.4605    86.0413     0.1405 
 6511.5000    11.9757    11.2199     0.1272    95.2021    11.3305     0.1003     0.0538     3.1652     2.6180     0.1030    10.3115    68.6748    85.1019     0.1490 
 6512.0000    11.5104    10.7499     0.1322   100.2689    11.1250     0.0912     0.0618     3.0360     2.6044     0.1110    10.3267    69.7039    85.4397     0.1563 
 6512.5000    11.6297    10.7897     0.1355   101.6556    12.0223     0.0797     0.0637     2.9690     2.6010     0.1108    10.3344    69.8909    87.5798     0.1576 
 6513.0000    12.3966    11.4851     0.1367   102.1890    13.5961     0.0713     0.0606     3.0640     2.6063     0.1108    10.3267    70.4633    92.9022     0.1617 
 6513.5000    13.8157    12.6917     0.1477   101.9756    15.5758     0.0643     0.0673     3.2353     2.5949     0.1197    10.3267    71.7793   100.9603     0.1710 
 6514.0000    16.1183    14.7244     0.1613   103.6823    13.6627     0.0567     0.0885     3.3511     2.5587     0.1275    10.3267    72.6817   107.6017     0.1774 
 6514.5000    19.8538    18.3131     0.1756   117.9226    17.5975     0.0484     0.1055     3.3977     2.5296     0.1497    10.3420    73.3531   109.1503     0.1821 
 6515.0000    26.0141    25.0450     0.1935   131.3274    29.0041     0.0368     0.1139     3.4231     2.5152     0.1627    10.3344    74.4464   110.6351     0.1899 
 6515.5000    36.7206    38.5710     0.1970   134.2075    60.3605     0.0238     0.1201     3.4513     2.5047     0.1671    10.3496    75.1234   115.1024     0.1946 
 6516.0000    53.7817    58.1307     0.1929   133.9763    54.7018     0.0144     0.1205     3.4175     2.5040     0.1650    10.3573    75.1855   118.6422     0.1951 
 6516.5000    75.0698    79.8552     0.1770   117.8693    54.8635     0.0149     0.1067     3.4321     2.5276     0.1433    10.3649    74.3843   114.0941     0.1894 
