#--------------------------------------------------#
#----------------DRILLING INFO, INC.---------------#
#---------------WWW.DRILLINGINFO.COM---------------#
#------------------COPYRIGHT 2018------------------#
#--------------------------------------------------#
#THIS FILE MAY BE USED ONLY IN ACCORDANCE WITH A CURRENT SUBSCRIPTION AGREEMENT BETWEEN
#THE USER AND DRILLING INFO, INC. NO PART OF THIS FILE MAY BE REPRODUCED, USED, COPIED,
#MODIFIED, PROPAGATED, OR DISTRIBUTED EXCEPT IN ACCORDANCE WITH THE SUBSCRIPTION
#AGREEMENT. UNAUTHORIZED USE OR DISTRIBUTION OF ALL OR ANY PART OF THIS FILE MAY VIOLATE
#COPYRIGHT, TRADEMARK, AND/OR OTHER LAWS AND IS SUBJECT TO CIVIL AS WELL AS CRIMINAL
#SANCTIONS.
#--------------------------------------------------#
#THIS FILE IS PROVIDED "AS-IS" AND ALL WARRANTIES ARE EXPRESSLY DISCLAIMED, WHETHER
#EXPRESS, ORAL, IMPLIED, STATUTORY OR OTHERWISE, INCLUDING ANY IMPLIED WARRANTY OF FITNESS
#FOR A PARTICULAR PURPOSE, MERCHANTABILITY, TITLE OR NON-INFRINGEMENT, AND ANY WARRANTIES
#ARISING BY VIRTUE OF CUSTOM OF TRADE OR COURSE OF DEALING.  FURTHER, DRILLING INFO,
#INC. AND ITS LICENSORS DO NOT REPRESENT OR WARRANT THAT THIS FILE WILL MEET USER'S
#REQUIREMENTS OR ARE SUITABLE FOR USER'S NEEDS OR THAT THE DATA OR RESULTS PROVIDED IN
#CONJUNCTION THEREWITH ARE CORRECT, ACCURATE, TIMELY OR RELIABLE. THESE DISCLAIMERS SHALL
#APPLY REGARDLESS OF ANY FAILURE OF ESSENTIAL PURPOSE OF ANY LIMITED REMEDY.  SOME
#JURISDICTIONS DO NOT ALLOW THE EXCLUSION OF CERTAIN WARRANTIES SO SOME OF THE ABOVE
#EXCLUSIONS MAY NOT APPLY. IN NO EVENT SHALL DRILLING INFO, INC. OR ANY OF ITS AFFILIATES
#BE LIABLE UNDER ANY LEGAL THEORY, WHETHER IN TORT (INCLUDING WITHOUT LIMITATION
#NEGLIGENCE), CONTRACT, STRICT LIABILITY, STATUTORY OR OTHERWISE, FOR ANY SPECIAL,
#INCIDENTAL, CONSEQUENTIAL, EXEMPLARY, PUNITIVE OR INDIRECT DAMAGE OF ANY KIND, INCLUDING
#WITHOUT LIMITATION LOSS OF REVENUE, PROFITS, GOODWILL, USE, AND/OR DATA OR THE COST OF
#PROCUREMENT OF SUBSTITUTE GOODS OR SERVICES, EVEN IF APPRISED OF THE POSSIBILITY OF SUCH
#DAMAGES IN ADVANCE.
#--------------------------------------------------#
# Exported from DI Transform
# DI Transform - A Product of Drillinginfo, Inc. - www.drillinginfo.com
#--------------------------------------------------#
#
~VERSION INFORMATION
 VERS.        2.0 : LAS ASCII STANDARD - VERSION 2.0
 WRAP.         NO : ONE LINE PER DEPTH STEP

~WELL INFORMATION
#MNEM.UNIT       DATA TYPE       INFORMATION
#---------       ---------       -----------
 STRT.ft          9043 : Start Depth
 STOP.ft         16870 : Stop Depth
 STEP.ft           0.5 : Step Length
 NULL.         -999.25 : Null Value
 COMP.                 : Company
 WELL.          DRD_55 : Well Name
 FLD.                  : Field Name
 LOC.                  : Well Location
 CNTY.                 : County
 STAT.                 : State or Province
 CTRY.                 : Country
 SRVC.                 : Service Company
 DATE.                 : Date
 API.   42109326310000 : Well Identifier

~CURVE INFORMATION
#MNEM.UNIT       API CODE       CURVE DESCRIPTION
#---------       --------       -----------------
 DEPT.ft          : <Measured Depth>
 CAL.in           : Caliper
 DPHI.%           : Density Porosity
 DT.us/ft         : Sonic
 GR.gAPI          : Gamma Ray
 ILD.ohmm         : Deep Resistivity
 ILS.ohmm         : Shallow Resistivity
 RHOB.g/cm3       : Density

~PARAMETER INFORMATION
#MNEM.UNIT       VALUE       DESCRIPTION
#---------       -----       -----------
 EKB.ft      3382 : Elevation above MSL

~A       DEPT         CAL        DPHI          DT          GR         ILD         ILS        RHOB
# ...
        12979      6.0732      6.9712     65.1949    320.1519     43.8088     24.6147      2.5878
      12979.5      6.0732      7.1311     65.5023    311.9922     42.3994      23.619      2.5854
        12980      6.0732      7.1186     65.8098    310.6061     40.9651     22.5678      2.5911
      12980.5      6.0732      6.6655     65.9592    312.4782     43.5348     23.3531       2.601
        12981      6.0732      6.2576     65.9798    313.7755     46.7176     24.4866      2.6067
      12981.5      6.0732      6.1163     65.7984    313.7755     50.2876     25.6362      2.6093
        12982      6.0732      6.1584     65.5918    316.5809     51.5713     26.0802      2.6044
      12982.5      6.0732      6.3645     65.5559    310.6061     49.6094     26.0802      2.5996
        12983      6.0732      6.5574      65.573       307.5     50.4277      26.549      2.5957
      12983.5      6.0732      6.5574     65.6355       307.5     51.3885     27.0566      2.5969
        12984      6.0732       6.378     65.8206       307.5     52.4453     27.2769      2.5991
      12984.5      6.0732      6.3115     65.9592       307.5     50.4277     27.6879      2.5996
        12985      6.0732      6.2473     66.1906    308.1734     49.6656     27.8559       2.598
      12985.5      6.0732      6.4533      66.242    310.6061     48.5597     28.1051      2.5959
        12986      6.0732      6.4754       65.97    316.2183     46.9123     28.1051      2.5938
      12986.5      6.0732      6.6196      65.762     308.249     45.8866      28.177      2.5901
        12987      6.0732       6.971     65.7863    300.6719     45.8866     28.7109      2.5852
      12987.5      6.0732      7.2776      65.908    300.8468     45.8866     29.5787      2.5817
        12988      6.0732       7.459     67.4544    308.4346     44.2934     30.4571        2.58
      12988.5      6.0732      7.3103     70.0815    313.7755     42.2443     30.5144      2.5876
        12989      6.0732      6.8858     74.7315    318.0965      40.288     29.6621      2.5927
      12989.5      6.0732      6.5767     76.0965     320.842      37.211     28.6557      2.5951
        12990      6.0732      6.3642     77.2622    312.6441     35.2246     26.9298      2.5981
      12990.5      6.0732      6.2295     75.4726    304.8483     36.8849     29.9333      2.6012
        12991      6.0732      6.2799     72.6821    297.4385     38.6736     30.5144      2.6051
      12991.5      6.0732      6.0739      71.818    293.1415      38.393     30.1858      2.6137
        12992      6.0732      5.5372     72.7975    288.9746     37.2839     29.3947      2.6247
      12992.5      6.0732       4.775     74.9312    284.7222     38.3352     28.9584       2.632
        12993      6.0732       4.472     76.5002    291.9309     41.3343     29.3867      2.6173
      12993.5      6.0732      5.5554     75.8568    302.7574     44.6015     32.8836      2.6033
        12994      6.0732      6.4076     73.1221    312.0928     46.9362     32.8836      2.5944
      12994.5      6.0732      6.8012     70.0996    320.2567     45.8866     32.5136      2.5911
        12995      6.0732      6.8852     68.0553    313.7755     45.4679     32.3955      2.5931
      12995.5      6.0732      6.8843      67.566    310.6061     44.7744     31.6769      2.5934
        12996      6.0732      6.7213     68.7814    310.6061     42.4051     31.2067      2.5934
      12996.5      6.0732      6.5574     71.7831    310.6061       39.82     29.4178      2.5934
        12997      6.0732      6.5574     74.8029    313.7755     41.1874     29.1721      2.5934
      12997.5      6.0732      6.6393      76.815    317.2322     43.0302     30.4565      2.5934
        12998      6.0732       6.687      76.473    322.2722     45.4781     30.7435      2.5915
      12998.5      6.0732      6.8111     73.9584    317.0103     43.3217     30.6058      2.5895
        12999      6.0732      7.0172     71.9735    311.8446     42.0272     29.8376      2.5893
      12999.5      6.0732      7.2131     72.3671    304.4554     40.6885     29.8376      2.5913
        13000      6.0066      7.2131     75.3323    301.4706     40.6269     29.6153      2.5933
      13000.5      5.9919      6.9896     76.1622    301.9221     40.6269     29.4338      2.5954
        13001      5.9919      6.7487     74.8039    304.4554     40.4391     29.1719      2.5975
      13001.5      5.9919      6.5427     71.4213    308.0569     39.9801     29.1006      2.5975
        13002      5.9919      6.4754      68.209    316.0183     40.6385     29.5243      2.5975
      13002.5      5.9919      6.4754     66.0088    321.0116     42.1207     29.8376      2.5995
        13003      5.9919      6.4754      65.557    323.6842     42.1207     29.8376      2.6016
      13003.5      5.9919      6.3934     65.4694    322.8906     42.2408     29.3035      2.5996
        13004      5.9919      6.3115      65.187    314.5862     43.3588     28.7426      2.5976
      13004.5      5.9919       6.415     64.8294    310.6061     43.9738     29.2773      2.5945
        13005      5.9919      6.6211     64.4496    310.6061     43.9786      28.497      2.5918
      13005.5      5.9919      6.8033     64.1421    313.7755     43.3606     27.1781      2.5934
        13006      5.9919      6.7373     63.8776    317.0103     45.2547     26.6781      2.5955
      13006.5      5.9919      6.6951     64.6529    315.9769     47.4507     27.9727      2.5997
        13007      5.9919       6.571     67.8004    313.7755     48.8235     29.0203      2.6059
      13007.5      5.9919       6.283     70.1703    314.8995     50.4277     29.9255       2.611
        13008      6.0269       5.889     72.8611    320.3125     51.5431     30.2871      2.6146
      13008.5      6.0325      5.7019     73.6399    320.3125     50.6029      30.473      2.6066
        13009      6.0325      5.9746     72.5053    317.3751      49.181     30.6275       2.603
      13009.5      6.0325      6.1806     72.3702    310.6061      46.904     31.2067      2.6081
        13010      6.0325      6.0723     73.5743    310.6061     44.7339     29.8376      2.6143
      13010.5      6.0325      5.6493      74.818    317.0103     42.6626     29.8376      2.6204
        13011      6.0325      5.3323     74.7853    320.3125     40.6889     29.6153      2.6246
      13011.5      6.0325      5.1639     74.1686    318.7948     40.1435     29.8115      2.6198
        13012      6.0325      5.0841     74.3425    310.6897     42.0321     30.5639      2.6154
      13012.5      6.0325      5.2849     74.4707       307.5     39.9394     31.1405      2.6066
        13013      6.0325      5.7791     71.5211       307.5     37.6994       30.41      2.5922
      13013.5      6.0325        6.77     66.3129    310.6061     35.9534      26.747      2.5782
        13014      6.0325      7.5893     64.8812    313.7755     39.4655     28.4933      2.5694
      13014.5      6.0325      8.1219     68.4802    308.9173     45.7976     33.3149      2.5658
        13015      6.0325      8.3607     73.0803    301.3017     51.0607     35.6814      2.5667
      13015.5      6.0325      8.3607     73.6003    294.0631     55.3865     35.9705       2.567
        13016      6.0325      8.3677     70.5013    292.8571     60.0008     36.2308      2.5675
      13016.5      6.0325      8.5738     67.0731    297.3947     71.4594     44.6631      2.5583
        13017      6.0325      8.8618     64.9286    304.8018     80.0799      48.083      2.5565
      13017.5      6.0325      9.0164     63.6201    312.5958     80.8136     47.7644      2.5567
        13018      6.0325      9.0048     63.4557    317.4785     77.0765     44.4933      2.5584
      13018.5      6.0325      8.8525     63.6854    317.0103     73.9511     44.0869      2.5563
        13019      6.0325      9.0373     63.6854    317.0103     83.8269     47.8247      2.5479
      13019.5      6.0325      9.4564     63.6854    317.0103     81.3307     51.0039      2.5459
