###############################################
##         ENVERUS                           ##
##         ESS - Open Hole                   ##
##         PERMIAN / DELAWARE                ##
##         Nov 02 2023  V4.0                 ##
##         42-109-10429-00-00                ##
###############################################
## Copyright 2017-2023  ENVERUS.  All Rights Reserved. 
## Confidential - Property of ENVERUS, use governed by terms and 
## conditions found within the existing Information Services Subscription Agreement 
## (as may be amended, the “ISSA”) between Customer and ENVERUS. 
## 
~VERSION INFORMATION
# MNEM.UNIT                               DATA : DESCRIPTION OF MNEMONIC
#-----.-----     ----------------------------- : -----------------------------
VERS.                                     2.00 : CWLS LOG ASCII STANDARD - VERSION 2.00
WRAP.                                       NO : MULTIPLE LINES PER DEPTH STEP
VEND.                                  ENVERUS : VENDOR
TYPE.                          ESS - OPEN HOLE : ENVERUS ESSENTIAL CURVES – ACCESSIBLE THROUGH ENVERUS PRISM(TM)
DOC.                                  32032754 : ENVERUS HEADER RAW DOCUMENT ID
#___________________________________________________________________________________________________ 
~WELL INFORMATION 
# hXqYWT5FmhW7UEcPXxReyvN++rqgSwBrBdup88XCyeQNQmx1Fo1vv7xYmZNr9HC+TZh0ltY2ePdKOSE9Z1hlZw== 
# MNEM.UNIT                                              DATA : DESCRIPTION OF MNEMONIC 
#-----.-----                    ----------------------------- : ----------------------------- 
CNTY.                                               CULBERSON : COUNTY 
STATE.                                                  TEXAS : STATE 
CNTRY.                                                    USA : COUNTRY 
API.                                             42-109-10429 : API (10 Digit) 
API_14.                                    42-109-10429-00-00 : API (14 Digits) 
API_14_std.                                 42-109-10429-0000 : API (14 Digits Standard) 
UWI.                                           42109104290000 : UNIQUE WELL ID 
WELL.                                          ROUNSAVILLE  1 : WELL NAME
STRT.FT                                                     0 : START DEPTH
STOP.FT                                                8409.0 : STOP DEPTH
STEP.FT                                                   0.5 : STEP BETWEEN DEPTHS
NULL.                                                 -999.25 : NULL VALUE
COMP.                                     EOG RESOURCES  INC. : COMPANY
#___________________________________________________________________________________________________ 
~CURVE INFORMATION 
# MNEM.UNIT           : CURVE DESCRIPTION 
#-----.-----          : ----------------------------- 
 DEPT.FT               : MEASURED DEPTH 
 CALI.IN               : CALIPER (CAL - CAL) 
 GR.API                : GAMMA RAY (GR) 
 SP.MV                 : SPONTANEOUS POTENTIAL (SP) 
 DT.US/FT              : SONIC DELTA TRANSIT TIME (DT) 
 RESD.OHMM             : DEEP INDUCTION RESISTIVITY (ILD - ILD) 
 #___________________________________________________________________________________________________ 
~A         DEPT           CALI             GR             SP             DT           RESD
# ...
         4664.0         14.344         45.293        -23.665         79.122         98.712
         4664.5         14.152         49.386        -23.086         81.225         96.316
         4665.0         14.210         52.617        -22.507         83.288         97.043
         4665.5         14.135         55.848        -21.828         83.013         97.770
         4666.0         13.854         58.612        -20.884         82.738         98.497
         4666.5         13.574         58.985        -19.940         80.594         99.223
         4667.0         13.668         59.359        -19.003         77.275        105.574
         4667.5         13.845         59.733        -19.021         74.490        112.956
         4668.0          9.204         59.283        -19.040         71.912        118.622
         4668.5          9.200         55.651        -19.059         70.883        121.980
         4669.0          9.196         52.019        -19.077         70.628        125.338
         4669.5          9.192         48.388        -19.096         70.374        128.697
         4670.0          9.188         44.756        -19.114         68.432        132.055
         4670.5          9.183         41.124        -19.133         64.881        134.865
         4671.0          9.179         36.904        -19.191         61.329        137.250
         4671.5          9.175         31.597        -19.270         57.841        139.634
         4672.0          9.171         26.289        -19.349         56.845        142.018
         4672.5          9.167         23.915        -19.429         61.845        144.403
         4673.0          9.163         23.881        -19.508         66.913        144.210
         4673.5          9.159         23.847        -19.587         71.982        142.859
         4674.0          9.155         23.813        -19.666         77.051        140.358
         4674.5          9.151         23.779        -19.745         80.238        134.330
         4675.0          9.146         23.683        -19.824         80.137        128.302
         4675.5          9.142         23.553        -19.904         80.037        122.273
         4676.0          9.138         23.465        -19.983         79.936        116.245
         4676.5          9.134         23.794        -20.062         79.705        112.498
         4677.0          9.130         24.123        -20.141         78.731        113.365
         4677.5          9.126         24.451        -20.220         77.758        114.233
         4678.0          9.122         24.780        -20.162         76.784        115.004
         4678.5          9.118         25.109        -19.925         75.976        115.272
         4679.0          9.114         25.438        -19.688         76.367        115.539
         4679.5          9.110         24.069        -19.452         76.758        115.806
         4680.0          9.108         21.559        -19.215         76.329        116.074
         4680.5          9.110         19.049        -18.978         75.548        116.341
         4681.0          9.111         16.539        -18.742         75.458        116.476
         4681.5          9.112         12.860        -18.571         76.179        116.501
         4682.0          9.114          8.734        -19.140         76.900        116.526
         4682.5          9.115          4.608        -19.709         78.804        116.551
         4683.0          9.117          0.483        -20.278         80.403        116.576
         4683.5          9.118         -0.305        -20.883         80.888        116.601
         4684.0          9.119         -0.302        -21.497         81.745        116.626
         4684.5          9.121         -0.299        -22.110         75.184        118.973
         4685.0          9.122         -0.296        -22.723         66.363        129.422
         4685.5          9.123         -0.294        -23.729         56.935        139.871
         4686.0          9.125         -0.291        -25.319         51.750        152.846
         4686.5          9.126         -0.288        -26.910         51.588        194.037
         4687.0          9.128         -0.285          0.055         51.427        235.228
         4687.5          9.129         -0.283          0.017         51.266        301.766
         4688.0          9.130         -0.280         -0.021         51.105        396.646
         4688.5          9.132         -0.277         -0.059         50.944        491.527
         4689.0          9.133         -0.274         -0.097         50.989        507.333
         4689.5          9.134         -0.272         -0.135         51.059        512.357
         4690.0          9.136         -0.269         -0.173         51.129        501.230
         4690.5          9.137         -0.266         -0.210         51.199        469.723
         4691.0          9.139         -0.263         -0.248         51.269        438.216
         4691.5          9.140         -0.261         -0.286         51.339        406.709
         4692.0          9.141         -0.258         -0.324         51.409        375.289
         4692.5          9.143         -0.255          0.955         51.479        377.662
         4693.0          9.144         -0.252          2.429         51.097        380.035
         4693.5          9.145         -0.250         11.881         50.564        382.408
         4694.0          9.147         -0.247         21.306         50.472        383.336
         4694.5          9.148         -0.244         22.396         50.491        371.260
         4695.0          9.149         -0.242         21.698         50.509        359.185
         4695.5          9.151         -0.239         21.000         50.528        347.110
         4696.0          9.152         -0.236         21.761         50.547        335.034
         4696.5          9.154         -0.233         23.128         50.566        331.284
         4697.0          9.155         -0.231         23.572         50.584        334.635
         4697.5          9.207         -0.228         22.513         50.603        340.654
         4698.0          9.280         -0.225         17.112         50.622        347.140
         4698.5          9.354         -0.222         12.701         50.641        368.917
         4699.0          9.429         -0.220          7.306         50.660        390.694
         4699.5          9.503         -0.220          2.200         50.678        396.608
         4700.0          9.578         40.050         -0.291         50.697        392.234
         4700.5          9.653         49.812         -2.277         50.716        387.860
         4701.0          9.697         59.573         -3.265         69.265        383.486
         4701.5          9.716         65.444         -4.252         67.551        379.112
         4702.0          9.748         65.509         -5.240         61.556        374.738
         4702.5          9.950         56.234         -6.228         58.681        370.364
         4703.0         10.152         50.448         -7.264         56.613        437.193
         4703.5         10.354         48.202         -8.412         54.243        570.835
         4704.0          9.643         39.517         -9.561         52.047        704.477
         4704.5          9.484         32.607        -10.709         51.294        725.683
         4705.0          9.484         27.159        -12.026         50.541        695.086
         4705.5          9.483         24.448        -14.086         49.788        664.490
         4706.0          9.482         23.176        -16.146         50.233        633.893
         4706.5          9.481         21.904        -18.206         50.758        672.016
         4707.0          9.480         20.632        -19.753         50.239       1736.613
         4707.5          9.480         18.507        -21.933         50.264       1682.140
