~VERSION INFORMATION
VERS. 2.0 : CWLS Log ASCII Standard - Version 2.0
WRAP. NO : One line per depth step
#--------------------------------------------------#
#----------------DRILLING INFO, INC.---------------#
#---------------WWW.DRILLINGINFO.COM---------------#
#------------------COPYRIGHT 2015------------------#
#--------------------------------------------------#
#THIS FILE MAY BE USED ONLY IN ACCORDANCE WITH A CURRENT SUBSCRIPTION AGREEMENT BETWEEN
#THE USER AND DRILLING INFO, INC. NO PART OF THIS FILE MAY BE REPRODUCED, USED, COPIED,
#MODIFIED, PROPAGATED, OR DISTRIBUTED EXCEPT IN ACCORDANCE WITH THE SUBSCRIPTION
#AGREEMENT. UNAUTHORIZED USE OR DISTRIBUTION OF ALL OR ANY PART OF THIS FILE MAY VIOLATE
#COPYRIGHT, TRADEMARK, AND/OR OTHER LAWS AND IS SUBJECT TO CIVIL AS WELL AS CRIMINAL
#SANCTIONS.
#--------------------------------------------------#
#THIS FILE IS PROVIDED "AS-IS" AND ALL WARRANTIES ARE EXPRESSLY DISCLAIMED, WHETHER
#EXPRESS, ORAL, IMPLIED, STATUTORY OR OTHERWISE, INCLUDING ANY IMPLIED WARRANTY OF FITNESS
#FOR A PARTICULAR PURPOSE, MERCHANTABILITY, TITLE OR NON-INFRINGEMENT, AND ANY WARRANTIES
#ARISING BY VIRTUE OF CUSTOM OF TRADE OR COURSE OF DEALING.  FURTHER, DRILLING INFO,
#INC. AND ITS LICENSORS DO NOT REPRESENT OR WARRANT THAT THIS FILE WILL MEET USER'S
#REQUIREMENTS OR ARE SUITABLE FOR USER'S NEEDS OR THAT THE DATA OR RESULTS PROVIDED IN
#CONJUNCTION THEREWITH ARE CORRECT, ACCURATE, TIMELY OR RELIABLE. THESE DISCLAIMERS SHALL
#APPLY REGARDLESS OF ANY FAILURE OF ESSENTIAL PURPOSE OF ANY LIMITED REMEDY.  SOME
#JURISDICTIONS DO NOT ALLOW THE EXCLUSION OF CERTAIN WARRANTIES SO SOME OF THE ABOVE
#EXCLUSIONS MAY NOT APPLY. IN NO EVENT SHALL DRILLING INFO, INC. OR ANY OF ITS AFFILIATES
#BE LIABLE UNDER ANY LEGAL THEORY, WHETHER IN TORT (INCLUDING WITHOUT LIMITATION
#NEGLIGENCE), CONTRACT, STRICT LIABILITY, STATUTORY OR OTHERWISE, FOR ANY SPECIAL,
#INCIDENTAL, CONSEQUENTIAL, EXEMPLARY, PUNITIVE OR INDIRECT DAMAGE OF ANY KIND, INCLUDING
#WITHOUT LIMITATION LOSS OF REVENUE, PROFITS, GOODWILL, USE, AND/OR DATA OR THE COST OF
#PROCUREMENT OF SUBSTITUTE GOODS OR SERVICES, EVEN IF APPRISED OF THE POSSIBILITY OF SUCH
#DAMAGES IN ADVANCE.
#--------------------------------------------------#
~WELL INFORMATION
#MNEMONIC     .UNIT              VALUE :DESCRIPTION
#--------------------------------------------------#
STRT       .ft                25.00000 :START DEPTH
STOP       .ft                17086.00000 :STOP DEPTH
STEP       .ft                0.50000 :STEP
NULL       .                -999.25000 :NULL VALUE
COMP       .                 :COMPANY
WELL       .                 :WELL
FLD       .                 :FIELD
LOC       .                 :LOCATION
CNTY       .                 :COUNTY
STAT       .                 :STATE
CTRY       .                 :COUNTRY
SRVC       .                 :SERVICE COMPANY
DATE       .                 :DATE
API       .                42109309270000 :API NUMBER
~CURVE INFORMATION
#MNEMONIC     .UNIT      API CODE :CURVE DESCRIPTION
#--------------------------------------------------#
DEPTH       .ft                      :Measured Depth
CAL       .in        UNKNOWN   :CAL
DT       .us/ft        UNKNOWN   :DT
GR       .gAPI        UNKNOWN   :GR
~A    DEPTH    CAL    DT    GR
# ...
6917.00000    15.09976    77.27687    80.72557
6917.50000    15.10388    75.54477    77.03617
6918.00000    15.10800    73.81267    73.53140
6918.50000    15.11211    72.08057    70.76194
6919.00000    15.11623    70.34847    67.99249
6919.50000    15.10674    68.81917    65.22304
6920.00000    15.09699    69.67252    62.45358
6920.50000    15.08725    69.24221    59.68413
6921.00000    15.07751    68.81190    56.91468
6921.50000    15.06777    68.38158    54.14522
6922.00000    15.05803    67.95127    56.67364
6922.50000    15.04828    73.13215    66.97486
6923.00000    15.03854    79.07395    84.47980
6923.50000    15.02880    78.17793    87.14860
6924.00000    15.01906    76.83519    78.70325
6924.50000    15.00932    75.03045    70.96855
6925.00000    15.06267    71.85358    63.24218
6925.50000    15.14882    68.67672    55.51582
6926.00000    15.23196    65.49985    47.78945
6926.50000    15.20402    62.68482    41.41801
6927.00000    15.17607    63.60941    47.75502
6927.50000    15.14813    64.53401    54.09204
6928.00000    15.12019    65.45860    60.42906
6928.50000    15.09224    66.17096    61.51873
6929.00000    15.06466    65.41494    56.56950
6929.50000    15.07000    64.65891    51.62027
6930.00000    15.07533    63.90289    46.67103
6930.50000    15.08067    63.14687    41.72180
6931.00000    15.08600    63.29716    46.96538
6931.50000    15.09134    63.45962    51.52520
6932.00000    15.09667    63.62208    50.58873
6932.50000    15.10201    63.78454    49.65227
6933.00000    15.10734    62.75094    44.85828
6933.50000    15.11268    57.41154    39.92614
6934.00000    15.11801    57.27663    33.74504
6934.50000    15.12335    57.14171    26.19292
6935.00000    15.12869    57.00680    21.54242
6935.50000    15.13402    56.87189    24.24599
6936.00000    15.13936    56.73697    26.94956
6936.50000    15.14469    56.60206    29.65313
6937.00000    15.15003    56.46715    29.58695
6937.50000    15.14675    56.33223    28.56467
6938.00000    15.12953    56.43009    27.54239
6938.50000    15.11232    58.72048    35.67518
6939.00000    15.09511    61.01087    44.48493
6939.50000    15.07790    63.30126    39.95576
6940.00000    15.06068    62.23716    35.42659
6940.50000    15.04347    60.88546    30.89741
6941.00000    15.02626    59.53376    26.04644
6941.50000    15.00905    58.18205    20.87025
6942.00000    14.99183    56.83035    15.69405
6942.50000    14.97462    55.47864    11.73429
6943.00000    14.95909    54.12694    13.19678
6943.50000    14.97831    54.62419    14.65928
6944.00000    14.99752    58.80091    18.75319
6944.50000    15.01674    58.69256    24.30837
6945.00000    15.03596    58.58420    24.33000
6945.50000    15.05518    58.47585    24.10253
6946.00000    15.07274    58.36750    23.87505
6946.50000    15.06801    61.69194    27.01076
6947.00000    15.06328    68.68956    33.82944
6947.50000    15.05854    71.31536    44.86443
6948.00000    15.05381    72.64175    55.89942
6948.50000    15.04907    72.02996    66.93442
6949.00000    15.04434    71.41817    77.96941
6949.50000    15.03960    70.80639    82.80301
6950.00000    15.03487    70.19460    78.25713
6950.50000    15.03013    71.78930    73.71125
6951.00000    15.02540    73.78404    67.50164
6951.50000    15.02067    71.23971    61.13529
6952.00000    15.02064    68.69537    54.76895
6952.50000    15.02222    66.15104    48.40260
6953.00000    15.02380    64.93813    42.03625
6953.50000    15.02538    67.28007    45.25089
6954.00000    15.02696    69.62200    51.77658
6954.50000    15.02854    74.16106    77.05509
6955.00000    15.03013    74.57795    81.44742
6955.50000    15.03171    74.99483    84.05362
6956.00000    15.03329    75.41172    84.46275
6956.50000    15.03487    75.82860    84.87188
6957.00000    15.03645    76.24549    85.28101
6957.50000    15.03804    76.66238    85.69014
6958.00000    15.03962    77.07926    86.24085
6958.50000    15.04120    77.49615    86.86978
6959.00000    15.04278    77.52094    87.49870
6959.50000    15.04436    76.26075    88.12763
6960.00000    15.04594    75.00055    86.25054
6960.50000    15.04752    73.74036    82.67783
6961.00000    15.04911    72.48016    79.10513
6961.50000    15.05069    71.21997    72.77297
6962.00000    15.05227    69.95978    65.58662
6962.50000    15.05193    70.72069    58.40028
6963.00000    15.04930    73.48018    62.54988
6963.50000    15.04667    75.61853    65.52192
6964.00000    15.04404    76.46692    68.49396
6964.50000    15.04141    77.31532    70.89276
6965.00000    15.03878    77.37654    72.01781
6965.50000    15.03615    77.29632    73.44384
6966.00000    15.03352    77.21609    74.86986
6966.50000    15.03089    77.09626    76.29588
6967.00000    15.02826    76.30787    75.04252
6967.50000    15.02563    75.51949    71.61643
6968.00000    15.02300    74.73110    68.19034
6968.50000    15.02037    73.94271    64.76426
6969.00000    15.01774    74.92912    65.47114
6969.50000    15.01511    77.86668    70.01418
6970.00000    15.01248    75.17906    74.55721
6970.50000    15.00985    71.25125    79.10025
6971.00000    15.00722    67.43528    55.89021
6971.50000    15.00459    69.77175    52.22039
6972.00000    15.00196    72.10822    56.06392
6972.50000    14.99933    73.89431    59.90746
6973.00000    14.99670    74.62523    63.75099
6973.50000    14.99407    75.35615    64.43188
6974.00000    14.99144    75.33197    66.53732
6974.50000    14.98881    75.20359    70.30563
6975.00000    14.98618    75.07520    74.07394
6975.50000    14.98355    74.94682    75.78086
6976.00000    14.98092    75.61504    74.14261
6976.50000    14.97829    76.74990    77.26223
6977.00000    14.97599    77.88476    81.29741
6977.50000    14.97535    77.01113    85.33258
6978.00000    14.97471    74.87160    89.36776
6978.50000    14.97407    72.73208    85.41886
6979.00000    14.97343    70.59255    77.34963
6979.50000    14.97279    68.45303    69.07491
6980.00000    14.97216    67.83146    60.80018
6980.50000    14.97152    69.13417    54.80169
6981.00000    14.97088    70.43689    57.57429
6981.50000    14.97024    71.73960    60.34690
6982.00000    14.96960    72.29377    60.86884
6982.50000    14.96896    71.63879    59.60605
6983.00000    14.96832    70.90074    58.33919
6983.50000    14.96768    69.25309    57.47703
6984.00000    14.96704    67.60545    56.79292
6984.50000    14.96640    65.95780    56.10880
6985.00000    14.96577    64.31016    53.77159
6985.50000    14.96513    62.66252    47.42858
6986.00000    14.96449    61.01488    42.47745
6986.50000    14.96385    62.36455    45.93509
6987.00000    14.96321    64.00001    49.80259
6987.50000    14.96257    75.67040    60.90617
6988.00000    14.96193    77.42807    75.31375
6988.50000    14.96129    77.56802    99.86470
6989.00000    14.96065    77.23896    100.93410
6989.50000    14.96002    76.90990    96.18207
6990.00000    14.95938    76.58085    78.85322
6990.50000    14.95874    75.75902    76.13755
6991.00000    14.95810    74.55067    74.14204
6991.50000    14.95746    73.81741    72.14652
6992.00000    14.95682    74.09340    71.40592
6992.50000    14.95763    74.36938    70.89358
6993.00000    14.95967    74.64537    70.38125
6993.50000    14.96171    74.92136    69.86891
6994.00000    14.96374    73.81863    66.85617
6994.50000    14.96578    72.68896    62.75238
6995.00000    14.96782    71.55928    60.56417
6995.50000    14.96986    70.42961    59.38054
6996.00000    14.97190    69.35728    58.19692
6996.50000    14.97394    70.31288    57.48512
6997.00000    14.97597    71.26847    58.55799
6997.50000    14.97801    72.22407    59.85573
6998.00000    14.98005    73.17966    70.13173
6998.50000    14.98209    74.13526    73.20332
6999.00000    14.98413    75.09086    76.20496
6999.50000    14.98616    75.96580    77.05909
7000.00000    14.98820    75.34278    77.91323
7000.50000    14.99024    74.71975    78.76736
7001.00000    14.99228    74.09673    80.29716
7001.50000    14.99432    73.47370    82.97783
7002.00000    14.99635    74.24169    85.49600
