~VERSION INFORMATION
VERS. 2.0 : CWLS Log ASCII Standard - version 2.0
WRAP.  NO : One line per depth step
#--------------------------------------------------#
#----------------DRILLING INFO, INC.---------------#
#---------------WWW.DRILLINGINFO.COM---------------#
#------------------COPYRIGHT 2015------------------#
#--------------------------------------------------#
#THIS FILE MAY BE USED ONLY IN ACCORDANCE WITH A CURRENT SUBSCRIPTION AGREEMENT BETWEEN
#THE USER AND DRILLING INFO, INC. NO PART OF THIS FILE MAY BE REPRODUCED, USED, COPIED,
#MODIFIED, PROPAGATED, OR DISTRIBUTED EXCEPT IN ACCORDANCE WITH THE SUBSCRIPTION
#AGREEMENT. UNAUTHORIZED USE OR DISTRIBUTION OF ALL OR ANY PART OF THIS FILE MAY VIOLATE
#COPYRIGHT, TRADEMARK, AND/OR OTHER LAWS AND IS SUBJECT TO CIVIL AS WELL AS CRIMINAL
#SANCTIONS.
#--------------------------------------------------#
#THIS FILE IS PROVIDED "AS-IS" AND ALL WARRANTIES ARE EXPRESSLY DISCLAIMED, WHETHER
#EXPRESS, ORAL, IMPLIED, STATUTORY OR OTHERWISE, INCLUDING ANY IMPLIED WARRANTY OF FITNESS
#FOR A PARTICULAR PURPOSE, MERCHANTABILITY, TITLE OR NON-INFRINGEMENT, AND ANY WARRANTIES
#ARISING BY VIRTUE OF CUSTOM OF TRADE OR COURSE OF DEALING.  FURTHER, DRILLING INFO,
#INC. AND ITS LICENSORS DO NOT REPRESENT OR WARRANT THAT THIS FILE WILL MEET USER'S
#REQUIREMENTS OR ARE SUITABLE FOR USER'S NEEDS OR THAT THE DATA OR RESULTS PROVIDED IN
#CONJUNCTION THEREWITH ARE CORRECT, ACCURATE, TIMELY OR RELIABLE. THESE DISCLAIMERS SHALL
#APPLY REGARDLESS OF ANY FAILURE OF ESSENTIAL PURPOSE OF ANY LIMITED REMEDY.  SOME
#JURISDICTIONS DO NOT ALLOW THE EXCLUSION OF CERTAIN WARRANTIES SO SOME OF THE ABOVE
#EXCLUSIONS MAY NOT APPLY. IN NO EVENT SHALL DRILLING INFO, INC. OR ANY OF ITS AFFILIATES
#BE LIABLE UNDER ANY LEGAL THEORY, WHETHER IN TORT (INCLUDING WITHOUT LIMITATION
#NEGLIGENCE), CONTRACT, STRICT LIABILITY, STATUTORY OR OTHERWISE, FOR ANY SPECIAL,
#INCIDENTAL, CONSEQUENTIAL, EXEMPLARY, PUNITIVE OR INDIRECT DAMAGE OF ANY KIND, INCLUDING
#WITHOUT LIMITATION LOSS OF REVENUE, PROFITS, GOODWILL, USE, AND/OR DATA OR THE COST OF
#PROCUREMENT OF SUBSTITUTE GOODS OR SERVICES, EVEN IF APPRISED OF THE POSSIBILITY OF SUCH
#DAMAGES IN ADVANCE.
#--------------------------------------------------#
~WELL INFORMATION
#MNEMONIC     .UNIT              VALUE :DESCRIPTION
#--------------------------------------------------#
STRT       .FT                35 :START DEPTH
STOP       .FT                15948 :STOP DEPTH
STEP       .FT                   0.500 :STEP
NULL       .                  -999.250 :NULL
API        .                421093136200 :API NUMBER
COMP       .         ARRINGTON DAVID H. OIL & GAS INC :COMPANY
WELL       .        SCOTT UNIT  1 :WELL
DATE       .                17-Jun-1991 :LOG DATE
~CURVE INFORMATION
#MNEMONIC     .UNIT      API CODE :CURVE DESCRIPTION
#--------------------------------------------------#
DEPTH       .FT                      :Measured Depth
CAL.INCH        UNKNOWN   :CAL
DT.US/FT        UNKNOWN   :DT
GR.API        UNKNOWN   :GR
~A    DEPTH    CAL    DT    GR
# ...
 4668.5     11.462   65.939   76.326
 4669     11.477   65.636   72.354
 4669.5     11.492   65.333   65.068
 4670     11.507   65.014   53.075
 4670.5     11.522   64.688   49.074
 4671     11.537   64.362   48.081
 4671.5     11.552   64.035   47.778
 4672     11.556   62.882   47.665
 4672.5     11.539   61.242   46.325
 4673     11.522   60.491   44.899
 4673.5     11.505   60.701   43.472
 4674     11.525   61.725   43.252
 4674.5     11.573   63.848   43.672
 4675     11.622   65.765   43.504
 4675.5     11.671   66.277   43.42
 4676     11.719   66.434   43.652
 4676.5     11.768   66.322   45.735
 4677     11.78   65.751   50.366
 4677.5     11.769   64.616   53.861
 4678     11.757   62.55   53.402
 4678.5     11.746   61.145   51.018
 4679     11.734   60.262   48.475
 4679.5     11.723   59.379   45.931
 4680     11.712   58.73   43.875
 4680.5     11.734   60.676   44.127
 4681     11.771   62.843   46.54
 4681.5     11.809   65.539   49.121
 4682     11.846   67.333   52.981
 4682.5     11.884   67.33   53.184
 4683     11.909   66.226   51.051
 4683.5     11.889   65.133   49.814
 4684     11.868   64.092   50.121
 4684.5     11.848   63.293   50.427
 4685     11.827   62.73   50.734
 4685.5     11.807   61.747   50.924
 4686     11.786   60.343   48.706
 4686.5     11.766   58.791   47.382
 4687     11.762   57.21   47.091
 4687.5     11.792   56.607   46.799
 4688     11.822   57.915   46.59
 4688.5     11.852   61.639   48.766
 4689     11.882   63.007   50.443
 4689.5     11.915   65.306   50.653
 4690     11.968   66.247   48.626
 4690.5     12.02   67.046   48.636
 4691     12.073   66.893   50.554
 4691.5     12.125   66.388   53.716
 4692     12.163   64.395   55.695
 4692.5     12.167   63.406   56.989
 4693     12.171   62.822   58.284
 4693.5     12.174   62.45   58.872
 4694     12.178   63.437   57.304
 4694.5     12.182   64.387   55.736
 4695     12.211   65.314   56.019
 4695.5     12.255   66.221   56.55
 4696     12.298   66.843   56.856
 4696.5     12.342   66.982   55.029
 4697     12.364   67.122   53.203
 4697.5     12.377   67   51.365
 4698     12.391   66.739   49.522
 4698.5     12.404   66.478   47.738
 4699     12.418   66.514   47.35
 4699.5     12.431   66.644   48.659
 4700     12.443   66.775   51.816
 4700.5     12.446   66.874   57.798
 4701     12.448   66.872   57.036
 4701.5     12.451   66.6   55.543
 4702     12.453   65.152   53.601
 4702.5     12.456   64.102   51.003
 4703     12.458   64.291   49.067
 4703.5     12.461   64.479   48.413
 4704     12.463   65.732   49.058
 4704.5     12.466   67.07   50.167
 4705     12.45   66.961   50.989
 4705.5     12.406   65.318   50.998
 4706     12.363   63.461   49.941
 4706.5     12.319   60.994   47.538
 4707     12.275   58.501   45.552
 4707.5     12.259   59.097   44.244
 4708     12.271   61.115   44.734
 4708.5     12.284   63.095   46.898
 4709     12.296   64.457   49.061
 4709.5     12.308   65.343   49.558
 4710     12.321   66.23   49.48
 4710.5     12.333   67.116   51.203
 4711     12.345   68.002   55.039
 4711.5     12.358   68.479   57.948
 4712     12.37   68.883   60.856
 4712.5     12.382   68.654   56.726
 4713     12.395   68.238   52.486
 4713.5     12.407   67.822   49.251
 4714     12.383   66.606   48.336
 4714.5     12.315   64.866   48.654
 4715     12.248   63.126   48.544
 4715.5     12.18   62.138   46.959
 4716     12.113   62.008   45.355
 4716.5     12.088   62.814   42.927
 4717     12.098   63.62   46.41
 4717.5     12.109   64.726   49.893
 4718     12.119   66.237   50.618
 4718.5     12.129   67.286   50.812
 4719     12.139   67.766   53.04
 4719.5     12.15   67.87   55.722
 4720     12.155   67.974   58.894
 4720.5     12.154   68.001   57.087
 4721     12.153   67.999   54.571
 4721.5     12.152   67.996   52.055
 4722     12.152   67.994   51.156
 4722.5     12.151   67.962   52.049
 4723     12.15   67.388   53.904
 4723.5     12.149   66.867   54.379
 4724     12.149   66.352   54.185
 4724.5     12.148   66.298   52.04
 4725     12.147   66.295   49.894
 4725.5     12.129   64.568   49.04
 4726     12.072   60.739   49.315
 4726.5     12.015   58.126   45.065
 4727     11.958   56.063   41.938
 4727.5     11.951   57.243   38.837
 4728     11.954   58.453   45.496
 4728.5     11.957   64.364   60.509
 4729     11.96   64.599   65.714
 4729.5     11.963   63.347   69.247
 4730     11.967   61.403   60.135
 4730.5     11.97   61.401   52.204
 4731     11.97   62.319   50.618
 4731.5     11.97   63.924   49.393
 4732     11.969   66.84   49.271
 4732.5     11.969   66.997   52.315
 4733     11.968   67.008   56.786
 4733.5     11.968   67.006   61.725
 4734     11.967   67.003   66.829
 4734.5     11.967   67.001   70.016
 4735     11.966   67.311   71.166
 4735.5     11.966   67.688   68.609
 4736     11.965   68.065   65.332
 4736.5     11.965   68.184   64.267
 4737     11.964   68.262   64.013
 4737.5     11.956   68.34   62.009
 4738     11.942   68.288   60.005
 4738.5     11.927   67.985   60.271
 4739     11.913   67.681   61.281
 4739.5     11.898   67.378   63.657
 4740     11.884   67.092   63.593
 4740.5     11.87   66.847   63.529
 4741     11.855   66.603   64.451
 4741.5     11.812   66.812   66.952
 4742     11.762   67.032   67.42
 4742.5     11.713   67.243   66.556
 4743     11.664   67.12   67.506
 4743.5     11.614   66.997   71.668
 4744     11.561   67.252   79.202
 4744.5     11.484   67.331   88.277
 4745     11.407   67.337   92.005
 4745.5     11.33   67.494   96.836
 4746     11.253   68.79   128.734
 4746.5     11.176   70.221   136.961
 4747     11.194   71.615   148.604
 4747.5     11.242   71.118   142.965
 4748     11.29   70.135   126.698
 4748.5     11.337   69.179   122.683
 4749     11.361   68.112   107.83
 4749.5     11.381   66.248   86.527
 4750     11.4   64.802   63.875
 4750.5     11.419   64.916   49.06
 4751     11.439   65.029   39.736
 4751.5     11.458   65.143   35.635
 4752     11.478   63.855   34.28
 4752.5     11.497   62.541   35.953
 4753     11.516   61.71   38.223
 4753.5     11.536   62.842   42.562
 4754     11.555   63.973   49.486
 4754.5     11.575   65.048   56.878
 4755     11.594   65.772   63.713
 4755.5     11.608   66.233   65.272
 4756     11.611   66.177   60.353
 4756.5     11.614   65.532   50.893
 4757     11.617   64.474   44.461
 4757.5     11.62   62.707   38.631
 4758     11.623   60.864   34.824
 4758.5     11.626   59.16   34.085
 4759     11.629   57.747   34.326
 4759.5     11.632   59.675   35.265
 4760     11.635   61.598   36.459
 4760.5     11.639   63.506   38.131
 4761     11.642   65.413   41.413
 4761.5     11.645   65.98   47.847
 4762     11.648   66.444   62.734
 4762.5     11.651   66.64   70.956
 4763     11.659   66.837   87.676
 4763.5     11.667   67.812   101.233
 4764     11.675   68.706   110.699
 4764.5     11.684   68.276   109.51
 4765     11.692   67.339   99.38
 4765.5     11.701   66.402   87.82
 4766     11.709   66.136   71.79
 4766.5     11.717   66.336   62.163
 4767     11.726   66.536   54.684
 4767.5     11.734   66.105   48.713
 4768     11.742   64.5   44.96
 4768.5     11.751   63.345   49.076
 4769     11.759   62.808   56.105
 4769.5     11.741   62.27   65.148
 4770     11.712   63.996   97.29
 4770.5     11.682   65.942   105.36
 4771     11.653   66.863   111.5
 4771.5     11.631   67.472   113.002
 4772     11.629   66.602   103.208
 4772.5     11.627   65.731   94.924
 4773     11.625   65.703   98.927
 4773.5     11.623   66.821   107.61
 4774     11.621   67.955   111.369
 4774.5     11.618   67.685   107.622
 4775     11.606   67.151   101.809
 4775.5     11.594   66.093   95.997
 4776     11.583   64.611   91.059
 4776.5     11.571   63.468   85.985
 4777     11.56   62.991   79.247
 4777.5     11.548   62.515   72.509
 4778     11.537   62.425   71.03
 4778.5     11.525   64.088   74.118
 4779     11.513   65.751   75.964
 4779.5     11.502   67.223   77.321
 4780     11.495   68.368   81.524
