###############################################
##         ENVERUS                           ##
##         ESS - Open Hole                   ##
##         PERMIAN / DELAWARE                ##
##         Nov 02 2023  V4.0                 ##
##         42-109-31408-00-00                ##
###############################################
## Copyright 2017-2023  ENVERUS.  All Rights Reserved. 
## Confidential - Property of ENVERUS, use governed by terms and 
## conditions found within the existing Information Services Subscription Agreement 
## (as may be amended, the “ISSA”) between Customer and ENVERUS. 
## 
~VERSION INFORMATION
# MNEM.UNIT                               DATA : DESCRIPTION OF MNEMONIC
#-----.-----     ----------------------------- : -----------------------------
VERS.                                     2.00 : CWLS LOG ASCII STANDARD - VERSION 2.00
WRAP.                                       NO : MULTIPLE LINES PER DEPTH STEP
VEND.                                  ENVERUS : VENDOR
TYPE.                          ESS - OPEN HOLE : ENVERUS ESSENTIAL CURVES – ACCESSIBLE THROUGH ENVERUS PRISM(TM)
DOC.                                  31850517 : ENVERUS HEADER RAW DOCUMENT ID
#___________________________________________________________________________________________________ 
~WELL INFORMATION 
# bqLd+XSZJOn45CI61XVoQu+UOVndmKoY6sdO6/bnbKn7IExcVbobTFa2ZjWyWmdO1mIol927X6bTh1nHm93KmQ== 
# MNEM.UNIT                                              DATA : DESCRIPTION OF MNEMONIC 
#-----.-----                    ----------------------------- : ----------------------------- 
CNTY.                                               CULBERSON : COUNTY 
STATE.                                                  TEXAS : STATE 
CNTRY.                                                    USA : COUNTRY 
API.                                             42-109-31408 : API (10 Digit) 
API_14.                                    42-109-31408-00-00 : API (14 Digits) 
API_14_std.                                 42-109-31408-0000 : API (14 Digits Standard) 
UWI.                                           42109314080000 : UNIQUE WELL ID 
WELL.                                           CASTILE 48  1 : WELL NAME
STRT.FT                                                2207.0 : START DEPTH
STOP.FT                                               11710.0 : STOP DEPTH
STEP.FT                                                   0.5 : STEP BETWEEN DEPTHS
NULL.                                                 -999.25 : NULL VALUE
COMP.                                         TENNECO OIL CO. : COMPANY 
DATE.                                             28-APR-1980 : LOG DATE
#___________________________________________________________________________________________________ 
~CURVE INFORMATION 
# MNEM.UNIT           : CURVE DESCRIPTION 
#-----.-----          : ----------------------------- 
 DEPT.FT               : MEASURED DEPTH 
 CALI.IN               : CALIPER (CAL - CAL) 
 GR.API                : GAMMA RAY (GR) 
 DT.US/FT              : SONIC DELTA TRANSIT TIME (DT) 
 RESS.OHMM             : SHALLOW INDUCTION RESISTIVITY (ILS - ILS) 
 RESD.OHMM             : DEEP INDUCTION RESISTIVITY (ILD - ILD) 
 #___________________________________________________________________________________________________ 
~A         DEPT           CALI             GR             DT           RESS           RESD
# ...
         7883.0         10.651         70.411         86.075          7.687          8.075
         7883.5         10.652         70.188         85.384          7.621          8.130
         7884.0         10.652         69.965         85.401          7.555          8.204
         7884.5         10.653         69.741         85.961          7.489          8.344
         7885.0         10.653         69.718         86.521          7.422          8.484
         7885.5         10.654         71.185         87.080          7.356          8.624
         7886.0         10.657         72.651         87.640          7.290          8.748
         7886.5         10.661         74.118         88.200          7.224          8.328
         7887.0         10.665         75.584         88.760          6.998          7.907
         7887.5         10.669         73.972         89.320          6.592          7.487
         7888.0         10.674         70.932         87.657          6.187          6.783
         7888.5         10.678         67.892         85.136          5.781          5.892
         7889.0         10.682         64.852         81.587          5.461          5.002
         7889.5         10.687         61.812         74.829          5.353          6.120
         7890.0         10.691         58.772         75.001          5.245          7.403
         7890.5         10.695         57.721         77.475          5.784          8.556
         7891.0         10.700         59.449         79.949          6.520          9.544
         7891.5         10.704         61.177         82.424          7.255          9.783
         7892.0         10.708         62.905         84.239          7.990          9.175
         7892.5         10.712         64.633         84.832          8.380          8.566
         7893.0         10.717         66.361         85.425          7.801          7.958
         7893.5         10.721         68.089         86.018          7.221          7.441
         7894.0         10.725         69.817         86.611          6.642          6.998
         7894.5         10.730         71.545         85.954          6.262          6.555
         7895.0         10.734         73.252         83.755          6.241          6.349
         7895.5         10.742         71.755         81.557          6.219          6.534
         7896.0         10.750         70.258         79.358          6.197          6.718
         7896.5         10.759         68.762         79.169          6.176          6.903
         7897.0         10.767         67.265         79.007          6.154          7.841
         7897.5         10.775         65.768         78.845          6.133          9.116
         7898.0         10.784         64.271         79.789          5.902          9.817
         7898.5         10.792         64.506         81.644          5.554          8.456
         7899.0         10.800         65.178         83.500          5.205          7.114
         7899.5         10.809         65.850         83.722          4.862          6.499
         7900.0         10.817         66.522         82.918          4.864          5.883
         7900.5         10.825         67.194         82.113          4.866          5.722
         7901.0         10.833         67.866         81.309          4.867          5.882
         7901.5         10.842         68.538         80.505          4.869          6.041
         7902.0         10.850         69.210         81.112          4.871          6.889
         7902.5         10.858         69.882         82.351          4.878          8.128
         7903.0         10.867         70.554         83.590          4.893          8.967
         7903.5         10.875         69.434         84.829          4.908          7.722
         7904.0         10.883         67.788         86.068          4.923          6.478
         7904.5         10.892         66.142         85.631          4.938          5.860
         7905.0         10.900         64.497         84.770          4.953          5.903
         7905.5         10.908         64.956         83.908          4.968          5.946
         7906.0         10.917         65.875         83.579          4.983          5.990
         7906.5         10.918         66.794         84.235          4.998          6.033
         7907.0         10.910         67.713         84.891          5.013          5.974
         7907.5         10.902         68.632         84.660          4.966          5.841
         7908.0         10.895         68.700         84.330          4.911          5.708
         7908.5         10.887         66.345         83.999          4.857          5.718
         7909.0         10.879         63.990         83.669          4.802          5.810
         7909.5         10.871         64.506         84.461          4.668          5.902
         7910.0         10.864         65.048         85.293          4.426          5.994
         7910.5         10.856         65.590         86.124          4.183          5.981
         7911.0         10.848         66.131         86.956          3.941          5.588
         7911.5         10.841         66.673         87.788          3.699          5.196
         7912.0         10.833         66.656         88.381          3.644          5.045
         7912.5         10.825         65.859         86.556          3.876          5.111
         7913.0         10.817         65.061         84.731          4.107          5.177
         7913.5         10.810         64.264         82.906          4.338          5.505
         7914.0         10.802         63.466         82.373          4.570          5.889
         7914.5         10.794         62.669         82.594          4.787          6.273
         7915.0         10.786         61.871         82.814          4.789          6.691
         7915.5         10.779         61.074         83.035          4.790          7.165
         7916.0         10.771         61.929         82.758          4.792          7.640
         7916.5         10.763         64.125         82.857          5.377          8.115
         7917.0         10.755         66.321         84.759          6.193          8.003
         7917.5         10.748         68.517         86.661          5.586          7.621
         7918.0         10.740         70.713         88.563          5.139          7.240
         7918.5         10.732         72.909         88.452          5.008          6.988
         7919.0         10.725         75.106         84.202          4.876          6.780
         7919.5         10.717         77.302         79.952          4.744          6.572
         7920.0         10.709         69.551         75.702          5.186          6.682
         7920.5         10.707         59.760         71.452          5.638          6.866
         7921.0         10.707         49.969         67.202          9.309          7.051
         7921.5         10.707         40.179         62.952         14.149         11.919
         7922.0         10.707         40.307         67.631         18.989         17.550
         7922.5         10.707         45.162         73.228         23.780         22.348
         7923.0         10.707         50.017         78.824         19.555         18.625
         7923.5         10.707         54.872         83.986         15.329         14.974
         7924.0         10.707         59.727         88.515         11.103         11.743
         7924.5         10.707         64.582         87.524         10.944         10.814
         7925.0         10.707         66.018         86.534         10.892         10.873
         7925.5         10.707         65.958         85.543         11.382         11.902
         7926.0         10.707         65.899         84.553         12.521         13.938
         7926.5         10.707         65.840         83.562         13.660         15.974
