~Version Information
 VERS.                  2.0:   CWLS log ASCII Standard -VERSION 2.0
 WRAP.                   NO:   One line per depth step
~Well Information Block
#MNEM.UNIT     VALUE/NAME     DESCRIPTION
#---------     -----------    ---------------------------
 STRT.F              8683.0000: START DEPTH
 STOP.F             14089.5000: STOP DEPTH
 STEP.F                 0.5000: STEP DEPTH
 NULL.                 -999.25: NULL VALUE
 LOC .       API  42-109-32906:  LOCATION
 FL1 .       API  42-109-32906:  LOCATIONLINE1
 DMF .                      KB:  DRILL MEAS FROM
 PDAT.                      GL:  PERMANENT DATUM
 PROV.                   TEXAS:  PROVINCE
 STAT.                   TEXAS:  STATE NAME
 CNTY.               CULBERSON:  COUNTY NAME
 LUL .                  ODESSA:  LOGGINGUNITLOC
 FLD .     FORD, WEST (WOLFCAMP):  FIELD NAME
 WELL.     SHELLY FEE 40 No. 2H:  WELL NAME
 COMP.     CAPITAN ENERGY, INC.:  COMPANY
 DATE.             08-Jun-2018:  DATE
 SVCO.             Halliburton:  SERVICECONAME
 HIDE.                        :  WELLNAMEOPERAT
 BASI.                   BACIA:  BASIN
 UWI .            42-109-32906Lat:  UNIQUE WELL IDENTIFIER
 API .            42-109-32906Lat:  API NUMBER
 RANG.                     N/A:  RANGE
 TOWN.                     N/A:  TOWNSHIP
 SECT.                     N/A:  SECTION
 SON .               902848974:  JOB NUMBER
 CTRY.                        :  COUNTRY
 SRVC.             Halliburton:  SERVICE COMPANY
 LMF .                      KB:  LOG MEASURED FROM
 BAP .ft                0.0000:  GL ELEV ONSHORE
 GVFD.g                 1.0000:  GRAVITY FIELD
~Curve Information Block
#MNEM.UNIT                 API CODE     Curve Description
#---------               -----------    ---------------------------
 DEPT.F                 00 000 000 000:  Depth
 CCL .mV                00 000 000 000:  Casing Collar Locator
 DTC_CHI.uspf           00 000 000 000:  DTC_CHI
 DTC_OH.uspf            00 000 000 000:  DTC_OH
 GR_CHI.api             00 000 000 000:  GR_CHI
 GR_OH.api              00 000 000 000:  GR_OH
 LLD_CHI.ohmm           00 000 000 000:  LLD_CHI
 LLD_OH.ohmm            00 000 000 000:  LLD_OH
 LLS_CHI.ohmm           00 000 000 000:  LLS_CHI
 LLS_OH.ohmm            00 000 000 000:  LLS_OH
 MSFL_CHI.ohmm          00 000 000 000:  MSFL_CHI
 MSFL_OH.ohmm           00 000 000 000:  MSFL_OH
 NPHI_CHI.pu            00 000 000 000:  NPHI_CHI
 NPHI_OH.pu             00 000 000 000:  NPHI_OH
 PE_CHI.b/e             00 000 000 000:  PE_CHI
 PE_OH.NONE             00 000 000 000:  Pe_OH
 RHOB_CHI.g/cc          00 000 000 000:  RHOB_CHI
 RHOB_OH.g/cc           00 000 000 000:  RHOB_OH
 SPHI_CHI.pu            00 000 000 000:  SPHI_CHI
#Other Information
#
#WARRANTY: Halliburton will use its best efforts to furnish customers with 
#accurate information and interpretations that are part of, and incident to, the services 
#provided.  However, Halliburton cannot and does not warrant the accuracy 
#or correctness of such information and interpretations.  Under no circumstances should any 
#such information or interpretation be relied upon as the sole basis for any drilling, 
#completion, production, or financial decision or any procedure involving any risk to the 
#safety of any drilling venture, drilling rig or its crew or any other third party.  The 
#Customer has full responsibility for all drilling, completion and production operation.  
#Halliburton makes no representations or warranties, either expressed or 
#implied, including, but not limited to, the implied warranties of merchantability or fitness 
#for a particular purpose, with respect to the services rendered.  In no event will 
#Halliburton be liable for failure to obtain any particular results or for 
#any damages, including, but not limited to, indirect, special or consequential damages, 
#resulting from the use of any information or interpretation provided by Halliburton.
#
~A    DEPT       CCL    DTC_CHI DTC_OH   GR_CHI   GR_OH   LLD_CHI   LLD_OH   LLS_CHI   LLS_OH   MSFL_CHI  MSFL_OH     NPHI_CHI   NPHI_OH   PE_CHI    PE_OH   RHOB_CHI  RHOB_OH SPHI_CHI 
# ...
    9409.0000   -3.7529 73.9304 73.6404 111.3394 114.8172  73.8747   69.7711  74.4685   64.0138  37.2941    45.6318      14.6450 14.4700     3.4567  3.5166     2.5324  2.5654 18.6200
    9409.5000   -3.7253 70.8996 73.1495  88.0969 114.8172  78.6910   69.7711  82.1729   64.0138  40.4612    45.6318      12.7952 14.4700     3.6489  3.5166     2.5562  2.5654 16.4800
    9410.0000   -3.6977 69.4067 73.1495  84.2666 114.8172  86.8966   69.7711  92.5949   64.0138  44.4271    45.6318      11.4303 14.4700     3.8548  3.5166     2.5730  2.5654 15.4200
    9410.5000   -3.6701 67.5523 72.7363  62.6266  98.8590 102.8977   71.6246 108.6178   64.6246  51.1227    49.3064       9.8079 13.5500     4.0520  3.6551     2.5988  2.5779 14.1100
    9411.0000   -3.6470 67.1281 71.6920  58.7335  98.8590 113.0099   71.6246 119.0158   64.6246  55.3258    49.3064       9.2233 13.5500     4.1592  3.6551     2.6073  2.5779 13.8100
    9411.5000   -3.6194 67.8357 71.6920  70.1161  98.8590 109.5645   71.6246 116.5433   64.6246  53.6051    49.3064       9.6233 13.5500     4.1246  3.6551     2.5986  2.5779 14.3100
    9412.0000   -3.5918 68.9490 70.3079  82.7946  93.1474 101.1483   70.6320 109.1547   61.2549  49.8885    39.6177      10.4823 13.7200     4.0325  3.5195     2.5837  2.5715 15.1000
    9412.5000   -3.5550 70.1810 70.3079  91.4886  93.1474  94.2026   70.6320 101.9073   61.2549  46.3340    39.6177      11.4403 13.7200     3.8818  3.5195     2.5669  2.5715 15.9700
    9413.0000   -3.5274 71.1850 69.4844  87.0780  93.1474  89.8496   70.6320  96.3126   61.2549  43.4881    39.6177      12.2362 13.7200     3.7122  3.5195     2.5546  2.5715 16.6800
    9413.5000   -3.4998 72.8503 68.3402 105.5651  94.7357  82.6820   76.4964  86.9749   58.7613  39.6152    33.8386      13.2234 13.7000     3.5464  3.3522     2.5372  2.5597 17.8600
    9414.0000   -3.4768 74.9849 68.3402 115.1856  94.7357  65.8668   76.4964  65.7253   58.7613  31.0183    33.8386      13.7691 13.7000     3.2973  3.3522     2.5279  2.5597 19.3700
    9414.5000   -3.4492 73.7053 67.2750 105.2302  94.7357  48.0469   76.4964  46.7459   58.7613  23.4735    33.8386      13.7419 13.7000     3.1846  3.3522     2.5350  2.5597 18.4600
    9415.0000   -3.4216 70.4083 65.9418  91.5682  98.4074  39.2399   97.8295  37.7015   74.6438  19.9150    39.2225      13.2255 13.0500     3.0938  3.5134     2.5470  2.5769 16.1300
    9415.5000   -3.3940 68.9386 65.9418  79.4934  98.4074  43.2520   97.8295  42.0124   74.6438  21.9355    39.2225      12.9451 13.0500     3.2622  3.5134     2.5543  2.5769 15.0900
    9416.0000   -3.3710 70.4165 64.8448  93.8479  98.4074  52.1967   97.8295  50.7659   74.6438  25.6882    39.2225      13.2618 13.0500     3.3137  3.5134     2.5447  2.5769 16.1400
    9416.5000   -3.3434 68.0069 63.7074  89.1959  89.7450  57.2493  142.8961  55.8839  108.3633  27.9849    67.7152      12.7557 11.6800     3.4170  4.0698     2.5496  2.6148 14.4300
    9417.0000   -3.3158 65.6018 63.7074  84.5959  89.7450  62.2789  142.8961  61.0008  108.3633  30.2497    67.7152      12.2261 11.6800     3.5381  4.0698     2.5552  2.6148 12.7300
    9417.5000   -3.2790 64.2462 62.0718  90.1156  89.7450  68.3255  142.8961  66.9752  108.3633  32.8949    67.7152      11.9117 11.6800     3.6636  4.0698     2.5567  2.6148 11.7700
    9418.0000   -3.2513 60.9999 62.0718  81.1460  89.7450  75.3083  142.8961  74.2457  108.3633  36.1096    67.7152      11.1432 11.6800     3.9114  4.0698     2.5679  2.6148  9.4800
    9418.5000   -3.2237 58.6792 60.7333  71.9808  67.7742  82.6601  278.8408  82.0920  230.9711  39.4264   192.1700      10.5476  7.5800     4.1682  4.7723     2.5776  2.6401  7.8400
    9419.0000   -3.1961 58.9249 59.6000  78.1828  67.7742  85.0137  278.8408  84.4707  230.9711  40.1531   192.1700      10.4409  7.5800     4.2118  4.7723     2.5768  2.6401  8.0100
    9419.5000   -3.1731 59.2723 59.6000  74.8178  67.7742  90.1631  278.8408  90.7865  230.9711  42.2921   192.1700      10.4144  7.5800     4.3629  4.7723     2.5776  2.6401  8.2500
    9420.0000   -3.1455 60.5334 58.7453  75.8898  48.1006  91.1018  684.6018  92.8839  521.1207  42.8937   336.8512      10.7030  4.1500     4.4202  5.2381     2.5742  2.6552  9.1500
    9420.5000   -3.1179 61.4805 57.3309  80.4428  48.1006  86.6925  684.6018  88.1932  521.1207  41.2721   336.8512      11.0365  4.1500     4.3127  5.2381     2.5699  2.6552  9.8200
    9421.0000   -3.0949 66.4313 57.3309 109.3537  48.1006  75.5606  684.6018  75.2006  521.1207  36.1942   336.8512      12.2515  4.1500     3.8717  5.2381     2.5489  2.6552 13.3200
    9421.5000   -3.0673 67.5272 56.1671 107.7225  37.6281  71.9014 1447.2339  71.0631 1040.4039  34.8760   577.8906      12.7087  3.4800     3.7553  5.3405     2.5460  2.6763 14.0900
    9422.0000   -3.0397 70.4131 56.3622 123.8003  37.6281  72.0267 1447.2339  70.9023 1040.4039  34.5741   577.8906      13.1938  3.4800     3.6824  5.3405     2.5357  2.6763 16.1300
    9422.5000   -3.0121 69.8988 56.3622 125.9558  37.6281  78.2726 1447.2339  78.8529 1040.4039  37.1739   577.8906      12.7386  3.4800     3.9343  5.3405     2.5384  2.6763 15.7700
    9423.0000   -2.9753 65.1352 57.2352 114.1017  33.0969  87.0925  566.9672  89.8797  711.0256  41.7133   783.2522      11.5188  3.4200     4.4665  5.2991     2.5580  2.6880 12.4000
    9423.5000   -2.9477 61.2898 57.2352  96.6550  33.0969  99.3363  566.9672 103.9588  711.0256  47.2414   783.2522      10.4282  3.4200     4.9584  5.2991     2.5769  2.6880  9.6800
    9424.0000   -2.9201 61.3571 58.5320  95.6296  33.0969 102.0347  566.9672 107.5717  711.0256  48.4921   783.2522      10.3654  3.4200     5.0750  5.2991     2.5782  2.6880  9.7300
    9424.5000   -2.8971 59.5402 60.3944  83.4605  39.0936 103.7475  256.2168 109.6337  236.8713  49.9582   134.9996      10.1249  3.3700     5.2238  5.2488     2.5860  2.6646  8.4400
    9425.0000   -2.8694 60.1069 60.3944  83.9136  39.0936  99.5383  256.2168 105.4099  236.8713  48.4769   134.9996      10.4052  3.3700     5.1372  5.2488     2.5828  2.6646  8.8500
    9425.5000   -2.8418 65.0054 62.5993 114.4790  39.0936  88.1288  256.2168  92.8559  236.8713  43.3155   134.9996      11.4736  3.3700     4.7522  5.2488     2.5616  2.6646 12.3100
    9426.0000   -2.8188 64.7555 65.0443 105.6628  71.0538  91.1689  138.3926  95.3104  124.0798  43.5069    66.0994      11.3584  7.6400     4.6059  4.8697     2.5615  2.6011 12.1300
    9426.5000   -2.7912 63.2598 65.0443  95.5211  71.0538  91.3044  138.3926  93.4930  124.0798  42.4014    66.0994      11.0082  7.6400     4.3810  4.8697     2.5644  2.6011 11.0700
    9427.0000   -2.7636 64.1069 67.9136  90.4216  71.0538  90.0657  138.3926  92.3907  124.0798  41.5927    66.0994      11.2007  7.6400     4.2765  4.8697     2.5615  2.6011 11.6700
    9427.5000   -2.7360 66.1406 69.8095  86.7048 111.6089  85.5692   84.8095  88.2731   75.0132  39.8466    37.3506      11.7611 16.4000     4.1375  4.1044     2.5553  2.5220 13.1100
    9428.0000   -2.6992 71.1242 69.8095  81.6473 111.6089  79.7081   84.8095  82.0597   75.0132  37.4830    37.3506      12.1674 16.4000     3.9865  4.1044     2.5526  2.5220 16.6400
    9428.5000   -2.6716 72.6905 71.3832  95.1239 111.6089  71.2532   84.8095  72.8838   75.0132  33.5099    37.3506      13.1080 16.4000     3.7079  4.1044     2.5387  2.5220 17.7400
    9429.0000   -2.6440 73.6554 71.3832 101.1001 111.6089  68.6212   84.8095  70.3278   75.0132  32.2062    37.3506      13.6335 16.4000     3.6296  4.1044     2.5318  2.5220 18.4300
    9429.5000   -2.6210 73.8448 71.4849  97.7425 133.7660  61.7777   66.9256  63.0954   53.5091  29.1615    33.4483      13.7141 16.1600     3.5260  3.5503     2.5324  2.4901 18.5600
    9430.0000   -2.5934 75.3113 71.4593 112.8422 133.7660  57.3899   66.9256  58.3305   53.5091  27.0152    33.4483      14.5574 16.1600     3.4001  3.5503     2.5210  2.4901 19.6000
    9430.5000   -2.5658 75.3424 71.4593 106.8573 133.7660  53.2469   66.9256  54.0573   53.5091  25.4658    33.4483      14.6840 16.1600     3.2739  3.5503     2.5252  2.4901 19.6200
