~Version Information
 VERS.                  2.0:   CWLS log ASCII Standard -VERSION 2.0
 WRAP.                   NO:   One line per depth step
~Well Information Block
#MNEM.UNIT     VALUE/NAME     DESCRIPTION
#---------     -----------    ---------------------------
 STRT.F              8650.0000: START DEPTH
 STOP.F             14150.0000: STOP DEPTH
 STEP.F                 0.5000: STEP DEPTH
 NULL.                 -999.25: NULL VALUE
 LOC .     A1759-SEC34-BLK58-T2-:  LOCATION
 FL4 .        API 42-109-33169:  LOCATIONLINE4
 FL2 .     T&P RR CO-337FSL-25:  LOCATIONLINE2
 FL1 .     A1759-SEC34-BLK58-T2-:  LOCATIONLINE1
 DMF .                      KB:  DRILL MEAS FROM
 PDAT.                      GL:  PERMANENT DATUM
 CNTY.               CULBERSON:  COUNTY NAME
 FLD .     FORD, WEST (WOLFCAMP):  FIELD NAME
 WELL.         ALICE FEE 34 2H:  WELL NAME
 COMP.     CAPITAN ENERGY INC.:  COMPANY
 DATE.             27-Mar-2018:  DATE
 SVCO.             Halliburton:  SERVICECONAME
 PROV.                   TEXAS:  PROVINCE
 STAT.                   TEXAS:  STATE NAME
 CTRY.                     USA:  COUNTRY NAME
 HIDE.                        :  WELLNAMEOPERAT
 BASI.                 PERMIAN:  BASIN
 UWI .            42-109-33169LAT:  UNIQUE WELL IDENTIFIER
 API .            42-109-33169LAT:  API NUMBER
 RANG.                     N/A:  RANGE
 TOWN.                     N/A:  TOWNSHIP
 SECT.                     N/A:  SECTION
 SRVC.             Halliburton:  SERVICE COMPANY
 LMF .                      KB:  LOG MEASURED FROM
 TVDS.ft             3088.0000:  TVDSS CORRECTN
 EGL .ft             3063.0000:  GROUND ELEVATION
 APD .ft               25.0000:  DEPTH ABOVE PD
 EPD .ft             3063.0000:  ELEVATION
 BAP .ft                0.0000:  GL ELEV ONSHORE
 GVFD.g                 1.0000:  GRAVITY FIELD
 EKB .ft             3088.0000:  KB ELEVATION
 EDF .ft             3087.0000:  DF ELEVATION
~Curve Information Block
#MNEM.UNIT                 API CODE     Curve Description
#---------               -----------    ---------------------------
 DEPT.F                 00 000 000 000:  Depth
 CCL .mV                00 000 000 000:  Casing Collar Locator
 NPHI_OH.pu             00 000 000 000:  NPHI_OH
 NPHI_CHI.pu            00 000 000 000:  NPHI_CHI
 GR_OH.api              00 000 000 000:  GR_OH
 GR_CHI.api             00 000 000 000:  GR_CHI
 RHOB_OH.g/cc           00 000 000 000:  RHOB_OH
 RHOB_CHI.g/cc          00 000 000 000:  RHOB_CHI
 PE_OH.b/e              00 000 000 000:  PE_OH
 PE_CHI.b/e             00 000 000 000:  PE_CHI
 MSFL_OH.ohmm           00 000 000 000:  MSFL_OH
 MSFL_CHI.ohmm          00 000 000 000:  MSFL_CHI
 LLS_OH.ohmm            00 000 000 000:  LLS_OH
 LLS_CHI.ohmm           00 000 000 000:  LLS_CHI
 LLD_OH.ohmm            00 000 000 000:  LLD_OH
 LLD_CHI.ohmm           00 000 000 000:  LLD_CHI
 DTC_OH.uspf            00 000 000 000:  DTC_OH
 DTC_CHI.uspf           00 000 000 000:  DTC_CHI
 SPHI_CHI.pu            00 000 000 000:  SPHI_CHI
 SGF .cu                00 000 000 000:  Formation Sigma
 CRNF.NONE              00 000 000 000:  CM GrsCaptRatio
 RIN .NONE              00 000 000 000:  CM GrsInelRatio
#Other Information
#
#WARRANTY: Halliburton will use its best efforts to furnish customers with 
#accurate information and interpretations that are part of, and incident to, the services 
#provided.  However, Halliburton cannot and does not warrant the accuracy 
#or correctness of such information and interpretations.  Under no circumstances should any 
#such information or interpretation be relied upon as the sole basis for any drilling, 
#completion, production, or financial decision or any procedure involving any risk to the 
#safety of any drilling venture, drilling rig or its crew or any other third party.  The 
#Customer has full responsibility for all drilling, completion and production operation.  
#Halliburton makes no representations or warranties, either expressed or 
#implied, including, but not limited to, the implied warranties of merchantability or fitness 
#for a particular purpose, with respect to the services rendered.  In no event will 
#Halliburton be liable for failure to obtain any particular results or for 
#any damages, including, but not limited to, indirect, special or consequential damages, 
#resulting from the use of any information or interpretation provided by Halliburton.
#
~A    DEPT       CCL    NPHI_OH NPHI_CHI  GR_OH    GR_CHI  RHOB_OH RHOB_CHI  PE_OH  PE_CHI  MSFL_OH   MSFL_CHI  LLS_OH   LLS_CHI   LLD_OH   LLD_CHI  DTC_OH  DTC_CHI SPHI_CHI   SGF    CRNF   RIN   
# ...
   11561.0000    0.0000 -999.25  14.6103  -999.25 153.1186 -999.25   2.5374 -999.25 3.2679    -999.25  40.7761   -999.25  51.8340   -999.25  58.1000 -999.25 70.8731  16.4600 25.8311 0.7608 1.0441
   11561.5000    0.0000 -999.25  14.1325  -999.25 143.2060 -999.25   2.5438 -999.25 3.2933    -999.25  38.1497   -999.25  50.1257   -999.25  56.4821 -999.25 70.3045  16.0600 25.6513 0.7619 1.0430
   11562.0000    0.0000 -999.25  13.6139  -999.25 132.0228 -999.25   2.5508 -999.25 3.3282    -999.25  34.5654   -999.25  47.2932   -999.25  53.5921 -999.25 69.7909  15.6900 25.4906 0.7639 1.0429
   11562.5000    0.0000 -999.25  14.2122  -999.25 148.5748 -999.25   2.5426 -999.25 3.3028    -999.25  42.5527   -999.25  55.0833   -999.25  61.6876 -999.25 70.1309  15.9300 25.3445 0.7615 1.0434
   11563.0000    0.0000 -999.25  13.5921  -999.25 132.2914 -999.25   2.5509 -999.25 3.3409    -999.25  36.4519   -999.25  49.8857   -999.25  56.5396 -999.25 69.6484  15.5900 25.2476 0.7665 1.0436
   11563.5000    0.0000 -999.25  13.4900  -999.25 128.3432 -999.25   2.5520 -999.25 3.3582    -999.25  35.3801   -999.25  49.3432   -999.25  56.0643 -999.25 69.6674  15.6100 25.1478 0.7744 1.0459
   11564.0000    0.0000 -999.25  13.2886  -999.25 122.6472 -999.25   2.5546 -999.25 3.3790    -999.25  33.9122   -999.25  48.2484   -999.25  55.1179 -999.25 69.5025  15.4900 25.2896 0.7893 1.0512
   11564.5000   37.6272 -999.25  13.9603  -999.25 139.3998 -999.25   2.5452 -999.25 3.3489    -999.25  42.3806   -999.25  57.0216   -999.25  64.3798 -999.25 69.9829  15.8300 25.6570 0.8079 1.0574
   11565.0000    0.0000 -999.25  14.1627  -999.25 142.9840 -999.25   2.5424 -999.25 3.3362    -999.25  42.6827   -999.25  56.7939   -999.25  63.9789 -999.25 70.2812  16.0400 26.3028 0.8168 1.0601
   11565.5000    0.0000 -999.25  14.3838  -999.25 144.3122 -999.25   2.5394 -999.25 3.3142    -999.25  40.1220   -999.25  53.1753   -999.25  59.9448 -999.25 70.8150  16.4200 26.9697 0.8194 1.0592
   11566.0000  -35.6537 -999.25  14.5724  -999.25 145.3788 -999.25   2.5372 -999.25 3.2801    -999.25  37.0632   -999.25  48.6793   -999.25  54.9874 -999.25 71.2804  16.7500 27.3634 0.8119 1.0545
   11566.5000    0.0000 -999.25  14.5502  -999.25 143.0968 -999.25   2.5381 -999.25 3.2512    -999.25  33.9142   -999.25  44.3567   -999.25  50.3798 -999.25 71.3659  16.8100 27.3401 0.7983 1.0496
   11567.0000    0.0000 -999.25  14.9237  -999.25 153.0044 -999.25   2.5334 -999.25 3.2206    -999.25  36.5665   -999.25  45.9188   -999.25  51.9237 -999.25 71.6394  17.0000 27.1175 0.7865 1.0468
   11567.5000    0.0000 -999.25  14.3706  -999.25 139.8636 -999.25   2.5410 -999.25 3.2350    -999.25  31.4278   -999.25  40.9180   -999.25  46.7424 -999.25 71.0692  16.6000 26.7932 0.7781 1.0446
   11568.0000    0.0000 -999.25  14.4156  -999.25 143.3300 -999.25   2.5404 -999.25 3.2377    -999.25  33.4900   -999.25  43.2010   -999.25  49.1285 -999.25 70.9615  16.5200 26.4194 0.7782 1.0436
   11568.5000    0.0000 -999.25  14.2970  -999.25 144.2298 -999.25   2.5423 -999.25 3.2496    -999.25  34.4180   -999.25  44.5186   -999.25  50.3369 -999.25 70.6934  16.3300 26.1226 0.7795 1.0406
   11569.0000    0.0000 -999.25  13.8695  -999.25 136.8678 -999.25   2.5482 -999.25 3.2779    -999.25  31.8561   -999.25  42.5289   -999.25  48.0342 -999.25 70.2621  16.0300 25.9743 0.7816 1.0360
   11569.5000    0.0000 -999.25  14.5520  -999.25 155.9114 -999.25   2.5389 -999.25 3.2640    -999.25  39.1719   -999.25  49.5904   -999.25  55.0817 -999.25 70.8039  16.4100 25.9953 0.7835 1.0343
   11570.0000    0.0000 -999.25  13.9475  -999.25 138.6570 -999.25   2.5465 -999.25 3.3057    -999.25  34.8216   -999.25  46.8684   -999.25  52.7185 -999.25 70.3274  16.0700 26.2262 0.7859 1.0356
   11570.5000    0.0000 -999.25  14.2105  -999.25 143.9990 -999.25   2.5427 -999.25 3.2959    -999.25  37.2443   -999.25  49.2006   -999.25  55.2529 -999.25 70.5654  16.2400 26.4725 0.7917 1.0382
   11571.0000    0.0000 -999.25  13.3378  -999.25 120.2472 -999.25   2.5546 -999.25 3.3313    -999.25  27.8077   -999.25  39.3690   -999.25  45.1747 -999.25 69.9208  15.7900 26.6278 0.7938 1.0419
   11571.5000    0.0000 -999.25  12.6878  -999.25 103.4306 -999.25   2.5636 -999.25 3.3588    -999.25  20.3818   -999.25  30.0573   -999.25  35.0230 -999.25 69.4591  15.4600 26.6962 0.8007 1.0445
   11572.0000   32.8036 -999.25  13.2196  -999.25 115.0068 -999.25   2.5563 -999.25 3.3214    -999.25  24.2313   -999.25  34.5259   -999.25  39.9350 -999.25 69.9549  15.8100 26.7290 0.8075 1.0466
   11572.5000    0.0000 -999.25  13.2193  -999.25 114.3446 -999.25   2.5563 -999.25 3.3212    -999.25  23.8984   -999.25  34.1144   -999.25  39.5011 -999.25 69.9916  15.8400 26.7381 0.8106 1.0459
   11573.0000    0.0000 -999.25  13.4361  -999.25 119.6528 -999.25   2.5534 -999.25 3.3068    -999.25  25.7025   -999.25  36.1590   -999.25  41.6588 -999.25 70.2022  15.9800 26.6800 0.8155 1.0449
   11573.5000    0.0000 -999.25  14.3424  -999.25 141.5242 -999.25   2.5411 -999.25 3.2631    -999.25  33.6652   -999.25  44.3721   -999.25  50.2529 -999.25 71.0125  16.5600 26.7137 0.8131 1.0443
   11574.0000    0.0000 -999.25  14.1166  -999.25 135.0840 -999.25   2.5443 -999.25 3.2745    -999.25  30.3819   -999.25  41.1250   -999.25  46.6556 -999.25 70.9969  16.5500 26.8199 0.8091 1.0436
   11574.5000    0.0000 -999.25  13.8580  -999.25 127.2404 -999.25   2.5476 -999.25 3.2903    -999.25  27.6178   -999.25  38.4532   -999.25  43.8552 -999.25 70.9128  16.4900 27.2623 0.8083 1.0456
   11575.0000    0.0000 -999.25  14.0014  -999.25 129.5216 -999.25   2.5456 -999.25 3.2792    -999.25  28.6249   -999.25  39.3428   -999.25  44.9806 -999.25 70.9990  16.5500 27.8369 0.8053 1.0511
   11575.5000    0.0000 -999.25  14.3949  -999.25 140.4392 -999.25   2.5404 -999.25 3.2419    -999.25  32.8451   -999.25  42.6843   -999.25  48.7955 -999.25 71.0184  16.5600 28.2017 0.8146 1.0596
   11576.0000  -57.0837 -999.25  14.7950  -999.25 150.7290 -999.25   2.5352 -999.25 3.2031    -999.25  36.5127   -999.25  44.8696   -999.25  51.3473 -999.25 71.1341  16.6400 28.4338 0.8277 1.0670
   11576.5000   40.5903 -999.25  14.4272  -999.25 141.6008 -999.25   2.5405 -999.25 3.1976    -999.25  30.1928   -999.25  37.5754   -999.25  43.4482 -999.25 70.7649  16.3800 28.3826 0.8435 1.0696
   11577.0000    0.0000 -999.25  14.3594  -999.25 137.6714 -999.25   2.5415 -999.25 3.1920    -999.25  27.1937   -999.25  34.2135   -999.25  39.7185 -999.25 70.9026  16.4800 28.2256 0.8496 1.0671
   11577.5000    0.0000 -999.25  14.2543  -999.25 132.1560 -999.25   2.5429 -999.25 3.2013    -999.25  24.8694   -999.25  32.2736   -999.25  37.4923 -999.25 71.1642  16.6600 28.0900 0.8439 1.0621
   11578.0000    0.0000 -999.25  13.5935  -999.25 111.0936 -999.25   2.5516 -999.25 3.2409    -999.25  17.6889   -999.25  24.7745   -999.25  29.1582 -999.25 71.1060  16.6200 27.9396 0.8325 1.0590
   11578.5000    0.0000 -999.25  14.7494  -999.25 140.3638 -999.25   2.5358 -999.25 3.2009    -999.25  28.8708   -999.25  37.3590   -999.25  42.9573 -999.25 71.9964  17.2500 27.8494 0.8199 1.0605
   11579.0000    0.0000 -999.25  14.8649  -999.25 142.0670 -999.25   2.5336 -999.25 3.2075    -999.25  31.3515   -999.25  40.2176   -999.25  46.3783 -999.25 72.0071  17.2600 27.7030 0.8111 1.0625
   11579.5000    0.0000 -999.25  14.9308  -999.25 145.2100 -999.25   2.5326 -999.25 3.2099    -999.25  33.8677   -999.25  42.8551   -999.25  49.3676 -999.25 71.8763  17.1700 27.6107 0.7989 1.0607
   11580.0000    0.0000 -999.25  14.7617  -999.25 144.5554 -999.25   2.5350 -999.25 3.2182    -999.25  34.3335   -999.25  43.4559   -999.25  49.9919 -999.25 71.4752  16.8800 27.5229 0.7910 1.0562
   11580.5000    0.0000 -999.25  14.1682  -999.25 132.8104 -999.25   2.5434 -999.25 3.2383    -999.25  28.7257   -999.25  37.6409   -999.25  43.5695 -999.25 70.8199  16.4200 27.4508 0.7849 1.0511
   11581.0000    0.0000 -999.25  13.4824  -999.25 118.6568 -999.25   2.5530 -999.25 3.2686    -999.25  22.4570   -999.25  30.6528   -999.25  35.7766 -999.25 70.1337  15.9400 27.2746 0.7838 1.0501
