~VERSION INFORMATION
VERS.           1.2   :CWLS Log ASCII Standard - VERSION 1.2
WRAP.           NO    :One Line per depth step
PROD.  Schlumberger   :LAS Producer
PROG.  DLIS to ASCII 10C0-306                          :LAS Program name and version
CREA.        2007/06/08 22:43                          :LAS Creation date {YYYY/MM/DD hh:mm}
SOURCE.     294b92a6-1e54-4f75-8d20-4493e48002f1       :DLIS File Name
#--------------------------------------------------
~WELL INFORMATION
#MNEM.UNIT      DATA             DESCRIPTION
#---- ------ --------------   -----------------------------
STRT .F      4145.5000       :START DEPTH     
STOP .F      10380.0000      :STOP DEPTH     
STEP .F       0.5000         :STEP       
NULL .          -999.25      :NULL VALUE
COMP .                 COMPANY:  Chesapeake Operating Inc.          
WELL .                    WELL:  University Lands 4627-1            
FLD  .                   FIELD:  Wildcat                            
LOC  .                LOCATION:  1200' FNL & 1995; FEL              
CNTY .                  COUNTY:  Culberson                          
STAT .                   STATE:  Texas                              
CTRY .                 COUNTRY:                                     
SRVC .         SERVICE COMPANY:  Schlumberger                       
API  .              API NUMBER:  42-109-32287                       
DATE .                LOG DATE:  7-Jun-2007
UWI  .          UNIQUE WELL ID:  42-109-32287-0000                  
#-----------------------------------------------------------------------------
~PARAMETER INFORMATION
#MNEM.UNIT    VALUE                      DESCRIPTION
#---- -----   --------------------       ------------------------
CN   .        Chesapeake Operating Inc.  :Company Name
WN   .        University Lands 4627-1    :Well Name
FN   .        Wildcat                    :Field Name
FL   .        1200' FNL & 1995  FEL      :Field Location
FL1  .        Secion  27  Block  46  Abstract  2860 :Field Location Line 1
COUN .        Culberson                  :County or Rig Name
STAT .        Texas                      :State or Province
NATI .                                   :Nation
DATE .        7-Jun-2007                 :Date as Month-Day-Year
APIN .        42-109-32287               :API Serial Number
SECT .        27                         :Section
TOWN .        46                         :Township
RANG .        2860                       :Range
DMF  .        Kelly Bushing              :Drilling Measured From
LMF  .        Kelly Bushing              :Log Measured From
PDAT .        Ground Level               :Permanent Datum
ENGI .        Tarek Sheira               :Engineer's Name
WITN .        Wiley Tisdale /Jud Walker  :Witness's Name
LATI .                                   :Latitude
LONG .                                   :Longitude
LUL  .        Midland  TX                :Logging Unit Location
LUN  .              2365                 :Logging Unit Number
RUN  .        2                          :Run Number
SON  .        11592406                   :Service Order Number
BHT  .DEGF     185.00000                 :Bottom Hole Temperature (used in calculations)
BS   .IN         8.75000                 :Bit Size
DFD  .LB/G       8.60000                 :Drilling Fluid Density
DFV  .S         39.00000                 :Drilling Fluid Viscosity
DFL  .C3         8.00000                 :Drilling Fluid Loss
RMFS .OHMM       0.42100                 :Resistivity of Mud Filtrate Sample
EKB  .F       4323.00000                 :Elevation of Kelly Bushing
EGL  .F       4283.00000                 :Elevation of Ground Level
BLI  .F       10360.70020                :Bottom Log Interval
BSAL .PPM      500.00000                 :Borehole Salinity
FLEV .                                   :Fluid Level
MCST .                                   :Mud Cake Sample Temperature
MFST .DEGF      96.90000                 :Mud Filtrate Sample Temperature
MRT  .DEGF     185.00000                 :Maximum Recorded Temperature
MST  .DEGF      96.90000                 :Mud Sample Temperature
RMCS .                                   :Resistivity of Mud Cake Sample
RMS  .OHMM       0.42100                 :Resistivity of Mud Sample
RW   .OHMM       1.00000                 :Resistivity of Connate Water
TDD  .F       10350.00000                :Total Depth - Driller
TDL  .F       10362.00000                :Total Depth - Logger
TLI  .F       4200.00000                 :Top Log Interval
HIDE .        Formation Micro Imager     :Header Identifier
MATR .        LIME                       :Rock Matrix for Neutron Porosity Corrections
FNUM .           1.00000                 :Form Factor Numerator
FEXP .           2.00000                 :Form Factor Exponent
DFT  .        Fresh Mud                  :Drilling Fluid Type
DFPH .           9.00000                 :Drilling Fluid PH
MCSS .        Calculated                 :Mud Cake Sample Source
MFSS .        Calculated                 :Mud Filtrate Sample Source
MSS  .        Circulation Tank           :Mud Sample Source
OS1  .        TLD-APS-HNGS               :Other Services Line 1
OS2  .        HRLA-HNGS                  :Other Services Line 2
OS3  .        FMI-GR                     :Other Services Line 3
OS4  .        DSI-GR                     :Other Services Line 4
OS5  .        HNGS                       :Other Services Line 5
R1   .        -Tool ran as per tool sketch. :Remark Line 1
R2   .        -Hole size & standoff corrections applied to APS porosity. :Remark Line 2
R3   .        -Log performed on a limestone matrix (MDEN = 2.71 g/cc  DTM = 47.6 us/ft) :Remark Line 3
R4   .        -Hole & cement volumes computed using FCD = 7 . :Remark Line 4
R5   .        -Source of max. hole temperature is CTEM = 185 DegF. :Remark Line 5
R6   .        -Source of max. hole deviation is company man = 3 Deg. :Remark Line 6
R7   .        -Repeat performed off bottom for 300' as per client request. :Remark Line 7
R8   .        -Density measurment is affected by washouts. :Remark Line 8
TCS  .        9 00                       :Time Circulation Stopped
TLAB .        22 15                      :Time Logger At Bottom
EPD  .F         4283.000000              :Elevation of Permanent Datum above Mean Sea Level
APD  .F          40.000000               :Elevation of Depth Reference (LMF) above Permanent Datum
#-----------------------------------------------------------------------------
~CURVE INFORMATION
#MNEM.UNIT   API CODE                                  DESCRIPTION
#---- -----  --------                                  -----------------------
DEPT .F                                                :DEPTH (BOREHOLE) {F12.4}
C1   .IN                                               :Caliper 1 {F11.4}
C2   .IN                                               :Caliper 2 {F11.4}
CHRP .                                                 :Label Peak Coherence, Receiver Array, Compressional - Monopole P&S {F11.4}
CHR1 .                                                 :Label Peak Coherence, Receiver Array - Lower Dipole {F11.4}
CHR2 .                                                 :Label Peak Coherence, Receiver Array - Upper Dipole {F11.4}
DCAL .IN                                               :Differential Caliper {F11.4}
DEVI .DEG                                              :Hole Deviation {F11.4}
DT1R .US/F                                             :Delta-T Shear, Receiver Array - Lower Dipole {F11.4}
DT2  .US/F                                             :Delta-T Shear - Upper Dipole {F11.4}
DT2R .US/F                                             :Delta-T Shear, Receiver Array - Upper Dipole {F11.4}
DT4P .US/F                                             :Delta-T Compressional - Monopole P&S {F11.4}
DT4S .US/F                                             :Delta-T Shear - Monopole P&S {F11.4}
DTCO .US/F                                             :Delta-T Compressional {F11.4}
DTRP .US/F                                             :Delta-T Compressional, Receiver Array - Monopole P&S {F11.4}
DTRS .US/F                                             :Delta-T Shear, Receiver Array - Monopole P&S {F11.4}
DTSM .US/F                                             :Delta-T Shear {F11.4}
ED   .F                                                :East Departure {F11.4}
GR_EDTC.GAPI                                           :Gamma Ray {F11.4}
GTEM .DEGF                                             :Generalized Borehole Temperature {F11.4}
HAZI .DEG                                              :Hole Azimuth {F11.4}
ITT  .S                                                :Integrated Transit Time {F11.4}
ND   .F                                                :North Departure {F11.4}
P1AZ .DEG                                              :Pad 1 Azimuth {F11.4}
PR   .                                                 :Poisson's Ratio {F11.4}
RB   .DEG                                              :Relative Bearing {F11.4}
SDEV .DEG                                              :Sonde Deviation {F11.4}
SPHI .CFCF                                             :Sonic Porosity {F11.4}
STIT .F                                                :Stuck Tool Indicator, Total {F11.4}
TENS .LBF                                              :Cable Tension {F11.4}
#-----------------------------------------------------------------------------
# 
#      DEPT         C1         C2        CHRP       CHR1       CHR2       DCAL       DEVI       DT1R       DT2        DT2R       DT4P       DT4S       DTCO       DTRP       DTRS       DTSM        ED      GR_EDTC      GTEM       HAZI       ITT         ND        P1AZ        PR         RB        SDEV       SPHI       STIT       TENS
#
~A  
# ...
   4970.5000     8.9546     9.0489     0.4719     0.9555     0.9058     0.2516     3.8022   133.7625   135.5073   135.5716    68.3899   111.9803    68.3899    68.3899   111.9803   135.5073   280.2719   101.3074   138.6921   259.8181     0.3677    16.6295   259.2679     0.3291   359.4510     3.8022     0.1470     0.0000  3084.0000
   4971.0000     8.9546     9.0489     0.4136     0.9438     0.8905     0.2516     3.8104   132.6219   129.6352   127.8869    66.1031   111.1263    66.1031    66.1031   111.1263   129.6352   280.2389   101.3259   138.6964   259.6953     0.3676    16.6240   263.3352     0.3243     3.6320     3.8104     0.1309     0.0000  2945.0000
   4971.5000     8.8541     9.0735     0.4528     0.9157     0.9570     0.2131     3.8097   128.0306   132.7191   129.2444    67.1479   105.9624    67.1479    67.1479   105.9624   132.7191   280.2060    85.8547   138.7007   259.5711     0.3676    16.6185   264.4816     0.3280     4.8996     3.8097     0.1382     0.0000  2914.0000
   4972.0000     8.8541     9.1445     0.4900     0.8582     0.8606     0.2481     3.8085   118.6626   129.1183   121.5875    66.3420   106.4950    66.3420    66.3420   106.4950   129.1183   280.1730    82.7651   138.7050   259.5486     0.3676    16.6130   263.2005     0.3207     3.6439     3.8085     0.1325     0.0000  2831.0000
   4972.5000     8.8541     9.1473     0.6332     0.9275     0.7276     0.2495     3.8133   118.1641   129.0956   121.5421    63.9114   106.4958    63.9114    63.9114   106.4958   129.0956   280.1400    78.8472   138.7092   259.4559     0.3675    16.6076   263.6976     0.3377     4.2322     3.8133     0.1154     0.0000  2844.0000
   4973.0000     8.9923     9.1691     0.7996     0.6403     0.3115     0.3303     3.8125   215.6813   207.0905   239.1703   104.9138   168.4121   104.9138   104.9138   168.4121   207.0905   280.1070    72.4677   138.7135   259.4427     0.3675    16.6021   262.4615     0.3274     3.0121     3.8125     0.4053     0.0000  2996.0000
   4973.5000     9.0048     9.1718     0.5834     0.0000     0.2774     0.3379     3.8082   212.3835   229.9668   240.3244   105.4574   169.2847   105.4574   105.4574   169.2847   229.9668   280.0740    66.0032   138.7178   259.3310     0.3675    16.5967   264.3211     0.3669     4.9792     3.8082     0.4092     0.0000  2939.0000
   4974.0000     9.0048     9.1691     0.6998     0.6550     0.0000     0.3366     3.8131   209.0858   208.4780   227.6419   100.4927   161.3151   100.4927   100.4927   161.3151   208.4780   280.0410    58.5367   138.7221   259.2673     0.3674    16.5913   264.6972     0.3487     5.4181     3.8131     0.3741     0.0000  2848.0000
   4974.5000     8.9043     9.1473     0.7144     0.6897     0.0000     0.2750     3.8166   170.3638   214.6972   216.1135   103.7325   166.5157   103.7325   103.7325   166.5157   214.6972   280.0079    55.5988   138.7264   259.4574     0.3673    16.5858   264.8896     0.3477     5.4203     3.8166     0.3970     0.0000  2900.0000
   4975.0000     8.9546     9.1473     0.6840     0.0000     0.3228     0.3004     3.8097   158.3720   203.4792   191.9026   105.2536   168.9575   105.2536   105.2536   168.9575   203.4792   279.9749    46.8006   138.7307   259.2524     0.3673    16.5804   265.2543     0.3173     5.9887     3.8097     0.4077     0.0000  2788.0000
   4975.5000     8.9546     9.1473     0.0000     0.0000     0.3464     0.3004     3.8155   146.3802   208.2443   201.9356    93.1297   149.4957    93.1297    93.1297   149.4957   208.2443   279.9419    51.0238   138.7350   259.3073     0.3672    16.5750   264.9313     0.3750     5.6116     3.8155     0.3220     0.0000  2924.0000
   4976.0000     8.9295     9.0489     0.0000     0.9088     0.7262     0.2390     3.8138   122.3966   124.7966   130.8201    81.0058   139.8979    81.0058    81.0058   139.8979   124.7966   279.9088    59.2183   138.7393   259.3420     0.3672    16.5695   264.1199     0.1359     4.7673     3.8138     0.2363     0.0000  2903.0000
   4976.5000     9.0551     9.0489     0.3334     0.8325     0.7056     0.3020     3.8144   124.6995   117.3383   112.0637    68.8819   111.3483    68.8819    68.8819   111.3483   117.3383   279.8758    71.1367   138.7436   259.3565     0.3672    16.5640   263.7383     0.2371     4.3720     3.8144     0.1505     0.0000  2765.0000
   4977.0000     8.8541     9.0489     0.3659     0.9697     0.8138     0.2010     3.8116   116.7288   118.2286   109.1480    71.6477   120.7023    71.6477    71.6477   120.7023   118.2286   279.8427    81.6030   138.7479   259.4277     0.3671    16.5585   261.1749     0.2098     1.7431     3.8116     0.1701     0.0000  2865.0000
   4977.5000     8.8541     9.0489     0.5768     0.9771     0.9164     0.2010     3.8103   116.3346   123.5416   114.5154    72.5231   121.8161    72.5231    72.5231   121.8161   123.5416   279.8098    85.1602   138.7522   259.4858     0.3671    16.5530   258.5378     0.2371   359.0540     3.8103     0.1763     0.0000  2918.0000
   4978.0000     8.8541     9.0489     0.6052     0.9833     0.9547     0.2010     3.8199   116.9930   116.3130   121.4594    72.2216   115.8675    72.2216    72.2216   115.8675   116.3130   279.7768    85.3394   138.7565   259.5617     0.3670    16.5475   257.1442     0.1863   357.5878     3.8199     0.1741     0.0000  2840.0000
   4978.5000     8.9797     9.0489     0.5729     0.9916     0.9625     0.2643     3.8166   114.9057   109.5844   116.8308    72.6910   114.0966    72.6910    72.6910   114.0966   109.5844   279.7438    79.0963   138.7608   259.6376     0.3670    16.5420   255.9612     0.1071   356.3316     3.8166     0.1774     0.0000  2913.0000
   4979.0000     8.9797     9.0489     0.5276     0.9957     0.9675     0.2643     3.8187   116.0241   112.4497   114.0578    66.9320   111.1163    66.9320    66.9320   111.1163   112.4497   279.7109    75.5623   138.7651   259.7458     0.3670    16.5364   254.4346     0.2257   354.7004     3.8187     0.1367     0.0000  2961.0000
   4979.5000     9.0802     9.0489     0.5162     0.9928     0.9637     0.3145     3.8187   114.2889   112.7187   113.8678    66.1855   114.5166    66.1855    66.1855   114.5166   112.7187   279.6780    75.0551   138.7694   259.8103     0.3669    16.5307   252.1457     0.2369   352.3521     3.8187     0.1314     0.0000  2872.0000
   4980.0000     9.1555     9.0489     0.4918     0.9756     0.8765     0.3521     3.8158   114.2586   105.9717   113.8759    64.0171   105.6593    64.0171    64.0171   105.6593   105.9717   279.6450    68.6284   138.7737   259.8394     0.3669    16.5251   251.8150     0.2127   351.9932     3.8158     0.1161     0.0000  2905.0000
   4980.5000     9.1555     9.0858     0.5612     0.9731     0.9707     0.3706     3.8214   114.7792   111.6698   111.5737    63.7642   104.7635    63.7642    63.7642   104.7635   111.6698   279.6121    63.1650   138.7780   259.9652     0.3669    16.5195   252.5746     0.2581   352.6255     3.8214     0.1143     0.0000  2861.0000
   4981.0000     9.1555     8.9629     0.4520     0.9632     0.9637     0.3087     3.8241   111.2226   108.0982   111.0144    62.8441   104.5007    62.8441    62.8441   104.5007   108.0982   279.5791    53.9576   138.7823   260.1038     0.3668    16.5139   252.4353     0.2447   352.3485     3.8241     0.1078     0.0000  2893.0000
   4981.5000     9.0551     8.9506     0.7330     0.9457     0.9649     0.2527     3.8226   107.8719   110.3366   111.2049    63.0501   102.1383    63.0501    63.0501   102.1383   110.3366   279.5461    50.4982   138.7865   260.2053     0.3668    16.5083   251.6012     0.2576   351.4147     3.8226     0.1093     0.0000  2821.0000
   4982.0000     9.0551     8.9875     0.5266     0.9577     0.9791     0.2712     3.8272   106.5993   108.5968   109.9481    63.8415   102.6565    63.8415    63.8415   102.6565   108.5968   279.5132    45.1175   138.7908   260.3297     0.3668    16.5027   252.0971     0.2359   351.7856     3.8272     0.1149     0.0000  2797.0000
   4982.5000     8.9546     9.0735     0.5664     0.9384     0.9882     0.2639     3.8302   105.0287   109.9301   110.7045    63.6017   102.2858    63.6017    63.6017   102.2858   109.9301   279.4803    50.1487   138.7951   260.4825     0.3668    16.4971   251.6661     0.2484   351.2029     3.8302     0.1132     0.0000  2882.0000
