###############################################
##         ENVERUS                           ##
##         ESS - Open Hole                   ##
##         PERMIAN / DELAWARE                ##
##         Nov 03 2023  V4.0                 ##
##         42-109-33144-00-00                ##
###############################################
## Copyright 2017-2023  ENVERUS.  All Rights Reserved. 
## Confidential - Property of ENVERUS, use governed by terms and 
## conditions found within the existing Information Services Subscription Agreement 
## (as may be amended, the “ISSA”) between Customer and ENVERUS. 
## 
~VERSION INFORMATION
# MNEM.UNIT                               DATA : DESCRIPTION OF MNEMONIC
#-----.-----     ----------------------------- : -----------------------------
VERS.                                     2.00 : CWLS LOG ASCII STANDARD - VERSION 2.00
WRAP.                                       NO : MULTIPLE LINES PER DEPTH STEP
VEND.                                  ENVERUS : VENDOR
TYPE.                          ESS - OPEN HOLE : ENVERUS ESSENTIAL CURVES – ACCESSIBLE THROUGH ENVERUS PRISM(TM)
DOC.                                  44408038 : ENVERUS HEADER RAW DOCUMENT ID
#___________________________________________________________________________________________________ 
~WELL INFORMATION 
# jhvnPe+1QU9E4rmF00QVhgJB4IQXrbTj+4JQBaOQ+xeerJB1ro+a2ny8/YeKPBUHGPa8yPZn1kHe7+9ZkyRs1A== 
# MNEM.UNIT                                              DATA : DESCRIPTION OF MNEMONIC 
#-----.-----                    ----------------------------- : ----------------------------- 
CNTY.                                               CULBERSON : COUNTY 
STATE.                                                  TEXAS : STATE 
CNTRY.                                                    USA : COUNTRY 
API.                                             42-109-33144 : API (10 Digit) 
API_14.                                    42-109-33144-00-00 : API (14 Digits) 
API_14_std.                                 42-109-33144-0000 : API (14 Digits Standard) 
UWI.                                           42109331440000 : UNIQUE WELL ID 
WELL.                                        PAT FEE 4 NO. 3H : WELL NAME
STRT.FT                                                8880.0 : START DEPTH
STOP.FT                                               14320.0 : STOP DEPTH
STEP.FT                                                   0.5 : STEP BETWEEN DEPTHS
NULL.                                                 -999.25 : NULL VALUE
LOC.                                     API  42-109-33144LAT : LOCATION 
FL1.                                     API  42-109-33144LAT : LOCATIONLINE1 
DMF.                                                       KB : DRILL MEAS FROM 
PDAT.                                                      GL : PERMANENT DATUM 
FLD.                                    FORD, WEST (WOLFCAMP) : FIELD NAME 
COMP.                            CAPITAN ENERGY, INCORPORATED : COMPANY 
DATE.                                             21-SEP-2017 : DATE 
SVCO.                                             HALLIBURTON : SERVICECONAME 
PROV.                                                   TEXAS : PROVINCE 
BASI.                                                 PERMIAN : BASIN 
RANG.                                                     N/A : RANGE 
TOWN.                                                     N/A : TOWNSHIP 
SECT.                                                     N/A : SECTION 
SON.                                                      N/A : JOB NUMBER 
SRVC.                                             HALLIBURTON : SERVICE COMPANY 
LMF.                                                       KB : LOG MEASURED FROM 
EGL.FT                                              3093.0000 : GROUND ELEVATION 
BAP.FT                                                 0.0000 : GL ELEV ONSHORE 
GVFD.G                                                 1.0000 : GRAVITY FIELD 
EKB.FT                                              3114.0000 : KB ELEVATION 
EDF.FT                                              3113.0000 : DF ELEVATION
#___________________________________________________________________________________________________ 
~CURVE INFORMATION 
# MNEM.UNIT           : CURVE DESCRIPTION 
#-----.-----          : ----------------------------- 
 DEPT.FT               : MEASURED DEPTH 
 GR.API                : GAMMA RAY (GR_CHI - GR_CHI) 
 GR__01.API            : GAMMA RAY (GR_OH - GR_OH) 
 DT.US/FT              : SONIC DELTA TRANSIT TIME (DTC_CHI - DTC_CHI) 
 DT__01.US/FT          : SONIC DELTA TRANSIT TIME (DTC_OH - DTC_OH) 
 PE.B/E                : PHOTOELECTRIC EFFECT/FACTOR (PE_CHI - PE_CHI) 
 PE__01.B/E            : PHOTOELECTRIC EFFECT/FACTOR (PE_OH - PE_OH) 
 RESS_LL.OHMM          : SHALLOW LATEROLOG (LLS_CHI - LLS_CHI) 
 RESS_LL__01.OHMM      : SHALLOW LATEROLOG (LLS_OH - LLS_OH) 
 RESD_LL.OHMM          : DEEP LATEROLOG (LLD_CHI - LLD_CHI) 
 RESD_LL__01.OHMM      : DEEP LATEROLOG (LLD_OH - LLD_OH) 
 NPHI.V/V              : NEUTRON POROSITY (NPHI_CHI - NPHI_CHI) 
 NPHI__01.V/V          : NEUTRON POROSITY (NPHI_OH - NPHI_OH) 
 SPHI.V/V              : SONIC POROSITY (SPHI_CHI - SPHI_CHI) 
 RHOB.G/CC             : BULK DENSITY (RHOB_CHI - RHOB_CHI) 
 RHOB__01.G/CC         : BULK DENSITY (RHOB_OH - RHOB_OH) 
 #___________________________________________________________________________________________________ 
~A         DEPT             GR         GR__01             DT         DT__01             PE         PE__01        RESS_LL    RESS_LL__01        RESD_LL    RESD_LL__01           NPHI       NPHI__01           SPHI           RHOB       RHOB__01
# ...
        13572.0         64.384       -999.250         63.662       -999.250         4.0843      -999.2500        79.8776      -999.2500        85.8886      -999.2500        0.10250     -999.25000        0.11360         2.5974      -999.2500
        13572.5         73.326       -999.250         64.188       -999.250         4.0346      -999.2500        83.9275      -999.2500        90.2595      -999.2500        0.10429     -999.25000        0.11730         2.5945      -999.2500
        13573.0         73.930       -999.250         64.248       -999.250         4.0196      -999.2500        84.0353      -999.2500        90.1962      -999.2500        0.10524     -999.25000        0.11770         2.5947      -999.2500
        13573.5         78.759       -999.250         65.413       -999.250         3.9235      -999.2500        84.8089      -999.2500        91.6982      -999.2500        0.11302     -999.25000        0.12600         2.5883      -999.2500
        13574.0         77.926       -999.250         67.005       -999.250         3.7919      -999.2500        76.6793      -999.2500        84.4639      -999.2500        0.12531     -999.25000        0.13720         2.5786      -999.2500
        13574.5         83.048       -999.250         69.737       -999.250         3.5958      -999.2500        67.4000      -999.2500        76.6176      -999.2500        0.14275     -999.25000        0.15660         2.5638      -999.2500
        13575.0         88.082       -999.250         71.631       -999.250         3.4513      -999.2500        57.7687      -999.2500        67.2802      -999.2500        0.15334     -999.25000        0.17000         2.5550      -999.2500
        13575.5         90.512       -999.250         71.268       -999.250         3.3970      -999.2500        50.1606      -999.2500        58.5512      -999.2500        0.15356     -999.25000        0.16740         2.5526      -999.2500
        13576.0        100.231       -999.250         70.262       -999.250         3.3637      -999.2500        46.9442      -999.2500        54.3277      -999.2500        0.14958     -999.25000        0.16030         2.5514      -999.2500
        13576.5        119.764       -999.250         69.858       -999.250         3.2987      -999.2500        46.4351      -999.2500        53.4428      -999.2500        0.14536     -999.25000        0.15740         2.5483      -999.2500
        13577.0        105.641       -999.250         67.935       -999.250         3.3830      -999.2500        42.5446      -999.2500        48.3201      -999.2500        0.13639     -999.25000        0.14380         2.5600      -999.2500
        13577.5        111.485       -999.250         68.373       -999.250         3.3783      -999.2500        45.9546      -999.2500        52.1546      -999.2500        0.13738     -999.25000        0.14690         2.5577      -999.2500
        13578.0        121.399       -999.250         68.955       -999.250         3.3709      -999.2500        51.7906      -999.2500        58.6080      -999.2500        0.13819     -999.25000        0.15100         2.5552      -999.2500
        13578.5        128.530       -999.250         69.439       -999.250         3.3773      -999.2500        58.2252      -999.2500        65.6722      -999.2500        0.13891     -999.25000        0.15450         2.5541      -999.2500
        13579.0        133.158       -999.250         70.048       -999.250         3.3873      -999.2500        64.6313      -999.2500        72.9903      -999.2500        0.14082     -999.25000        0.15880         2.5523      -999.2500
        13579.5        131.496       -999.250         70.494       -999.250         3.4128      -999.2500        70.2749      -999.2500        79.4504      -999.2500        0.14347     -999.25000        0.16190         2.5522      -999.2500
        13580.0        134.112       -999.250         71.231       -999.250         3.4135      -999.2500        75.7275      -999.2500        86.0796      -999.2500        0.14760     -999.25000        0.16710         2.5501      -999.2500
        13580.5        132.173       -999.250         71.371       -999.250         3.4260      -999.2500        77.5951      -999.2500        88.3502      -999.2500        0.14860     -999.25000        0.16810         2.5503      -999.2500
        13581.0        127.666       -999.250         71.111       -999.250         3.4542      -999.2500        77.6459      -999.2500        88.5388      -999.2500        0.14588     -999.25000        0.16630         2.5523      -999.2500
        13581.5        121.994       -999.250         70.690       -999.250         3.5080      -999.2500        78.9141      -999.2500        90.3111      -999.2500        0.14001     -999.25000        0.16330         2.5560      -999.2500
        13582.0        114.797       -999.250         70.078       -999.250         3.5965      -999.2500        82.9404      -999.2500        95.1763      -999.2500        0.13171     -999.25000        0.15900         2.5617      -999.2500
        13582.5        125.630       -999.250         70.314       -999.250         3.6177      -999.2500        92.0531      -999.2500       106.7386      -999.2500        0.12636     -999.25000        0.16060         2.5633      -999.2500
        13583.0        119.718       -999.250         69.467       -999.250         3.6970      -999.2500        98.9727      -999.2500       113.4167      -999.2500        0.12271     -999.25000        0.15460         2.5674      -999.2500
        13583.5        128.168       -999.250         69.260       -999.250         3.6804      -999.2500       103.4600      -999.2500       117.4067      -999.2500        0.12325     -999.25000        0.15320         2.5674      -999.2500
        13584.0        135.115       -999.250         69.359       -999.250         3.6296      -999.2500       101.7630      -999.2500       114.6485      -999.2500        0.12646     -999.25000        0.15390         2.5656      -999.2500
        13584.5        129.646       -999.250         69.239       -999.250         3.6065      -999.2500        95.9214      -999.2500       107.0271      -999.2500        0.13010     -999.25000        0.15300         2.5651      -999.2500
        13585.0        138.751       -999.250         70.039       -999.250         3.5278      -999.2500        92.7771      -999.2500       104.1008      -999.2500        0.13616     -999.25000        0.15870         2.5599      -999.2500
        13585.5        136.047       -999.250         70.244       -999.250         3.5083      -999.2500        89.7445      -999.2500       100.6600      -999.2500        0.13938     -999.25000        0.16010         2.5584      -999.2500
        13586.0        131.677       -999.250         70.057       -999.250         3.5091      -999.2500        86.9696      -999.2500        97.1268      -999.2500        0.13976     -999.25000        0.15880         2.5592      -999.2500
        13586.5        131.957       -999.250         69.851       -999.250         3.5033      -999.2500        84.1973      -999.2500        93.8737      -999.2500        0.13821     -999.25000        0.15740         2.5595      -999.2500
        13587.0        134.148       -999.250         69.632       -999.250         3.4954      -999.2500        83.0360      -999.2500        92.1990      -999.2500        0.13678     -999.25000        0.15580         2.5602      -999.2500
        13587.5        140.788       -999.250         69.440       -999.250         3.4805      -999.2500        83.6816      -999.2500        92.4128      -999.2500        0.13468     -999.25000        0.15450         2.5609      -999.2500
        13588.0        128.718       -999.250         67.714       -999.250         3.5691      -999.2500        83.1095      -999.2500        89.6972      -999.2500        0.12671     -999.25000        0.14230         2.5714      -999.2500
        13588.5        124.520       -999.250         66.548       -999.250         3.6305      -999.2500        84.5283      -999.2500        89.7425      -999.2500        0.12144     -999.25000        0.13400         2.5776      -999.2500
