###############################################
##         ENVERUS                           ##
##         ESS - Open Hole                   ##
##         PERMIAN / DELAWARE                ##
##         Nov 02 2023  V4.0                 ##
##         42-109-30915-00-00                ##
###############################################
## Copyright 2017-2023  ENVERUS.  All Rights Reserved. 
## Confidential - Property of ENVERUS, use governed by terms and 
## conditions found within the existing Information Services Subscription Agreement 
## (as may be amended, the “ISSA”) between Customer and ENVERUS. 
## 
~VERSION INFORMATION
# MNEM.UNIT                               DATA : DESCRIPTION OF MNEMONIC
#-----.-----     ----------------------------- : -----------------------------
VERS.                                     2.00 : CWLS LOG ASCII STANDARD - VERSION 2.00
WRAP.                                       NO : MULTIPLE LINES PER DEPTH STEP
VEND.                                  ENVERUS : VENDOR
TYPE.                          ESS - OPEN HOLE : ENVERUS ESSENTIAL CURVES – ACCESSIBLE THROUGH ENVERUS PRISM(TM)
DOC.                                  32305988 : ENVERUS HEADER RAW DOCUMENT ID
#___________________________________________________________________________________________________ 
~WELL INFORMATION 
# YiEbrulvYUtXh1D3opxUtnvhUVpPAvxlEBgV2kjbCTHvWrxGcz1+vOa1jEIuqGtoxi0rQ+ZQV9RU/rHAPCAAKQ== 
# MNEM.UNIT                                              DATA : DESCRIPTION OF MNEMONIC 
#-----.-----                    ----------------------------- : ----------------------------- 
CNTY.                                               CULBERSON : COUNTY 
STATE.                                                  TEXAS : STATE 
CNTRY.                                                    USA : COUNTRY 
API.                                             42-109-30915 : API (10 Digit) 
API_14.                                    42-109-30915-00-00 : API (14 Digits) 
API_14_std.                                 42-109-30915-0000 : API (14 Digits Standard) 
UWI.                                           42109309150000 : UNIQUE WELL ID 
WELL.                             VELMA CASEY ROUNSAVILLE A 1 : WELL NAME
STRT.FT                                                  82.0 : START DEPTH
STOP.FT                                               11225.0 : STOP DEPTH
STEP.FT                                                   0.5 : STEP BETWEEN DEPTHS
NULL.                                                 -999.25 : NULL VALUE
#___________________________________________________________________________________________________ 
~CURVE INFORMATION 
# MNEM.UNIT           : CURVE DESCRIPTION 
#-----.-----          : ----------------------------- 
 DEPT.FT               : MEASURED DEPTH 
 CALI.IN               : CALIPER (CAL - CAL) 
 GR.API                : GAMMA RAY (GR) 
 DT.US/FT              : SONIC DELTA TRANSIT TIME (DT) 
 NPHI.V/V              : NEUTRON POROSITY (NPHI) 
 RHOB.G/CC             : BULK DENSITY (RHOB) 
 #___________________________________________________________________________________________________ 
~A         DEPT           CALI             GR             DT           NPHI           RHOB
# ...
        10510.0          7.578        142.279         75.014        0.16138         2.6276
        10510.5          7.578        147.568         76.845        0.13849         2.6228
        10511.0          7.578        152.857         75.526        0.11561         2.6413
        10511.5          7.578        158.146         62.765        0.10745         2.6597
        10512.0          7.578        153.990         65.080        0.11824         2.6494
        10512.5          7.578        149.131         67.395        0.12904         2.6385
        10513.0          7.578        144.273         69.710        0.13992         2.6277
        10513.5          7.578        139.414         71.891        0.15112         2.6247
        10514.0          7.578        134.555         70.810        0.16232         2.6365
        10514.5          7.578        129.696         69.728        0.17353         2.6482
        10515.0          7.578        126.425         70.278        0.18473         2.6600
        10515.5          7.578        124.420         69.226        0.19734         2.6717
        10516.0          7.578        122.369         67.866        0.21007         2.6668
        10516.5          7.578        118.878         65.664        0.21713         2.6568
        10517.0          7.578        115.388         62.018        0.20459         2.6468
        10517.5          7.578        111.898         58.372        0.19373         2.6401
        10518.0          7.578        104.568         54.726        0.18287         2.6542
        10518.5          7.578         96.623         53.424        0.17201         2.6682
        10519.0          7.578         88.678         54.066        0.14865         2.6822
        10519.5          7.578         81.333         54.708        0.12034         2.6963
        10520.0          7.578         71.463         55.663        0.09202         2.7035
        10520.5          7.578         62.340         57.635        0.06371         2.7055
        10521.0          7.578         66.695         59.608        0.03540         2.7075
        10521.5          7.578         71.050         61.070        0.04293         2.7015
        10522.0          7.578         75.556         60.070        0.05156         2.6869
        10522.5          7.578         80.169         59.069        0.06020         2.6724
        10523.0          7.578         84.782         58.069        0.06899         2.6579
        10523.5          7.578         89.396         57.069        0.07828         2.6434
        10524.0          7.578         90.634         56.069        0.08757         2.6289
        10524.5          7.578         82.779         57.606        0.09686         2.6144
        10525.0          7.578         74.925         59.230        0.09717         2.6045
        10525.5          7.578         76.668         60.854        0.08828         2.6129
        10526.0          7.578         82.614         62.479        0.07939         2.6213
        10526.5          7.578         88.560         64.103        0.07049         2.6297
        10527.0          7.578         94.506         65.728        0.06160         2.6273
        10527.5          7.578        100.452         67.352        0.08397         2.6187
        10528.0          7.578        106.398         62.305        0.12477         2.6100
        10528.5          7.578        112.344         54.334        0.16140         2.6013
        10529.0          7.578        100.621         54.575        0.16864         2.5926
        10529.5          7.578         87.919         54.817        0.14310         2.6599
        10530.0          7.578         75.217         55.353        0.11755         2.6909
        10530.5          7.578         62.754         56.082        0.09201         2.6850
        10531.0          7.578         64.274         56.742        0.06647         2.6791
        10531.5          7.578         65.795         57.161        0.04093         2.6733
        10532.0          7.578         67.316         57.579        0.02260         2.6674
        10532.5          7.578         68.836         58.360        0.02648         2.6615
        10533.0          7.578         70.357         59.638        0.03035         2.6556
        10533.5          7.578         71.878         60.916        0.03423         2.6600
        10534.0          7.578         76.653         62.194        0.04045         2.6670
        10534.5          7.577         82.312         63.472        0.04843         2.6740
        10535.0          7.577         87.441         64.300        0.05641         2.6811
        10535.5          7.577         92.540         64.707        0.06440         2.6881
        10536.0          7.577         97.638         65.188        0.08273         2.6951
        10536.5          7.577        102.736         66.008        0.10296         2.6967
        10537.0          7.577        107.834         63.837        0.12319         2.6685
        10537.5          7.577        112.933         60.645        0.14341         2.6547
        10538.0          7.577        118.031         57.453        0.16364         2.6517
        10538.5          7.577        123.129         57.101        0.18387         2.6487
        10539.0          7.577        119.928         58.464        0.17760         2.6594
        10539.5          7.577        100.063         59.826        0.15837         2.6850
        10540.0          7.577         86.626         61.189        0.12687         2.7106
        10540.5          7.577         87.321         62.552        0.09537         2.7361
        10541.0          7.577         88.015         63.914        0.08446         2.7179
        10541.5          7.577         88.709         63.077        0.09952         2.6977
        10542.0          7.577         89.404         61.335        0.11457         2.6776
        10542.5          7.577         90.098         59.593        0.12963         2.6705
        10543.0          7.577         90.792         60.710        0.14468         2.6663
        10543.5          7.577         91.487         62.180        0.14513         2.6620
        10544.0          7.577         92.181         62.387        0.13351         2.6578
        10544.5          7.577         92.876         62.595        0.12190         2.6536
        10545.0          7.577         95.086         62.859        0.11029         2.6584
        10545.5          7.577        100.546         65.711        0.10969         2.6679
        10546.0          7.577        106.007         65.030        0.11819         2.6774
        10546.5          7.577        111.467         64.131        0.12669         2.6739
        10547.0          7.577        116.928         63.232        0.15608         2.6619
        10547.5          7.577        117.280         62.332        0.18211         2.6499
        10548.0          7.577        110.026         62.291        0.17719         2.6379
        10548.5          7.577        102.773         62.865        0.17228         2.6260
        10549.0          7.577        105.392         63.439        0.16860         2.6242
        10549.5          7.577        110.004         63.399        0.16572         2.6371
        10550.0          7.577        114.616         63.159        0.16284         2.6499
        10550.5          7.577        118.360         62.919        0.15996         2.6627
        10551.0          7.577        116.521         62.679        0.15708         2.6756
        10551.5          7.577        114.682         62.438        0.15419         2.6884
        10552.0          7.577        112.844         62.198        0.15131         2.7012
        10552.5          7.577        111.005         61.958        0.14575         2.7093
        10553.0          7.577        109.166         62.454        0.14000         2.7162
        10553.5          7.577        107.584         63.760        0.13424         2.7231
