###############################################
##         ENVERUS                           ##
##         ESS - Open Hole                   ##
##         PERMIAN / DELAWARE                ##
##         Nov 03 2023  V4.0                 ##
##         42-109-32978-00-00                ##
###############################################
## Copyright 2017-2023  ENVERUS.  All Rights Reserved. 
## Confidential - Property of ENVERUS, use governed by terms and 
## conditions found within the existing Information Services Subscription Agreement 
## (as may be amended, the “ISSA”) between Customer and ENVERUS. 
## 
~VERSION INFORMATION
# MNEM.UNIT                               DATA : DESCRIPTION OF MNEMONIC
#-----.-----     ----------------------------- : -----------------------------
VERS.                                     2.00 : CWLS LOG ASCII STANDARD - VERSION 2.00
WRAP.                                       NO : MULTIPLE LINES PER DEPTH STEP
VEND.                                  ENVERUS : VENDOR
TYPE.                          ESS - OPEN HOLE : ENVERUS ESSENTIAL CURVES – ACCESSIBLE THROUGH ENVERUS PRISM(TM)
DOC.                                  43644371 : ENVERUS HEADER RAW DOCUMENT ID
#___________________________________________________________________________________________________ 
~WELL INFORMATION 
# sF+t5dzO8TjfhJXm5BhYJSGKqyGjnVcKAr1GJS+XHP+EILfiOmlFF7qBSMjafOrEHsreRpz+nmfYFwcq0MlVOA== 
# MNEM.UNIT                                              DATA : DESCRIPTION OF MNEMONIC 
#-----.-----                    ----------------------------- : ----------------------------- 
CNTY.                                               CULBERSON : COUNTY 
STATE.                                                  TEXAS : STATE 
CNTRY.                                                    USA : COUNTRY 
API.                                             42-109-32978 : API (10 Digit) 
API_14.                                    42-109-32978-00-00 : API (14 Digits) 
API_14_std.                                 42-109-32978-0000 : API (14 Digits Standard) 
UWI.                                           42109329780000 : UNIQUE WELL ID 
WELL.                                    42109329780000_API14 : WELL NAME
STRT.FT                                                 179.0 : START DEPTH
STOP.FT                                                9893.5 : STOP DEPTH
STEP.FT                                                   0.5 : STEP BETWEEN DEPTHS
NULL.                                                 -999.25 : NULL VALUE
#___________________________________________________________________________________________________ 
~PARAMETER INFORMATION 
# MNEM.UNIT                                              DATA : DESCRIPTION OF MNEMONIC 
#-----.-----                    ----------------------------- : ----------------------------- 
EKB.FT                                                   3282 : ELEVATION ABOVE MSL
#___________________________________________________________________________________________________ 
~CURVE INFORMATION 
# MNEM.UNIT           : CURVE DESCRIPTION 
#-----.-----          : ----------------------------- 
 DEPT.FT               : MEASURED DEPTH 
 GR.API                : GAMMA RAY (GAMMA RAY) 
 DT.US/FT              : SONIC DELTA TRANSIT TIME (SONIC) 
 #___________________________________________________________________________________________________ 
~A         DEPT             GR             DT
# ...
         3398.0         28.999        279.109
         3398.5         27.494        279.109
         3399.0         26.408        279.109
         3399.5         25.740        279.109
         3400.0         25.070        279.109
         3400.5         25.737        279.109
         3401.0         27.659        279.109
         3401.5         29.748        279.109
         3402.0         31.921        279.109
         3402.5         32.592        279.109
         3403.0         32.591        279.109
         3403.5         33.509        279.109
         3404.0         32.133        279.109
         3404.5         29.417        279.109
         3405.0         27.578        279.109
         3405.5         27.826        279.109
         3406.0         29.749        279.109
         3406.5         30.168        279.109
         3407.0         30.501        279.109
         3407.5         31.754        279.109
         3408.0         34.135        279.109
         3408.5         37.144        279.109
         3409.0         38.106        279.109
         3409.5         37.885        279.109
         3410.0         34.263        278.552
         3410.5         30.753        278.552
         3411.0         30.167        278.552
         3411.5         31.671        278.552
         3412.0         32.006        278.552
         3412.5         29.249        278.552
         3413.0         26.908        278.552
         3413.5         26.741        278.552
         3414.0         27.911        278.552
         3414.5         27.535        278.552
         3415.0         27.577        278.552
         3415.5         27.744        278.552
         3416.0         29.206        278.552
         3416.5         31.671        278.552
         3417.0         34.387        278.552
         3417.5         38.440        278.552
         3418.0         43.831        278.552
         3418.5         50.558        278.552
         3419.0         54.652        278.552
         3419.5         56.825        278.552
         3420.0         58.078        278.552
         3420.5         56.323        278.552
         3421.0         50.973        278.552
         3421.5         45.542        278.552
         3422.0         46.380        278.552
         3422.5         47.005        278.552
         3423.0         43.871        278.552
         3423.5         36.891        278.552
         3424.0         32.591        278.552
         3424.5         31.587        278.552
         3425.0         31.756        278.552
         3425.5         30.709        278.552
         3426.0         28.412        279.666
         3426.5         27.994        280.670
         3427.0         30.671        282.675
         3427.5         34.890        283.007
         3428.0         39.655        281.894
         3428.5         45.421        281.894
         3429.0         52.777        282.451
         3429.5         56.825        282.227
         3430.0         54.942        280.222
         3430.5         46.076        278.552
         3431.0         36.639        278.552
         3431.5         30.622        278.552
         3432.0         27.577        278.552
         3432.5         25.904        278.552
         3433.0         26.157        278.552
         3433.5         27.662        278.552
         3434.0         28.748        278.552
         3434.5         29.666        278.552
         3435.0         32.177        278.552
         3435.5         34.010        278.552
         3436.0         33.929        278.552
         3436.5         32.587        278.552
         3437.0         31.924        278.552
         3437.5         32.171        278.552
         3438.0         30.332        278.552
         3438.5         27.909        278.552
         3439.0         26.405        278.552
         3439.5         26.910        278.552
         3440.0         28.832        278.552
         3440.5         30.084        278.552
         3441.0         31.047        278.552
         3441.5         32.927        278.552
         3442.0         34.431        278.552
         3442.5         34.260        278.552
         3443.0         33.173        278.552
         3443.5         32.258        278.552
         3444.0         32.173        278.552
         3444.5         32.173        278.552
         3445.0         32.588        278.552
         3445.5         32.426        278.552
         3446.0         31.669        278.552
         3446.5         31.256        278.552
         3447.0         31.755        278.552
         3447.5         34.479        278.552
         3448.0         37.566        278.552
         3448.5         43.847        278.552
         3449.0         55.677        278.552
         3449.5         68.295        278.552
         3450.0         71.441        278.552
         3450.5         62.483        278.552
         3451.0         51.502        278.552
         3451.5         46.082        278.552
         3452.0         44.120        278.552
         3452.5         41.570        278.552
         3453.0         40.783        278.552
         3453.5         41.451        278.552
         3454.0         43.670        278.552
         3454.5         45.543        278.552
         3455.0         46.382        278.552
         3455.5         46.797        278.552
         3456.0         49.398        278.552
         3456.5         55.964        278.552
         3457.0         66.334        278.552
         3457.5         76.689        278.552
         3458.0         79.969        278.552
         3458.5         73.557        278.552
         3459.0         61.476        278.552
         3459.5         49.070        278.552
         3460.0         39.259        278.552
         3460.5         32.619        278.552
         3461.0         27.316        278.552
         3461.5         23.181        278.552
         3462.0         21.139        277.437
         3462.5         21.731        277.437
         3463.0         23.362        277.437
         3463.5         25.157        278.111
         3464.0         26.661        279.109
         3464.5         26.988        279.109
         3465.0         28.000        279.109
         3465.5         29.666        279.109
         3466.0         31.424        279.109
         3466.5         32.173        279.109
         3467.0         31.755        279.109
         3467.5         30.496        280.228
         3468.0         26.940        282.682
         3468.5         23.014        282.892
         3469.0         22.483        281.894
         3469.5         25.080        281.894
         3470.0         28.629        281.894
         3470.5         29.411        281.894
         3471.0         30.094        281.220
         3471.5         36.502        279.666
         3472.0         47.541        279.666
         3472.5         56.842        279.666
         3473.0         58.195        279.666
         3473.5         50.227        279.666
         3474.0         39.502        279.666
         3474.5         32.199        279.666
         3475.0         30.506        279.666
         3475.5         30.919        279.666
         3476.0         31.337        279.666
         3476.5         32.094        279.666
         3477.0         34.691        279.666
         3477.5         35.297        279.666
         3478.0         32.706        279.666
         3478.5         30.160        279.666
         3479.0         32.485        279.666
         3479.5         40.898        279.666
         3480.0         52.894        279.666
         3480.5         63.036        279.666
         3481.0         66.435        279.666
         3481.5         62.819        279.666
         3482.0         55.841        279.666
         3482.5         50.965        279.666
         3483.0         49.048        279.666
         3483.5         47.290        279.666
         3484.0         45.961        279.666
         3484.5         45.543        279.666
