~Version Information
 VERS.                  2.0:   CWLS log ASCII Standard -VERSION 2.0
 WRAP.                   NO:   One line per depth step
~Well Information Block
#MNEM.UNIT     VALUE/NAME     DESCRIPTION
#---------     -----------    ---------------------------
 STRT.F              8400.0000: START DEPTH
 STOP.F             13890.0000: STOP DEPTH
 STEP.F                 0.5000: STEP DEPTH
 NULL.                 -999.25: NULL VALUE
 LOC .     506' FEL & 344' FSL:  LOCATION
 FL6 .       API  42-109-33224:  LOCATIONLINE6
 FL4 .           ABSTRACT 4479:  LOCATIONLINE4
 FL3 .        T&P RR CO SURVEY:  LOCATIONLINE3
 FL2 .     SECTION 30, BLOCK 58 T2:  LOCATIONLINE2
 FL1 .     506' FEL & 344' FSL:  LOCATIONLINE1
 DMF .                      KB:  DRILL MEAS FROM
 PDAT.                      GL:  PERMANENT DATUM
 CNTY.               CULBERSON:  COUNTY NAME
 FLD .     FORD, WEST (WOLFCAMP):  FIELD NAME
 WELL.      LAUREN STATE 30 2H:  WELL NAME
 COMP.     CAPITAN ENERGY, INC.:  COMPANY
 DATE.             19-Feb-2018:  DATE
 SVCO.             Halliburton:  SERVICECONAME
 PROV.                   TEXAS:  PROVINCE
 STAT.                   TEXAS:  STATE NAME
 CTRY.                     USA:  COUNTRY NAME
 HIDE.                        :  WELLNAMEOPERAT
 BASI.                 PERMIAN:  BASIN
 UWI .            42-109-33224:  UNIQUE WELL IDENTIFIER
 API .            42-109-33224:  API NUMBER
 RANG.                     N/A:  RANGE
 TOWN.                     N/A:  TOWNSHIP
 SECT.                     N/A:  SECTION
 SON .               904646015:  JOB NUMBER
 SRVC.             Halliburton:  SERVICE COMPANY
 LMF .                      KB:  LOG MEASURED FROM
 EGL .ft             3168.0000:  GROUND ELEVATION
 BAP .ft                0.0000:  GL ELEV ONSHORE
 GVFD.g                 1.0000:  GRAVITY FIELD
 EKB .ft             3194.0000:  KB ELEVATION
 EDF .ft             3193.0000:  DF ELEVATION
~Curve Information Block
#MNEM.UNIT                 API CODE     Curve Description
#---------               -----------    ---------------------------
 DEPT.F                 00 000 000 000:  Depth
 CCL .V                 00 000 000 000:  Casing Collar Locator
 NPHI_OH.pu             00 000 000 000:  NPHI_OH
 NPHI_CHI.pu            00 000 000 000:  NPHI_CHI
 GR_OH.api              00 000 000 000:  GR_OH
 GR_CHI.api             00 000 000 000:  GR_CHI
 RHOB_OH.g/cc           00 000 000 000:  RHOB_OH
 RHOB_CHI.g/cc          00 000 000 000:  RHOB_CHI
 PE_OH.b/e              00 000 000 000:  PE_OH
 PE_CHI.b/e             00 000 000 000:  PE_CHI
 RT10_OH.ohmm           00 000 000 000:  RT10_OH
 RT10_CHI.ohmm          00 000 000 000:  RT10_CHI
 RT30_OH.ohmm           00 000 000 000:  RT30_OH
 RT30_CHI.ohmm          00 000 000 000:  RT30_CHI
 RT90_OH.ohmm           00 000 000 000:  RT90_OH
 RT90_CHI.ohmm          00 000 000 000:  RT90_CHI
 DTC_OH.uspf            00 000 000 000:  DTC_OH
 DTC_CHI.uspf           00 000 000 000:  DTC_CHI
 SPHI_CHI.pu            00 000 000 000:  SPHI_CHI
 SGF .cu                00 000 000 000:  Formation Sigma
 CRNF.NONE              00 000 000 000:  CM GrsCaptRatio
 RIN .NONE              00 000 000 000:  CM GrsInelRatio
#Other Information
#
#WARRANTY: Halliburton will use its best efforts to furnish customers with 
#accurate information and interpretations that are part of, and incident to, the services 
#provided.  However, Halliburton cannot and does not warrant the accuracy 
#or correctness of such information and interpretations.  Under no circumstances should any 
#such information or interpretation be relied upon as the sole basis for any drilling, 
#completion, production, or financial decision or any procedure involving any risk to the 
#safety of any drilling venture, drilling rig or its crew or any other third party.  The 
#Customer has full responsibility for all drilling, completion and production operation.  
#Halliburton makes no representations or warranties, either expressed or 
#implied, including, but not limited to, the implied warranties of merchantability or fitness 
#for a particular purpose, with respect to the services rendered.  In no event will 
#Halliburton be liable for failure to obtain any particular results or for 
#any damages, including, but not limited to, indirect, special or consequential damages, 
#resulting from the use of any information or interpretation provided by Halliburton.
#
~A    DEPT      CCL   NPHI_OH NPHI_CHI  GR_OH    GR_CHI  RHOB_OH RHOB_CHI  PE_OH  PE_CHI  RT10_OH  RT10_CHI RT30_OH  RT30_CHI RT90_OH  RT90_CHI DTC_OH  DTC_CHI SPHI_CHI   SGF    CRNF   RIN   
# ...
   10584.0000  0.0000 -999.25   7.1363  -999.25  74.9198 -999.25   2.6091 -999.25  4.5640  -999.25  94.7451  -999.25  99.8223  -999.25 110.9941 -999.25 66.2136  13.1600 14.7898 0.7818 0.9476
   10584.5000  0.0000 -999.25   6.6002  -999.25  64.9696 -999.25   2.6168 -999.25  4.5519  -999.25  98.4197  -999.25 104.8059  -999.25 116.4539 -999.25 65.4084  12.5900 14.8859 0.7836 0.9463
   10585.0000  0.0000 -999.25   6.4956  -999.25  63.7633 -999.25   2.6180 -999.25  4.5316  -999.25 102.3420  -999.25 109.5394  -999.25 121.1577 -999.25 65.3567  12.5600 15.0335 0.7904 0.9455
   10585.5000  0.0000 -999.25   6.5047  -999.25  64.0563 -999.25   2.6179 -999.25  4.5195  -999.25 102.8926  -999.25 110.2224  -999.25 121.6509 -999.25 65.4107  12.6000 15.2459 0.8011 0.9496
   10586.0000  0.0000 -999.25   6.2076  -999.25  57.8066 -999.25   2.6228 -999.25  4.5042  -999.25 101.5317  -999.25 109.2737  -999.25 120.5857 -999.25 64.8805  12.2200 15.4568 0.8144 0.9541
   10586.5000  0.0000 -999.25   6.6512  -999.25  64.3442 -999.25   2.6169 -999.25  4.4861  -999.25  99.9297  -999.25 106.6498  -999.25 117.5020 -999.25 65.5495  12.6900 15.6783 0.8264 0.9594
   10587.0000  0.0000 -999.25   6.7681  -999.25  63.5165 -999.25   2.6162 -999.25  4.4570  -999.25  98.3344  -999.25 104.5652  -999.25 115.1846 -999.25 65.6284  12.7500 15.8661 0.8361 0.9627
   10587.5000  0.0000 -999.25   6.9334  -999.25  62.8570 -999.25   2.6149 -999.25  4.4257  -999.25  96.0867  -999.25 101.6469  -999.25 112.0286 -999.25 65.7458  12.8300 16.0068 0.8442 0.9660
   10588.0000  0.0000 -999.25   7.1224  -999.25  63.0042 -999.25   2.6132 -999.25  4.4071  -999.25  92.1946  -999.25  96.8728  -999.25 106.9824 -999.25 65.8671  12.9200 16.1038 0.8538 0.9726
   10588.5000  0.0000 -999.25   7.0640  -999.25  59.2450 -999.25   2.6153 -999.25  4.4049  -999.25  85.2312  -999.25  89.0896  -999.25  98.8963 -999.25 65.5410  12.6900 16.1611 0.8632 0.9809
   10589.0000  0.0000 -999.25   6.6970  -999.25  50.1643 -999.25   2.6218 -999.25  4.4021  -999.25  78.8171  -999.25  82.3790  -999.25  91.9716 -999.25 64.7259  12.1100 16.2699 0.8731 0.9898
   10589.5000  0.0000 -999.25   7.2820  -999.25  58.3711 -999.25   2.6137 -999.25  4.3931  -999.25  75.8276  -999.25  78.2317  -999.25  87.4518 -999.25 65.5688  12.7100 16.4291 0.8804 0.9951
   10590.0000  0.0000 -999.25   7.8620  -999.25  66.2837 -999.25   2.6060 -999.25  4.3855  -999.25  71.0425  -999.25  72.2862  -999.25  80.9733 -999.25 66.3327  13.2500 16.7184 0.8845 1.0014
   10590.5000  0.0000 -999.25   8.3958  -999.25  73.0211 -999.25   2.5992 -999.25  4.3786  -999.25  64.5133  -999.25  64.6842  -999.25  72.7019 -999.25 66.9483  13.6800 17.0261 0.8926 1.0114
   10591.0000  0.0000 -999.25   8.7355  -999.25  76.9058 -999.25   2.5956 -999.25  4.3727  -999.25  56.9427  -999.25  56.3639  -999.25  63.5894 -999.25 67.2336  13.8900 17.3213 0.8964 1.0218
   10591.5000  0.0000 -999.25  10.1717  -999.25 100.2725 -999.25   2.5757 -999.25  4.3603  -999.25  52.7720  -999.25  51.0422  -999.25  57.4649 -999.25 69.0790  15.1900 17.7212 0.9062 1.0311
   10592.0000  0.0000 -999.25  10.2536  -999.25  99.2542 -999.25   2.5756 -999.25  4.3321  -999.25  50.9342  -999.25  49.1158  -999.25  55.2819 -999.25 69.0812  15.1900 18.2035 0.9133 1.0360
   10592.5000  0.0000 -999.25  10.3613  -999.25  99.7918 -999.25   2.5750 -999.25  4.2986  -999.25  50.8789  -999.25  49.0648  -999.25  55.0197 -999.25 69.1789  15.2600 18.5918 0.9168 1.0361
   10593.0000  0.0000 -999.25  10.2674  -999.25  95.2552 -999.25   2.5780 -999.25  4.2563  -999.25  48.7806  -999.25  47.0114  -999.25  52.6588 -999.25 68.9227  15.0800 18.8015 0.9158 1.0353
   10593.5000  0.0000 -999.25  10.6618  -999.25  99.7204 -999.25   2.5737 -999.25  4.2332  -999.25  45.0782  -999.25  43.0436  -999.25  48.2420 -999.25 69.2671  15.3200 18.9585 0.9109 1.0361
   10594.0000  0.0000 -999.25  11.2826  -999.25 108.9993 -999.25   2.5656 -999.25  4.2316  -999.25  41.0547  -999.25  38.6812  -999.25  43.4580 -999.25 69.8826  15.7600 19.0807 0.9059 1.0390
   10594.5000  0.0000 -999.25  10.6295  -999.25  98.3958 -999.25   2.5755 -999.25  4.2270  -999.25  40.6523  -999.25  38.6050  -999.25  43.3739 -999.25 69.0550  15.1700 19.2633 0.9080 1.0404
   10595.0000  0.0000 -999.25  10.5858  -999.25  98.9008 -999.25   2.5758 -999.25  4.2097  -999.25  44.2926  -999.25  42.3875  -999.25  47.3108 -999.25 69.1427  15.2400 19.4406 0.9082 1.0363
   10595.5000  0.0000 -999.25  10.2859  -999.25  95.0638 -999.25   2.5798 -999.25  4.1740  -999.25  51.2386  -999.25  49.7890  -999.25  54.9884 -999.25 68.9858  15.1200 19.5354 0.9105 1.0262
   10596.0000  0.0000 -999.25  10.7119  -999.25 101.3291 -999.25   2.5735 -999.25  4.1252  -999.25  58.5268  -999.25  57.1367  -999.25  62.4305 -999.25 69.7183  15.6400 19.5933 0.9096 1.0135
   10596.5000  0.0000 -999.25  10.5933  -999.25  99.1718 -999.25   2.5751 -999.25  4.1001  -999.25  62.4774  -999.25  61.3758  -999.25  66.7262 -999.25 69.6780  15.6100 19.4909 0.9031 1.0042
   10597.0000  0.0000 -999.25   9.9037  -999.25  86.9361 -999.25   2.5852 -999.25  4.0839  -999.25  63.5402  -999.25  62.9942  -999.25  68.4833 -999.25 68.7908  14.9900 19.3521 0.9041 0.9997
   10597.5000  0.0000 -999.25   9.7351  -999.25  84.4023 -999.25   2.5875 -999.25  4.0934  -999.25  63.4687  -999.25  63.0255  -999.25  68.6227 -999.25 68.5614  14.8200 19.1269 0.8976 0.9983
   10598.0000  0.0000 -999.25   8.8042  -999.25  70.3870 -999.25   2.6005 -999.25  4.1122  -999.25  63.4581  -999.25  63.7906  -999.25  69.6235 -999.25 67.2828  13.9200 18.9432 0.8961 0.9982
   10598.5000  0.0000 -999.25   8.7241  -999.25  68.8236 -999.25   2.6013 -999.25  4.1253  -999.25  63.9741  -999.25  64.3363  -999.25  70.4077 -999.25 67.1608  13.8300 18.7833 0.8946 0.9970
   10599.0000  0.0000 -999.25   8.9245  -999.25  74.1219 -999.25   2.5973 -999.25  4.1319  -999.25  68.5395  -999.25  69.0772  -999.25  75.3220 -999.25 67.6356  14.1700 18.7319 0.8962 0.9927
   10599.5000  0.0000 -999.25   9.1397  -999.25  78.2264 -999.25   2.5933 -999.25  4.1236  -999.25  73.5278  -999.25  74.2538  -999.25  80.6865 -999.25 68.1045  14.5000 18.6884 0.8991 0.9881
   10600.0000  0.0000 -999.25   9.0714  -999.25  77.3983 -999.25   2.5937 -999.25  4.1052  -999.25  77.1140  -999.25  78.3179  -999.25  84.8305 -999.25 68.1684  14.5500 18.6979 0.9018 0.9857
   10600.5000  0.0000 -999.25   8.9621  -999.25  75.0353 -999.25   2.5951 -999.25  4.0913  -999.25  78.0685  -999.25  79.5791  -999.25  86.1744 -999.25 68.0790  14.4800 18.7830 0.9095 0.9857
   10601.0000  0.0000 -999.25   9.2559  -999.25  79.2549 -999.25   2.5909 -999.25  4.0859  -999.25  78.6038  -999.25  79.8333  -999.25  86.3963 -999.25 68.4841  14.7700 18.9305 0.9193 0.9885
   10601.5000  0.0000 -999.25   9.0348  -999.25  74.7190 -999.25   2.5947 -999.25  4.0863  -999.25  76.5341  -999.25  77.7385  -999.25  84.2972 -999.25 68.0649  14.4700 19.2130 0.9322 0.9930
   10602.0000  0.0000 -999.25   9.0271  -999.25  72.4409 -999.25   2.5958 -999.25  4.0822  -999.25  73.0566  -999.25  73.8570  -999.25  80.3306 -999.25 67.8584  14.3300 19.4957 0.9432 0.9988
   10602.5000  0.0000 -999.25   9.0355  -999.25  69.7905 -999.25   2.5971 -999.25  4.0658  -999.25  68.2880  -999.25  68.6558  -999.25  74.8758 -999.25 67.6451  14.1800 19.7819 0.9595 1.0089
   10603.0000  0.0000 -999.25   9.0638  -999.25  66.6127 -999.25   2.5983 -999.25  4.0438  -999.25  63.0874  -999.25  63.0180  -999.25  68.9830 -999.25 67.4271  14.0200 20.0282 0.9656 1.0183
   10603.5000  0.0000 -999.25   9.5090  -999.25  71.0712 -999.25   2.5933 -999.25  4.0271  -999.25  58.1236  -999.25  57.3931  -999.25  62.9924 -999.25 67.8330  14.3100 20.4200 0.9720 1.0283
   10604.0000  0.0000 -999.25  10.2986  -999.25  79.7492 -999.25   2.5835 -999.25  4.0065  -999.25  52.3210  -999.25  50.7936  -999.25  56.0150 -999.25 68.6352  14.8800 20.9554 0.9801 1.0376
   10604.5000  0.0000 -999.25  11.4890  -999.25  97.5854 -999.25   2.5677 -999.25  3.9913  -999.25  47.7006  -999.25  45.4850  -999.25  50.1832 -999.25 70.0000  15.8400 21.5672 0.9872 1.0457
