###############################################
##         ENVERUS                           ##
##         ESS - Open Hole                   ##
##         PERMIAN / DELAWARE                ##
##         Nov 03 2023  V4.0                 ##
##         42-109-33144-00-00                ##
###############################################
## Copyright 2017-2023  ENVERUS.  All Rights Reserved. 
## Confidential - Property of ENVERUS, use governed by terms and 
## conditions found within the existing Information Services Subscription Agreement 
## (as may be amended, the “ISSA”) between Customer and ENVERUS. 
## 
~VERSION INFORMATION
# MNEM.UNIT                               DATA : DESCRIPTION OF MNEMONIC
#-----.-----     ----------------------------- : -----------------------------
VERS.                                     2.00 : CWLS LOG ASCII STANDARD - VERSION 2.00
WRAP.                                       NO : MULTIPLE LINES PER DEPTH STEP
VEND.                                  ENVERUS : VENDOR
TYPE.                          ESS - OPEN HOLE : ENVERUS ESSENTIAL CURVES – ACCESSIBLE THROUGH ENVERUS PRISM(TM)
DOC.                                  44408038 : ENVERUS HEADER RAW DOCUMENT ID
#___________________________________________________________________________________________________ 
~WELL INFORMATION 
# jhvnPe+1QU9E4rmF00QVhgJB4IQXrbTj+4JQBaOQ+xeerJB1ro+a2ny8/YeKPBUHGPa8yPZn1kHe7+9ZkyRs1A== 
# MNEM.UNIT                                              DATA : DESCRIPTION OF MNEMONIC 
#-----.-----                    ----------------------------- : ----------------------------- 
CNTY.                                               CULBERSON : COUNTY 
STATE.                                                  TEXAS : STATE 
CNTRY.                                                    USA : COUNTRY 
API.                                             42-109-33144 : API (10 Digit) 
API_14.                                    42-109-33144-00-00 : API (14 Digits) 
API_14_std.                                 42-109-33144-0000 : API (14 Digits Standard) 
UWI.                                           42109331440000 : UNIQUE WELL ID 
WELL.                                        PAT FEE 4 NO. 3H : WELL NAME
STRT.FT                                                8880.0 : START DEPTH
STOP.FT                                               14320.0 : STOP DEPTH
STEP.FT                                                   0.5 : STEP BETWEEN DEPTHS
NULL.                                                 -999.25 : NULL VALUE
LOC.                                     API  42-109-33144LAT : LOCATION 
FL1.                                     API  42-109-33144LAT : LOCATIONLINE1 
DMF.                                                       KB : DRILL MEAS FROM 
PDAT.                                                      GL : PERMANENT DATUM 
FLD.                                    FORD, WEST (WOLFCAMP) : FIELD NAME 
COMP.                            CAPITAN ENERGY, INCORPORATED : COMPANY 
DATE.                                             21-SEP-2017 : DATE 
SVCO.                                             HALLIBURTON : SERVICECONAME 
PROV.                                                   TEXAS : PROVINCE 
BASI.                                                 PERMIAN : BASIN 
RANG.                                                     N/A : RANGE 
TOWN.                                                     N/A : TOWNSHIP 
SECT.                                                     N/A : SECTION 
SON.                                                      N/A : JOB NUMBER 
SRVC.                                             HALLIBURTON : SERVICE COMPANY 
LMF.                                                       KB : LOG MEASURED FROM 
EGL.FT                                              3093.0000 : GROUND ELEVATION 
BAP.FT                                                 0.0000 : GL ELEV ONSHORE 
GVFD.G                                                 1.0000 : GRAVITY FIELD 
EKB.FT                                              3114.0000 : KB ELEVATION 
EDF.FT                                              3113.0000 : DF ELEVATION
#___________________________________________________________________________________________________ 
~CURVE INFORMATION 
# MNEM.UNIT           : CURVE DESCRIPTION 
#-----.-----          : ----------------------------- 
 DEPT.FT               : MEASURED DEPTH 
 GR.API                : GAMMA RAY (GR_CHI - GR_CHI) 
 GR__01.API            : GAMMA RAY (GR_OH - GR_OH) 
 DT.US/FT              : SONIC DELTA TRANSIT TIME (DTC_CHI - DTC_CHI) 
 DT__01.US/FT          : SONIC DELTA TRANSIT TIME (DTC_OH - DTC_OH) 
 PE.B/E                : PHOTOELECTRIC EFFECT/FACTOR (PE_CHI - PE_CHI) 
 PE__01.B/E            : PHOTOELECTRIC EFFECT/FACTOR (PE_OH - PE_OH) 
 RESS_LL.OHMM          : SHALLOW LATEROLOG (LLS_CHI - LLS_CHI) 
 RESS_LL__01.OHMM      : SHALLOW LATEROLOG (LLS_OH - LLS_OH) 
 RESD_LL.OHMM          : DEEP LATEROLOG (LLD_CHI - LLD_CHI) 
 RESD_LL__01.OHMM      : DEEP LATEROLOG (LLD_OH - LLD_OH) 
 NPHI.V/V              : NEUTRON POROSITY (NPHI_CHI - NPHI_CHI) 
 NPHI__01.V/V          : NEUTRON POROSITY (NPHI_OH - NPHI_OH) 
 SPHI.V/V              : SONIC POROSITY (SPHI_CHI - SPHI_CHI) 
 RHOB.G/CC             : BULK DENSITY (RHOB_CHI - RHOB_CHI) 
 RHOB__01.G/CC         : BULK DENSITY (RHOB_OH - RHOB_OH) 
 #___________________________________________________________________________________________________ 
~A         DEPT             GR         GR__01             DT         DT__01             PE         PE__01        RESS_LL    RESS_LL__01        RESD_LL    RESD_LL__01           NPHI       NPHI__01           SPHI           RHOB       RHOB__01
# ...
         9611.0         79.667         97.205         68.544         71.498         3.1532         4.1002        42.1682        71.9404        50.3330        73.8490        0.11955        0.12500        0.14810         2.5648         2.5701
         9611.5         78.040         97.205         68.798         71.498         3.1024         4.1002        38.9938        71.9404        46.6067        73.8490        0.12264        0.12500        0.14990         2.5633         2.5701
         9612.0         81.865         97.205         70.040         73.002         3.0775         4.1002        37.4588        71.9404        44.7278        73.8490        0.13077        0.12500        0.15870         2.5552         2.5701
         9612.5         94.148        113.227         71.683         73.002         3.0661         3.6009        37.9195        60.6397        44.9768        63.2519        0.13882        0.14540        0.17030         2.5444         2.5437
         9613.0        116.147        113.227         73.591         73.002         3.0518         3.6009        40.0732        60.6397        46.9706        63.2519        0.14554        0.14540        0.18380         2.5321         2.5437
         9613.5        112.782        113.227         73.165         74.195         3.0221         3.6009        34.9311        60.6397        41.2178        63.2519        0.14405        0.14540        0.18080         2.5340         2.5437
         9614.0        126.921        113.227         73.806         74.195         2.9926         3.6009        33.6864        60.6397        39.4338        63.2519        0.14581        0.14540        0.18530         2.5284         2.5437
         9614.5        145.414        126.578         75.798         74.195         3.1916         3.1146        72.7757        54.7302        82.8996        58.1651        0.15004        0.16850        0.19940         2.5241         2.5090
         9615.0        117.406        126.578         74.446         74.195         3.1613         3.1146        60.0769        54.7302        69.7761        58.1651        0.14816        0.16850        0.18990         2.5314         2.5090
         9615.5        125.942        126.578         75.413         76.538         3.1228         3.1146        61.2067        54.7302        70.6761        58.1651        0.15283        0.16850        0.19670         2.5258         2.5090
         9616.0        120.696        126.578         75.297         76.538         3.1041         3.1146        58.0767        54.7302        67.2824        58.1651        0.15374        0.16850        0.19590         2.5263         2.5090
         9616.5        118.091        130.045         75.469         76.538         3.0962         2.9227        58.2694        60.3167        67.5684        64.0623        0.15555        0.18110        0.19710         2.5257         2.4926
         9617.0        133.136        130.045         76.783         76.538         3.0911         2.9227        65.3144        60.3167        75.1097        64.0623        0.15972        0.18110        0.20640         2.5192         2.4926
         9617.5        135.626        130.045         77.412         76.040         3.0990         2.9227        72.2167        60.3167        83.0026        64.0623        0.16211        0.18110        0.21080         2.5177         2.4926
         9618.0        140.582        130.045         77.911         76.040         3.1040         2.9227        78.7314        60.3167        90.3752        64.0623        0.16318        0.18110        0.21440         2.5168         2.4926
         9618.5        113.232        130.045         76.565         76.040         3.1375         2.9227        75.5549        60.3167        88.0210        64.0623        0.15985        0.18110        0.20480         2.5256         2.4926
         9619.0        109.144        126.304         76.169         76.040         3.1402         2.9175        72.2482        66.4591        84.4857        73.9398        0.15795        0.17600        0.20200         2.5279         2.4996
         9619.5        108.541        126.304         75.821         76.040         3.1394         2.9175        68.3365        66.4591        80.0437        73.9398        0.15594        0.17600        0.19960         2.5293         2.4996
         9620.0         99.337        126.304         74.647         74.602         3.1451         2.9175        60.9156        66.4591        71.7766        73.9398        0.15183        0.17600        0.19130         2.5341         2.4996
         9620.5         97.941        126.304         74.142         74.602         3.1486         2.9175        59.3572        66.4591        69.8556        73.9398        0.15016        0.17600        0.18770         2.5356         2.4996
         9621.0        101.244        117.490         73.880         74.602         3.1675         3.0016        62.7785        71.5213        73.3734        82.7743        0.14882        0.17020        0.18590         2.5360         2.5131
         9621.5         97.694        117.490         73.154         74.602         3.1865         3.0016        63.7714        71.5213        74.4892        82.7743        0.14542        0.17020        0.18070         2.5402         2.5131
         9622.0        103.319        117.490         73.140         74.602         3.2243         3.0016        69.3316        71.5213        80.5313        82.7743        0.14384        0.17020        0.18060         2.5404         2.5131
         9622.5         95.257        117.490         72.058         72.403         3.2661         3.0016        68.7671        71.5213        80.4324        82.7743        0.13783        0.17020        0.17300         2.5476         2.5131
         9623.0         86.015        117.490         71.189         72.403         3.2998         3.0016        67.6666        71.5213        79.9216        82.7743        0.13316        0.17020        0.16680         2.5535         2.5131
         9623.5         96.558        111.617         71.789         72.403         3.3500         3.1749        73.9448        81.6565        86.6447        97.5295        0.13413        0.15930        0.17110         2.5499         2.5345
         9624.0        106.647        111.617         72.282         72.403         3.3997         3.1749        83.5935        81.6565        97.0470        97.5295        0.13503        0.15930        0.17460         2.5474         2.5345
         9624.5         95.979        111.617         71.439         69.669         3.4428         3.1749        88.9052        81.6565       103.9016        97.5295        0.13145        0.15930        0.16860         2.5539         2.5345
         9625.0         73.279        111.617         69.313         69.669         3.4608         3.1749        92.6856        81.6565       110.0387        97.5295        0.12159        0.15930        0.15360         2.5695         2.5345
         9625.5         83.221        111.617         69.193         69.669         3.4983         3.1749       100.0877        81.6565       117.4103        97.5295        0.11925        0.15930        0.15270         2.5706         2.5345
         9626.0         76.940        106.895         68.083         69.669         3.5007         3.4046       104.5362        93.2593       123.0064       116.2456        0.11290        0.14930        0.14490         2.5788         2.5530
         9626.5         73.689        106.895         67.374         69.669         3.5111         3.4046       106.5562        93.2593       125.7151       116.2456        0.10841        0.14930        0.13980         2.5836         2.5530
         9627.0         65.976        106.895         66.824         67.129         3.5262         3.4046       113.1340        93.2593       134.3837       116.2456        0.10581        0.14930        0.13600         2.5879         2.5530
         9627.5         55.900        106.895         65.947         67.129         3.5164         3.4046       121.7766        93.2593       145.7573       116.2456        0.10167        0.14930        0.12980         2.5946         2.5530
