~VERSION INFORMATION
VERS. 2.0 : CWLS Log ASCII Standard - version 2.0
WRAP.  NO : One line per depth step
#--------------------------------------------------#
#----------------DRILLING INFO, INC.---------------#
#---------------WWW.DRILLINGINFO.COM---------------#
#------------------COPYRIGHT 2015------------------#
#--------------------------------------------------#
#THIS FILE MAY BE USED ONLY IN ACCORDANCE WITH A CURRENT SUBSCRIPTION AGREEMENT BETWEEN
#THE USER AND DRILLING INFO, INC. NO PART OF THIS FILE MAY BE REPRODUCED, USED, COPIED,
#MODIFIED, PROPAGATED, OR DISTRIBUTED EXCEPT IN ACCORDANCE WITH THE SUBSCRIPTION
#AGREEMENT. UNAUTHORIZED USE OR DISTRIBUTION OF ALL OR ANY PART OF THIS FILE MAY VIOLATE
#COPYRIGHT, TRADEMARK, AND/OR OTHER LAWS AND IS SUBJECT TO CIVIL AS WELL AS CRIMINAL
#SANCTIONS.
#--------------------------------------------------#
#THIS FILE IS PROVIDED "AS-IS" AND ALL WARRANTIES ARE EXPRESSLY DISCLAIMED, WHETHER
#EXPRESS, ORAL, IMPLIED, STATUTORY OR OTHERWISE, INCLUDING ANY IMPLIED WARRANTY OF FITNESS
#FOR A PARTICULAR PURPOSE, MERCHANTABILITY, TITLE OR NON-INFRINGEMENT, AND ANY WARRANTIES
#ARISING BY VIRTUE OF CUSTOM OF TRADE OR COURSE OF DEALING.  FURTHER, DRILLING INFO,
#INC. AND ITS LICENSORS DO NOT REPRESENT OR WARRANT THAT THIS FILE WILL MEET USER'S
#REQUIREMENTS OR ARE SUITABLE FOR USER'S NEEDS OR THAT THE DATA OR RESULTS PROVIDED IN
#CONJUNCTION THEREWITH ARE CORRECT, ACCURATE, TIMELY OR RELIABLE. THESE DISCLAIMERS SHALL
#APPLY REGARDLESS OF ANY FAILURE OF ESSENTIAL PURPOSE OF ANY LIMITED REMEDY.  SOME
#JURISDICTIONS DO NOT ALLOW THE EXCLUSION OF CERTAIN WARRANTIES SO SOME OF THE ABOVE
#EXCLUSIONS MAY NOT APPLY. IN NO EVENT SHALL DRILLING INFO, INC. OR ANY OF ITS AFFILIATES
#BE LIABLE UNDER ANY LEGAL THEORY, WHETHER IN TORT (INCLUDING WITHOUT LIMITATION
#NEGLIGENCE), CONTRACT, STRICT LIABILITY, STATUTORY OR OTHERWISE, FOR ANY SPECIAL,
#INCIDENTAL, CONSEQUENTIAL, EXEMPLARY, PUNITIVE OR INDIRECT DAMAGE OF ANY KIND, INCLUDING
#WITHOUT LIMITATION LOSS OF REVENUE, PROFITS, GOODWILL, USE, AND/OR DATA OR THE COST OF
#PROCUREMENT OF SUBSTITUTE GOODS OR SERVICES, EVEN IF APPRISED OF THE POSSIBILITY OF SUCH
#DAMAGES IN ADVANCE.
#--------------------------------------------------#
~WELL INFORMATION
#MNEMONIC     .UNIT              VALUE :DESCRIPTION
#--------------------------------------------------#
STRT       .FT                0 :START DEPTH
STOP       .FT                10142 :STOP DEPTH
STEP       .FT                   0.500 :STEP
NULL       .                  -999.250 :NULL
API        .                421093138200 :API NUMBER
COMP       .         SHELL OIL COMPANY :COMPANY
WELL       .        SIBLEY  1 :WELL
DATE       .                08-Aug-1978 :LOG DATE
~CURVE INFORMATION
#MNEMONIC     .UNIT      API CODE :CURVE DESCRIPTION
#--------------------------------------------------#
DEPTH       .FT                      :Measured Depth
CAL.INCH        UNKNOWN   :CAL
DT.US/FT        UNKNOWN   :DT
GR.API        UNKNOWN   :GR
~A    DEPTH    CAL    DT    GR
 0     0   56.053   0
 0.5     12.698   56.038   37.87
 1     12.697   56.047   41.027
 1.5     12.697   56.082   40.492
 2     12.697   56.117   40.938
 2.5     12.697   56.152   41.384
 3     12.697   56.187   41.829
 3.5     12.697   56.186   39.83
 4     12.696   56.184   37.78
 4.5     12.696   56.183   35.729
 5     12.696   56.182   34.785
 5.5     12.696   56.181   34.789
 6     12.696   56.179   36.04
 6.5     12.696   56.178   37.612
 7     12.696   56.177   39.184
 7.5     12.695   56.176   39.892
 8     12.695   56.175   40.335
 8.5     12.695   56.173   40.778
 9     12.695   56.172   40.659
 9.5     12.695   56.171   39.409
 10     12.695   56.171   38.697
 10.5     12.695   56.173   40.059
 11     12.694   56.175   41.421
 11.5     12.694   56.176   40.864
 12     12.694   56.178   37.884
 12.5     12.694   56.179   35.361
 13     12.694   56.181   34.008
 13.5     12.694   56.183   34.069
 14     12.693   56.184   36.897
 14.5     12.693   56.186   40.189
 15     12.693   56.188   40.81
 15.5     12.693   56.189   38.507
 16     12.693   56.191   36.623
 16.5     12.693   56.193   38.428
 17     12.693   56.194   37.671
 17.5     12.692   56.196   36.725
 18     12.692   56.198   35.78
 18.5     12.692   56.199   34.834
 19     12.692   56.201   38.164
 19.5     12.692   56.203   42.077
 20     12.692   56.204   41.468
 20.5     12.692   56.206   40.858
 21     12.691   56.208   40.249
 21.5     12.691   56.209   39.639
 22     12.691   56.211   39.029
 22.5     12.691   56.213   38.42
 23     12.691   56.214   39.349
 23.5     12.691   56.216   41.918
 24     12.69   56.218   44.487
 24.5     12.69   56.219   44.957
 25     12.69   56.221   44.204
 25.5     12.69   56.223   43.452
 26     12.69   56.224   42.699
 26.5     12.69   56.226   41.947
 27     12.69   56.228   41.194
 27.5     12.689   56.229   41.305
 28     12.689   56.231   42.074
 28.5     12.689   56.233   42.843
 29     12.689   56.234   43.611
 29.5     12.689   56.236   44.312
 30     12.689   56.238   42.64
 30.5     12.689   56.239   40.968
 31     12.688   56.241   39.296
 31.5     12.688   56.242   37.624
 32     12.688   56.244   37.695
 32.5     12.688   56.246   38.387
 33     12.688   56.247   39.079
 33.5     12.688   56.249   39.771
 34     12.688   56.251   40.463
 34.5     12.687   56.252   41.156
 35     12.687   56.254   39.368
 35.5     12.687   56.256   37.507
 36     12.687   56.257   35.647
 36.5     12.687   56.259   33.786
 37     12.687   56.261   31.926
 37.5     12.686   56.262   35.816
 38     12.686   56.264   36.572
 38.5     12.686   56.266   36.943
 39     12.686   56.267   37.315
 39.5     12.686   56.269   39.314
 40     12.686   56.271   42.826
 40.5     12.686   56.272   46.339
 41     12.685   56.274   48.723
 41.5     12.684   56.276   46.489
 42     12.683   56.277   44.254
 42.5     12.683   56.279   42.02
 43     12.682   56.281   39.785
 43.5     12.681   56.282   37.551
 44     12.68   56.284   35.316
 44.5     12.679   56.286   33.082
 45     12.679   56.287   32.703
 45.5     12.678   56.289   34.669
 46     12.677   56.291   36.635
 46.5     12.676   56.292   38.6
 47     12.676   56.294   40.216
 47.5     12.675   56.291   37.843
 48     12.674   56.287   35.47
 48.5     12.673   56.283   33.098
 49     12.672   56.279   34.078
 49.5     12.672   56.275   36.567
 50     12.671   56.271   39.056
 50.5     12.67   56.267   40.47
 51     12.669   56.263   40.991
 51.5     12.668   56.259   41.512
 52     12.668   56.255   41.557
 52.5     12.667   56.251   39.559
 53     12.666   56.247   37.56
 53.5     12.665   56.243   35.562
 54     12.664   56.239   35.926
 54.5     12.664   56.235   36.723
 55     12.663   56.231   37.52
 55.5     12.662   56.227   38.317
 56     12.661   56.223   38.706
 56.5     12.66   56.219   38.188
 57     12.66   56.215   37.669
 57.5     12.659   56.211   38.473
 58     12.658   56.207   40.822
 58.5     12.657   56.203   41.127
 59     12.656   56.199   38.951
 59.5     12.656   56.195   36.774
 60     12.655   56.191   34.598
 60.5     12.654   56.187   34.59
 61     12.653   56.183   37.652
 61.5     12.652   56.179   40.714
 62     12.652   56.175   43.777
 62.5     12.651   56.171   44.091
 63     12.65   56.167   43.561
 63.5     12.649   56.163   43.031
 64     12.648   56.159   41.83
 64.5     12.648   56.155   38.924
 65     12.647   56.151   36.018
 65.5     12.646   56.147   34.717
 66     12.645   56.143   34.94
 66.5     12.644   56.139   35.163
 67     12.644   56.135   35.387
 67.5     12.643   56.131   35.61
 68     12.642   56.127   35.833
 68.5     12.641   56.123   36.056
 69     12.64   56.119   37.44
 69.5     12.64   56.115   39.258
 70     12.639   56.111   41.076
 70.5     12.638   56.107   41.036
 71     12.637   56.103   39.246
 71.5     12.636   56.099   37.456
 72     12.636   56.096   35.666
 72.5     12.635   56.092   33.876
 73     12.634   56.088   33.022
 73.5     12.633   56.084   32.969
 74     12.633   56.08   33.463
 74.5     12.632   56.076   35.023
 75     12.631   56.072   36.984
 75.5     12.63   56.068   38.945
 76     12.629   56.064   40.906
 76.5     12.629   56.06   42.867
 77     12.628   56.056   44.285
 77.5     12.627   56.052   43.939
 78     12.626   56.048   43.593
 78.5     12.625   56.044   42.014
 79     12.625   56.04   38.608
 79.5     12.624   56.036   35.203
 80     12.623   56.032   35.99
 80.5     12.622   56.028   37.092
 81     12.621   56.024   38.195
 81.5     12.621   56.02   39.297
 82     12.62   56.016   40.4
 82.5     12.619   56.012   41.502
 83     12.618   56.008   40.926
 83.5     12.617   56.004   40.258
 84     12.617   56   39.589
 84.5     12.616   55.996   39.364
 85     12.615   55.992   39.69
 85.5     12.614   55.988   40.017
 86     12.613   55.984   39.563
 86.5     12.613   55.98   37.791
 87     12.612   55.974   36.019
 87.5     12.611   55.968   36.539
 88     12.61   55.962   37.954
 88.5     12.609   55.956   39.37
 89     12.609   55.95   40.785
 89.5     12.608   55.944   42.201
 90     12.607   55.938   43.24
 90.5     12.606   55.932   40.77
 91     12.605   55.926   38.3
 91.5     12.605   55.921   35.83
 92     12.604   55.915   34.855
 92.5     12.603   55.911   34.555
 93     12.603   55.909   34.256
 93.5     12.603   55.908   33.956
 94     12.603   55.907   32.844
 94.5     12.603   55.906   31.202
 95     12.602   55.904   29.559
 95.5     12.602   55.903   27.916
 96     12.602   55.902   26.891
 96.5     12.602   55.901   27.226
 97     12.602   55.899   27.56
 97.5     12.601   55.898   27.894
 98     12.601   55.897   26.751
 98.5     12.601   55.896   25.503
 99     12.601   55.894   25.661
 99.5     12.601   55.893   26.557
 100     12.6   55.892   28.675
 100.5     12.6   55.901   28.723
 101     12.6   55.914   28.767
 101.5     12.6   55.927   28.811
 102     12.6   55.939   30.074
 102.5     12.599   55.952   31.497
 103     12.599   55.965   32.92
 103.5     12.599   55.978   34.288
 104     12.599   55.991   34.272
 104.5     12.599   56.003   34.257
 105     12.598   56.016   34.242
 105.5     12.598   56.029   34.227
 106     12.598   56.042   34.212
 106.5     12.598   56.055   34.197
 107     12.597   56.067   33.3
 107.5     12.597   56.08   31.547
 108     12.597   56.093   29.795
 108.5     12.597   56.106   28.532
 109     12.597   56.118   29.358
 109.5     12.596   56.131   30.183
 110     12.596   56.029   31.009
 110.5     12.596   55.79   44.631
 111     12.596   55.55   46.993
 111.5     12.596   55.31   42.933
 112     12.595   55.159   38.873
 112.5     12.595   55.657   34.814
 113     12.595   56.604   30.754
 113.5     12.595   57.551   29.052
 114     12.595   58.009   27.494
 114.5     12.594   58.08   25.936
 115     12.594   58.907   24.378
 115.5     12.594   61.542   22.82
 116     12.594   64.147   21.262
 116.5     12.594   64.683   20.5
 117     12.593   64.8   21.2
 117.5     12.593   63.15   21.899
 118     12.593   60.618   26.477
 118.5     12.593   58.661   39.253
