~VERSION INFORMATION
VERS. 2.0 : CWLS Log ASCII Standard - version 2.0
WRAP.  NO : One line per depth step
#--------------------------------------------------#
#----------------DRILLING INFO, INC.---------------#
#---------------WWW.DRILLINGINFO.COM---------------#
#------------------COPYRIGHT 2015------------------#
#--------------------------------------------------#
#THIS FILE MAY BE USED ONLY IN ACCORDANCE WITH A CURRENT SUBSCRIPTION AGREEMENT BETWEEN
#THE USER AND DRILLING INFO, INC. NO PART OF THIS FILE MAY BE REPRODUCED, USED, COPIED,
#MODIFIED, PROPAGATED, OR DISTRIBUTED EXCEPT IN ACCORDANCE WITH THE SUBSCRIPTION
#AGREEMENT. UNAUTHORIZED USE OR DISTRIBUTION OF ALL OR ANY PART OF THIS FILE MAY VIOLATE
#COPYRIGHT, TRADEMARK, AND/OR OTHER LAWS AND IS SUBJECT TO CIVIL AS WELL AS CRIMINAL
#SANCTIONS.
#--------------------------------------------------#
#THIS FILE IS PROVIDED "AS-IS" AND ALL WARRANTIES ARE EXPRESSLY DISCLAIMED, WHETHER
#EXPRESS, ORAL, IMPLIED, STATUTORY OR OTHERWISE, INCLUDING ANY IMPLIED WARRANTY OF FITNESS
#FOR A PARTICULAR PURPOSE, MERCHANTABILITY, TITLE OR NON-INFRINGEMENT, AND ANY WARRANTIES
#ARISING BY VIRTUE OF CUSTOM OF TRADE OR COURSE OF DEALING.  FURTHER, DRILLING INFO,
#INC. AND ITS LICENSORS DO NOT REPRESENT OR WARRANT THAT THIS FILE WILL MEET USER'S
#REQUIREMENTS OR ARE SUITABLE FOR USER'S NEEDS OR THAT THE DATA OR RESULTS PROVIDED IN
#CONJUNCTION THEREWITH ARE CORRECT, ACCURATE, TIMELY OR RELIABLE. THESE DISCLAIMERS SHALL
#APPLY REGARDLESS OF ANY FAILURE OF ESSENTIAL PURPOSE OF ANY LIMITED REMEDY.  SOME
#JURISDICTIONS DO NOT ALLOW THE EXCLUSION OF CERTAIN WARRANTIES SO SOME OF THE ABOVE
#EXCLUSIONS MAY NOT APPLY. IN NO EVENT SHALL DRILLING INFO, INC. OR ANY OF ITS AFFILIATES
#BE LIABLE UNDER ANY LEGAL THEORY, WHETHER IN TORT (INCLUDING WITHOUT LIMITATION
#NEGLIGENCE), CONTRACT, STRICT LIABILITY, STATUTORY OR OTHERWISE, FOR ANY SPECIAL,
#INCIDENTAL, CONSEQUENTIAL, EXEMPLARY, PUNITIVE OR INDIRECT DAMAGE OF ANY KIND, INCLUDING
#WITHOUT LIMITATION LOSS OF REVENUE, PROFITS, GOODWILL, USE, AND/OR DATA OR THE COST OF
#PROCUREMENT OF SUBSTITUTE GOODS OR SERVICES, EVEN IF APPRISED OF THE POSSIBILITY OF SUCH
#DAMAGES IN ADVANCE.
#--------------------------------------------------#
~WELL INFORMATION
#MNEMONIC     .UNIT              VALUE :DESCRIPTION
#--------------------------------------------------#
STRT       .FT                181 :START DEPTH
STOP       .FT                12231 :STOP DEPTH
STEP       .FT                   0.500 :STEP
NULL       .                  -999.250 :NULL
API        .                421093228700 :API NUMBER
COMP       .         CHESAPEAKE OPERATING  INC. :COMPANY
WELL       .        UNIVERSITY LANDS 4627  1 :WELL
DATE       .                06-May-2007 :LOG DATE
~CURVE INFORMATION
#MNEMONIC     .UNIT      API CODE :CURVE DESCRIPTION
#--------------------------------------------------#
DEPTH       .FT                      :Measured Depth
ILS.OHM        UNKNOWN   :ILS
GR.API        UNKNOWN   :GR
ILD.OHM        UNKNOWN   :ILD
CAL.INCH        UNKNOWN   :CAL
DT.US/FT        UNKNOWN   :DT
~A    DEPTH    ILS    GR    ILD    CAL    DT
# ...
 12194     162.491   5.988   376.455   3.694   -999.250
 12194.5     108.665   5.998   244.507   3.694   -999.250
 12195     90.266   6.009   205.529   3.694   -999.250
 12195.5     79.269   6.019   155.109   3.694   -999.250
 12196     68.271   6.03   119.134   3.694   -999.250
 12196.5     67.357   6.04   135.91   3.694   -999.250
 12197     71.329   6.051   143.699   3.694   -999.250
 12197.5     86.821   6.061   134.415   3.694   -999.250
 12198     106.031   6.072   106.521   3.694   -999.250
 12198.5     187.445   6.082   128.068   3.694   -999.250
 12199     220.522   6.093   123.065   3.694   -999.250
 12199.5     204.46   6.103   104.98   3.694   -999.250
 12200     211.563   6.114   94.137   3.694   -999.250
 12200.5     201.717   6.124   83.294   3.694   -999.250
 12201     232.345   6.135   83.531   3.694   -999.250
 12201.5     275.437   6.145   86.504   3.694   -999.250
 12202     145.162   6.155   89.478   3.695   -999.250
 12202.5     104.84   6.166   72.424   3.695   -999.250
 12203     210.458   6.176   98.268   3.695   -999.250
 12203.5     626.339   6.187   118.781   3.695   -999.250
 12204     497.598   6.196   119.438   3.695   -999.250
 12204.5     290.127   6.197   120.094   3.695   -999.250
 12205     228.832   6.197   120.751   3.695   -999.250
 12205.5     176.902   6.198   126.547   3.695   -999.250
 12206     153.202   6.199   157.216   3.695   -999.250
 12206.5     144.182   6.2   347.157   3.695   -999.250
 12207     135.161   6.201   713.793   3.695   -999.250
 12207.5     128.868   6.201   1080.43   3.695   -999.250
 12208     135.179   6.202   1447.067   3.695   -999.250
 12208.5     161.601   6.203   -999.250   3.695   -999.250
 12209     188.024   6.204   -999.250   3.695   -999.250
 12209.5     192.251   6.205   -999.250   3.695   -999.250
 12210     196.388   6.205   -999.250   3.695   -999.250
 12210.5     189.238   6.206   -999.250   3.695   -999.250
 12211     180.323   6.207   -999.250   3.695   -999.250
 12211.5     167.445   6.208   -999.250   3.695   -999.250
 12212     154.566   6.208   -999.250   3.695   -999.250
 12212.5     141.688   6.209   -999.250   3.696   -999.250
 12213     128.81   6.21   -999.250   3.696   -999.250
 12213.5     115.931   6.211   -999.250   3.696   -999.250
 12214     103.053   6.212   -999.250   3.696   -999.250
 12214.5     90.175   6.212   -999.250   3.696   -999.250
 12215     94.154   6.213   -999.250   3.696   -999.250
 12215.5     99.648   6.214   -999.250   3.696   -999.250
 12216     105.414   6.215   -999.250   3.696   -999.250
 12216.5     117.187   6.216   -999.250   3.696   -999.250
 12217     128.96   6.216   -999.250   3.696   -999.250
 12217.5     134.546   6.217   -999.250   3.696   -999.250
 12218     127.055   6.218   -999.250   3.696   -999.250
 12218.5     119.563   6.219   -999.250   3.696   -999.250
 12219     112.071   6.219   -999.250   3.696   -999.250
 12219.5     105.101   6.22   -999.250   3.696   -999.250
 12220     108.231   6.221   -999.250   3.696   -999.250
 12220.5     111.361   6.222   -999.250   3.696   -999.250
 12221     114.491   6.223   -999.250   3.696   -999.250
 12221.5     115.79   6.223   -999.250   3.696   -999.250
 12222     114.122   6.224   -999.250   3.696   -999.250
 12222.5     112.453   6.225   -999.250   3.696   -999.250
 12223     110.785   6.226   -999.250   3.697   -999.250
 12223.5     109.116   6.227   -999.250   3.697   -999.250
 12224     107.447   6.227   -999.250   3.697   -999.250
 12224.5     105.779   6.228   -999.250   3.697   -999.250
 12225     104.234   6.229   -999.250   3.697   -999.250
 12225.5     104.186   6.23   -999.250   3.697   -999.250
 12226     104.139   6.23   -999.250   3.697   -999.250
 12226.5     104.091   6.231   -999.250   3.697   -999.250
 12227     104.043   6.232   -999.250   3.697   -999.250
 12227.5     103.995   6.233   -999.250   3.697   -999.250
 12228     103.948   6.234   -999.250   3.697   -999.250
 12228.5     103.9   6.234   -999.250   3.697   -999.250
 12229     103.852   6.235   -999.250   3.697   -999.250
 12229.5     103.804   6.236   -999.250   3.697   -999.250
 12230     103.757   6.237   -999.250   3.697   -999.250
 12230.5     103.709   6.237   -999.250   3.697   -999.250
 12231     103.661   6.238   -999.250   3.697   -999.250
