###############################################
##         ENVERUS                           ##
##         ESS - Open Hole                   ##
##         PERMIAN / DELAWARE                ##
##         Nov 03 2023  V4.0                 ##
##         42-109-32978-00-00                ##
###############################################
## Copyright 2017-2023  ENVERUS.  All Rights Reserved. 
## Confidential - Property of ENVERUS, use governed by terms and 
## conditions found within the existing Information Services Subscription Agreement 
## (as may be amended, the “ISSA”) between Customer and ENVERUS. 
## 
~VERSION INFORMATION
# MNEM.UNIT                               DATA : DESCRIPTION OF MNEMONIC
#-----.-----     ----------------------------- : -----------------------------
VERS.                                     2.00 : CWLS LOG ASCII STANDARD - VERSION 2.00
WRAP.                                       NO : MULTIPLE LINES PER DEPTH STEP
VEND.                                  ENVERUS : VENDOR
TYPE.                          ESS - OPEN HOLE : ENVERUS ESSENTIAL CURVES – ACCESSIBLE THROUGH ENVERUS PRISM(TM)
DOC.                                  43644371 : ENVERUS HEADER RAW DOCUMENT ID
#___________________________________________________________________________________________________ 
~WELL INFORMATION 
# sF+t5dzO8TjfhJXm5BhYJSGKqyGjnVcKAr1GJS+XHP+EILfiOmlFF7qBSMjafOrEHsreRpz+nmfYFwcq0MlVOA== 
# MNEM.UNIT                                              DATA : DESCRIPTION OF MNEMONIC 
#-----.-----                    ----------------------------- : ----------------------------- 
CNTY.                                               CULBERSON : COUNTY 
STATE.                                                  TEXAS : STATE 
CNTRY.                                                    USA : COUNTRY 
API.                                             42-109-32978 : API (10 Digit) 
API_14.                                    42-109-32978-00-00 : API (14 Digits) 
API_14_std.                                 42-109-32978-0000 : API (14 Digits Standard) 
UWI.                                           42109329780000 : UNIQUE WELL ID 
WELL.                                    42109329780000_API14 : WELL NAME
STRT.FT                                                 179.0 : START DEPTH
STOP.FT                                                9893.5 : STOP DEPTH
STEP.FT                                                   0.5 : STEP BETWEEN DEPTHS
NULL.                                                 -999.25 : NULL VALUE
#___________________________________________________________________________________________________ 
~PARAMETER INFORMATION 
# MNEM.UNIT                                              DATA : DESCRIPTION OF MNEMONIC 
#-----.-----                    ----------------------------- : ----------------------------- 
EKB.FT                                                   3282 : ELEVATION ABOVE MSL
#___________________________________________________________________________________________________ 
~CURVE INFORMATION 
# MNEM.UNIT           : CURVE DESCRIPTION 
#-----.-----          : ----------------------------- 
 DEPT.FT               : MEASURED DEPTH 
 GR.API                : GAMMA RAY (GAMMA RAY) 
 DT.US/FT              : SONIC DELTA TRANSIT TIME (SONIC) 
 #___________________________________________________________________________________________________ 
~A         DEPT             GR             DT
# ...
         2093.0          7.939        280.223
         2093.5          7.939        280.223
         2094.0          9.006        280.223
         2094.5         10.028        280.223
         2095.0         10.446        280.223
         2095.5         11.012        280.223
         2096.0         12.098        280.223
         2096.5         12.953        280.223
         2097.0         13.371        280.223
         2097.5         13.371        280.223
         2098.0         12.804        280.223
         2098.5         11.718        280.223
         2099.0         10.631        280.223
         2099.5         10.961        280.223
         2100.0         12.851        280.223
         2100.5         13.371        280.223
         2101.0         12.971        280.223
         2101.5         11.142        280.223
         2102.0          9.545        280.223
         2102.5          9.508        280.223
         2103.0         11.445        280.223
         2103.5         13.770        280.223
         2104.0         13.556        280.223
         2104.5         11.777        279.717
         2105.0          9.712        279.666
         2105.5          8.774        279.666
         2106.0         10.010        279.666
         2106.5         11.514        281.090
         2107.0         11.699        282.451
         2107.5         10.180        282.451
         2108.0          8.774        282.451
         2108.5          8.357        282.451
         2109.0          8.590        282.451
         2109.5          9.676        281.806
         2110.0         10.864        280.780
         2110.5         11.849        280.780
         2111.0         12.535        280.780
         2111.5         14.022        280.780
         2112.0         15.042        280.780
         2112.5         14.624        280.780
         2113.0         13.221        280.780
         2113.5         11.299        280.780
         2114.0          9.377        280.780
         2114.5          8.774        280.780
         2115.0          9.509        280.780
         2115.5         10.446        280.780
         2116.0         10.864        280.780
         2116.5         11.097        280.780
         2117.0         12.117        280.780
         2117.5         12.117        280.780
         2118.0         11.699        280.780
         2118.5         12.518        280.780
         2119.0         14.022        280.780
         2119.5         13.722        280.780
         2120.0         12.217        280.780
         2120.5         11.281        280.780
         2121.0         11.699        280.780
         2121.5         12.117        280.780
         2122.0         11.699        280.780
         2122.5         11.281        280.780
         2123.0         11.281        280.780
         2123.5         11.683        280.780
         2124.0         13.212        280.780
         2124.5         15.769        280.780
         2125.0         15.977        280.780
         2125.5         13.411        280.780
         2126.0         10.880        280.780
         2126.5          9.610        280.780
         2127.0          9.125        280.780
         2127.5          8.774        280.780
         2128.0          9.761        280.780
         2128.5         10.917        280.780
         2129.0         11.867        280.780
         2129.5         12.659        280.780
         2130.0         12.659        280.780
         2130.5         12.985        280.780
         2131.0         12.138        280.780
         2131.5         11.882        280.780
         2132.0         11.699        280.780
         2132.5         10.200        280.780
         2133.0         10.864        280.780
         2133.5         11.683        280.780
         2134.0         12.887        280.780
         2134.5         13.582        280.780
         2135.0         12.412        280.780
         2135.5         11.684        280.780
         2136.0         12.003        280.780
         2136.5         12.770        280.780
         2137.0         13.371        280.780
         2137.5         13.371        280.780
         2138.0         13.940        280.780
         2138.5         15.444        280.780
         2139.0         14.624        280.780
         2139.5         13.720        280.780
         2140.0         13.371        280.780
         2140.5         12.801        280.780
         2141.0         11.714        280.780
         2141.5         11.517        280.780
         2142.0         13.021        280.780
         2142.5         15.471        280.780
         2143.0         16.561        280.780
         2143.5         14.855        280.780
         2144.0         12.717        280.780
         2144.5         11.768        280.780
         2145.0         12.953        280.780
         2145.5         13.941        280.780
         2146.0         14.624        281.874
         2146.5         15.042        284.437
         2147.0         14.137        284.031
         2147.5         12.633        283.008
         2148.0         11.281        283.008
         2148.5         11.699        283.008
         2149.0         13.516        283.566
         2149.5         14.624        282.035
         2150.0         14.944        279.797
         2150.5         14.889        277.994
         2151.0         14.206        278.532
         2151.5         12.716        279.424
         2152.0         11.212        280.223
         2152.5         10.766        280.223
         2153.0         11.852        280.223
         2153.5         14.171        280.223
         2154.0         16.129        280.223
         2154.5         16.226        280.223
         2155.0         15.139        280.223
         2155.5         13.635        280.223
         2156.0         13.371        280.223
         2156.5         13.134        280.223
         2157.0         13.858        280.223
         2157.5         14.944        280.223
         2158.0         15.613        280.223
         2158.5         15.473        280.223
         2159.0         14.206        280.223
         2159.5         13.788        280.223
         2160.0         14.945        280.223
         2160.5         15.460        280.223
         2161.0         15.042        280.223
         2161.5         13.969        280.223
         2162.0         12.465        280.223
         2162.5         11.281        280.223
         2163.0         10.710        280.223
         2163.5         11.268        280.223
         2164.0         13.190        280.223
         2164.5         15.356        280.223
         2165.0         15.961        280.223
         2165.5         13.822        280.223
         2166.0         11.712        280.223
         2166.5         11.519        280.223
         2167.0         13.023        280.223
         2167.5         13.788        280.223
         2168.0         12.799        280.223
         2168.5         12.117        280.223
         2169.0         12.535        280.223
         2169.5         13.859        280.223
         2170.0         14.624        280.223
         2170.5         13.216        280.223
         2171.0         12.117        280.223
         2171.5         11.699        280.223
         2172.0         12.117        280.223
         2172.5         11.796        280.223
         2173.0         12.271        280.223
         2173.5         13.358        280.223
         2174.0         14.444        280.223
         2174.5         15.460        280.223
         2175.0         16.987        280.223
         2175.5         18.169        280.223
         2176.0         15.269        280.223
         2176.5         12.595        280.223
         2177.0         11.699        280.223
         2177.5         12.439        280.223
         2178.0         12.953        280.223
         2178.5         12.953        280.223
         2179.0         12.953        280.223
         2179.5         11.628        280.223
