###############################################
##         ENVERUS                           ##
##         ESS - Open Hole                   ##
##         PERMIAN / DELAWARE                ##
##         Nov 03 2023  V4.0                 ##
##         42-109-32508-00-00                ##
###############################################
## Copyright 2017-2023  ENVERUS.  All Rights Reserved. 
## Confidential - Property of ENVERUS, use governed by terms and 
## conditions found within the existing Information Services Subscription Agreement 
## (as may be amended, the “ISSA”) between Customer and ENVERUS. 
## 
~VERSION INFORMATION
# MNEM.UNIT                               DATA : DESCRIPTION OF MNEMONIC
#-----.-----     ----------------------------- : -----------------------------
VERS.                                     2.00 : CWLS LOG ASCII STANDARD - VERSION 2.00
WRAP.                                       NO : MULTIPLE LINES PER DEPTH STEP
VEND.                                  ENVERUS : VENDOR
TYPE.                          ESS - OPEN HOLE : ENVERUS ESSENTIAL CURVES – ACCESSIBLE THROUGH ENVERUS PRISM(TM)
DOC.                                  51093165 : ENVERUS HEADER RAW DOCUMENT ID
#___________________________________________________________________________________________________ 
~WELL INFORMATION 
# 1l9uGBxUQQhBCtjIwzslcirW42fLV8cokTOAxV7sfA093x4JFuWG6+twQwU/7oNL7vvW02EVanlAmdL+peO2nw== 
# MNEM.UNIT                                              DATA : DESCRIPTION OF MNEMONIC 
#-----.-----                    ----------------------------- : ----------------------------- 
CNTY.                                               CULBERSON : COUNTY 
STATE.                                                  TEXAS : STATE 
CNTRY.                                                    USA : COUNTRY 
API.                                             42-109-32508 : API (10 Digit) 
API_14.                                    42-109-32508-00-00 : API (14 Digits) 
API_14_std.                                 42-109-32508-0000 : API (14 Digits Standard) 
UWI.                                           42109325080000 : UNIQUE WELL ID 
WELL.                                  LT. GIBSON 12 STATE 1H : WELL NAME
STRT.FT                                                1970.5 : START DEPTH
STOP.FT                                                8727.0 : STOP DEPTH
STEP.FT                                                   0.5 : STEP BETWEEN DEPTHS
NULL.                                                 -999.25 : NULL VALUE
PREV_APII.                                     42109325080000 : WELL IDENTIFIER
#___________________________________________________________________________________________________ 
~PARAMETER INFORMATION 
# MNEM.UNIT                                              DATA : DESCRIPTION OF MNEMONIC 
#-----.-----                    ----------------------------- : ----------------------------- 
EKB.FT                                                   3552 : ELEVATION ABOVE MSL
#___________________________________________________________________________________________________ 
~CURVE INFORMATION 
# MNEM.UNIT           : CURVE DESCRIPTION 
#-----.-----          : ----------------------------- 
 DEPT.FT               : MEASURED DEPTH 
 GR__A.API             : GAMMA RAY (GAMMA RAY) 
 DT__A.US/FT           : SONIC DELTA TRANSIT TIME (SONIC) 
 #___________________________________________________________________________________________________ 
~A         DEPT          GR__A          DT__A
# ...
         3275.5        126.037         49.385
         3276.0        119.386         49.123
         3276.5        109.420         49.648
         3277.0        100.805         50.098
         3277.5         97.656         50.292
         3278.0        101.859         51.025
         3278.5        103.125         52.394
         3279.0        105.391         53.723
         3279.5        104.828         54.191
         3280.0        100.093         54.191
         3280.5         95.222         53.075
         3281.0        105.219         51.680
         3281.5        113.504         50.877
         3282.0        121.846         51.072
         3282.5        122.677         54.734
         3283.0        117.188         54.971
         3283.5        115.625         53.611
         3284.0        115.621         51.839
         3284.5        108.943         48.520
         3285.0        107.677         47.963
         3285.5        113.994         49.346
         3286.0        118.005         51.657
         3286.5        117.969         53.044
         3287.0        117.135         53.801
         3287.5        114.405         52.991
         3288.0        105.009         52.047
         3288.5         96.721         50.605
         3289.0         94.702         49.080
         3289.5        105.350         48.881
         3290.0        112.027         50.445
         3290.5         96.625         55.440
         3291.0         89.126         57.836
         3291.5        104.802         57.247
         3292.0        109.119         56.792
         3292.5        114.651         59.173
         3293.0        129.088         64.283
         3293.5        129.833         62.718
         3294.0        117.411         55.083
         3294.5        104.565         48.900
         3295.0         96.875         47.758
         3295.5         97.929         49.314
         3296.0        103.715         52.051
         3296.5        102.422         52.437
         3297.0         98.267         52.437
         3297.5        100.424         52.549
         3298.0        107.654         53.411
         3298.5        116.767         54.626
         3299.0        124.201         56.903
         3299.5        124.877         58.413
         3300.0        113.650         57.957
         3300.5        107.246         56.452
         3301.0        105.859         53.380
         3301.5        103.667         50.588
         3302.0        101.563         48.631
         3302.5         97.493         45.351
         3303.0         92.536         44.288
         3303.5         91.661         43.860
         3304.0         96.815         44.025
         3304.5         96.927         44.614
         3305.0         95.204         46.718
         3305.5         90.927         48.698
         3306.0         89.426         50.474
         3306.5         99.490         51.453
         3307.0        117.274         52.047
         3307.5        116.018         52.825
         3308.0        107.934         54.191
         3308.5        114.428         56.161
         3309.0        122.884         58.296
         3309.5        123.828         58.854
         3310.0        120.665         56.863
         3310.5        115.910         54.099
         3311.0        106.868         51.435
         3311.5        101.023         50.456
         3312.0         98.349         50.523
         3312.5        101.172         51.931
         3313.0        100.391         53.845
         3313.5        101.658         54.823
         3314.0        104.400         54.971
         3314.5        102.762         55.166
         3315.0         97.266         56.650
         3315.5         97.394         57.895
         3316.0        100.781         58.022
         3316.5         99.148         57.166
         3317.0        100.144         55.285
         3317.5        106.227         54.581
         3318.0        111.386         55.250
         3318.5        115.393         56.619
         3319.0        118.710         57.402
         3319.5        122.069         58.478
         3320.0        116.885         59.649
         3320.5        108.778         58.960
         3321.0        107.772         58.869
         3321.5        116.746         59.793
         3322.0        131.250         62.417
         3322.5        141.852         65.081
         3323.0        145.843         67.182
         3323.5        138.747         68.160
         3324.0        134.232         68.749
         3324.5        130.171         68.479
         3325.0        122.480         66.774
         3325.5        117.677         65.643
         3326.0        117.578         67.070
         3326.5        115.554         72.758
         3327.0        107.487         75.401
         3327.5        104.688         74.596
         3328.0        107.364         65.522
         3328.5        112.425         60.499
         3329.0        134.996         64.277
         3329.5        181.580         73.695
         3330.0        202.709         87.152
         3330.5        190.462         91.354
         3331.0        149.388         88.513
         3331.5        150.001         86.550
         3332.0        155.085         85.571
         3332.5        156.407         84.406
         3333.0        152.504         84.429
         3333.5        151.953         87.815
         3334.0        149.569         94.857
         3334.5        142.530         99.463
         3335.0        142.189        101.365
         3335.5        159.415        101.105
         3336.0        211.010         98.441
         3336.5        220.498        103.207
         3337.0        173.901        111.918
         3337.5        137.216        114.474
         3338.0        126.530        113.067
         3338.5        136.442        105.923
         3339.0        143.151        103.873
         3339.5        146.223        108.706
         3340.0        152.091        111.765
         3340.5        188.146        106.972
         3341.0        253.607         82.388
         3341.5        364.935         68.178
         3342.0        437.969         76.754
         3342.5        375.670         90.010
         3343.0        278.898         95.305
         3343.5        279.200         94.932
         3344.0        333.780         88.779
         3344.5        323.226         92.073
         3345.0        274.215        105.081
         3345.5        225.384        105.051
         3346.0        212.287         99.719
         3346.5        249.357         92.470
         3347.0        292.864         88.499
         3347.5        296.378         94.543
         3348.0        237.580        103.071
         3348.5        208.611        106.181
         3349.0        189.003        106.733
         3349.5        189.992        103.264
         3350.0        214.142        106.645
         3350.5        232.085        111.925
         3351.0        182.967        111.415
         3351.5        119.649        109.974
         3352.0        101.619        105.822
         3352.5         96.923         92.635
         3353.0         94.962         85.675
         3353.5         96.875         74.069
         3354.0        104.262         71.735
         3354.5        105.859         74.597
         3355.0        103.722         77.384
         3355.5        101.952         78.168
         3356.0        100.781         77.374
         3356.5        101.189         74.650
         3357.0        104.543         74.269
         3357.5        106.216         74.659
         3358.0        103.864         74.659
         3358.5         96.164         76.928
         3359.0         91.485         80.897
         3359.5         88.672         79.304
         3360.0         89.453         75.680
         3360.5         89.844         71.180
         3361.0         89.453         66.231
         3361.5         88.523         65.497
         3362.0         87.500         65.497
