~VERSION INFORMATION
VERS. 2.0 : CWLS Log ASCII Standard - version 2.0
WRAP.  NO : One line per depth step
#--------------------------------------------------#
#----------------DRILLING INFO, INC.---------------#
#---------------WWW.DRILLINGINFO.COM---------------#
#------------------COPYRIGHT 2015------------------#
#--------------------------------------------------#
#THIS FILE MAY BE USED ONLY IN ACCORDANCE WITH A CURRENT SUBSCRIPTION AGREEMENT BETWEEN
#THE USER AND DRILLING INFO, INC. NO PART OF THIS FILE MAY BE REPRODUCED, USED, COPIED,
#MODIFIED, PROPAGATED, OR DISTRIBUTED EXCEPT IN ACCORDANCE WITH THE SUBSCRIPTION
#AGREEMENT. UNAUTHORIZED USE OR DISTRIBUTION OF ALL OR ANY PART OF THIS FILE MAY VIOLATE
#COPYRIGHT, TRADEMARK, AND/OR OTHER LAWS AND IS SUBJECT TO CIVIL AS WELL AS CRIMINAL
#SANCTIONS.
#--------------------------------------------------#
#THIS FILE IS PROVIDED "AS-IS" AND ALL WARRANTIES ARE EXPRESSLY DISCLAIMED, WHETHER
#EXPRESS, ORAL, IMPLIED, STATUTORY OR OTHERWISE, INCLUDING ANY IMPLIED WARRANTY OF FITNESS
#FOR A PARTICULAR PURPOSE, MERCHANTABILITY, TITLE OR NON-INFRINGEMENT, AND ANY WARRANTIES
#ARISING BY VIRTUE OF CUSTOM OF TRADE OR COURSE OF DEALING.  FURTHER, DRILLING INFO,
#INC. AND ITS LICENSORS DO NOT REPRESENT OR WARRANT THAT THIS FILE WILL MEET USER'S
#REQUIREMENTS OR ARE SUITABLE FOR USER'S NEEDS OR THAT THE DATA OR RESULTS PROVIDED IN
#CONJUNCTION THEREWITH ARE CORRECT, ACCURATE, TIMELY OR RELIABLE. THESE DISCLAIMERS SHALL
#APPLY REGARDLESS OF ANY FAILURE OF ESSENTIAL PURPOSE OF ANY LIMITED REMEDY.  SOME
#JURISDICTIONS DO NOT ALLOW THE EXCLUSION OF CERTAIN WARRANTIES SO SOME OF THE ABOVE
#EXCLUSIONS MAY NOT APPLY. IN NO EVENT SHALL DRILLING INFO, INC. OR ANY OF ITS AFFILIATES
#BE LIABLE UNDER ANY LEGAL THEORY, WHETHER IN TORT (INCLUDING WITHOUT LIMITATION
#NEGLIGENCE), CONTRACT, STRICT LIABILITY, STATUTORY OR OTHERWISE, FOR ANY SPECIAL,
#INCIDENTAL, CONSEQUENTIAL, EXEMPLARY, PUNITIVE OR INDIRECT DAMAGE OF ANY KIND, INCLUDING
#WITHOUT LIMITATION LOSS OF REVENUE, PROFITS, GOODWILL, USE, AND/OR DATA OR THE COST OF
#PROCUREMENT OF SUBSTITUTE GOODS OR SERVICES, EVEN IF APPRISED OF THE POSSIBILITY OF SUCH
#DAMAGES IN ADVANCE.
#--------------------------------------------------#
~WELL INFORMATION
#MNEMONIC     .UNIT              VALUE :DESCRIPTION
#--------------------------------------------------#
STRT       .FT                35 :START DEPTH
STOP       .FT                15948 :STOP DEPTH
STEP       .FT                   0.500 :STEP
NULL       .                  -999.250 :NULL
API        .                421093136200 :API NUMBER
COMP       .         ARRINGTON DAVID H. OIL & GAS INC :COMPANY
WELL       .        SCOTT UNIT  1 :WELL
DATE       .                17-Jun-1991 :LOG DATE
~CURVE INFORMATION
#MNEMONIC     .UNIT      API CODE :CURVE DESCRIPTION
#--------------------------------------------------#
DEPTH       .FT                      :Measured Depth
CAL.INCH        UNKNOWN   :CAL
DT.US/FT        UNKNOWN   :DT
GR.API        UNKNOWN   :GR
~A    DEPTH    CAL    DT    GR
# ...
 15828.5     6.546   45.691   40.576
 15829     6.574   45.618   42.407
 15829.5     6.602   45.962   42.069
 15830     6.615   46.59   39.491
 15830.5     6.607   47.26   37.559
 15831     6.6   47.09   36.004
 15831.5     6.592   46.66   34.956
 15832     6.585   46.212   34.681
 15832.5     6.577   45.763   34.407
 15833     6.574   45.525   34.132
 15833.5     6.59   45.38   33.211
 15834     6.605   45.395   32.114
 15834.5     6.62   45.567   31.727
 15835     6.637   45.738   31.684
 15835.5     6.667   45.677   31.64
 15836     6.698   45.594   31.597
 15836.5     6.729   45.548   31.554
 15837     6.76   45.503   31.511
 15837.5     6.791   45.527   31.467
 15838     6.814   45.782   31.338
 15838.5     6.828   45.681   30.188
 15839     6.832   45.453   29.039
 15839.5     6.804   45.446   29.33
 15840     6.776   45.507   32.38
 15840.5     6.772   45.412   35.431
 15841     6.799   45.316   37.181
 15841.5     6.823   45.25   37.446
 15842     6.817   45.268   36.695
 15842.5     6.811   45.359   35.258
 15843     6.805   45.532   33.821
 15843.5     6.799   45.704   32.385
 15844     6.793   45.872   30.948
 15844.5     6.818   46.004   30.908
 15845     6.847   45.976   31.064
 15845.5     6.876   45.949   29.656
 15846     6.888   46.049   27.75
 15846.5     6.89   46.165   26.207
 15847     6.892   46.138   26.65
 15847.5     6.894   46.05   27.093
 15848     6.896   45.962   27.095
 15848.5     6.898   45.976   26.715
 15849     6.9   45.995   26.336
 15849.5     6.902   45.878   28.691
 15850     6.887   45.761   31.272
 15850.5     6.871   45.67   31.372
 15851     6.855   45.742   28.083
 15851.5     6.838   45.815   26.492
 15852     6.822   45.887   27.032
 15852.5     6.806   45.96   28.877
 15853     6.79   46.023   30.723
 15853.5     6.774   46.083   32.467
 15854     6.764   46.142   32.928
 15854.5     6.776   46.069   33.39
 15855     6.788   45.89   33.851
 15855.5     6.8   45.712   34.313
 15856     6.827   45.602   34.774
 15856.5     6.901   45.815   35.236
 15857     6.886   46.001   33.566
 15857.5     6.843   45.89   31.823
 15858     6.801   45.779   30.08
 15858.5     6.797   45.811   30.041
 15859     6.802   45.881   30.605
 15859.5     6.807   45.995   31.169
 15860     6.815   46.155   31.733
 15860.5     6.824   46.274   30.59
 15861     6.834   46.061   28.429
 15861.5     6.843   45.848   26.339
 15862     6.852   45.635   27.276
 15862.5     6.861   45.567   28.213
 15863     6.87   45.634   29.149
 15863.5     6.872   45.781   30.086
 15864     6.872   45.902   28.852
 15864.5     6.872   46.013   27.013
 15865     6.869   46.416   25.175
 15865.5     6.852   47.219   23.615
 15866     6.836   48.112   23.305
 15866.5     6.82   49.006   22.995
 15867     6.803   49.476   22.685
 15867.5     6.787   49.811   22.674
 15868     6.782   49.872   23.029
 15868.5     6.792   49.707   23.385
 15869     6.801   49.301   23.74
 15869.5     6.811   48.808   24.095
 15870     6.82   47.923   24.45
 15870.5     6.83   47.037   27.846
 15871     6.839   46.152   31.803
 15871.5     6.841   45.505   35.51
 15872     6.841   45.842   36.289
 15872.5     6.841   46.005   34.738
 15873     6.841   45.908   33.187
 15873.5     6.841   45.812   31.637
 15874     6.839   45.747   30.086
 15874.5     6.831   45.927   28.535
 15875     6.823   46.108   26.977
 15875.5     6.815   46.048   23.203
 15876     6.807   45.937   19.429
 15876.5     6.8   46.133   18.865
 15877     6.792   46.598   19.038
 15877.5     6.784   46.988   20.175
 15878     6.795   46.92   21.26
 15878.5     6.842   46.852   22.298
 15879     6.888   46.783   23.337
 15879.5     6.874   46.715   25.008
 15880     6.859   46.488   26.996
 15880.5     6.844   46.453   28.662
 15881     6.828   46.648   29.879
 15881.5     6.813   46.718   32.593
 15882     6.811   46.727   35.435
 15882.5     6.811   46.736   37.091
 15883     6.811   46.757   37.092
 15883.5     6.811   46.904   34.76
 15884     6.811   46.879   31.841
 15884.5     6.811   46.808   28.922
 15885     6.814   46.737   26.855
 15885.5     6.819   46.666   25.81
 15886     6.823   46.617   27.628
 15886.5     6.828   46.617   30.59
 15887     6.833   46.617   33.551
 15887.5     6.838   46.575   36.294
 15888     6.841   46.516   36.6
 15888.5     6.825   46.467   36.951
 15889     6.81   46.773   37.356
 15889.5     6.794   47.078   37.761
 15890     6.778   47.117   36.967
 15890.5     6.765   47.055   35.368
 15891     6.783   46.883   33.769
 15891.5     6.801   46.71   32.962
 15892     6.819   46.538   32.962
 15892.5     6.836   46.388   32.963
 15893     6.816   46.278   31.597
 15893.5     6.775   46.168   28.006
 15894     6.764   46.264   24.519
 15894.5     6.764   46.595   24.306
 15895     6.771   46.911   24.093
 15895.5     6.78   46.991   23.88
 15896     6.788   46.982   25.868
 15896.5     6.796   46.915   28.049
 15897     6.805   46.734   30.229
 15897.5     6.813   46.583   32.409
 15898     6.822   46.56   35.777
 15898.5     6.83   46.536   39.735
 15899     6.839   46.513   43.692
 15899.5     6.847   46.49   44.253
 15900     6.856   46.467   43.923
 15900.5     6.864   46.444   44.747
 15901     6.873   46.332   45.57
 15901.5     6.861   46.034   46.394
 15902     6.844   45.736   47.617
 15902.5     6.827   45.61   49.384
 15903     6.81   45.823   50.228
 15903.5     6.773   46.079   50.317
 15904     6.667   46.342   47.144
 15904.5     6.708   46.606   47.37
 15905     6.767   46.493   47.901
 15905.5     6.803   46.36   48.432
 15906     6.816   46.227   47.381
 15906.5     6.823   46.286   45.996
 15907     6.791   46.546   44.612
 15907.5     6.758   46.658   43.932
 15908     6.726   46.814   43.528
 15908.5     6.755   46.966   43.123
 15909     6.805   46.933   44.678
 15909.5     6.828   46.841   46.554
 15910     6.828   46.499   48.431
 15910.5     6.828   46.157   50.333
 15911     6.828   45.93   52.239
 15911.5     6.828   45.875   54.145
 15912     6.828   45.853   53.169
 15912.5     6.823   46.109   51.146
 15913     6.818   46.364   49.123
 15913.5     6.813   46.62   47.101
 15914     6.814   46.951   46.381
 15914.5     6.815   47.081   45.823
 15915     6.816   46.918   45.266
 15915.5     6.817   46.75   44.743
 15916     6.818   46.799   45.198
 15916.5     6.819   47.08   45.653
 15917     6.82   47.442   46.109
 15917.5     6.821   47.803   46.564
 15918     6.823   48.197   44.943
 15918.5     6.824   48.486   45.352
 15919     6.825   48.508   47.181
 15919.5     6.826   48.601   49.01
 15920     6.827   48.667   49.399
 15920.5     6.828   48.395   49.443
 15921     6.809   48.123   49.487
 15921.5     6.778   47.851   49.433
 15922     6.747   47.727   48.102
 15922.5     6.722   -999.250   46.771
 15923     6.754   -999.250   45.383
 15923.5     6.787   -999.250   43.782
 15924     6.82   -999.250   45.272
 15924.5     6.853   -999.250   46.845
 15925     6.877   -999.250   48.419
 15925.5     6.897   -999.250   49.992
 15926     6.918   -999.250   46.839
 15926.5     6.938   -999.250   -999.250
 15927     6.951   -999.250   -999.250
 15927.5     6.931   -999.250   -999.250
 15928     6.911   -999.250   -999.250
 15928.5     6.892   -999.250   -999.250
 15929     6.872   -999.250   -999.250
 15929.5     6.853   -999.250   -999.250
 15930     6.833   -999.250   -999.250
 15930.5     6.814   -999.250   -999.250
 15931     6.794   -999.250   -999.250
 15931.5     6.775   -999.250   -999.250
 15932     6.755   -999.250   -999.250
 15932.5     6.735   -999.250   -999.250
 15933     6.631   -999.250   -999.250
 15933.5     6.524   -999.250   -999.250
 15934     6.418   -999.250   -999.250
 15934.5     6.411   -999.250   -999.250
 15935     6.419   -999.250   -999.250
 15935.5     6.421   -999.250   -999.250
 15936     6.421   -999.250   -999.250
 15936.5     6.421   -999.250   -999.250
 15937     6.421   -999.250   -999.250
 15937.5     6.422   -999.250   -999.250
 15938     6.422   -999.250   -999.250
 15938.5     6.422   -999.250   -999.250
