###############################################
##         ENVERUS                           ##
##         ESS - Open Hole                   ##
##         PERMIAN / DELAWARE                ##
##         Nov 02 2023  V4.0                 ##
##         42-109-32297-90-00                ##
###############################################
## Copyright 2017-2023  ENVERUS.  All Rights Reserved. 
## Confidential - Property of ENVERUS, use governed by terms and 
## conditions found within the existing Information Services Subscription Agreement 
## (as may be amended, the “ISSA”) between Customer and ENVERUS. 
## 
~VERSION INFORMATION
# MNEM.UNIT                               DATA : DESCRIPTION OF MNEMONIC
#-----.-----     ----------------------------- : -----------------------------
VERS.                                     2.00 : CWLS LOG ASCII STANDARD - VERSION 2.00
WRAP.                                       NO : MULTIPLE LINES PER DEPTH STEP
VEND.                                  ENVERUS : VENDOR
TYPE.                          ESS - OPEN HOLE : ENVERUS ESSENTIAL CURVES – ACCESSIBLE THROUGH ENVERUS PRISM(TM)
DOC.                                  52921007 : ENVERUS HEADER RAW DOCUMENT ID
#___________________________________________________________________________________________________ 
~WELL INFORMATION 
# EM3SY5Bwx6x9YoJmjxbMXtwK21/gMzSEmeWIZ71LA4UD3Y8PQw/mHJ0IHc4n7dRi3zAL189RIdETacnakexX1Q== 
# MNEM.UNIT                                              DATA : DESCRIPTION OF MNEMONIC 
#-----.-----                    ----------------------------- : ----------------------------- 
CNTY.                                               CULBERSON : COUNTY 
STATE.                                                  TEXAS : STATE 
CNTRY.                                                    USA : COUNTRY 
API.                                             42-109-32297 : API (10 Digit) 
API_14.                                    42-109-32297-90-00 : API (14 Digits) 
API_14_std.                                 42-109-32297-9000 : API (14 Digits Standard) 
UWI.                                           42109322979000 : UNIQUE WELL ID 
WELL.                          MELISSA TAYLOR STATE 105-3  1H : WELL NAME
STRT.FT                                                 200.0 : START DEPTH
STOP.FT                                               10260.0 : STOP DEPTH
STEP.FT                                                   0.5 : STEP BETWEEN DEPTHS
NULL.                                                 -999.25 : NULL VALUE
PREV_API.                                        421093229700 : API NUMBER 
COMP.                              CHESAPEAKE OPERATING  INC. : COMPANY 
DATE.                                             17-JUN-2008 : LOG DATE
#___________________________________________________________________________________________________ 
~CURVE INFORMATION 
# MNEM.UNIT           : CURVE DESCRIPTION 
#-----.-----          : ----------------------------- 
 DEPT.FT               : MEASURED DEPTH 
 CALI.IN               : CALIPER (CAL - CAL) 
 GR.API                : GAMMA RAY (GR) 
 DT.US/FT              : SONIC DELTA TRANSIT TIME (DT) 
 RESS.OHMM             : SHALLOW INDUCTION RESISTIVITY (ILS - ILS) 
 RESD.OHMM             : DEEP INDUCTION RESISTIVITY (ILD - ILD) 
 DPHI.V/V              : DENSITY POROSITY (DPHI) 
 NPHI.V/V              : NEUTRON POROSITY (NPHI) 
 RHOB.G/CC             : BULK DENSITY (RHOB) 
 #___________________________________________________________________________________________________ 
~A         DEPT           CALI             GR             DT           RESS           RESD           DPHI           NPHI           RHOB
# ...
         1881.5         14.591         53.355         70.192         80.209         94.659        0.12204        0.11116         2.4980
         1882.0         14.618         52.837         70.394         76.603         89.803        0.12769        0.10423         2.4860
         1882.5         14.646         52.319         70.597         76.873         84.948        0.13421        0.10572         2.4750
         1883.0         14.673         51.802         70.800         77.142         84.968        0.13941        0.10720         2.4750
         1883.5         14.689         51.452         70.966         77.411         86.834        0.13754        0.10869         2.4830
         1884.0         14.683         51.452         70.698         77.681         85.404        0.13446        0.10701         2.4890
         1884.5         14.677         51.255         70.430         77.950         83.336        0.13001        0.10458         2.4800
         1885.0         14.671         49.916         70.161         78.220         82.815        0.13526        0.10216         2.4710
         1885.5         14.665         48.578         69.893         78.489         82.295        0.14026        0.10079         2.4610
         1886.0         14.658         47.477         69.625         78.758         84.999        0.14482        0.10168         2.4650
         1886.5         14.649         47.376         69.454         79.028         90.707        0.14650        0.10258         2.4710
         1887.0         14.639         47.281         69.305         81.516         96.693        0.14048        0.10347         2.4770
         1887.5         14.630         47.622         69.157         84.208        100.239        0.13682        0.10436         2.4840
         1888.0         14.621         47.962         69.018         84.461         98.583        0.13354        0.10526         2.4810
         1888.5         14.611         48.303         68.980         82.902         96.926        0.13228        0.10615         2.4770
         1889.0         14.602         48.643         68.941         81.343        104.091        0.13456        0.10502         2.4740
         1889.5         14.592         48.772         68.903         87.479        113.364        0.13748        0.10065         2.4750
         1890.0         14.583         48.688         68.864         95.080        122.027        0.13751        0.09629         2.4800
         1890.5         14.573         48.605         68.746        102.681        131.402        0.13351        0.09192         2.4810
         1891.0         14.566         47.469         68.429        110.639        146.061        0.12951        0.09304         2.4800
         1891.5         14.559         46.159         68.112        120.992        160.720        0.13165        0.09493         2.4780
         1892.0         14.552         45.138         67.795        131.345        175.379        0.13503        0.09681         2.4770
         1892.5         14.545         45.007         67.993        141.698        186.138        0.13527        0.09869         2.4990
         1893.0         14.538         47.465         68.194        152.051        195.203        0.12497        0.10204         2.5240
         1893.5         14.531         55.543         68.395        151.455        204.950        0.11164        0.10556         2.5490
         1894.0         14.517         65.101         68.596        148.710        215.996        0.09959        0.10907         2.5660
         1894.5         14.459         73.038         68.797        142.697        227.041        0.08754        0.11226         2.5580
         1895.0         14.402         79.598         68.998        133.306        198.394        0.08298        0.11461         2.5490
         1895.5         14.345         76.115         69.382        123.915        169.465        0.08892        0.11697         2.5410
         1896.0         14.291         68.663         69.787        114.655        145.167        0.09846        0.11932         2.5370
         1896.5         14.240         61.891         70.193        105.558        113.516        0.10182        0.12168         2.5320
         1897.0         14.189         57.978         70.602         94.854         83.739        0.11164        0.12503         2.4710
         1897.5         14.138         54.065         71.322         84.149         76.171        0.12646        0.12961         2.4590
         1898.0         14.078         50.152         72.041         73.444         68.604        0.14127        0.13291         2.4510
         1898.5         14.001         48.764         72.761         63.373         63.061        0.14828        0.13417         2.4530
         1899.0         13.923         49.145         73.481         58.926         59.447        0.14977        0.13542         2.4600
         1899.5         13.845         51.567         73.129         54.479         57.136        0.14862        0.13667         2.4760
         1900.0         13.827         57.872         72.030         57.292         74.532        0.13603        0.12833         2.4980
         1900.5         13.837         68.406         69.797         76.881        121.479        0.10511        0.11670         2.5580
         1901.0         13.847         80.335         67.563        108.018        165.636        0.08622        0.10507         2.5960
         1901.5         13.857         88.104         66.393        139.155        195.679        0.07134        0.09344         2.6020
         1902.0         13.867         92.455         65.857        157.444        225.722        0.06488        0.09259         2.5980
         1902.5         13.876         94.247         65.534        169.059        234.023        0.05841        0.09403         2.5950
         1903.0         13.877         92.466         65.210        180.673        237.341        0.06291        0.09547         2.5910
         1903.5         13.873         87.921         64.886        188.384        240.659        0.06675        0.09174         2.5920
         1904.0         13.869         83.376         64.562        194.639        243.977        0.06776        0.08731         2.5990
         1904.5         13.864         81.336         64.691        200.894        244.693        0.06477        0.08528         2.6060
         1905.0         13.860         80.670         64.860        207.149        224.262        0.05978        0.08485         2.6120
         1905.5         13.856         79.887         65.029        195.593        199.923        0.05692        0.08646         2.5990
         1906.0         13.851         75.226         65.198        166.627        206.898        0.06468        0.09200         2.5850
         1906.5         13.853         73.273         65.684        204.210        242.335        0.07412        0.09485         2.5720
         1907.0         13.857         74.888         66.415        206.283        237.528        0.08357        0.09090         2.5910
         1907.5         13.860         82.656         67.147        208.357        232.722        0.07859        0.08695         2.5950
         1908.0         13.864         90.424         67.556        191.487        212.071        0.07085        0.09087         2.5890
         1908.5         13.869         97.501         67.696        168.268        184.519        0.06444        0.10332         2.5780
         1909.0         13.873         92.818         67.837        145.049        156.967        0.07063        0.11174         2.5580
         1909.5         13.878         83.636         67.977        121.830        133.829        0.07672        0.10994         2.5370
         1910.0         13.883         75.420         68.118        104.852        114.371        0.08280        0.10813         2.5230
         1910.5         13.887         68.471         68.201        105.667        107.476        0.09512        0.10633         2.5130
