###############################################
##         ENVERUS                           ##
##         ESS - Open Hole                   ##
##         PERMIAN / DELAWARE                ##
##         Nov 04 2023  V4.0                 ##
##         42-389-30424-00-00                ##
###############################################
## Copyright 2017-2023  ENVERUS.  All Rights Reserved. 
## Confidential - Property of ENVERUS, use governed by terms and 
## conditions found within the existing Information Services Subscription Agreement 
## (as may be amended, the “ISSA”) between Customer and ENVERUS. 
## 
~VERSION INFORMATION
# MNEM.UNIT                               DATA : DESCRIPTION OF MNEMONIC
#-----.-----     ----------------------------- : -----------------------------
VERS.                                     2.00 : CWLS LOG ASCII STANDARD - VERSION 2.00
WRAP.                                       NO : MULTIPLE LINES PER DEPTH STEP
VEND.                                  ENVERUS : VENDOR
TYPE.                          ESS - OPEN HOLE : ENVERUS ESSENTIAL CURVES – ACCESSIBLE THROUGH ENVERUS PRISM(TM)
DOC.                                  32008121 : ENVERUS HEADER RAW DOCUMENT ID
#___________________________________________________________________________________________________ 
~WELL INFORMATION 
# BBd8zmUYmd+wUdICSlYDIOWaOe8iOeA0ELK9EhSbx74Kr6OX4zJxS/eo6cO6KK5SWMTSkVzaKbU2EBBfROvOKA== 
# MNEM.UNIT                                              DATA : DESCRIPTION OF MNEMONIC 
#-----.-----                    ----------------------------- : ----------------------------- 
CNTY.                                                  REEVES : COUNTY 
STATE.                                                  TEXAS : STATE 
CNTRY.                                                    USA : COUNTRY 
API.                                             42-389-30424 : API (10 Digit) 
API_14.                                    42-389-30424-00-00 : API (14 Digits) 
API_14_std.                                 42-389-30424-0000 : API (14 Digits Standard) 
UWI.                                           42389304240000 : UNIQUE WELL ID 
WELL.                                      LEWELLING STATE  1 : WELL NAME
STRT.FT                                                   7.0 : START DEPTH
STOP.FT                                               15912.0 : STOP DEPTH
STEP.FT                                                   0.5 : STEP BETWEEN DEPTHS
NULL.                                                 -999.25 : NULL VALUE
COMP.                           PENN VIRGINIA OIL & GAS CORP. : COMPANY 
DATE.                                             14-AUG-1976 : LOG DATE
#___________________________________________________________________________________________________ 
~CURVE INFORMATION 
# MNEM.UNIT           : CURVE DESCRIPTION 
#-----.-----          : ----------------------------- 
 DEPT.FT               : MEASURED DEPTH 
 CALI__A.IN            : CALIPER (CAL - CAL) 
 GR__A.API             : GAMMA RAY (GR) 
 DT__A.US/FT           : SONIC DELTA TRANSIT TIME (DT) 
 DPHI__A.V/V           : DENSITY POROSITY (DPHI) 
 NPHI__A.V/V           : NEUTRON POROSITY (NPHI) 
 #___________________________________________________________________________________________________ 
~A         DEPT        CALI__A          GR__A          DT__A        DPHI__A        NPHI__A
# ...
         7971.0         13.012         86.128         69.378     -999.25000     -999.25000
         7971.5         13.004         87.211         69.339     -999.25000     -999.25000
         7972.0         12.995         88.293         71.053     -999.25000     -999.25000
         7972.5         12.986         85.776         73.234     -999.25000     -999.25000
         7973.0         12.978         83.189         75.165     -999.25000     -999.25000
         7973.5         12.969         80.601         72.583     -999.25000     -999.25000
         7974.0         12.961         78.014         69.613     -999.25000     -999.25000
         7974.5         12.952         75.610         66.644     -999.25000     -999.25000
         7975.0         12.943         75.431         67.187     -999.25000     -999.25000
         7975.5         12.935         86.541         67.769     -999.25000     -999.25000
         7976.0         12.926         86.015         69.897     -999.25000     -999.25000
         7976.5         12.918         85.394         73.331     -999.25000     -999.25000
         7977.0         12.909         84.772         74.420     -999.25000     -999.25000
         7977.5         12.900         84.150         74.815     -999.25000     -999.25000
         7978.0         12.892         83.528         74.928     -999.25000     -999.25000
         7978.5         12.883         82.797         75.040     -999.25000     -999.25000
         7979.0         12.875         81.407         74.751     -999.25000     -999.25000
         7979.5         12.866         80.016         73.903     -999.25000     -999.25000
         7980.0         12.857         78.626         73.056     -999.25000     -999.25000
         7980.5         12.853         77.235         72.208     -999.25000     -999.25000
         7981.0         12.857         76.225         71.524     -999.25000     -999.25000
         7981.5         12.861         76.459         71.952     -999.25000     -999.25000
         7982.0         12.865         76.693         72.481     -999.25000     -999.25000
         7982.5         12.868         76.919         74.616     -999.25000     -999.25000
         7983.0         12.872         76.827         75.018     -999.25000     -999.25000
         7983.5         12.876         76.735         74.428     -999.25000     -999.25000
         7984.0         12.880         76.644         73.913     -999.25000     -999.25000
         7984.5         12.884         76.552         74.186     -999.25000     -999.25000
         7985.0         12.887         76.461         73.818     -999.25000     -999.25000
         7985.5         12.891         72.166         73.245     -999.25000     -999.25000
         7986.0         12.895         67.539         73.699     -999.25000     -999.25000
         7986.5         12.899         63.232         73.654     -999.25000     -999.25000
         7987.0         12.902         59.720         72.496     -999.25000     -999.25000
         7987.5         12.906         56.207         71.478     -999.25000     -999.25000
         7988.0         12.910         56.756         70.743     -999.25000     -999.25000
         7988.5         12.914         59.816         69.205     -999.25000     -999.25000
         7989.0         12.917         63.468         69.782     -999.25000     -999.25000
         7989.5         12.921         67.120         70.893     -999.25000     -999.25000
         7990.0         12.925         70.255         72.004     -999.25000     -999.25000
         7990.5         12.929         69.036         73.115     -999.25000     -999.25000
         7991.0         12.932         67.817         73.864     -999.25000     -999.25000
         7991.5         12.936         66.598         73.822     -999.25000     -999.25000
         7992.0         12.940         65.399         73.771     -999.25000     -999.25000
         7992.5         12.908         64.208         73.978     -999.25000     -999.25000
         7993.0         12.863         63.017         74.185     -999.25000     -999.25000
         7993.5         12.817         61.827         73.493     -999.25000     -999.25000
         7994.0         12.772         60.636         72.524     -999.25000     -999.25000
         7994.5         12.727         63.099         71.554     -999.25000     -999.25000
         7995.0         12.682         67.073         70.585     -999.25000     -999.25000
         7995.5         12.661         71.149         70.091     -999.25000     -999.25000
         7996.0         12.661         75.224         70.882     -999.25000     -999.25000
         7996.5         12.661         78.541         73.210     -999.25000     -999.25000
         7997.0         12.662         70.917         75.018     -999.25000     -999.25000
         7997.5         12.662         60.239         74.004     -999.25000     -999.25000
         7998.0         12.663         49.562         71.608     -999.25000     -999.25000
         7998.5         12.663         41.930         67.099     -999.25000     -999.25000
         7999.0         12.663         34.739         63.474     -999.25000     -999.25000
         7999.5         12.664         27.548         60.844     -999.25000     -999.25000
         8000.0         12.664         20.358         58.238     -999.25000     -999.25000
         8000.5         12.664         17.758         56.448     -999.25000     -999.25000
         8001.0         12.675         16.867         54.712     -999.25000     -999.25000
         8001.5         12.710         15.934         54.504     -999.25000     -999.25000
         8002.0         12.745         14.890         54.838     -999.25000     -999.25000
         8002.5         12.780         13.847         55.244     -999.25000     -999.25000
         8003.0         12.815         12.803         55.651     -999.25000     -999.25000
         8003.5         12.850         12.852         56.058     -999.25000     -999.25000
         8004.0         12.885         15.350         56.464     -999.25000     -999.25000
         8004.5         12.907         17.847         56.439     -999.25000     -999.25000
         8005.0         12.898         22.907         56.292     -999.25000     -999.25000
         8005.5         12.890         29.275         56.144     -999.25000     -999.25000
         8006.0         12.882         35.625         57.833     -999.25000     -999.25000
         8006.5         12.873         41.905         61.196     -999.25000     -999.25000
         8007.0         12.858         48.186         65.208     -999.25000     -999.25000
         8007.5         12.840         54.466         69.267     -999.25000     -999.25000
         8008.0         12.821         59.420         73.724     -999.25000     -999.25000
         8008.5         12.802         59.941         75.065     -999.25000     -999.25000
         8009.0         12.780         60.462         75.251     -999.25000     -999.25000
         8009.5         12.752         60.984         73.615     -999.25000     -999.25000
         8010.0         12.724         60.752         71.022     -999.25000     -999.25000
         8010.5         12.696         59.605         67.947     -999.25000     -999.25000
         8011.0         12.670         58.757         67.883     -999.25000     -999.25000
         8011.5         12.654         58.007         67.819     -999.25000     -999.25000
         8012.0         12.638         56.398         68.333     -999.25000     -999.25000
         8012.5         12.623         53.882         70.453     -999.25000     -999.25000
         8013.0         12.607         51.367         68.723     -999.25000     -999.25000
         8013.5         12.593         49.232         66.994     -999.25000     -999.25000
         8014.0         12.598         50.882         65.264     -999.25000     -999.25000
         8014.5         12.602         52.505         64.070     -999.25000     -999.25000
