###############################################
##         ENVERUS                           ##
##         ESS - Open Hole                   ##
##         PERMIAN / DELAWARE                ##
##         Nov 04 2023  V4.0                 ##
##         42-389-32353-00-00                ##
###############################################
## Copyright 2017-2023  ENVERUS.  All Rights Reserved. 
## Confidential - Property of ENVERUS, use governed by terms and 
## conditions found within the existing Information Services Subscription Agreement 
## (as may be amended, the “ISSA”) between Customer and ENVERUS. 
## 
~VERSION INFORMATION
# MNEM.UNIT                               DATA : DESCRIPTION OF MNEMONIC
#-----.-----     ----------------------------- : -----------------------------
VERS.                                     2.00 : CWLS LOG ASCII STANDARD - VERSION 2.00
WRAP.                                       NO : MULTIPLE LINES PER DEPTH STEP
VEND.                                  ENVERUS : VENDOR
TYPE.                          ESS - OPEN HOLE : ENVERUS ESSENTIAL CURVES – ACCESSIBLE THROUGH ENVERUS PRISM(TM)
DOC.                                  31816014 : ENVERUS HEADER RAW DOCUMENT ID
#___________________________________________________________________________________________________ 
~WELL INFORMATION 
# N6wmpYeOPIEODBGNmaSz+o1WStwpnSM+Mr70h4S2k9wmNhpeTZrfoFyYX6I24xyp8IiB7B51j2C/wpla6NseZQ== 
# MNEM.UNIT                                              DATA : DESCRIPTION OF MNEMONIC 
#-----.-----                    ----------------------------- : ----------------------------- 
CNTY.                                                  REEVES : COUNTY 
STATE.                                                  TEXAS : STATE 
CNTRY.                                                    USA : COUNTRY 
API.                                             42-389-32353 : API (10 Digit) 
API_14.                                    42-389-32353-00-00 : API (14 Digits) 
API_14_std.                                 42-389-32353-0000 : API (14 Digits Standard) 
UWI.                                           42389323530000 : UNIQUE WELL ID 
WELL.                                             DORNFIELD 1 : WELL NAME
STRT.FT                                                 210.0 : START DEPTH
STOP.FT                                               13522.0 : STOP DEPTH
STEP.FT                                                   0.5 : STEP BETWEEN DEPTHS
NULL.                                                 -999.25 : NULL VALUE
LOC.                                                      UNK : LOCATION 
SRVC.                                                     UNK : SERVICE COMPANY
#___________________________________________________________________________________________________ 
~CURVE INFORMATION 
# MNEM.UNIT           : CURVE DESCRIPTION 
#-----.-----          : ----------------------------- 
 DEPT.FT               : MEASURED DEPTH 
 CALI.IN               : CALIPER (CAL - CAL) 
 GR.API                : GAMMA RAY (GR) 
 DT.US/FT              : SONIC DELTA TRANSIT TIME (DT) 
 RESS.OHMM             : SHALLOW INDUCTION RESISTIVITY (ILS - ILS) 
 RESD.OHMM             : DEEP INDUCTION RESISTIVITY (ILD - ILD) 
 DPHI.V/V              : DENSITY POROSITY (DPHI) 
 NPHI.V/V              : NEUTRON POROSITY (NPHI) 
 RHOB.G/CC             : BULK DENSITY (RHOB) 
 #___________________________________________________________________________________________________ 
~A         DEPT           CALI             GR             DT           RESS           RESD           DPHI           NPHI           RHOB
# ...
         9620.5          9.819         47.567         60.251        505.740        839.247       -0.00685        0.07341         2.6637
         9621.0          9.824         58.869         62.006        331.238        526.415        0.00520        0.09933         2.6517
         9621.5          9.829         76.132         64.299        154.247        214.621        0.02244        0.12526         2.6398
         9622.0          9.834         85.767         68.856         31.809         37.245        0.02325        0.15118         2.6278
         9622.5          9.839         89.564         71.443         33.589         36.274        0.02043        0.17710         2.6195
         9623.0          9.844         84.194         73.318         55.866         61.903        0.01760        0.17808         2.6195
         9623.5          9.849         78.823         73.709         78.144         75.015        0.01768        0.17424         2.6195
         9624.0          9.854         75.137         73.734         66.434         80.433        0.02055        0.16034         2.6195
         9624.5          9.859         81.708         73.759         54.316         63.959        0.01904        0.15769         2.6195
         9625.0          9.864         91.054         74.769         42.198         43.351        0.01840        0.17828         2.6195
         9625.5          9.867        100.685         76.325         48.424         44.614        0.03007        0.19888         2.6059
         9626.0          9.867        102.505         77.707         60.374         57.168        0.04648        0.21948         2.5874
         9626.5          9.903         97.670         78.220         65.036         69.721        0.06356        0.23579         2.5688
         9627.0          9.884         92.835         78.733         51.477         54.448        0.06296        0.23647         2.5502
         9627.5          9.864         89.685         77.812         39.483         38.494        0.05343        0.23715         2.5499
         9628.0          9.844         88.611         76.827         41.020         39.983        0.05454        0.23624         2.5499
         9628.5          9.823         87.557         75.842         42.558         41.473        0.06071        0.22699         2.5504
         9629.0          9.803         87.762         74.905         41.740         42.963        0.06303        0.21773         2.5514
         9629.5          9.783         87.967         74.149         39.635         40.959        0.04749        0.20848         2.5826
         9630.0          9.762         88.173         72.798         37.530         38.677        0.02836        0.19923         2.6002
         9630.5          9.749         85.644         71.211         54.178         36.396        0.02002        0.18933         2.6178
         9631.0          9.736         78.360         69.627        136.373        167.053        0.01834        0.17738         2.6258
         9631.5          9.724         71.077         68.299        239.660        300.364        0.01665        0.16509         2.6258
         9632.0          9.711         71.382         68.172        190.378        433.675        0.01659        0.15133         2.6192
         9632.5          9.698         81.132         68.738        141.096        340.447        0.02757        0.13790         2.5989
         9633.0          9.695         90.883         70.536         91.814         58.965        0.04338        0.16498         2.5786
         9633.5          9.714        109.024         72.789         42.532         47.321        0.06273        0.20224         2.5584
         9634.0          9.734        104.205         75.254         34.632         35.678        0.07678        0.23313         2.5381
         9634.5          9.753         99.385         77.863         34.298         35.372        0.06521        0.24509         2.5445
         9635.0          9.773         94.566         78.056         47.241         43.514        0.05507        0.22796         2.5627
         9635.5          9.792         96.417         77.753         50.847         52.439        0.04493        0.22597         2.5809
         9636.0          9.811        102.196         77.576         41.329         42.545        0.03479        0.22679         2.5991
         9636.5          9.831        107.975         77.277         28.262         32.033        0.02411        0.22761         2.6173
         9637.0          9.818        107.681         77.057         29.301         29.446        0.01275        0.22261         2.6355
         9637.5          9.803        102.743         76.838         32.040         34.904        0.00617        0.19071         2.6402
         9638.0          9.788         80.267         73.052         50.792         40.361        0.01009        0.15882         2.6334
         9638.5          9.773         56.335         69.134         61.398         54.445        0.01401        0.12423         2.6298
         9639.0          9.758         40.371         65.703        237.774        190.732        0.01665        0.08104         2.6235
         9639.5          9.743         28.192         62.272        300.964        379.732       -0.00895        0.06846         2.6214
         9640.0          9.728         26.530         58.841        322.329        516.378       -0.04208        0.06757         2.7301
         9640.5          9.713         30.836         55.915        297.105        447.873       -0.06205        0.06999         2.7318
         9641.0          9.698         41.559         55.768         74.080        240.996       -0.05307        0.07241         2.7018
         9641.5          9.690         52.282         56.977         33.530         61.740       -0.03053        0.07483         2.6717
         9642.0          9.725         63.039         60.976         27.399         47.036       -0.00134        0.09691         2.6417
         9642.5          9.761         79.576         65.130         27.955         46.604        0.02362        0.12867         2.6117
         9643.0          9.805         85.900         68.268         29.064         49.815        0.03216        0.15342         2.6082
         9643.5          9.819         87.669         69.624         30.797         53.025        0.02939        0.16662         2.6157
         9644.0          9.832         84.433         70.979         32.531         56.235        0.01187        0.16213         2.6232
         9644.5          9.845         81.196         70.482         34.264         58.672        0.01283        0.15764         2.6307
         9645.0          9.859         80.849         69.684         35.997         58.770        0.01180        0.15319         2.6310
         9645.5          9.872         80.405         68.886         36.419         59.693        0.01637        0.15090         2.6269
         9646.0          9.885         79.746         68.311         35.788         63.177        0.01037        0.14862         2.6338
         9646.5          9.899         78.608         68.007         35.833         67.559        0.00437        0.14605         2.6454
         9647.0          9.907         74.623         67.684         36.341         71.941        0.00148        0.14276         2.6427
         9647.5          9.912         74.288         67.361         36.488         72.289        0.00578        0.13946         2.6400
         9648.0          9.917         74.959         67.038         34.457         64.173        0.01008        0.13922         2.6386
         9648.5          9.922         75.629         66.630         37.348         65.959        0.01017        0.14147         2.6372
         9649.0          9.928         76.300         66.061         52.455         69.649        0.00865        0.14372         2.6359
         9649.5          9.933         72.730         65.491         48.392         74.618        0.00902        0.14561         2.6345
