###############################################
##         ENVERUS                           ##
##         ESS - Open Hole                   ##
##         PERMIAN / DELAWARE                ##
##         Nov 04 2023  V4.0                 ##
##         42-389-32353-00-00                ##
###############################################
## Copyright 2017-2023  ENVERUS.  All Rights Reserved. 
## Confidential - Property of ENVERUS, use governed by terms and 
## conditions found within the existing Information Services Subscription Agreement 
## (as may be amended, the “ISSA”) between Customer and ENVERUS. 
## 
~VERSION INFORMATION
# MNEM.UNIT                               DATA : DESCRIPTION OF MNEMONIC
#-----.-----     ----------------------------- : -----------------------------
VERS.                                     2.00 : CWLS LOG ASCII STANDARD - VERSION 2.00
WRAP.                                       NO : MULTIPLE LINES PER DEPTH STEP
VEND.                                  ENVERUS : VENDOR
TYPE.                          ESS - OPEN HOLE : ENVERUS ESSENTIAL CURVES – ACCESSIBLE THROUGH ENVERUS PRISM(TM)
DOC.                                  31816014 : ENVERUS HEADER RAW DOCUMENT ID
#___________________________________________________________________________________________________ 
~WELL INFORMATION 
# N6wmpYeOPIEODBGNmaSz+o1WStwpnSM+Mr70h4S2k9wmNhpeTZrfoFyYX6I24xyp8IiB7B51j2C/wpla6NseZQ== 
# MNEM.UNIT                                              DATA : DESCRIPTION OF MNEMONIC 
#-----.-----                    ----------------------------- : ----------------------------- 
CNTY.                                                  REEVES : COUNTY 
STATE.                                                  TEXAS : STATE 
CNTRY.                                                    USA : COUNTRY 
API.                                             42-389-32353 : API (10 Digit) 
API_14.                                    42-389-32353-00-00 : API (14 Digits) 
API_14_std.                                 42-389-32353-0000 : API (14 Digits Standard) 
UWI.                                           42389323530000 : UNIQUE WELL ID 
WELL.                                             DORNFIELD 1 : WELL NAME
STRT.FT                                                 210.0 : START DEPTH
STOP.FT                                               13522.0 : STOP DEPTH
STEP.FT                                                   0.5 : STEP BETWEEN DEPTHS
NULL.                                                 -999.25 : NULL VALUE
LOC.                                                      UNK : LOCATION 
SRVC.                                                     UNK : SERVICE COMPANY
#___________________________________________________________________________________________________ 
~CURVE INFORMATION 
# MNEM.UNIT           : CURVE DESCRIPTION 
#-----.-----          : ----------------------------- 
 DEPT.FT               : MEASURED DEPTH 
 CALI.IN               : CALIPER (CAL - CAL) 
 GR.API                : GAMMA RAY (GR) 
 DT.US/FT              : SONIC DELTA TRANSIT TIME (DT) 
 RESS.OHMM             : SHALLOW INDUCTION RESISTIVITY (ILS - ILS) 
 RESD.OHMM             : DEEP INDUCTION RESISTIVITY (ILD - ILD) 
 DPHI.V/V              : DENSITY POROSITY (DPHI) 
 NPHI.V/V              : NEUTRON POROSITY (NPHI) 
 RHOB.G/CC             : BULK DENSITY (RHOB) 
 #___________________________________________________________________________________________________ 
~A         DEPT           CALI             GR             DT           RESS           RESD           DPHI           NPHI           RHOB
# ...
         7054.0          9.512        142.574         78.737         61.350        100.383        0.12391        0.24438         2.4373
         7054.5          9.518        143.022         78.271         60.716         99.533        0.11555        0.24019         2.4507
         7055.0          9.523        143.160         77.808         64.309         98.397        0.10720        0.23599         2.4641
         7055.5          9.529        142.721         77.350         65.546         96.684        0.10146        0.23180         2.4774
         7056.0          9.534        136.810         77.753         61.754         94.741        0.09395        0.22948         2.4908
         7056.5          9.540        127.885         78.308         59.180         92.584        0.10229        0.22872         2.4997
         7057.0          9.545        118.960         78.699         58.878         90.427        0.11062        0.22796         2.4997
         7057.5          9.551        113.847         78.058         58.102         88.271        0.10861        0.20585         2.4929
         7058.0          9.556        115.368         77.418         54.535         83.579        0.10306        0.20013         2.4888
         7058.5          9.562        119.495         77.232         50.968         78.591        0.11211        0.20281         2.4848
         7059.0          9.567        124.132         77.270         47.885         73.603        0.11451        0.21761         2.4807
         7059.5          9.573        131.468         78.098         46.427         69.122        0.10963        0.23354         2.4779
         7060.0          9.578        137.680         79.274         45.014         72.214        0.09655        0.24113         2.4876
         7060.5          9.584        143.891         80.450         47.462         75.306        0.09706        0.24317         2.4974
         7061.0          9.589        148.389         81.462         52.214         80.619        0.08067        0.24522         2.5072
         7061.5          9.595        146.003         81.949         56.426         87.725        0.04690        0.24726         2.5170
         7062.0          9.704        144.200         82.437         52.972         81.930       -0.00902        0.24523         2.5240
         7062.5          9.796        143.013         82.147         49.518         75.453       -0.00330        0.23513         2.5260
         7063.0          9.888        144.007         81.646         46.064         71.134        0.09126        0.22928         2.6480
         7063.5          9.935        150.396         81.496         42.610         62.776        0.13479        0.24092         2.6050
         7064.0          9.876        155.868         81.299         43.571         60.605        0.10940        0.25688         2.5531
         7064.5          9.817        146.662         80.812         46.493         66.801        0.08226        0.26364         2.5013
         7065.0          9.757        132.653         80.147         49.415         66.385        0.05513        0.24402         2.4494
         7065.5          9.706        118.579         79.481         52.338         64.363        0.01710        0.22440         2.5245
         7066.0          9.757        111.319         79.433         55.260         72.798       -0.02429        0.20478         2.6079
         7066.5          9.808        115.251         79.581         56.599         81.233       -0.03736        0.20291         2.7100
         7067.0          9.859        126.633         79.887         56.438         89.723        0.00629        0.21784         2.6629
         7067.5          9.910        138.029         79.906         56.277         83.077        0.04995        0.24816         2.6158
         7068.0          9.945        148.347         79.509         56.116         69.189        0.06893        0.26457         2.5686
         7068.5          9.910        142.636         79.112         55.954         74.591        0.07162        0.25779         2.5436
         7069.0          9.875        136.926         79.285         55.793         79.994        0.07367        0.24549         2.5392
         7069.5          9.840        131.215         79.494         55.632         85.397        0.09276        0.23319         2.5331
         7070.0          9.805        127.899         79.703         55.471         84.251        0.11481        0.22094         2.5237
         7070.5          9.769        128.553         79.912         53.281         81.497        0.10871        0.21769         2.5073
         7071.0          9.734        132.379         80.218         50.120         66.100        0.10664        0.21810         2.4909
         7071.5          9.699        137.734         80.636         48.038         65.126        0.10349        0.22696         2.4789
         7072.0          9.664        144.497         81.419         49.292         70.513        0.09518        0.23582         2.4904
         7072.5          9.629        148.580         81.304         50.547         69.563        0.09459        0.24468         2.5018
         7073.0          9.593        149.394         80.800         51.553         67.589        0.08489        0.25354         2.5133
         7073.5          9.545        143.619         79.107         47.818         65.614        0.07621        0.26240         2.5247
         7074.0          9.497        134.252         77.415         49.186         71.478        0.07864        0.26275         2.5311
         7074.5          9.449        124.396         75.091         51.565         78.043        0.08106        0.25628         2.5277
         7075.0          9.401        114.330         74.081         53.943         84.607        0.07490        0.24493         2.5243
         7075.5          9.353        102.755         73.502         49.385         91.172        0.05345        0.23359         2.5394
         7076.0          9.304         98.277         74.166         40.827         75.719        0.04779        0.20940         2.5580
         7076.5          9.298        115.149         76.806         42.238         58.861        0.06453        0.20152         2.5585
         7077.0          9.389        139.052         79.323         47.625         59.493        0.08126        0.22158         2.5380
         7077.5          9.480        155.806         81.210         51.763         60.720        0.09477        0.24164         2.5174
         7078.0          9.571        160.146         81.348         52.682         62.479        0.09270        0.26170         2.5045
         7078.5          9.661        159.513         81.348         55.908         72.678        0.09497        0.27431         2.5038
         7079.0          9.752        157.194         79.720         64.564         84.458        0.10288        0.27431         2.5031
         7079.5          9.840        152.967         78.009         73.221         96.237        0.11650        0.26185         2.4828
         7080.0          9.806        144.478         74.601         81.877        111.080        0.12271        0.22807         2.4622
         7080.5          9.772        135.902         69.422         92.269        130.924        0.11072        0.19429         2.4728
         7081.0          9.738        106.213         64.243        104.140        150.768        0.08450        0.16051         2.5022
         7081.5          9.704         76.241         60.284        116.011        175.911        0.05828        0.12176         2.5317
         7082.0          9.725         47.388         57.364        125.872        204.484        0.03597        0.09046         2.5612
         7082.5          9.759         35.861         54.978        136.536        233.056        0.02651        0.06864         2.5906
         7083.0          9.793         28.178         53.706        162.784        266.994        0.00864        0.06021         2.6201
