###############################################
##         ENVERUS                           ##
##         ESS - Open Hole                   ##
##         PERMIAN / DELAWARE                ##
##         Nov 04 2023  V4.0                 ##
##         42-389-30283-00-00                ##
###############################################
## Copyright 2017-2023  ENVERUS.  All Rights Reserved. 
## Confidential - Property of ENVERUS, use governed by terms and 
## conditions found within the existing Information Services Subscription Agreement 
## (as may be amended, the “ISSA”) between Customer and ENVERUS. 
## 
~VERSION INFORMATION
# MNEM.UNIT                               DATA : DESCRIPTION OF MNEMONIC
#-----.-----     ----------------------------- : -----------------------------
VERS.                                     2.00 : CWLS LOG ASCII STANDARD - VERSION 2.00
WRAP.                                       NO : MULTIPLE LINES PER DEPTH STEP
VEND.                                  ENVERUS : VENDOR
TYPE.                          ESS - OPEN HOLE : ENVERUS ESSENTIAL CURVES – ACCESSIBLE THROUGH ENVERUS PRISM(TM)
DOC.                                  32052778 : ENVERUS HEADER RAW DOCUMENT ID
#___________________________________________________________________________________________________ 
~WELL INFORMATION 
# CKTmoz7OsKELnwE/IP0i4B9qEmEewtam1JWnvb6ghWZsYWfxLv+2EOc67unJ6Yof0W+RqImtxqI23GomxkzDLA== 
# MNEM.UNIT                                              DATA : DESCRIPTION OF MNEMONIC 
#-----.-----                    ----------------------------- : ----------------------------- 
CNTY.                                                  REEVES : COUNTY 
STATE.                                                  TEXAS : STATE 
CNTRY.                                                    USA : COUNTRY 
API.                                             42-389-30283 : API (10 Digit) 
API_14.                                    42-389-30283-00-00 : API (14 Digits) 
API_14_std.                                 42-389-30283-0000 : API (14 Digits Standard) 
UWI.                                           42389302830000 : UNIQUE WELL ID 
WELL.                       RANDOLPH  A. T.  ET AL-STATE  1 L : WELL NAME
STRT.FT                                                 155.0 : START DEPTH
STOP.FT                                               15740.0 : STOP DEPTH
STEP.FT                                                   0.5 : STEP BETWEEN DEPTHS
NULL.                                                 -999.25 : NULL VALUE
COMP.                                     RIO PETROLEUM  INC. : COMPANY
#___________________________________________________________________________________________________ 
~CURVE INFORMATION 
# MNEM.UNIT           : CURVE DESCRIPTION 
#-----.-----          : ----------------------------- 
 DEPT.FT               : MEASURED DEPTH 
 CALI__A.IN            : CALIPER (CAL - CAL) 
 GR__A.API             : GAMMA RAY (GR) 
 SP__A.MV              : SPONTANEOUS POTENTIAL (SP) 
 DT__A.US/FT           : SONIC DELTA TRANSIT TIME (DT) 
 RESD__A.OHMM          : DEEP INDUCTION RESISTIVITY (ILD - ILD) 
 NPHI__A.V/V           : NEUTRON POROSITY (NPH - NPH) 
 #___________________________________________________________________________________________________ 
~A         DEPT        CALI__A          GR__A          SP__A          DT__A        RESD__A        NPHI__A
# ...
         7755.0         13.110         65.934       -999.250         63.983       -999.250     -999.25000
         7755.5         13.114         57.030       -999.250         65.034       -999.250     -999.25000
         7756.0         13.118         49.949       -999.250         66.086       -999.250     -999.25000
         7756.5         13.122         50.147       -999.250         65.556       -999.250     -999.25000
         7757.0         13.126         56.292       -999.250         64.941       -999.250     -999.25000
         7757.5         13.130         62.438       -999.250         64.327       -999.250     -999.25000
         7758.0         13.134         68.583       -999.250         64.225       -999.250     -999.25000
         7758.5         13.138         75.547       -999.250         64.567       -999.250     -999.25000
         7759.0         13.142         82.587       -999.250         64.909       -999.250     -999.25000
         7759.5         13.146         89.628       -999.250         65.251       -999.250     -999.25000
         7760.0         13.150         90.704       -999.250         65.257       -999.250     -999.25000
         7760.5         13.154         87.996       -999.250         63.155       -999.250     -999.25000
         7761.0         13.158         80.260       -999.250         61.054       -999.250     -999.25000
         7761.5         13.162         72.524       -999.250         59.400       -999.250     -999.25000
         7762.0         13.165         64.787       -999.250         62.111       -999.250     -999.25000
         7762.5         13.169         62.399       -999.250         63.791       -999.250     -999.25000
         7763.0         13.173         68.576       -999.250         64.304       -999.250     -999.25000
         7763.5         13.177         76.076       -999.250         64.818       -999.250     -999.25000
         7764.0         13.181         82.853       -999.250         65.332       -999.250     -999.25000
         7764.5         13.186         87.324       -999.250         66.262       -999.250     -999.25000
         7765.0         13.211         91.910       -999.250         67.883       -999.250     -999.25000
         7765.5         13.236         97.598       -999.250         69.505       -999.250     -999.25000
         7766.0         13.261        101.090       -999.250         71.126       -999.250     -999.25000
         7766.5         13.286        100.203       -999.250         69.880       -999.250     -999.25000
         7767.0         13.311         98.264       -999.250         68.165       -999.250     -999.25000
         7767.5         13.337         95.516       -999.250         67.248       -999.250     -999.25000
         7768.0         13.360         91.685       -999.250         67.472       -999.250     -999.25000
         7768.5         13.264         91.598       -999.250         67.696       -999.250     -999.25000
         7769.0         13.168         94.415       -999.250         67.311       -999.250     -999.25000
         7769.5         13.072         94.326       -999.250         65.311       -999.250     -999.25000
         7770.0         13.016         92.820       -999.250         63.310       -999.250     -999.25000
         7770.5         13.055         85.027       -999.250         62.290       -999.250     -999.25000
         7771.0         13.095         76.907       -999.250         64.621       -999.250     -999.25000
         7771.5         13.134         70.098       -999.250         66.953       -999.250     -999.25000
         7772.0         13.174         69.486       -999.250         69.284       -999.250     -999.25000
         7772.5         13.213         76.886       -999.250         71.616       -999.250     -999.25000
         7773.0         13.253         82.169       -999.250         73.948       -999.250     -999.25000
         7773.5         13.292         86.215       -999.250         75.676       -999.250     -999.25000
         7774.0         13.283         90.656       -999.250         71.470       -999.250     -999.25000
         7774.5         13.214         84.657       -999.250         67.265       -999.250     -999.25000
         7775.0         13.145         83.416       -999.250         63.059       -999.250     -999.25000
         7775.5         13.077         74.835       -999.250         58.991       -999.250     -999.25000
         7776.0         13.008         66.803       -999.250         55.353       -999.250     -999.25000
         7776.5         13.030         53.477       -999.250         52.741       -999.250     -999.25000
         7777.0         13.062         46.302       -999.250         55.911       -999.250     -999.25000
         7777.5         13.094         44.616       -999.250         59.560       -999.250     -999.25000
         7778.0         13.126         45.058       -999.250         63.208       -999.250     -999.25000
         7778.5         13.159         51.462       -999.250         64.874       -999.250     -999.25000
         7779.0         13.191         62.441       -999.250         64.875       -999.250     -999.25000
         7779.5         13.223         65.122       -999.250         64.868       -999.250     -999.25000
         7780.0         13.255         63.969       -999.250         64.685       -999.250     -999.25000
         7780.5         13.256         64.397       -999.250         64.502       -999.250     -999.25000
         7781.0         13.239         68.690       -999.250         64.784       -999.250     -999.25000
         7781.5         13.223         71.814       -999.250         65.142       -999.250     -999.25000
         7782.0         13.206         72.475       -999.250         65.305       -999.250     -999.25000
         7782.5         13.190         70.092       -999.250         65.093       -999.250     -999.25000
         7783.0         13.173         66.669       -999.250         64.880       -999.250     -999.25000
         7783.5         13.157         62.826       -999.250         64.221       -999.250     -999.25000
         7784.0         13.141         56.939       -999.250         63.173       -999.250     -999.25000
         7784.5         13.118         55.258       -999.250         62.125       -999.250     -999.25000
         7785.0         13.087         53.598       -999.250         61.077       -999.250     -999.25000
         7785.5         13.055         56.850       -999.250         60.029       -999.250     -999.25000
         7786.0         13.024         58.276       -999.250         60.103       -999.250     -999.25000
         7786.5         12.992         58.674       -999.250         62.917       -999.250     -999.25000
         7787.0         12.961         59.072       -999.250         65.694       -999.250     -999.25000
         7787.5         12.929         62.332       -999.250         66.171       -999.250     -999.25000
         7788.0         12.898         71.227       -999.250         66.460       -999.250     -999.25000
         7788.5         12.866         76.778       -999.250         65.442       -999.250     -999.25000
         7789.0         12.835         81.536       -999.250         64.425       -999.250     -999.25000
         7789.5         12.803         85.581       -999.250         63.579       -999.250     -999.25000
         7790.0         12.772         86.525       -999.250         62.739       -999.250     -999.25000
         7790.5         12.740         82.892       -999.250         61.900       -999.250     -999.25000
         7791.0         12.731         77.970       -999.250         62.001       -999.250     -999.25000
         7791.5         12.738         76.200       -999.250         62.241       -999.250     -999.25000
         7792.0         12.745         76.475       -999.250         63.270       -999.250     -999.25000
         7792.5         12.753         77.812       -999.250         65.679       -999.250     -999.25000
