###############################################
##         ENVERUS                           ##
##         ESS - Open Hole                   ##
##         PERMIAN / DELAWARE                ##
##         Nov 04 2023  V4.0                 ##
##         42-389-30422-00-00                ##
###############################################
## Copyright 2017-2023  ENVERUS.  All Rights Reserved. 
## Confidential - Property of ENVERUS, use governed by terms and 
## conditions found within the existing Information Services Subscription Agreement 
## (as may be amended, the “ISSA”) between Customer and ENVERUS. 
## 
~VERSION INFORMATION
# MNEM.UNIT                               DATA : DESCRIPTION OF MNEMONIC
#-----.-----     ----------------------------- : -----------------------------
VERS.                                     2.00 : CWLS LOG ASCII STANDARD - VERSION 2.00
WRAP.                                       NO : MULTIPLE LINES PER DEPTH STEP
VEND.                                  ENVERUS : VENDOR
TYPE.                          ESS - OPEN HOLE : ENVERUS ESSENTIAL CURVES – ACCESSIBLE THROUGH ENVERUS PRISM(TM)
DOC.                                  31749874 : ENVERUS HEADER RAW DOCUMENT ID
#___________________________________________________________________________________________________ 
~WELL INFORMATION 
# u82sU1u0B8de5w9HEAjaYOtqLlVzfD+KUeD2ZoqivGgiUzwSeb1LYInaR9MNeJxDUIxxjb7EPbXz9g+KH10l6Q== 
# MNEM.UNIT                                              DATA : DESCRIPTION OF MNEMONIC 
#-----.-----                    ----------------------------- : ----------------------------- 
CNTY.                                                  REEVES : COUNTY 
STATE.                                                  TEXAS : STATE 
CNTRY.                                                    USA : COUNTRY 
API.                                             42-389-30422 : API (10 Digit) 
API_14.                                    42-389-30422-00-00 : API (14 Digits) 
API_14_std.                                 42-389-30422-0000 : API (14 Digits Standard) 
UWI.                                           42389304220000 : UNIQUE WELL ID 
WELL.                                    BECKHAM  AGNES 26  1 : WELL NAME
STRT.FT                                                  89.0 : START DEPTH
STOP.FT                                               15719.0 : STOP DEPTH
STEP.FT                                                   0.5 : STEP BETWEEN DEPTHS
NULL.                                                 -999.25 : NULL VALUE
COMP.                                     WALSH & WATTS  INC. : COMPANY
#___________________________________________________________________________________________________ 
~CURVE INFORMATION 
# MNEM.UNIT           : CURVE DESCRIPTION 
#-----.-----          : ----------------------------- 
 DEPT.FT               : MEASURED DEPTH 
 CALI.IN               : CALIPER (CAL - CAL) 
 GR.API                : GAMMA RAY (GR) 
 DT.US/FT              : SONIC DELTA TRANSIT TIME (DT) 
 #___________________________________________________________________________________________________ 
~A         DEPT           CALI             GR             DT
# ...
        15533.0          7.907         60.729         71.047
        15533.5          7.907         72.153         72.366
        15534.0          7.907         82.656         73.685
        15534.5          7.907         75.846         75.140
        15535.0          7.907         69.036         77.041
        15535.5          7.907         69.462         78.943
        15536.0          7.907         83.187         79.480
        15536.5          7.907         96.912         79.443
        15537.0          7.907        110.637         79.406
        15537.5          7.907        124.362         79.369
        15538.0          7.907        136.005         79.332
        15538.5          7.907        142.733         79.295
        15539.0          7.907        149.462         79.707
        15539.5          7.907        151.217         80.337
        15540.0          7.907        151.156         80.967
        15540.5          7.907        151.096         81.229
        15541.0          7.907        151.035         80.537
        15541.5          7.907        150.975         79.845
        15542.0          7.907        150.656         79.152
        15542.5          7.907        138.337         78.460
        15543.0          7.907        126.018         77.443
        15543.5          7.907        113.698         76.325
        15544.0          7.907         98.599         75.207
        15544.5          7.907         81.927         74.090
        15545.0          7.907         65.255         72.972
        15545.5          7.907         69.154         71.855
        15546.0          7.907         78.580         70.773
        15546.5          7.907         88.007         72.685
        15547.0          7.907         92.699         73.977
        15547.5          7.907         94.439         74.638
        15548.0          7.907         94.344         75.298
        15548.5          7.907         93.359         75.958
        15549.0          7.907         92.374         76.618
        15549.5          7.907         89.257         76.043
        15550.0          7.907         85.725         75.446
        15550.5          7.907         82.192         74.849
        15551.0          7.907         78.659         74.252
        15551.5          7.907         75.127         73.979
        15552.0          7.907         75.828         74.012
        15552.5          7.907         77.847         74.045
        15553.0          7.907         80.864         74.077
        15553.5          7.907         85.951         74.110
        15554.0          7.907         91.038         74.069
        15554.5          7.907         96.124         74.000
        15555.0          7.907         94.781         73.930
        15555.5          7.907         91.955         73.861
        15556.0          7.907         89.128         73.792
        15556.5          7.907         86.415         73.937
        15557.0          7.907         84.806         74.633
        15557.5          7.907         83.197         75.329
        15558.0          7.907         81.588         76.025
        15558.5          7.907         79.979         76.721
        15559.0          7.908         82.092         76.459
        15559.5          7.910         84.816         75.927
        15560.0          7.912         87.541         75.394
        15560.5          7.913         86.717         74.862
        15561.0          7.915         85.591         74.534
        15561.5          7.917         84.466         74.599
        15562.0          7.919         85.386         74.664
        15562.5          7.921         87.596         74.728
        15563.0          7.923         89.806         74.793
        15563.5          7.925         95.267         74.883
        15564.0          7.926        102.186         74.993
        15564.5          7.928        109.106         75.102
        15565.0          7.930        116.026         75.211
        15565.5          7.932        122.946         75.321
        15566.0          7.934        126.727         75.430
        15566.5          7.936        128.525         75.540
        15567.0          7.938        130.323         75.649
        15567.5          7.939        132.122         75.549
        15568.0          7.929        133.920         75.409
        15568.5          7.917        135.718         75.269
        15569.0          7.904        135.930         75.129
        15569.5          7.892        135.746         74.989
        15570.0          7.879        135.563         74.368
        15570.5          7.867        135.380         73.729
        15571.0          7.854        135.196         73.090
        15571.5          7.842        135.718         72.451
        15572.0          7.829        136.781         71.812
        15572.5          7.817        137.844         72.244
        15573.0          7.804        138.907         72.885
        15573.5          7.792        138.317         72.986
        15574.0          7.779        132.417         72.685
        15574.5          7.767        132.526         72.385
        15575.0          7.754        133.483         72.085
        15575.5          7.752       -999.250         71.784
        15576.0          7.764       -999.250         71.485
        15576.5          7.775       -999.250         71.716
        15577.0          7.787       -999.250         71.946
        15577.5          7.799       -999.250         72.177
        15578.0          7.810       -999.250         72.407
        15578.5          7.822       -999.250         72.638
        15579.0          7.834       -999.250         72.868
        15579.5          7.845       -999.250         73.099
        15580.0          7.857       -999.250         73.570
        15580.5          7.869       -999.250         74.460
        15581.0          7.880       -999.250         75.351
        15581.5          7.892       -999.250         76.242
        15582.0          7.904       -999.250         77.133
        15582.5          7.903       -999.250         77.747
        15583.0          7.900       -999.250         77.928
        15583.5          7.897       -999.250         78.110
        15584.0          7.894       -999.250         78.256
        15584.5          7.891       -999.250         78.355
        15585.0          7.889       -999.250         78.455
        15585.5          7.886       -999.250         78.554
        15586.0          7.883       -999.250         78.654
        15586.5          7.880       -999.250         78.753
        15587.0          7.877       -999.250         78.853
        15587.5          7.875       -999.250         78.952
        15588.0          7.872       -999.250         77.917
        15588.5          7.869       -999.250         77.358
        15589.0          7.866       -999.250         76.802
        15589.5          7.863       -999.250         76.245
        15590.0          7.861       -999.250         75.688
        15590.5          7.858       -999.250         75.132
        15591.0          7.855       -999.250         74.575
        15591.5          7.852       -999.250         74.018
        15592.0          7.850       -999.250         73.462
        15592.5          7.847       -999.250         73.004
        15593.0          7.844       -999.250         73.438
        15593.5          7.841       -999.250         73.872
        15594.0          7.838       -999.250         74.306
        15594.5          7.836       -999.250         74.741
        15595.0          7.833       -999.250         75.175
        15595.5          7.830       -999.250         75.609
        15596.0          7.827       -999.250         75.713
        15596.5          7.824       -999.250         75.714
        15597.0          7.822       -999.250         75.715
        15597.5          7.819       -999.250         75.716
        15598.0          7.816       -999.250         75.717
        15598.5          7.813       -999.250         75.718
