###############################################
##         ENVERUS                           ##
##         ESS - Open Hole                   ##
##         PERMIAN / DELAWARE                ##
##         Nov 04 2023  V4.0                 ##
##         42-389-32353-00-00                ##
###############################################
## Copyright 2017-2023  ENVERUS.  All Rights Reserved. 
## Confidential - Property of ENVERUS, use governed by terms and 
## conditions found within the existing Information Services Subscription Agreement 
## (as may be amended, the “ISSA”) between Customer and ENVERUS. 
## 
~VERSION INFORMATION
# MNEM.UNIT                               DATA : DESCRIPTION OF MNEMONIC
#-----.-----     ----------------------------- : -----------------------------
VERS.                                     2.00 : CWLS LOG ASCII STANDARD - VERSION 2.00
WRAP.                                       NO : MULTIPLE LINES PER DEPTH STEP
VEND.                                  ENVERUS : VENDOR
TYPE.                          ESS - OPEN HOLE : ENVERUS ESSENTIAL CURVES – ACCESSIBLE THROUGH ENVERUS PRISM(TM)
DOC.                                  31816014 : ENVERUS HEADER RAW DOCUMENT ID
#___________________________________________________________________________________________________ 
~WELL INFORMATION 
# N6wmpYeOPIEODBGNmaSz+o1WStwpnSM+Mr70h4S2k9wmNhpeTZrfoFyYX6I24xyp8IiB7B51j2C/wpla6NseZQ== 
# MNEM.UNIT                                              DATA : DESCRIPTION OF MNEMONIC 
#-----.-----                    ----------------------------- : ----------------------------- 
CNTY.                                                  REEVES : COUNTY 
STATE.                                                  TEXAS : STATE 
CNTRY.                                                    USA : COUNTRY 
API.                                             42-389-32353 : API (10 Digit) 
API_14.                                    42-389-32353-00-00 : API (14 Digits) 
API_14_std.                                 42-389-32353-0000 : API (14 Digits Standard) 
UWI.                                           42389323530000 : UNIQUE WELL ID 
WELL.                                             DORNFIELD 1 : WELL NAME
STRT.FT                                                 210.0 : START DEPTH
STOP.FT                                               13522.0 : STOP DEPTH
STEP.FT                                                   0.5 : STEP BETWEEN DEPTHS
NULL.                                                 -999.25 : NULL VALUE
LOC.                                                      UNK : LOCATION 
SRVC.                                                     UNK : SERVICE COMPANY
#___________________________________________________________________________________________________ 
~CURVE INFORMATION 
# MNEM.UNIT           : CURVE DESCRIPTION 
#-----.-----          : ----------------------------- 
 DEPT.FT               : MEASURED DEPTH 
 CALI.IN               : CALIPER (CAL - CAL) 
 GR.API                : GAMMA RAY (GR) 
 DT.US/FT              : SONIC DELTA TRANSIT TIME (DT) 
 RESS.OHMM             : SHALLOW INDUCTION RESISTIVITY (ILS - ILS) 
 RESD.OHMM             : DEEP INDUCTION RESISTIVITY (ILD - ILD) 
 DPHI.V/V              : DENSITY POROSITY (DPHI) 
 NPHI.V/V              : NEUTRON POROSITY (NPHI) 
 RHOB.G/CC             : BULK DENSITY (RHOB) 
 #___________________________________________________________________________________________________ 
~A         DEPT           CALI             GR             DT           RESS           RESD           DPHI           NPHI           RHOB
# ...
         6405.0          9.606         89.378         61.826         18.949         19.862        0.00302        0.12905         2.6455
         6405.5          9.603         86.701         61.142         20.099         21.103        0.00045        0.12736         2.6529
         6406.0          9.601         85.266         61.037         20.099         22.230       -0.00211        0.11598         2.6527
         6406.5          9.599         84.384         61.211         21.273         22.786       -0.00351        0.10437         2.6492
         6407.0          9.596         85.534         61.883         20.210         22.519       -0.00106        0.10038         2.6456
         6407.5          9.594         86.684         62.583         17.969         20.291       -0.00099        0.10656         2.6421
         6408.0          9.594         88.332         63.282         15.727         16.733       -0.00234        0.11294         2.6386
         6408.5          9.592         89.916         63.982         14.736         15.209       -0.00369        0.11931         2.6350
         6409.0          9.590         91.834         64.010         14.736         15.100        0.00165        0.12400         2.6315
         6409.5          9.587         93.753         63.757         15.020         14.991        0.00739        0.12097         2.6280
         6410.0          9.585         94.564         63.521         15.825         15.963        0.00943        0.11793         2.6244
         6410.5          9.583         91.547         63.284         16.631         17.538        0.00873        0.11418         2.6315
         6411.0          9.581         88.530         63.169         17.436         19.112        0.00594        0.11143         2.6387
         6411.5          9.579         86.493         63.155         17.386         20.173        0.00299        0.10874         2.6459
         6412.0          9.577         87.003         63.140         16.896         19.263        0.00004        0.10604         2.6531
         6412.5          9.574         85.109         63.126         16.405         18.352       -0.00291        0.10634         2.6491
         6413.0          9.572         82.465         63.111         16.154         19.016       -0.00585        0.10801         2.6443
         6413.5          9.570         80.880         63.061         16.153         19.256       -0.00747        0.10968         2.6435
         6414.0          9.568         81.099         62.742         16.153         19.118       -0.00904        0.11135         2.6458
         6414.5          9.566         81.318         62.423         16.228         18.979       -0.00316        0.10920         2.6480
         6415.0          9.563         81.537         62.104         17.559         19.238       -0.00010        0.10692         2.6503
         6415.5          9.561         79.592         61.785         18.890         20.083       -0.00352        0.10464         2.6526
         6416.0          9.559         77.576         61.466         20.060         20.928       -0.00843        0.10236         2.6549
         6416.5          9.557         75.673         61.147         19.699         21.773       -0.01333        0.10008         2.6527
         6417.0          9.555         77.429         61.542         19.337         21.627       -0.00287        0.10052         2.6359
         6417.5          9.552         78.849         61.976         18.976         20.758        0.00348        0.10359         2.6323
         6418.0          9.550         79.615         62.409         18.615         19.979        0.00424        0.10666         2.6287
         6418.5          9.548         81.460         62.842         17.992         19.201        0.00518        0.10911         2.6251
         6419.0          9.546         84.932         63.208         16.371         18.423        0.00792        0.10759         2.6216
         6419.5          9.544         88.405         63.374         15.916         17.684        0.01341        0.10607         2.6180
         6420.0          9.542         88.434         63.541         15.849         17.280        0.01356        0.10505         2.6148
         6420.5          9.539         85.233         63.556         15.807         16.875        0.01712        0.10476         2.6168
         6421.0          9.537         83.598         63.440         16.189         16.705        0.01510        0.10443         2.6188
         6421.5          9.535         83.247         63.197         16.571         16.903        0.01540        0.10314         2.6209
         6422.0          9.533         82.897         62.854         17.028         17.101        0.01840        0.10185         2.6229
         6422.5          9.531         81.650         62.511         18.080         18.072        0.01390        0.10055         2.6249
         6423.0          9.528         80.215         62.168         19.131         19.438        0.01803        0.09963         2.6215
         6423.5          9.526         79.040         61.892         20.183         20.804        0.01025        0.10115         2.6118
         6424.0          9.525         79.369         61.730         21.553         22.170        0.02223        0.10365         2.6088
         6424.5          9.526         79.698         61.569         23.369         23.536        0.02678        0.10615         2.6142
         6425.0          9.519         80.027         61.407         25.184         27.506        0.02473        0.10756         2.6196
         6425.5          9.507         87.335         61.245         34.412         43.503        0.01911        0.10814         2.6250
         6426.0          9.496         96.578         61.058         52.458         59.501        0.01349        0.10943         2.6305
         6426.5          9.484        103.686         60.860         70.505         75.499        0.01480        0.11371         2.6359
         6427.0          9.472        102.479         60.661         88.551         91.496        0.01780        0.11799         2.6413
         6427.5          9.460         97.978         60.462         99.502         98.144        0.00343        0.12226         2.6467
         6428.0          9.449         93.477         60.561        108.092        101.962       -0.00372        0.12360         2.6512
         6428.5          9.437         92.833         60.977        116.683        117.199        0.00045        0.10929         2.6366
         6429.0          9.425        103.629         61.393        125.273        132.436        0.01162        0.10634         2.6219
         6429.5          9.413        115.731         61.568        141.526        152.864        0.02279        0.11300         2.6072
         6430.0          9.402        127.833         61.553        160.997        176.677        0.01674        0.12175         2.6170
         6430.5          9.390        139.139         61.236        160.391        165.680        0.00930        0.13049         2.6279
         6431.0          9.378        131.487         60.908        151.904        154.380        0.00186        0.13314         2.6388
         6431.5          9.366        121.073         60.581        143.417        143.080        0.00306        0.12769         2.6360
         6432.0          9.354        110.659         60.254        134.930        131.780        0.00747        0.11273         2.6271
         6432.5          9.348        103.565         60.503        125.672        124.464        0.00967        0.10592         2.6181
         6433.0          9.343        105.270         60.859        118.242        118.772        0.01508        0.10390         2.6091
         6433.5          9.331        107.401         61.217        110.812        113.079        0.02049        0.10790         2.6001
         6434.0          9.320        113.452         61.574        161.957        172.378        0.02590        0.11618         2.6213
