###############################################
##         ENVERUS                           ##
##         ESS - Open Hole                   ##
##         PERMIAN / DELAWARE                ##
##         Nov 04 2023  V4.0                 ##
##         42-389-30283-00-00                ##
###############################################
## Copyright 2017-2023  ENVERUS.  All Rights Reserved. 
## Confidential - Property of ENVERUS, use governed by terms and 
## conditions found within the existing Information Services Subscription Agreement 
## (as may be amended, the “ISSA”) between Customer and ENVERUS. 
## 
~VERSION INFORMATION
# MNEM.UNIT                               DATA : DESCRIPTION OF MNEMONIC
#-----.-----     ----------------------------- : -----------------------------
VERS.                                     2.00 : CWLS LOG ASCII STANDARD - VERSION 2.00
WRAP.                                       NO : MULTIPLE LINES PER DEPTH STEP
VEND.                                  ENVERUS : VENDOR
TYPE.                          ESS - OPEN HOLE : ENVERUS ESSENTIAL CURVES – ACCESSIBLE THROUGH ENVERUS PRISM(TM)
DOC.                                  32052778 : ENVERUS HEADER RAW DOCUMENT ID
#___________________________________________________________________________________________________ 
~WELL INFORMATION 
# CKTmoz7OsKELnwE/IP0i4B9qEmEewtam1JWnvb6ghWZsYWfxLv+2EOc67unJ6Yof0W+RqImtxqI23GomxkzDLA== 
# MNEM.UNIT                                              DATA : DESCRIPTION OF MNEMONIC 
#-----.-----                    ----------------------------- : ----------------------------- 
CNTY.                                                  REEVES : COUNTY 
STATE.                                                  TEXAS : STATE 
CNTRY.                                                    USA : COUNTRY 
API.                                             42-389-30283 : API (10 Digit) 
API_14.                                    42-389-30283-00-00 : API (14 Digits) 
API_14_std.                                 42-389-30283-0000 : API (14 Digits Standard) 
UWI.                                           42389302830000 : UNIQUE WELL ID 
WELL.                       RANDOLPH  A. T.  ET AL-STATE  1 L : WELL NAME
STRT.FT                                                 155.0 : START DEPTH
STOP.FT                                               15740.0 : STOP DEPTH
STEP.FT                                                   0.5 : STEP BETWEEN DEPTHS
NULL.                                                 -999.25 : NULL VALUE
COMP.                                     RIO PETROLEUM  INC. : COMPANY
#___________________________________________________________________________________________________ 
~CURVE INFORMATION 
# MNEM.UNIT           : CURVE DESCRIPTION 
#-----.-----          : ----------------------------- 
 DEPT.FT               : MEASURED DEPTH 
 CALI__A.IN            : CALIPER (CAL - CAL) 
 GR__A.API             : GAMMA RAY (GR) 
 SP__A.MV              : SPONTANEOUS POTENTIAL (SP) 
 DT__A.US/FT           : SONIC DELTA TRANSIT TIME (DT) 
 RESD__A.OHMM          : DEEP INDUCTION RESISTIVITY (ILD - ILD) 
 NPHI__A.V/V           : NEUTRON POROSITY (NPH - NPH) 
 #___________________________________________________________________________________________________ 
~A         DEPT        CALI__A          GR__A          SP__A          DT__A        RESD__A        NPHI__A
# ...
        13303.0          9.850         19.450        -66.562         50.244       1080.856        0.01432
        13303.5          9.849         17.827        -66.534         50.284       1047.451        0.01443
        13304.0          9.848         17.273        -66.506         50.224       1018.363        0.01454
        13304.5          9.847         17.940        -66.477         50.110        989.274        0.01465
        13305.0          9.846         18.607        -66.449         49.996        903.531        0.01476
        13305.5          9.845         19.168        -66.420         49.941        802.054        0.01487
        13306.0          9.844         18.904        -66.392         50.259        711.662        0.01498
        13306.5          9.843         18.656        -66.364         50.576        670.967        0.01516
        13307.0          9.841         20.402        -66.335         50.531        630.271        0.01602
        13307.5          9.840         22.147        -66.307         49.855        589.576        0.01688
        13308.0          9.839         21.667        -66.278         49.376        548.881        0.01774
        13308.5          9.838         21.004        -66.250         50.342        508.185        0.01861
        13309.0          9.837         21.259        -66.222         51.309        477.243        0.01947
        13309.5          9.836         22.936        -66.193         52.275        459.360        0.02033
        13310.0          9.835         22.577        -66.165         52.372        441.477        0.02120
        13310.5          9.834         21.820        -66.136         51.801        423.595        0.02206
        13311.0          9.833         22.237        -66.108         51.230        412.332        0.02292
        13311.5          9.831         22.654        -66.080         50.711        401.183        0.02379
        13312.0          9.830         23.070        -66.051         50.892        390.035        0.02465
        13312.5          9.829         21.237        -66.023         51.074        384.264        0.02551
        13313.0          9.828         19.112        -65.815         51.255        383.064        0.02591
        13313.5          9.827         17.496        -65.370         51.437        381.865        0.02540
        13314.0          9.826         19.650        -64.923         51.618        380.665        0.02490
        13314.5          9.825         21.711        -64.216         51.800        373.881        0.02440
        13315.0          9.824         21.489        -63.509         51.981        350.018        0.02390
        13315.5          9.822         20.618        -62.802         52.162        326.154        0.02340
        13316.0          9.821         19.560        -62.095         52.249        302.291        0.02290
        13316.5          9.820         18.502        -61.387         52.067        278.428        0.02240
        13317.0          9.819         18.668        -60.680         51.885        254.565        0.02190
        13317.5          9.818         19.642        -59.973         51.703        239.900        0.02255
        13318.0          9.817         20.615        -59.266         52.477        227.907        0.02423
        13318.5          9.816         21.589        -58.559         53.567        215.913        0.02590
        13319.0          9.815         22.562        -57.753         54.657        203.919        0.02520
        13319.5          9.814         23.061        -56.927         55.747        191.926        0.02390
        13320.0          9.812         23.737        -56.102         55.076        179.932        0.02261
        13320.5          9.811         24.787        -55.276         54.291        167.938        0.02194
        13321.0          9.810         25.836        -54.450         54.496        155.944        0.02202
        13321.5          9.810         26.885        -53.625         55.128        143.951        0.02210
        13322.0          9.811         27.935        -52.799         55.759        131.957        0.02218
        13322.5          9.813         28.984        -51.973         56.391        119.963        0.02321
        13323.0          9.814         30.033        -51.147         56.158        111.871        0.02428
        13323.5          9.815         31.082        -50.322         55.458        104.536        0.02535
        13324.0          9.816         31.004        -49.644         54.758         97.201        0.02459
        13324.5          9.817         30.121        -49.004         55.905         89.866        0.02369
        13325.0          9.819         32.150        -48.363         57.237         82.240        0.02279
        13325.5          9.820         33.893        -47.723         58.568         74.343        0.02179
        13326.0          9.821         33.560        -47.082         58.729         66.446        0.02072
        13326.5          9.822         34.239        -46.442         58.682         58.549        0.01965
        13327.0          9.823         35.244        -45.829         58.634         51.607        0.01858
        13327.5          9.825         35.967        -45.758         58.587         45.734        0.01751
        13328.0          9.826         35.834        -45.686         58.539         39.861        0.01644
        13328.5          9.827         36.071        -45.614         61.063         35.231        0.01597
        13329.0          9.828         38.545        -45.542         58.777         33.675        0.01665
        13329.5          9.829         41.020        -45.470         57.807         32.119        0.01734
        13330.0          9.831         38.154        -45.398         56.924         30.562        0.01802
        13330.5          9.832         33.417        -45.327         53.625         32.069        0.01871
        13331.0          9.833         34.652        -45.255         54.105         34.166        0.02115
        13331.5          9.834         32.130        -45.183         56.881         36.619        0.02457
        13332.0          9.835         29.607        -45.111         59.656         40.008        0.02800
        13332.5          9.837         28.736        -45.511         59.324         43.398        0.03142
        13333.0          9.838         31.438        -45.913         58.075         46.787        0.03485
        13333.5          9.839         31.349        -46.316         56.272         50.147        0.03603
        13334.0          9.840         29.809        -46.718         54.323         50.971        0.03710
        13334.5          9.841         28.268        -47.121         54.497         51.796        0.03817
        13335.0          9.843         26.728        -47.523         54.461         52.620        0.04200
        13335.5          9.844         26.483        -47.926         54.663         53.445        0.04607
        13336.0          9.845         26.483        -48.328         55.177         52.865        0.04839
        13336.5          9.846         26.764        -48.731         55.093         51.747        0.04897
        13337.0          9.847         28.025        -49.134         54.494         50.629        0.04954
        13337.5          9.849         30.338        -49.536         54.045         54.003        0.05063
        13338.0          9.850         30.328        -49.912         53.726         60.784        0.05441
        13338.5          9.851         28.819        -50.239         53.438         67.565        0.05819
        13339.0          9.852         27.310        -50.567         53.685         74.345        0.06196
        13339.5          9.853         27.621        -50.895         53.205         81.126        0.06379
        13340.0          9.855         28.962        -51.222         52.725         87.906        0.06472
        13340.5          9.856         30.888        -51.550         53.190         94.687        0.06747
