###############################################
##         ENVERUS                           ##
##         ESS - Open Hole                   ##
##         PERMIAN / DELAWARE                ##
##         Nov 04 2023  V4.0                 ##
##         42-389-32730-00-00                ##
###############################################
## Copyright 2017-2023  ENVERUS.  All Rights Reserved. 
## Confidential - Property of ENVERUS, use governed by terms and 
## conditions found within the existing Information Services Subscription Agreement 
## (as may be amended, the “ISSA”) between Customer and ENVERUS. 
## 
~VERSION INFORMATION
# MNEM.UNIT                               DATA : DESCRIPTION OF MNEMONIC
#-----.-----     ----------------------------- : -----------------------------
VERS.                                     2.00 : CWLS LOG ASCII STANDARD - VERSION 2.00
WRAP.                                       NO : MULTIPLE LINES PER DEPTH STEP
VEND.                                  ENVERUS : VENDOR
TYPE.                          ESS - OPEN HOLE : ENVERUS ESSENTIAL CURVES – ACCESSIBLE THROUGH ENVERUS PRISM(TM)
DOC.                                  19552736 : ENVERUS HEADER RAW DOCUMENT ID
#___________________________________________________________________________________________________ 
~WELL INFORMATION 
# Emv0q1Fc4UOVqi1FEPTQ50pHgS2U6oO6A9wxQf5ozJtTAVTQXtUhuyCOytio7eHVwvke0CQF/LYkoyLsbhUTsQ== 
# MNEM.UNIT                                              DATA : DESCRIPTION OF MNEMONIC 
#-----.-----                    ----------------------------- : ----------------------------- 
CNTY.                                                  REEVES : COUNTY 
STATE.                                                  TEXAS : STATE 
CNTRY.                                                    USA : COUNTRY 
API.                                             42-389-32730 : API (10 Digit) 
API_14.                                    42-389-32730-00-00 : API (14 Digits) 
API_14_std.                                 42-389-32730-0000 : API (14 Digits Standard) 
UWI.                                           42389327300000 : UNIQUE WELL ID 
WELL.                                  BIG SKY 55 - 16 NO. 1H : WELL NAME
STRT.FT                                                3850.0 : START DEPTH
STOP.FT                                               12070.5 : STOP DEPTH
STEP.FT                                                   0.5 : STEP BETWEEN DEPTHS
NULL.                                                 -999.25 : NULL VALUE
COMP.                                      CIMAREX ENERGY CO. : COMPANY 
FLD.                                                  WILDCAT : FIELD 
SRVC.                                             HALLIBURTON : SERVICE COMPANY 
DATE.                                              03/23/2011 : DATE 
TVD.                                                       NO : TVD FLAG 
WSTA.                                                     LOC : WELL STATUS
#___________________________________________________________________________________________________ 
~PARAMETER INFORMATION 
# MNEM.UNIT                                              DATA : DESCRIPTION OF MNEMONIC 
#-----.-----                    ----------------------------- : ----------------------------- 
RUN.                                                      ONE : RUN NUMBER 
PDAT.                                                      GL : PERMANENT DATUM 
EPD.FT                                              2996.0000 : ELEVATION OF PERM. DATUM 
LMF.                                            KELLY BUSHING : LOG MEASURED FROM 
EKB.FT                                              3021.0000 : ELEVATION OF KELLY BUSHING 
DF.FT                                               3020.0000 : ELEVATION OF DERRICK FLOOR 
GL.FT                                               2996.0000 : ELEVATION OF GROUND LEVEL 
TD.FT                                              12100.0000 : TOTAL DEPTH 
CSGD.FT                                                  3861 : CASING BOTTOM (DRILLER) 1 
CSGL.FT                                                  3855 : CASING BOTTOM (LOGGER) 1 
MUD.                                                    BRINE : DRILLING FLUID TYPE 
MUDV.CP                                               36.0000 : DRILLING FLUID VISCOSITY 
MUDD.LB/USG                                           10.1000 : DRILLING FLUID DENSITY 
PH.                                                   10.0000 : DRILLING FLUID PH 
MUDS.                                                FLOWLINE : MUD SAMPLE SOURCE 
RM.OHMM                                                0.0600 : RESISTIVITY OF MUD SAMPLE 
RMT.DEGF                                              75.0000 : MUD SAMPLE TEMPERATURE 
RMF.OHMM                                               0.0400 : MUD FILTRATE RESISTIVITY 
RMFT.DEGF                                             75.0000 : MUD FILTRATE SAMPLE TEMPERATURE 
RMC.OHMM                                               0.0600 : MUD CAKE RESISTIVITY 
RMCT.DEGF                                             75.0000 : MUD CAKE SAMPLE TEMPERATURE 
RMB.OHMM                                               0.0240 : MUD RESISTIVITY AT BHT 
TMAX.DEGF                                            200.0000 : BOTTOM HOLE TEMPERATURE
#___________________________________________________________________________________________________ 
~CURVE INFORMATION 
# MNEM.UNIT           : CURVE DESCRIPTION 
#-----.-----          : ----------------------------- 
 DEPT.FT               : MEASURED DEPTH 
 GR.API                : GAMMA RAY (GAMMA RAY) 
 DT.US/FT              : SONIC DELTA TRANSIT TIME (DELTA T) 
 RESD_LL.OHMM          : DEEP LATEROLOG (LLD - DEEP LATEROLOG) 
 DPHI.V/V              : DENSITY POROSITY (DENSITY POROSITY) 
 NPHI.V/V              : NEUTRON POROSITY (NEUTRON POROSITY) 
 #___________________________________________________________________________________________________ 
~A         DEPT             GR             DT        RESD_LL           DPHI           NPHI
# ...
        11990.0       -999.250         68.709        49.5750        0.10500        0.07800
        11990.5       -999.250         70.071        49.6470        0.08800        0.07800
        11991.0       -999.250         71.443        29.8410        0.06700        0.07800
        11991.5       -999.250         75.683        10.9600        0.07300        0.07800
        11992.0       -999.250         79.957         9.7140        0.09400        0.07900
        11992.5       -999.250         84.179         9.0440        0.11500        0.07900
        11993.0       -999.250         84.147         9.1630        0.10400        0.08000
        11993.5       -999.250         83.851         9.2120        0.09300        0.08100
        11994.0       -999.250         83.596         8.6960        0.09200        0.08200
        11994.5       -999.250         84.778         8.3500        0.09300        0.08200
        11995.0       -999.250         86.352         7.9860        0.09500        0.08100
        11995.5       -999.250         86.847         7.5420        0.10000        0.08000
        11996.0       -999.250         87.150         6.9860        0.10700     -999.25000
        11996.5       -999.250         87.435         7.2000        0.13100     -999.25000
        11997.0       -999.250         88.501         7.3800        0.15600     -999.25000
        11997.5       -999.250         91.117         6.7590        0.15300     -999.25000
        11998.0       -999.250         92.821         6.3630        0.14800     -999.25000
        11998.5       -999.250         94.090         5.9900        0.14700     -999.25000
        11999.0       -999.250         93.904         5.8070        0.14400     -999.25000
        11999.5       -999.250         93.360         5.8070        0.14000     -999.25000
        12000.0       -999.250         91.680         5.8070        0.14500     -999.25000
        12000.5       -999.250         88.394         5.8020        0.15000     -999.25000
        12001.0       -999.250         82.024         5.7980        0.15400     -999.25000
        12001.5       -999.250         82.625         7.8210        0.15500     -999.25000
        12002.0       -999.250         75.643        16.8930        0.15600     -999.25000
        12002.5       -999.250         71.659        52.2230        0.15700     -999.25000
        12003.0       -999.250         70.548        36.7730        0.15700     -999.25000
        12003.5       -999.250         73.139        19.0380        0.15600     -999.25000
        12004.0       -999.250         75.280        11.7630        0.15600     -999.25000
        12004.5       -999.250         77.420        10.1550        0.15600     -999.25000
        12005.0       -999.250         79.275         8.6970        0.15500     -999.25000
        12005.5       -999.250         79.865         9.6050        0.15500     -999.25000
        12006.0       -999.250         79.504        11.7220        0.15500     -999.25000
        12006.5       -999.250         77.497        10.9540        0.15500     -999.25000
        12007.0       -999.250         76.012         9.7330        0.15400     -999.25000
        12007.5       -999.250         80.237         8.6500        0.15400     -999.25000
        12008.0       -999.250         83.179         7.8770        0.15400     -999.25000
        12008.5       -999.250         84.309         7.2470        0.15400     -999.25000
        12009.0       -999.250         84.525         7.9470        0.15300     -999.25000
        12009.5       -999.250         84.727         7.6820        0.15300     -999.25000
        12010.0       -999.250         83.948         7.5190        0.15300     -999.25000
        12010.5       -999.250         82.733         8.8780        0.15200     -999.25000
        12011.0       -999.250         81.423         9.0920        0.15200     -999.25000
        12011.5       -999.250         80.828         9.8450        0.15000     -999.25000
        12012.0       -999.250         79.006        10.6600        0.14700     -999.25000
        12012.5       -999.250         78.352         9.3090        0.14800     -999.25000
        12013.0       -999.250         79.042         9.2120        0.15100     -999.25000
        12013.5       -999.250         77.887        14.8760        0.15400     -999.25000
        12014.0       -999.250         76.308        17.0990        0.15500     -999.25000
        12014.5       -999.250         74.729        19.6620        0.15300     -999.25000
        12015.0       -999.250         69.519        22.3410        0.15100     -999.25000
        12015.5       -999.250         69.399        21.9300        0.15000     -999.25000
        12016.0       -999.250         71.082        21.8770        0.15100     -999.25000
        12016.5       -999.250         72.503        42.6270        0.15200     -999.25000
        12017.0       -999.250         73.896        25.5550        0.15300     -999.25000
        12017.5       -999.250         75.289        10.1630        0.15300     -999.25000
        12018.0       -999.250         79.513         9.5890        0.15400     -999.25000
        12018.5       -999.250         85.233         8.9580     -999.25000     -999.25000
        12019.0       -999.250         91.594         8.3940     -999.25000     -999.25000
        12019.5       -999.250         91.236         8.2460     -999.25000     -999.25000
        12020.0       -999.250         93.243         8.7720     -999.25000     -999.25000
        12020.5       -999.250         93.751         9.1890     -999.25000     -999.25000
        12021.0       -999.250         92.811         9.6260     -999.25000     -999.25000
        12021.5       -999.250         91.649        10.1030     -999.25000     -999.25000
        12022.0       -999.250         90.764         9.8420     -999.25000     -999.25000
        12022.5       -999.250         89.845         9.5770     -999.25000     -999.25000
        12023.0       -999.250         90.831         9.2120     -999.25000     -999.25000
        12023.5       -999.250         92.365         9.8960     -999.25000     -999.25000
        12024.0       -999.250         90.567        12.1760     -999.25000     -999.25000
        12024.5       -999.250         88.637        13.3800     -999.25000     -999.25000
        12025.0       -999.250         83.427        13.7680     -999.25000     -999.25000
        12025.5       -999.250         78.164        14.3560     -999.25000     -999.25000
        12026.0       -999.250         75.163        19.4560     -999.25000     -999.25000
        12026.5       -999.250         74.569        27.8190     -999.25000     -999.25000
        12027.0       -999.250         78.998        20.0260     -999.25000     -999.25000
        12027.5       -999.250         82.606        13.4040     -999.25000     -999.25000
        12028.0       -999.250         86.213        10.4390     -999.25000     -999.25000
        12028.5       -999.250         88.656         9.9180     -999.25000     -999.25000
        12029.0       -999.250         90.321         9.5580     -999.25000     -999.25000
        12029.5       -999.250         88.905        10.1530     -999.25000     -999.25000
        12030.0       -999.250         87.797        11.1410     -999.25000     -999.25000
        12030.5       -999.250         88.176        11.9280     -999.25000     -999.25000
        12031.0       -999.250         88.517        11.1240     -999.25000     -999.25000
        12031.5       -999.250         88.878        10.1030     -999.25000     -999.25000
        12032.0       -999.250         89.725        10.0190     -999.25000     -999.25000
        12032.5       -999.250         90.681         9.9420     -999.25000     -999.25000
        12033.0       -999.250         90.585         9.4400     -999.25000     -999.25000
        12033.5       -999.250         91.394         8.7890     -999.25000     -999.25000
