###############################################
##         ENVERUS                           ##
##         ESS - Open Hole                   ##
##         PERMIAN / DELAWARE                ##
##         Nov 04 2023  V4.0                 ##
##         42-389-32245-00-00                ##
###############################################
## Copyright 2017-2023  ENVERUS.  All Rights Reserved. 
## Confidential - Property of ENVERUS, use governed by terms and 
## conditions found within the existing Information Services Subscription Agreement 
## (as may be amended, the “ISSA”) between Customer and ENVERUS. 
## 
~VERSION INFORMATION
# MNEM.UNIT                               DATA : DESCRIPTION OF MNEMONIC
#-----.-----     ----------------------------- : -----------------------------
VERS.                                     2.00 : CWLS LOG ASCII STANDARD - VERSION 2.00
WRAP.                                       NO : MULTIPLE LINES PER DEPTH STEP
VEND.                                  ENVERUS : VENDOR
TYPE.                          ESS - OPEN HOLE : ENVERUS ESSENTIAL CURVES – ACCESSIBLE THROUGH ENVERUS PRISM(TM)
DOC.                                  31784178 : ENVERUS HEADER RAW DOCUMENT ID
#___________________________________________________________________________________________________ 
~WELL INFORMATION 
# v5kOeJgG8V8Fdrn76qwaaSXPAkEfLGq57aawfXlCwOXh55ROPeN2VCvB7JmY2/dENYnWxxZwl4Ma/Wu+4c2YGQ== 
# MNEM.UNIT                                              DATA : DESCRIPTION OF MNEMONIC 
#-----.-----                    ----------------------------- : ----------------------------- 
CNTY.                                                  REEVES : COUNTY 
STATE.                                                  TEXAS : STATE 
CNTRY.                                                    USA : COUNTRY 
API.                                             42-389-32245 : API (10 Digit) 
API_14.                                    42-389-32245-00-00 : API (14 Digits) 
API_14_std.                                 42-389-32245-0000 : API (14 Digits Standard) 
UWI.                                           42389322450000 : UNIQUE WELL ID 
WELL.                          TEXAS PACIFIC LAND TRUST 25 1H : WELL NAME
STRT.FT                                                2519.0 : START DEPTH
STOP.FT                                               10624.0 : STOP DEPTH
STEP.FT                                                   0.5 : STEP BETWEEN DEPTHS
NULL.                                                 -999.25 : NULL VALUE
#___________________________________________________________________________________________________ 
~CURVE INFORMATION 
# MNEM.UNIT           : CURVE DESCRIPTION 
#-----.-----          : ----------------------------- 
 DEPT.FT               : MEASURED DEPTH 
 CALI__B.IN            : CALIPER (CAL - CAL) 
 GR__B.API             : GAMMA RAY (GR) 
 DT__B.US/FT           : SONIC DELTA TRANSIT TIME (DT) 
 #___________________________________________________________________________________________________ 
~A         DEPT        CALI__B          GR__B          DT__B
# ...
         6281.0         13.080         62.253         64.178
         6281.5         13.084         51.045         63.640
         6282.0         13.083         48.580         63.690
         6282.5         13.080         51.902         64.751
         6283.0         13.076         56.875         65.813
         6283.5         13.073         61.848         66.671
         6284.0         13.069         66.821         66.355
         6284.5         13.065         65.464         64.747
         6285.0         13.062         60.119         62.929
         6285.5         13.058         52.031         61.397
         6286.0         13.055         53.502         61.047
         6286.5         13.051         61.415         61.549
         6287.0         13.047         86.399         64.778
         6287.5         13.044        118.717         68.438
         6288.0         13.041        155.320         70.447
         6288.5         13.049        152.243         71.413
         6289.0         13.058        129.035         71.566
         6289.5         13.066        102.117         71.092
         6290.0         13.074         90.529         70.990
         6290.5         13.083         80.298         72.388
         6291.0         13.091         71.459         74.011
         6291.5         13.099         70.124         74.215
         6292.0         13.107         65.966         73.593
         6292.5         13.116         57.094         72.025
         6293.0         13.124         48.221         70.309
         6293.5         13.135         40.491         68.475
         6294.0         13.157         36.641         66.642
         6294.5         13.179         37.704         66.620
         6295.0         13.201         42.703         68.792
         6295.5         13.223         50.176         71.443
         6296.0         13.245         55.303         74.254
         6296.5         13.267         56.130         75.574
         6297.0         13.289         56.422         76.099
         6297.5         13.310         55.675         74.964
         6298.0         13.332         54.683         73.903
         6298.5         13.354         51.687         73.269
         6299.0         13.348         48.691         72.636
         6299.5         13.342         45.694         72.162
         6300.0         13.335         45.590         71.766
         6300.5         13.329         46.335         71.369
         6301.0         13.323         45.466         70.320
         6301.5         13.316         43.202         69.013
         6302.0         13.310         40.939         67.705
         6302.5         13.304         38.675         66.548
         6303.0         13.297         38.013         65.553
         6303.5         13.291         37.879         65.192
         6304.0         13.278         40.668         66.069
         6304.5         13.253         43.559         67.103
         6305.0         13.227         48.357         68.215
         6305.5         13.202         55.087         69.328
         6306.0         13.176         61.816         70.290
         6306.5         13.151         65.293         70.373
         6307.0         13.125         66.231         70.455
         6307.5         13.100         67.169         70.538
         6308.0         13.074         68.107         70.453
         6308.5         13.046         78.604         71.442
         6309.0         13.019         92.154         72.630
         6309.5         12.991        120.510         73.817
         6310.0         12.964        142.524         74.625
         6310.5         12.936        142.879         74.971
         6311.0         12.909        138.140         74.608
         6311.5         12.882        128.327         73.810
         6312.0         12.854        118.513         73.013
         6312.5         12.827        110.388         72.009
         6313.0         12.816        104.585         70.453
         6313.5         12.816         98.112         68.898
         6314.0         12.816         89.083         67.755
         6314.5         12.816         80.053         67.226
         6315.0         12.816         72.229         67.039
         6315.5         12.816         74.664         67.823
         6316.0         12.816         79.182         68.915
         6316.5         12.816         83.699         70.007
         6317.0         12.816         97.997         71.098
         6317.5         12.816        100.546         71.091
         6318.0         12.816         94.465         69.221
         6318.5         12.816         84.506         66.239
         6319.0         12.816         72.440         63.235
         6319.5         12.811         60.373         60.232
         6320.0         12.807         48.307         58.262
         6320.5         12.802         44.534         58.066
         6321.0         12.797         47.460         59.080
         6321.5         12.793         55.730         61.184
         6322.0         12.788         71.363         64.031
         6322.5         12.784         89.553         67.325
         6323.0         12.779        127.628         70.619
         6323.5         12.775        119.536         70.987
         6324.0         12.770        111.444         69.784
         6324.5         12.765        106.243         69.405
         6325.0         12.761        116.050         70.833
         6325.5         12.756        125.857         72.913
         6326.0         12.752        135.664         74.994
         6326.5         12.747        142.673         74.858
         6327.0         12.743        138.780         73.633
         6327.5         12.738        125.805         70.218
         6328.0         12.733        112.829         66.107
         6328.5         12.729         87.328         61.995
         6329.0         12.729         68.185         58.430
         6329.5         12.735         53.803         57.703
         6330.0         12.741         45.277         59.094
         6330.5         12.746         55.273         60.863
         6331.0         12.752         69.582         61.978
         6331.5         12.757         76.608         60.931
         6332.0         12.763         67.851         58.329
         6332.5         12.769         48.801         55.727
         6333.0         12.774         32.442         53.874
         6333.5         12.780         28.465         54.054
         6334.0         12.786         29.528         54.544
         6334.5         12.791         32.346         54.910
         6335.0         12.797         36.659         55.261
         6335.5         12.803         40.973         56.698
         6336.0         12.808         50.604         58.135
         6336.5         12.814         63.554         59.509
         6337.0         12.820         76.503         60.442
         6337.5         12.825         79.208         60.423
         6338.0         12.831         73.491         59.531
         6338.5         12.837         65.557         58.188
         6339.0         12.831         57.622         58.383
         6339.5         12.820         57.371         60.535
         6340.0         12.809         71.510         63.199
         6340.5         12.798         85.689         65.863
         6341.0         12.787         98.894         67.098
         6341.5         12.775        117.214         68.065
         6342.0         12.764        133.367         69.917
         6342.5         12.753        149.521         72.241
         6343.0         12.742        165.675         73.201
         6343.5         12.731        165.615         73.643
         6344.0         12.728        156.762         73.176
         6344.5         12.731        138.574         71.915
         6345.0         12.734        120.387         69.512
         6345.5         12.736        102.199         66.807
         6346.0         12.739         86.166         65.100
         6346.5         12.742         79.466         65.607
