#--------------------------------------------------#
#-------------------ENVERUS, INC.------------------#
#------------------WWW.ENVERUS.COM-----------------#
#------------------COPYRIGHT 2020------------------#
#--------------------------------------------------#
#THIS FILE MAY BE USED ONLY IN ACCORDANCE WITH A CURRENT SUBSCRIPTION AGREEMENT BETWEEN
#THE USER AND ENVERUS, INC. NO PART OF THIS FILE MAY BE REPRODUCED, USED, COPIED,
#MODIFIED, PROPAGATED, OR DISTRIBUTED EXCEPT IN ACCORDANCE WITH THE SUBSCRIPTION
#AGREEMENT. UNAUTHORIZED USE OR DISTRIBUTION OF ALL OR ANY PART OF THIS FILE MAY VIOLATE
#COPYRIGHT, TRADEMARK, AND/OR OTHER LAWS AND IS SUBJECT TO CIVIL AS WELL AS CRIMINAL
#SANCTIONS.
#--------------------------------------------------#
#THIS FILE IS PROVIDED "AS-IS" AND ALL WARRANTIES ARE EXPRESSLY DISCLAIMED, WHETHER
#EXPRESS, ORAL, IMPLIED, STATUTORY OR OTHERWISE, INCLUDING ANY IMPLIED WARRANTY OF FITNESS
#FOR A PARTICULAR PURPOSE, MERCHANTABILITY, TITLE OR NON-INFRINGEMENT, AND ANY WARRANTIES
#ARISING BY VIRTUE OF CUSTOM OF TRADE OR COURSE OF DEALING.  FURTHER, ENVERUS, INC.
#AND ITS LICENSORS DO NOT REPRESENT OR WARRANT THAT THIS FILE WILL MEET USER'S
#REQUIREMENTS OR ARE SUITABLE FOR USER'S NEEDS OR THAT THE DATA OR RESULTS PROVIDED IN
#CONJUNCTION THEREWITH ARE CORRECT, ACCURATE, TIMELY OR RELIABLE. THESE DISCLAIMERS SHALL
#APPLY REGARDLESS OF ANY FAILURE OF ESSENTIAL PURPOSE OF ANY LIMITED REMEDY.  SOME
#JURISDICTIONS DO NOT ALLOW THE EXCLUSION OF CERTAIN WARRANTIES SO SOME OF THE ABOVE
#EXCLUSIONS MAY NOT APPLY. IN NO EVENT SHALL ENVERUS, INC. OR ANY OF ITS AFFILIATES
#BE LIABLE UNDER ANY LEGAL THEORY, WHETHER IN TORT (INCLUDING WITHOUT LIMITATION
#NEGLIGENCE), CONTRACT, STRICT LIABILITY, STATUTORY OR OTHERWISE, FOR ANY SPECIAL,
#INCIDENTAL, CONSEQUENTIAL, EXEMPLARY, PUNITIVE OR INDIRECT DAMAGE OF ANY KIND, INCLUDING
#WITHOUT LIMITATION LOSS OF REVENUE, PROFITS, GOODWILL, USE, AND/OR DATA OR THE COST OF
#PROCUREMENT OF SUBSTITUTE GOODS OR SERVICES, EVEN IF APPRISED OF THE POSSIBILITY OF SUCH
#DAMAGES IN ADVANCE.
#--------------------------------------------------#

~VERSION INFORMATION
VERS. 2.0 : CWLS LOG ASCII STANDARD - VERSION 2.0
WRAP.  NO : ONE LINE PER DEPTH STEP
~WELL INFORMATION
#MNEMONIC     .UNIT              VALUE :DESCRIPTION
STRT       .FT                25 :START DEPTH
STOP       .FT                17136 :STOP DEPTH
STEP       .FT                   0.500 :STEP
NULL       .                  -999.250 :NULL
UWI        .              42389302310000 :UNIQUE WELL ID
API        .              42389302310000 :API NUMBER
COMP       .         EDISTO RESOURCES CORPORATION :COMPANY
WELL       .        WIGGINS  ORLA  1 :WELL
DATE       .                            :LOG DATE
~CURVE INFORMATION
#MNEMONIC     .UNIT      API CODE :CURVE DESCRIPTION
DEPTH       .FT                      :MEASURED DEPTH
CAL.INCH        UNKNOWN   :CAL
ILS.OHM        UNKNOWN   :ILS
SP.MV        UNKNOWN   :SP
DT.US/FT        UNKNOWN   :DT
GR.API        UNKNOWN   :GR
ILD.OHM        UNKNOWN   :ILD
~A    DEPTH    CAL    ILS    SP    DT    GR    ILD
# ...
 8694     13.001   51.216   -46.949   55.027   19.203   745.581
 8694.5     12.997   51.054   -46.858   55.404   20.778   675.514
 8695     12.993   50.893   -46.767   58.145   24.441   549.29
 8695.5     12.99   50.732   -46.676   60.886   28.105   428.232
 8696     12.989   50.571   -46.585   63.626   31.768   340.719
 8696.5     12.99   50.81   -46.494   66.367   41.231   253.206
 8697     12.99   51.257   -46.403   67.93   50.416   204.615
 8697.5     12.991   51.703   -46.312   67.411   54.724   226.897
 8698     12.991   52.149   -46.221   66.892   54.622   305.899
 8698.5     12.992   52.596   -46.13   65.4   51.015   466.946
 8699     12.992   53.042   -46.039   62.215   45.827   534.974
 8699.5     12.992   53.489   -45.948   59.031   40.713   546.861
 8700     12.993   53.935   -45.857   59.765   38.497   545.052
 8700.5     12.993   53.784   -45.766   61.754   37.522   453.481
 8701     12.994   53.441   -45.675   63.742   38.209   361.91
 8701.5     12.994   53.099   -45.584   64.71   42.164   290.167
 8702     12.994   52.756   -45.493   65.376   46.118   266.464
 8702.5     12.995   52.413   -45.402   66.042   48.231   242.761
 8703     12.995   52.071   -45.311   66.254   48.888   232.234
 8703.5     12.996   51.728   -45.245   65.649   48.23   226.413
 8704     12.996   51.385   -45.248   66.321   46.89   223.201
 8704.5     12.996   51.823   -45.251   64.408   45.348   229.317
 8705     12.997   52.423   -45.254   62.518   43.754   251.106
 8705.5     12.997   53.024   -45.257   62.663   42.103   275.079
 8706     12.998   53.624   -45.26   62.807   40.811   299.052
 8706.5     12.998   54.225   -45.263   62.952   39.985   323.025
 8707     12.998   54.825   -45.266   63.096   37.109   348.61
 8707.5     12.999   55.426   -45.269   62.612   36.443   383.232
 8708     12.998   55.68   -45.272   61.48   35.732   417.853
 8708.5     12.997   55.075   -45.275   60.347   34.963   452.475
 8709     12.996   54.47   -45.278   59.534   33.991   487.097
 8709.5     12.995   53.864   -45.281   59.222   31.908   521.719
 8710     12.994   53.259   -45.283   58.825   29.233   571.539
 8710.5     12.992   52.654   -45.286   58.134   26.065   623.91
 8711     12.991   52.049   -45.289   57.442   22.897   676.282
 8711.5     12.99   51.444   -45.292   56.746   22.082   713.5
 8712     12.989   50.629   -45.295   56.048   22.159   732.527
 8712.5     12.988   49.728   -45.298   55.35   22.482   676.028
 8713     12.987   48.828   -45.301   55.275   22.804   572.305
 8713.5     12.986   47.927   -45.304   56.715   24.025   452.262
 8714     12.985   47.026   -45.307   58.845   25.437   364.092
 8714.5     12.984   46.125   -45.297   62.147   30.352   278.658
 8715     12.983   45.225   -45.121   65.449   36.259   234.051
 8715.5     12.982   44.324   -44.945   68.751   41.689   204.618
 8716     12.981   43.423   -44.769   72.053   49.451   170.448
 8716.5     12.98   42.523   -44.593   75.355   56.075   152.3
 8717     12.973   43.419   -44.417   75.074   61.509   150.531
 8717.5     12.963   44.416   -44.242   74.547   60.284   149.936
 8718     12.954   45.413   -44.066   72.252   57.19   126.886
 8718.5     12.945   46.41   -43.89   67.475   53.138   125.872
 8719     12.935   47.407   -43.714   65.013   47.007   139.988
 8719.5     12.926   48.404   -43.538   62.55   40.877   202.99
 8720     12.916   49.401   -43.362   60.087   34.581   355.336
 8720.5     12.907   50.259   -43.186   57.624   28.094   517.164
 8721     12.903   49.214   -43.01   56.647   25.135   553.527
 8721.5     12.908   48.17   -42.834   56.866   26.406   512.808
 8722     12.912   47.125   -42.658   57.705   29.042   423.586
 8722.5     12.916   46.081   -42.482   64.094   36.585   241.412
 8723     12.92   45.036   -42.306   67.531   44.703   189.427
 8723.5     12.925   45.553   -42.13   69.74   52.775   151.3
 8724     12.929   46.937   -41.706   67.642   56.353   221.293
 8724.5     12.933   48.321   -40.879   63.787   50.841   389.827
 8725     12.938   48.954   -40.051   61.868   42.087   558.36
 8725.5     12.942   49.38   -39.224   59.949   33.333   671.081
 8726     12.946   49.805   -38.396   58.03   27.166   676.818
 8726.5     12.95   50.23   -37.575   56.111   23.53   606.719
 8727     12.955   50.655   -37.327   54.758   23.179   521.874
 8727.5     12.959   51.08   -37.08   57.569   24.919   374.406
 8728     12.963   51.505   -36.832   60.38   31.47   232.833
 8728.5     12.967   51.93   -36.584   63.192   38.058   176.502
 8729     12.972   52.355   -36.337   66.003   42.182   161.468
 8729.5     12.976   52.781   -36.089   65.363   43.191   190.547
 8730     12.98   53.206   -35.841   62.916   39.921   226.097
 8730.5     12.985   53.631   -35.593   60.469   36.651   261.646
 8731     12.989   54.056   -35.386   58.388   34.22   294.18
 8731.5     12.989   54.481   -35.431   57.982   33.18   320.696
 8732     12.986   53.566   -35.477   57.575   31.635   346.435
 8732.5     12.983   50.746   -35.522   57.168   31.162   361.599
 8733     12.98   47.926   -35.567   56.318   28.246   349.354
 8733.5     12.977   45.106   -35.612   56.224   31.437   286.465
 8734     12.974   42.402   -35.657   59.026   34.627   241.313
 8734.5     12.971   43.149   -35.703   61.827   43.521   197.313
 8735     12.968   43.896   -35.748   65.781   52.926   153.314
 8735.5     12.965   44.643   -35.793   70.323   61.041   109.315
 8736     12.961   45.39   -35.838   69.336   61.807   94.345
 8736.5     12.958   46.137   -35.884   67.592   60.137   103.72
 8737     12.955   46.883   -35.929   65.848   56.288   124.57
 8737.5     12.952   47.63   -35.974   64.104   52.439   159.999
 8738     12.949   48.377   -36.019   62.859   41.269   189.567
 8738.5     12.946   48.814   -36.065   62.949   38.442   191.586
 8739     12.945   49.163   -36.11   62.962   36.468   193.605
 8739.5     12.96   49.513   -36.155   61.744   35.877   195.624
 8740     12.975   49.863   -36.2   61.104   35.285   222.659
 8740.5     12.99   50.213   -36.246   60.822   34.694   257.52
 8741     13.005   50.562   -36.138   60.435   33.95   287.339
 8741.5     13.019   50.912   -35.983   59.92   33.071   318.536
 8742     13.026   51.262   -35.828   59.404   32.192   349.734
 8742.5     13.025   51.612   -35.673   58.888   31.313   383.132
 8743     13.023   51.809   -35.517   58.669   30.503   389.774
 8743.5     13.022   50.25   -35.362   58.92   30.17   372.029
 8744     13.021   48.692   -35.207   59.171   29.837   330.586
 8744.5     13.02   47.133   -35.052   59.171   29.503   250.524
 8745     13.019   45.575   -34.896   61.19   30.373   208.382
 8745.5     13.017   44.016   -34.714   66.169   40.991   168.38
 8746     13.016   42.458   -34.529   69.125   48.53   128.378
 8746.5     13.015   43.626   -34.343   72.081   56.068   90.165
 8747     13.014   45.059   -34.157   73.294   63.476   85.738
 8747.5     13.013   46.492   -33.972   72.63   69.102   82.753
 8748     13.012   47.925   -33.786   71.967   66.261   92.423
 8748.5     13.01   49.358   -33.96   69.221   62.195   159.068
 8749     13.009   50.79   -34.145   66.325   59.479   203.813
 8749.5     13.008   51.112   -34.33   63.429   43.069   222.155
 8750     13.007   51.215   -34.515   61.483   39.265   204.908
 8750.5     13.004   51.318   -34.7   64.646   39.47   169.494
 8751     12.998   51.421   -34.885   67.808   40.886   158.971
 8751.5     12.992   51.523   -35.012   70.971   52.384   170.961
 8752     12.986   51.626   -35.132   73.346   60.176   233.502
 8752.5     12.98   51.729   -35.253   70.218   60.283   308.15
 8753     12.974   51.832   -35.374   67.23   58.43   349.416
 8753.5     12.968   51.096   -35.494   64.242   48.783   351.032
 8754     12.962   49.704   -35.615   61.254   34.495   278.357
 8754.5     12.956   48.312   -35.735   58.265   30.891   230.474
 8755     12.952   46.92   -35.856   58.697   29.535   182.592
 8755.5     12.947   48.128   -35.977   61.423   33.528   159.319
 8756     12.943   49.505   -35.811   64.149   39.002   148.778
