#--------------------------------------------------#
#-------------------ENVERUS, INC.------------------#
#------------------WWW.ENVERUS.COM-----------------#
#------------------COPYRIGHT 2020------------------#
#--------------------------------------------------#
#THIS FILE MAY BE USED ONLY IN ACCORDANCE WITH A CURRENT SUBSCRIPTION AGREEMENT BETWEEN
#THE USER AND ENVERUS, INC. NO PART OF THIS FILE MAY BE REPRODUCED, USED, COPIED,
#MODIFIED, PROPAGATED, OR DISTRIBUTED EXCEPT IN ACCORDANCE WITH THE SUBSCRIPTION
#AGREEMENT. UNAUTHORIZED USE OR DISTRIBUTION OF ALL OR ANY PART OF THIS FILE MAY VIOLATE
#COPYRIGHT, TRADEMARK, AND/OR OTHER LAWS AND IS SUBJECT TO CIVIL AS WELL AS CRIMINAL
#SANCTIONS.
#--------------------------------------------------#
#THIS FILE IS PROVIDED "AS-IS" AND ALL WARRANTIES ARE EXPRESSLY DISCLAIMED, WHETHER
#EXPRESS, ORAL, IMPLIED, STATUTORY OR OTHERWISE, INCLUDING ANY IMPLIED WARRANTY OF FITNESS
#FOR A PARTICULAR PURPOSE, MERCHANTABILITY, TITLE OR NON-INFRINGEMENT, AND ANY WARRANTIES
#ARISING BY VIRTUE OF CUSTOM OF TRADE OR COURSE OF DEALING.  FURTHER, ENVERUS, INC.
#AND ITS LICENSORS DO NOT REPRESENT OR WARRANT THAT THIS FILE WILL MEET USER'S
#REQUIREMENTS OR ARE SUITABLE FOR USER'S NEEDS OR THAT THE DATA OR RESULTS PROVIDED IN
#CONJUNCTION THEREWITH ARE CORRECT, ACCURATE, TIMELY OR RELIABLE. THESE DISCLAIMERS SHALL
#APPLY REGARDLESS OF ANY FAILURE OF ESSENTIAL PURPOSE OF ANY LIMITED REMEDY.  SOME
#JURISDICTIONS DO NOT ALLOW THE EXCLUSION OF CERTAIN WARRANTIES SO SOME OF THE ABOVE
#EXCLUSIONS MAY NOT APPLY. IN NO EVENT SHALL ENVERUS, INC. OR ANY OF ITS AFFILIATES
#BE LIABLE UNDER ANY LEGAL THEORY, WHETHER IN TORT (INCLUDING WITHOUT LIMITATION
#NEGLIGENCE), CONTRACT, STRICT LIABILITY, STATUTORY OR OTHERWISE, FOR ANY SPECIAL,
#INCIDENTAL, CONSEQUENTIAL, EXEMPLARY, PUNITIVE OR INDIRECT DAMAGE OF ANY KIND, INCLUDING
#WITHOUT LIMITATION LOSS OF REVENUE, PROFITS, GOODWILL, USE, AND/OR DATA OR THE COST OF
#PROCUREMENT OF SUBSTITUTE GOODS OR SERVICES, EVEN IF APPRISED OF THE POSSIBILITY OF SUCH
#DAMAGES IN ADVANCE.
#--------------------------------------------------#

~VERSION INFORMATION
VERS. 2.0 : CWLS LOG ASCII STANDARD - VERSION 2.0
WRAP.  NO : ONE LINE PER DEPTH STEP
~WELL INFORMATION
#MNEMONIC     .UNIT              VALUE :DESCRIPTION
STRT       .FT                0 :START DEPTH
STOP       .FT                13134 :STOP DEPTH
STEP       .FT                   0.500 :STEP
NULL       .                  -999.250 :NULL
UWI        .              42389303540000 :UNIQUE WELL ID
API        .              42389303540000 :API NUMBER
COMP       .         SMC OIL & GAS  INC. :COMPANY
WELL       .        TIFFANY STATE  1 :WELL
DATE       .                18-OCT-1995 :LOG DATE
~CURVE INFORMATION
#MNEMONIC     .UNIT      API CODE :CURVE DESCRIPTION
DEPTH       .FT                      :MEASURED DEPTH
DT.US/FT        UNKNOWN   :DT
CAL.INCH        UNKNOWN   :CAL
GR.API        UNKNOWN   :GR
~A    DEPTH    DT    CAL    GR
# ...
 4884     67.682   10.327   93.964
 4884.5     68.128   10.323   88.992
 4885     66.376   10.307   84.02
 4885.5     64.082   10.291   79.048
 4886     62.624   10.275   74.076
 4886.5     62.771   10.258   70.177
 4887     63.418   10.242   72.805
 4887.5     64.429   10.226   75.433
 4888     64.879   10.21   78.062
 4888.5     64.888   10.194   80.69
 4889     64.896   10.196   83.318
 4889.5     64.905   10.215   84.748
 4890     64.914   10.234   85.84
 4890.5     65.094   10.253   87.043
 4891     65.4   10.272   88.448
 4891.5     65.705   10.291   90.99
 4892     66.011   10.31   93.532
 4892.5     66.316   10.329   96.074
 4893     66.605   10.348   98.561
 4893.5     66.895   10.353   95.981
 4894     66.58   10.316   93.4
 4894.5     66.222   10.28   80.713
 4895     62.663   10.243   63.048
 4895.5     59.815   10.207   45.383
 4896     59.654   10.171   41.895
 4896.5     59.493   10.134   42.168
 4897     59.777   10.098   42.441
 4897.5     60.608   10.062   42.714
 4898     61.439   10.064   43.118
 4898.5     62.209   10.1   43.617
 4899     61.898   10.136   44.116
 4899.5     61.586   10.172   46.277
 4900     61.275   10.208   48.96
 4900.5     61.357   10.244   51.643
 4901     61.963   10.28   54.327
 4901.5     62.569   10.316   57.679
 4902     63.175   10.352   61.417
 4902.5     63.78   10.32   65.155
 4903     64.42   10.262   67.702
 4903.5     65.15   10.203   67.422
 4904     64.612   10.145   67.141
 4904.5     63.938   10.157   66.861
 4905     63.264   10.188   69.44
 4905.5     62.887   10.22   73.245
 4906     62.528   10.251   77.049
 4906.5     62.887   10.282   80.854
 4907     63.47   10.313   84.003
 4907.5     64.054   10.344   87.112
 4908     64.831   10.375   86.772
 4908.5     65.608   10.378   85.073
 4909     66.385   10.376   82.973
 4909.5     66.324   10.374   80.873
 4910     65.701   10.372   78.773
 4910.5     65.077   10.371   77.762
 4911     64.454   10.369   78.633
 4911.5     65.846   10.367   83.434
 4912     67.011   10.365   85.664
 4912.5     67.048   10.363   83.437
 4913     67.084   10.366   80.454
 4913.5     67.121   10.386   70.954
 4914     65.073   10.406   60.253
 4914.5     62.389   10.426   51.694
 4915     60.559   10.446   50.85
 4915.5     62.254   10.466   50.005
 4916     63.948   10.435   50.966
 4916.5     65.642   10.401   55.436
 4917     66.94   10.366   61.881
 4917.5     67.313   10.331   68.326
 4918     67.687   10.297   73.36
 4918.5     67.752   10.262   71.945
 4919     67.523   10.266   70.529
 4919.5     67.294   10.278   69.113
 4920     67.066   10.29   72.197
 4920.5     67.332   10.303   77.983
 4921     67.649   10.315   83.768
 4921.5     67.967   10.328   112.064
 4922     68.523   10.347   118.182
 4922.5     69.088   10.366   129.547
 4923     68.148   10.385   126.001
 4923.5     67.208   10.404   118.558
 4924     64.201   10.423   99.299
 4924.5     64.372   10.442   80.041
 4925     65.44   10.461   80.749
 4925.5     66.233   10.48   76.444
 4926     65.845   10.462   68.648
 4926.5     65.457   10.431   60.851
 4927     64.736   10.4   53.054
 4927.5     63.147   10.369   48.303
 4928     61.557   10.339   45.666
 4928.5     59.968   10.308   43.028
 4929     59.033   10.277   41.062
 4929.5     58.312   10.263   46.795
 4930     58.831   10.287   52.528
 4930.5     60.464   10.311   58.196
 4931     62.098   10.335   63.258
 4931.5     63.732   10.359   68.319
 4932     64.683   10.375   73.381
 4932.5     65.038   10.391   74.19
 4933     64.819   10.406   73.314
 4933.5     64.6   10.422   72.439
 4934     64.381   10.437   71.563
 4934.5     64.591   10.452   72.594
 4935     65.936   10.468   77.207
 4935.5     67.282   10.483   81.82
 4936     68.353   10.499   86.433
 4936.5     69.263   10.514   91.047
 4937     70.172   10.53   76.864
 4937.5     71.081   10.535   56.718
 4938     69.926   10.528   51.7
 4938.5     68.553   10.522   46.681
 4939     66.157   10.515   45.231
 4939.5     64.2   10.509   44.726
 4940     63.725   10.503   44.221
 4940.5     65.414   10.496   46.217
 4941     67.102   10.49   49.861
 4941.5     68.791   10.483   53.505
 4942     69.238   10.474   57.149
 4942.5     68.926   10.464   60.793
 4943     68.615   10.454   63.91
 4943.5     68.303   10.445   64.781
 4944     67.991   10.435   59.086
 4944.5     68.425   10.426   48.515
 4945     70.715   10.416   45.71
 4945.5     69.789   10.407   45.29
 4946     68.864   10.397   45.467
 4946.5     67.939   10.431   46.659
 4947     67.247   10.467   48.838
 4947.5     67.671   10.504   52.903
 4948     68.096   10.54   56.967
 4948.5     68.521   10.576   61.031
 4949     68.311   10.613   62.147
 4949.5     67.826   10.649   58.758
 4950     67.34   10.685   51.666
 4950.5     66.855   10.722   45.488
 4951     66.148   10.745   44.546
 4951.5     65.333   10.729   43.604
 4952     64.625   10.714   44.185
 4952.5     65.555   10.698   47.345
 4953     66.486   10.682   55.593
 4953.5     67.416   10.666   60.794
 4954     64.613   10.651   65.995
 4954.5     65.547   10.635   71.196
 4955     66.48   10.619   76.396
 4955.5     67.414   10.603   81.597
 4956     67.92   10.59   78.149
 4956.5     67.665   10.59   71.922
 4957     67.084   10.59   65.695
 4957.5     66.503   10.59   60.405
 4958     65.922   10.59   56.759
 4958.5     65.341   10.59   53.113
 4959     65.806   10.59   49.468
 4959.5     67.073   10.591   46.571
 4960     68.34   10.592   49.613
 4960.5     69.51   10.593   52.656
 4961     70.374   10.595   55.698
 4961.5     70.19   10.596   60.245
 4962     69.87   10.597   65.159
 4962.5     69.531   10.598   70.073
 4963     69.184   10.599   68.196
 4963.5     68.837   10.6   65.17
 4964     68.414   10.601   62.144
 4964.5     67.119   10.602   59.117
 4965     65.824   10.603   56.091
 4965.5     64.529   10.604   56.48
 4966     63.94   10.605   58.159
 4966.5     63.771   10.606   61.884
 4967     64.079   10.607   65.609
 4967.5     64.552   10.608   69.334
 4968     65.113   10.575   73.301
 4968.5     65.673   10.539   91.652
 4969     66.234   10.504   113.404
 4969.5     69.354   10.468   135.73
 4970     71.115   10.433   157.203
 4970.5     71.394   10.397   178.676
 4971     70.736   10.362   151.027
 4971.5     69.339   10.326   114.702
 4972     67.449   10.291   91.758
 4972.5     65.559   10.255   67.449
 4973     63.698   10.22   42.852
 4973.5     63.698   10.237   37.418
 4974     67.72   10.253   36.403
 4974.5     60.694   10.27   39.027
 4975     62.135   10.286   44.412
 4975.5     63.576   10.302   49.796
 4976     65.017   10.319   55.181
 4976.5     66.112   10.335   60.566
 4977     66.64   10.352   68.175
 4977.5     67.167   10.368   78.141
 4978     67.695   10.376   81.225
 4978.5     67.564   10.369   81.475
 4979     67.377   10.361   81.726
 4979.5     67.191   10.353   81.976
 4980     67.004   10.346   82.227
 4980.5     66.818   10.338   84.617
 4981     66.631   10.33   87.272
 4981.5     66.444   10.323   89.997
 4982     66.263   10.315   100.289
 4982.5     66.636   10.3   110.582
 4983     67.01   10.236   128.894
 4983.5     67.384   10.173   144.269
 4984     66.044   10.11   126.648
 4984.5     64.452   10.047   117.562
 4985     63.901   9.983   106.027
 4985.5     64.287   9.92   85.24
 4986     64.674   9.878   83.319
 4986.5     64.993   9.933   91.971
 4987     63.852   9.989   102.276
 4987.5     62.711   10.045   113.658
 4988     62.933   10.101   127.252
 4988.5     63.583   10.157   138.267
 4989     65.512   10.213   149.283
 4989.5     69.741   10.242   160.298
 4990     70.524   10.249   154.093
 4990.5     71.007   10.256   137.698
 4991     69.158   10.263   83.57
 4991.5     64.915   10.27   44.515
 4992     60.673   10.277   47.639
 4992.5     58.983   10.284   50.762
 4993     58.442   10.291   53.885
 4993.5     58.703   10.291   57.009
 4994     64.944   10.291   59.767
 4994.5     65.954   10.291   57.659
 4995     65.684   10.291   55.55
 4995.5     65.413   10.291   53.441
