#--------------------------------------------------#
#-------------------ENVERUS, INC.------------------#
#------------------WWW.ENVERUS.COM-----------------#
#------------------COPYRIGHT 2020------------------#
#--------------------------------------------------#
#THIS FILE MAY BE USED ONLY IN ACCORDANCE WITH A CURRENT SUBSCRIPTION AGREEMENT BETWEEN
#THE USER AND ENVERUS, INC. NO PART OF THIS FILE MAY BE REPRODUCED, USED, COPIED,
#MODIFIED, PROPAGATED, OR DISTRIBUTED EXCEPT IN ACCORDANCE WITH THE SUBSCRIPTION
#AGREEMENT. UNAUTHORIZED USE OR DISTRIBUTION OF ALL OR ANY PART OF THIS FILE MAY VIOLATE
#COPYRIGHT, TRADEMARK, AND/OR OTHER LAWS AND IS SUBJECT TO CIVIL AS WELL AS CRIMINAL
#SANCTIONS.
#--------------------------------------------------#
#THIS FILE IS PROVIDED "AS-IS" AND ALL WARRANTIES ARE EXPRESSLY DISCLAIMED, WHETHER
#EXPRESS, ORAL, IMPLIED, STATUTORY OR OTHERWISE, INCLUDING ANY IMPLIED WARRANTY OF FITNESS
#FOR A PARTICULAR PURPOSE, MERCHANTABILITY, TITLE OR NON-INFRINGEMENT, AND ANY WARRANTIES
#ARISING BY VIRTUE OF CUSTOM OF TRADE OR COURSE OF DEALING.  FURTHER, ENVERUS, INC.
#AND ITS LICENSORS DO NOT REPRESENT OR WARRANT THAT THIS FILE WILL MEET USER'S
#REQUIREMENTS OR ARE SUITABLE FOR USER'S NEEDS OR THAT THE DATA OR RESULTS PROVIDED IN
#CONJUNCTION THEREWITH ARE CORRECT, ACCURATE, TIMELY OR RELIABLE. THESE DISCLAIMERS SHALL
#APPLY REGARDLESS OF ANY FAILURE OF ESSENTIAL PURPOSE OF ANY LIMITED REMEDY.  SOME
#JURISDICTIONS DO NOT ALLOW THE EXCLUSION OF CERTAIN WARRANTIES SO SOME OF THE ABOVE
#EXCLUSIONS MAY NOT APPLY. IN NO EVENT SHALL ENVERUS, INC. OR ANY OF ITS AFFILIATES
#BE LIABLE UNDER ANY LEGAL THEORY, WHETHER IN TORT (INCLUDING WITHOUT LIMITATION
#NEGLIGENCE), CONTRACT, STRICT LIABILITY, STATUTORY OR OTHERWISE, FOR ANY SPECIAL,
#INCIDENTAL, CONSEQUENTIAL, EXEMPLARY, PUNITIVE OR INDIRECT DAMAGE OF ANY KIND, INCLUDING
#WITHOUT LIMITATION LOSS OF REVENUE, PROFITS, GOODWILL, USE, AND/OR DATA OR THE COST OF
#PROCUREMENT OF SUBSTITUTE GOODS OR SERVICES, EVEN IF APPRISED OF THE POSSIBILITY OF SUCH
#DAMAGES IN ADVANCE.
#--------------------------------------------------#

~VERSION INFORMATION
VERS. 2.0 : CWLS LOG ASCII STANDARD - VERSION 2.0
WRAP.  NO : ONE LINE PER DEPTH STEP
~WELL INFORMATION
#MNEMONIC     .UNIT              VALUE :DESCRIPTION
STRT       .FT                145 :START DEPTH
STOP       .FT                15608 :STOP DEPTH
STEP       .FT                   0.500 :STEP
NULL       .                  -999.250 :NULL
UWI        .              42389304120000 :UNIQUE WELL ID
API        .              42389304120000 :API NUMBER
COMP       .         BTA OIL PRODUCERS :COMPANY
WELL       .        7607 JV-P ORLA  1 :WELL
DATE       .                            :LOG DATE
~CURVE INFORMATION
#MNEMONIC     .UNIT      API CODE :CURVE DESCRIPTION
DEPTH       .FT                      :MEASURED DEPTH
DT.US/FT        UNKNOWN   :DT
CAL.INCH        UNKNOWN   :CAL
GR.API        UNKNOWN   :GR
~A    DEPTH    DT    CAL    GR
# ...
 11278     60.554   8.928   22.789
 11278.5     56.649   8.93   26.343
 11279     53.505   8.933   29.897
 11279.5     53.155   8.936   36.872
 11280     52.804   8.938   44.36
 11280.5     58.22   8.941   51.847
 11281     66.73   8.943   60.836
 11281.5     75.241   8.946   72.102
 11282     83.751   8.949   74.971
 11282.5     87.87   8.948   73.542
 11283     88.147   8.946   71.067
 11283.5     85.862   8.943   68.592
 11284     83.577   8.941   67.862
 11284.5     82.112   8.939   68.644
 11285     83.395   8.937   69.425
 11285.5     86.814   8.934   68.567
 11286     86.762   8.931   63.024
 11286.5     84.782   8.927   57.481
 11287     79.059   8.924   51.938
 11287.5     73.337   8.92   46.394
 11288     67.321   8.916   44.572
 11288.5     61.18   8.913   47.383
 11289     60.574   8.909   50.426
 11289.5     64.785   8.905   56.504
 11290     68.995   8.902   62.572
 11290.5     73.205   8.902   65.049
 11291     76.161   8.909   67.498
 11291.5     76.75   8.917   69.946
 11292     79.567   8.924   71.001
 11292.5     83.334   8.931   68.303
 11293     83.61   8.939   65.605
 11293.5     83.887   8.946   62.907
 11294     83.155   8.954   60.208
 11294.5     81.889   8.961   57.51
 11295     80.605   8.969   56.53
 11295.5     76.412   8.976   56.748
 11296     72.22   8.984   61.715
 11296.5     68.626   8.986   69.644
 11297     72.399   8.979   77.573
 11297.5     79.4   8.972   83.315
 11298     85.095   8.965   84.198
 11298.5     86.719   8.958   85.081
 11299     87.034   8.951   85.965
 11299.5     87.348   8.944   86.848
 11300     87.662   8.938   86.772
 11300.5     87.976   8.931   83.593
 11301     88.29   8.924   80.758
 11301.5     88.604   8.921   79.102
 11302     88.785   8.923   77.446
 11302.5     87.626   8.925   75.791
 11303     85.939   8.927   74.135
 11303.5     84.253   8.929   72.479
 11304     82.567   8.931   70.823
 11304.5     80.9   8.934   69.19
 11305     79.367   8.936   67.59
 11305.5     77.834   8.938   65.99
 11306     76.301   8.94   66.048
 11306.5     74.768   8.942   66.64
 11307     76.125   8.944   70.295
 11307.5     79.432   8.946   74.1
 11308     82.74   8.949   75.944
 11308.5     86.048   8.951   74.543
 11309     87.465   8.953   72.378
 11309.5     85.176   8.955   69.596
 11310     82.872   8.957   66.814
 11310.5     80.587   8.957   64.032
 11311     78.301   8.957   61.321
 11311.5     76.016   8.957   60.403
 11312     75.157   8.958   59.484
 11312.5     74.976   8.958   60.75
 11313     74.795   8.958   62.86
 11313.5     74.123   8.958   64.97
 11314     73.33   8.959   67.081
 11314.5     76.068   8.96   70.216
 11315     80.196   8.961   73.369
 11315.5     84.324   8.961   76.523
 11316     88.451   8.962   78.593
 11316.5     88.586   8.963   77.658
 11317     88.475   8.964   76.723
 11317.5     87.386   8.965   75.788
 11318     85.203   8.966   76.209
 11318.5     85.041   8.967   77.444
 11319     84.88   8.968   78.678
 11319.5     84.718   8.969   79.113
 11320     84.557   8.97   79.183
 11320.5     85.1   8.971   79.252
 11321     85.777   8.971   77.153
 11321.5     86.393   8.972   73.356
 11322     85.195   8.973   69.559
 11322.5     82.383   8.974   65.761
 11323     79.571   8.975   62.036
 11323.5     76.759   8.976   62.038
 11324     73.946   8.977   62.039
 11324.5     73.15   8.978   63.737
 11325     75.3   8.979   65.669
 11325.5     79.226   8.98   67.602
 11326     83.153   8.981   67.502
 11326.5     83.828   8.981   66.859
 11327     82.704   8.982   66.217
 11327.5     80.014   8.983   65.889
 11328     80.343   8.984   67.276
 11328.5     81.518   8.985   68.663
 11329     82.45   8.986   68.766
 11329.5     82.656   8.987   67.788
 11330     82.087   8.988   66.809
 11330.5     80.432   8.989   65.943
 11331     79.847   8.99   66.62
 11331.5     79.306   8.991   67.297
 11332     80.529   8.991   67.974
 11332.5     82.032   8.992   68.651
 11333     83.197   8.993   68.24
 11333.5     82.605   8.994   67.795
 11334     79.754   8.995   67.35
 11334.5     76.819   8.996   66.905
 11335     74.797   8.997   67.902
 11335.5     74.982   8.998   69.574
 11336     75.622   8.999   71.245
 11336.5     76.402   8.998   70.988
 11337     76.668   8.997   70.077
 11337.5     76.572   8.995   69.166
 11338     77.033   8.994   68.255
 11338.5     77.842   8.992   66.995
 11339     78.355   8.991   65.636
 11339.5     78.112   8.989   64.276
 11340     77.868   8.988   64.519
 11340.5     77.624   8.986   64.83
 11341     77.381   8.984   65.14
 11341.5     77.137   8.983   65.204
 11342     77.546   8.981   65.031
 11342.5     78.077   8.98   64.858
 11343     78.608   8.978   64.685
 11343.5     75.937   8.977   64.512
 11344     74.285   8.975   64.339
 11344.5     73.955   8.974   64.78
 11345     73.625   8.972   66.087
 11345.5     77.142   8.971   67.393
 11346     81.721   8.969   68.134
 11346.5     81.703   8.968   65.637
 11347     81.685   8.967   63.14
 11347.5     79.589   8.965   60.643
 11348     74.995   8.964   58.794
 11348.5     74.281   8.962   60.878
 11349     74.32   8.961   62.963
 11349.5     75.559   8.96   64.256
 11350     76.798   8.958   64.258
 11350.5     77.333   8.957   64.26
 11351     77.488   8.956   64.261
 11351.5     77.911   8.954   65.717
 11352     78.596   8.953   67.149
 11352.5     78.742   8.951   67.396
 11353     78.593   8.951   67.643
 11353.5     78.444   8.95   67.889
 11354     78.588   8.95   68.136
 11354.5     79.07   8.949   68.383
 11355     78.97   8.949   67.74
 11355.5     77.56   8.948   65.647
 11356     76.409   8.948   65.814
 11356.5     75.369   8.947   67.836
 11357     75.091   8.947   69.858
 11357.5     76.325   8.946   71.88
 11358     77.559   8.946   71.611
 11358.5     78.793   8.945   70.089
 11359     79.284   8.945   68.567
 11359.5     78.631   8.944   65.314
 11360     77.981   8.944   62.043
 11360.5     77.834   8.943   58.772
 11361     77.687   8.943   55.5
 11361.5     77.057   8.942   52.069
 11362     75.783   8.941   48.542
 11362.5     74.509   8.941   45.016
 11363     73.006   8.94   41.49
 11363.5     67.511   8.94   43.47
 11364     62.016   8.939   47.403
 11364.5     60.264   8.939   51.889
 11365     62.512   8.938   56.375
 11365.5     69.575   8.938   60.861
 11366     76.472   8.937   63.25
 11366.5     78.205   8.937   63.252
 11367     79.938   8.936   61.519
 11367.5     81.097   8.936   57.996
 11368     81.555   8.935   56.764
 11368.5     81.43   8.935   55.576
 11369     81.305   8.934   54.389
 11369.5     77.607   8.934   53.201
 11370     73.051   8.933   52.013
 11370.5     68.494   8.933   50.826
 11371     67.203   8.932   50.844
 11371.5     70.31   8.932   53.077
 11372     75.08   8.931   55.309
 11372.5     79.851   8.93   57.119
 11373     81.378   8.93   55.304
 11373.5     79.654   8.929   53.905
 11374     75.998   8.929   55.871
 11374.5     75.392   8.928   57.837
 11375     74.786   8.928   60.086
 11375.5     74.18   8.927   62.611
 11376     76.683   8.927   65.135
 11376.5     80.044   8.926   67.66
 11377     83.404   8.926   68.371
 11377.5     84.643   8.925   66.897
 11378     83.28   8.925   65.423
 11378.5     80.982   8.924   64.05
 11379     78.684   8.924   63.33
 11379.5     76.386   8.924   62.61
 11380     74.596   8.924   61.89
 11380.5     74.341   8.924   61.181
 11381     74.087   8.924   63.744
 11381.5     76.855   8.924   66.306
 11382     80.231   8.925   68.869
 11382.5     83.607   8.925   67.541
 11383     83.554   8.925   65.902
 11383.5     81.024   8.925   64.262
 11384     78.244   8.925   62.623
 11384.5     75.465   8.925   62.909
 11385     75.146   8.925   63.762
 11385.5     77.413   8.926   64.615
 11386     79.924   8.926   65.468
 11386.5     81.15   8.926   64.564
 11387     80.656   8.926   62.016
 11387.5     80.162   8.926   59.468
 11388     79.668   8.926   56.919
 11388.5     79.174   8.926   54.391
 11389     73.623   8.931   56.508
 11389.5     72.881   8.939   58.625
 11390     72.959   8.947   60.741
