#--------------------------------------------------#
#-------------------ENVERUS, INC.------------------#
#------------------WWW.ENVERUS.COM-----------------#
#------------------COPYRIGHT 2020------------------#
#--------------------------------------------------#
#THIS FILE MAY BE USED ONLY IN ACCORDANCE WITH A CURRENT SUBSCRIPTION AGREEMENT BETWEEN
#THE USER AND ENVERUS, INC. NO PART OF THIS FILE MAY BE REPRODUCED, USED, COPIED,
#MODIFIED, PROPAGATED, OR DISTRIBUTED EXCEPT IN ACCORDANCE WITH THE SUBSCRIPTION
#AGREEMENT. UNAUTHORIZED USE OR DISTRIBUTION OF ALL OR ANY PART OF THIS FILE MAY VIOLATE
#COPYRIGHT, TRADEMARK, AND/OR OTHER LAWS AND IS SUBJECT TO CIVIL AS WELL AS CRIMINAL
#SANCTIONS.
#--------------------------------------------------#
#THIS FILE IS PROVIDED "AS-IS" AND ALL WARRANTIES ARE EXPRESSLY DISCLAIMED, WHETHER
#EXPRESS, ORAL, IMPLIED, STATUTORY OR OTHERWISE, INCLUDING ANY IMPLIED WARRANTY OF FITNESS
#FOR A PARTICULAR PURPOSE, MERCHANTABILITY, TITLE OR NON-INFRINGEMENT, AND ANY WARRANTIES
#ARISING BY VIRTUE OF CUSTOM OF TRADE OR COURSE OF DEALING.  FURTHER, ENVERUS, INC.
#AND ITS LICENSORS DO NOT REPRESENT OR WARRANT THAT THIS FILE WILL MEET USER'S
#REQUIREMENTS OR ARE SUITABLE FOR USER'S NEEDS OR THAT THE DATA OR RESULTS PROVIDED IN
#CONJUNCTION THEREWITH ARE CORRECT, ACCURATE, TIMELY OR RELIABLE. THESE DISCLAIMERS SHALL
#APPLY REGARDLESS OF ANY FAILURE OF ESSENTIAL PURPOSE OF ANY LIMITED REMEDY.  SOME
#JURISDICTIONS DO NOT ALLOW THE EXCLUSION OF CERTAIN WARRANTIES SO SOME OF THE ABOVE
#EXCLUSIONS MAY NOT APPLY. IN NO EVENT SHALL ENVERUS, INC. OR ANY OF ITS AFFILIATES
#BE LIABLE UNDER ANY LEGAL THEORY, WHETHER IN TORT (INCLUDING WITHOUT LIMITATION
#NEGLIGENCE), CONTRACT, STRICT LIABILITY, STATUTORY OR OTHERWISE, FOR ANY SPECIAL,
#INCIDENTAL, CONSEQUENTIAL, EXEMPLARY, PUNITIVE OR INDIRECT DAMAGE OF ANY KIND, INCLUDING
#WITHOUT LIMITATION LOSS OF REVENUE, PROFITS, GOODWILL, USE, AND/OR DATA OR THE COST OF
#PROCUREMENT OF SUBSTITUTE GOODS OR SERVICES, EVEN IF APPRISED OF THE POSSIBILITY OF SUCH
#DAMAGES IN ADVANCE.
#--------------------------------------------------#

~VERSION INFORMATION
VERS. 2.0 : CWLS LOG ASCII STANDARD - VERSION 2.0
WRAP.  NO : ONE LINE PER DEPTH STEP
~WELL INFORMATION
#MNEMONIC     .UNIT              VALUE :DESCRIPTION
STRT       .FT                24 :START DEPTH
STOP       .FT                5035 :STOP DEPTH
STEP       .FT                   0.500 :STEP
NULL       .                  -999.250 :NULL
UWI        .              42389314500000 :UNIQUE WELL ID
API        .              42389314500000 :API NUMBER
COMP       .         SLEDGE BROS. OIL CO. :COMPANY
WELL       .        ELIZABETH MITCHELL  1 :WELL
DATE       .                18-DEC-1983 :LOG DATE
~CURVE INFORMATION
#MNEMONIC     .UNIT      API CODE :CURVE DESCRIPTION
DEPTH       .FT                      :MEASURED DEPTH
CAL.INCH        UNKNOWN   :CAL
DT.US/FT        UNKNOWN   :DT
GR.API        UNKNOWN   :GR
~A    DEPTH    CAL    DT    GR
# ...
 379     8.43   55.291   46.509
 379.5     8.43   55.161   47.117
 380     8.43   55.032   47.572
 380.5     8.43   54.902   42.83
 381     8.43   54.772   41.316
 381.5     8.43   54.724   42.071
 382     8.431   54.897   42.827
 382.5     8.431   55.07   43.582
 383     8.431   55.242   44.337
 383.5     8.431   55.38   45.092
 384     8.431   55.373   45.848
 384.5     8.431   55.365   41.723
 385     8.431   55.357   40.517
 385.5     8.431   55.349   40.773
 386     8.431   55.341   41.028
 386.5     8.432   55.334   41.284
 387     8.432   55.326   41.539
 387.5     8.432   55.235   41.795
 388     8.432   55.113   42.05
 388.5     8.432   54.991   42.305
 389     8.432   54.87   42.561
 389.5     8.432   54.748   42.816
 390     8.432   54.626   43.072
 390.5     8.432   54.572   42.785
 391     8.432   54.785   42.312
 391.5     8.433   54.997   41.839
 392     8.433   55.21   41.365
 392.5     8.433   55.185   40.892
 393     8.433   55.136   40.419
 393.5     8.433   55.087   39.946
 394     8.433   55.205   39.473
 394.5     8.433   55.674   38.999
 395     8.433   56.143   38.526
 395.5     8.433   56.613   38.053
 396     8.434   57.082   37.58
 396.5     8.434   56.593   38.612
 397     8.434   56.007   39.935
 397.5     8.434   55.421   41.259
 398     8.434   54.854   42.583
 398.5     8.434   54.875   43.906
 399     8.434   54.896   45.23
 399.5     8.434   54.917   46.553
 400     8.434   54.938   47.877
 400.5     8.434   54.959   48.264
 401     8.435   54.979   48.006
 401.5     8.435   55.045   47.748
 402     8.435   55.121   48.171
 402.5     8.435   55.197   49.134
 403     8.435   55.273   50.097
 403.5     8.435   55.35   51.06
 404     8.435   55.426   51.951
 404.5     8.435   55.502   48.589
 405     8.435   55.282   45.227
 405.5     8.435   55.039   41.865
 406     8.436   54.796   42.138
 406.5     8.436   54.553   44.97
 407     8.436   54.31   47.803
 407.5     8.436   54.387   49.34
 408     8.436   54.533   48.202
 408.5     8.436   54.68   47.065
 409     8.436   54.827   45.928
 409.5     8.436   54.872   44.79
 410     8.436   54.714   43.653
 410.5     8.437   54.557   43.424
 411     8.437   54.411   44.632
 411.5     8.437   54.596   45.744
 412     8.437   54.781   45.317
 412.5     8.437   54.967   44.891
 413     8.437   55.152   44.464
 413.5     8.437   55.133   44.24
 414     8.437   55.108   46.522
 414.5     8.437   55.082   48.804
 415     8.437   55.056   51.085
 415.5     8.438   55.078   53.367
 416     8.438   55.259   55.649
 416.5     8.438   55.436   57.931
 417     8.438   55   60.212
 417.5     8.438   54.564   60.339
 418     8.438   54.128   53.162
 418.5     8.438   53.889   45.985
 419     8.438   54.001   45.182
 419.5     8.438   54.114   46.784
 420     8.439   54.227   48.386
 420.5     8.439   54.34   49.988
 421     8.439   55.325   51.59
 421.5     8.439   55.974   53.192
 422     8.439   55.845   52.058
 422.5     8.439   55.716   49.544
 423     8.439   55.591   47.03
 423.5     8.439   55.494   46.138
 424     8.439   55.397   46.44
 424.5     8.439   55.301   46.742
 425     8.44   55.204   47.045
 425.5     8.44   55.107   47.347
 426     8.44   54.678   48.883
 426.5     8.44   54.202   51.21
 427     8.44   53.726   53.538
 427.5     8.44   53.931   55.472
 428     8.44   54.531   54.05
 428.5     8.44   55.143   52.628
 429     8.44   55.761   51.207
 429.5     8.44   56.379   49.785
 430     8.441   56.547   48.363
 430.5     8.441   56.043   48.529
 431     8.441   55.539   49.729
 431.5     8.441   55.035   50.928
 432     8.441   54.575   52.127
 432.5     8.441   54.307   53.326
 433     8.441   54.058   53.585
 433.5     8.441   54.228   49.649
 434     8.441   54.397   45.714
 434.5     8.442   54.567   41.779
 435     8.442   54.736   37.843
 435.5     8.442   55.267   37.516
 436     8.442   56.053   39.502
 436.5     8.442   56.839   41.489
 437     8.442   57.624   43.476
 437.5     8.442   58.053   45.462
 438     8.442   57.16   43.363
 438.5     8.442   56.267   41.162
 439     8.442   55.375   43.076
 439.5     8.443   55.297   46.723
 440     8.443   55.747   47.341
 440.5     8.443   55.418   47.959
 441     8.443   55.09   48.577
 441.5     8.443   54.761   49.195
 442     8.443   54.433   49.485
 442.5     8.443   55.226   49.078
 443     8.443   56.388   48.672
 443.5     8.443   56.096   48.266
 444     8.444   55.804   47.86
 444.5     8.444   55.512   48.316
 445     8.444   55.22   49.215
 445.5     8.444   54.955   50.114
 446     8.444   54.76   51.013
 446.5     8.444   54.566   51.912
 447     8.444   54.511   52.77
 447.5     8.444   54.711   52.028
 448     8.444   54.91   51.287
 448.5     8.444   55.11   50.545
 449     8.445   55.309   49.803
 449.5     8.445   55.509   49.062
 450     8.445   55.396   48.32
 450.5     8.445   55.22   49.406
 451     8.445   55.045   51.933
 451.5     8.445   54.869   54.461
 452     8.445   54.694   56.988
 452.5     8.445   54.634   54.851
 453     8.445   54.725   52.61
 453.5     8.445   54.816   50.37
 454     8.446   54.906   48.129
 454.5     8.446   54.997   45.889
 455     8.446   55.062   46.448
 455.5     8.446   55.124   47.646
 456     8.446   55.186   48.843
 456.5     8.446   55.148   50.041
 457     8.446   54.967   49.239
 457.5     8.446   54.787   46.852
 458     8.446   54.606   44.465
 458.5     8.447   54.426   42.079
 459     8.447   54.358   39.74
 459.5     8.447   54.446   40.3
 460     8.447   54.533   40.86
 460.5     8.447   54.621   41.42
 461     8.447   54.708   41.996
 461.5     8.447   54.783   43.536
 462     8.447   54.72   45.077
 462.5     8.447   54.658   46.617
 463     8.447   54.595   48.15
 463.5     8.448   54.629   48.672
 464     8.448   54.764   49.194
 464.5     8.448   54.899   49.716
 465     8.448   54.942   49.677
 465.5     8.448   54.886   48.747
 466     8.448   54.83   47.816
 466.5     8.448   54.774   46.886
 467     8.448   54.718   45.993
 467.5     8.448   54.662   45.214
 468     8.449   54.606   44.436
 468.5     8.449   54.601   43.657
 469     8.449   54.713   44.277
 469.5     8.449   54.824   45.496
 470     8.449   54.936   46.715
 470.5     8.449   55.047   47.934
 471     8.449   55.158   49.153
 471.5     8.449   55.27   50.372
 472     8.449   55.255   45.82
 472.5     8.449   55.222   45.253
 473     8.45   55.188   44.686
 473.5     8.45   55.155   44.119
 474     8.45   55.122   43.551
 474.5     8.45   55.088   42.984
 475     8.45   55.097   42.45
 475.5     8.45   55.141   43.441
 476     8.45   55.185   44.431
 476.5     8.45   55.229   45.421
 477     8.45   55.273   46.411
 477.5     8.45   55.748   47.402
 478     8.451   56.632   45.694
 478.5     8.451   57.515   44.451
 479     8.451   57.749   44.181
 479.5     8.451   57.22   43.912
 480     8.451   56.691   43.642
 480.5     8.451   56.374   43.372
 481     8.451   56.181   43.971
 481.5     8.451   55.989   45.259
 482     8.451   55.796   46.548
 482.5     8.452   55.604   44.059
 483     8.452   55.475   40.773
 483.5     8.452   55.598   42.229
 484     8.452   55.721   43.876
 484.5     8.452   55.844   45.523
 485     8.452   55.934   47.169
 485.5     8.452   55.482   48.816
 486     8.452   55.029   50.463
 486.5     8.452   54.576   52.11
 487     8.452   54.123   50.043
 487.5     8.453   54.222   46.125
 488     8.453   54.926   44.289
 488.5     8.453   55.63   45.993
 489     8.453   56.334   47.697
 489.5     8.453   56.389   49.401
 490     8.453   56.077   51.105
 490.5     8.453   55.765   52.809
 491     8.453   55.452   47.74
 491.5     8.453   55.14   40.112
 492     8.454   54.974   40.252
 492.5     8.454   55.013   40.392
 493     8.454   55.051   40.532
 493.5     8.454   55.09   40.672
 494     8.454   55.129   40.812
 494.5     8.454   55.168   40.952
 495     8.454   55.126   42.667
 495.5     8.454   55.033   46.249
 496     8.454   54.94   48.177
 496.5     8.454   54.847   47.834
 497     8.455   54.754   47.492
 497.5     8.455   54.661   47.149
