###############################################
##         ENVERUS                           ##
##         ESS - Open Hole                   ##
##         PERMIAN / DELAWARE                ##
##         Nov 04 2023  V4.0                 ##
##         42-389-32730-00-00                ##
###############################################
## Copyright 2017-2023  ENVERUS.  All Rights Reserved. 
## Confidential - Property of ENVERUS, use governed by terms and 
## conditions found within the existing Information Services Subscription Agreement 
## (as may be amended, the “ISSA”) between Customer and ENVERUS. 
## 
~VERSION INFORMATION
# MNEM.UNIT                               DATA : DESCRIPTION OF MNEMONIC
#-----.-----     ----------------------------- : -----------------------------
VERS.                                     2.00 : CWLS LOG ASCII STANDARD - VERSION 2.00
WRAP.                                       NO : MULTIPLE LINES PER DEPTH STEP
VEND.                                  ENVERUS : VENDOR
TYPE.                          ESS - OPEN HOLE : ENVERUS ESSENTIAL CURVES – ACCESSIBLE THROUGH ENVERUS PRISM(TM)
DOC.                                  19552736 : ENVERUS HEADER RAW DOCUMENT ID
#___________________________________________________________________________________________________ 
~WELL INFORMATION 
# Emv0q1Fc4UOVqi1FEPTQ50pHgS2U6oO6A9wxQf5ozJtTAVTQXtUhuyCOytio7eHVwvke0CQF/LYkoyLsbhUTsQ== 
# MNEM.UNIT                                              DATA : DESCRIPTION OF MNEMONIC 
#-----.-----                    ----------------------------- : ----------------------------- 
CNTY.                                                  REEVES : COUNTY 
STATE.                                                  TEXAS : STATE 
CNTRY.                                                    USA : COUNTRY 
API.                                             42-389-32730 : API (10 Digit) 
API_14.                                    42-389-32730-00-00 : API (14 Digits) 
API_14_std.                                 42-389-32730-0000 : API (14 Digits Standard) 
UWI.                                           42389327300000 : UNIQUE WELL ID 
WELL.                                  BIG SKY 55 - 16 NO. 1H : WELL NAME
STRT.FT                                                3850.0 : START DEPTH
STOP.FT                                               12070.5 : STOP DEPTH
STEP.FT                                                   0.5 : STEP BETWEEN DEPTHS
NULL.                                                 -999.25 : NULL VALUE
COMP.                                      CIMAREX ENERGY CO. : COMPANY 
FLD.                                                  WILDCAT : FIELD 
SRVC.                                             HALLIBURTON : SERVICE COMPANY 
DATE.                                              03/23/2011 : DATE 
TVD.                                                       NO : TVD FLAG 
WSTA.                                                     LOC : WELL STATUS
#___________________________________________________________________________________________________ 
~PARAMETER INFORMATION 
# MNEM.UNIT                                              DATA : DESCRIPTION OF MNEMONIC 
#-----.-----                    ----------------------------- : ----------------------------- 
RUN.                                                      ONE : RUN NUMBER 
PDAT.                                                      GL : PERMANENT DATUM 
EPD.FT                                              2996.0000 : ELEVATION OF PERM. DATUM 
LMF.                                            KELLY BUSHING : LOG MEASURED FROM 
EKB.FT                                              3021.0000 : ELEVATION OF KELLY BUSHING 
DF.FT                                               3020.0000 : ELEVATION OF DERRICK FLOOR 
GL.FT                                               2996.0000 : ELEVATION OF GROUND LEVEL 
TD.FT                                              12100.0000 : TOTAL DEPTH 
CSGD.FT                                                  3861 : CASING BOTTOM (DRILLER) 1 
CSGL.FT                                                  3855 : CASING BOTTOM (LOGGER) 1 
MUD.                                                    BRINE : DRILLING FLUID TYPE 
MUDV.CP                                               36.0000 : DRILLING FLUID VISCOSITY 
MUDD.LB/USG                                           10.1000 : DRILLING FLUID DENSITY 
PH.                                                   10.0000 : DRILLING FLUID PH 
MUDS.                                                FLOWLINE : MUD SAMPLE SOURCE 
RM.OHMM                                                0.0600 : RESISTIVITY OF MUD SAMPLE 
RMT.DEGF                                              75.0000 : MUD SAMPLE TEMPERATURE 
RMF.OHMM                                               0.0400 : MUD FILTRATE RESISTIVITY 
RMFT.DEGF                                             75.0000 : MUD FILTRATE SAMPLE TEMPERATURE 
RMC.OHMM                                               0.0600 : MUD CAKE RESISTIVITY 
RMCT.DEGF                                             75.0000 : MUD CAKE SAMPLE TEMPERATURE 
RMB.OHMM                                               0.0240 : MUD RESISTIVITY AT BHT 
TMAX.DEGF                                            200.0000 : BOTTOM HOLE TEMPERATURE
#___________________________________________________________________________________________________ 
~CURVE INFORMATION 
# MNEM.UNIT           : CURVE DESCRIPTION 
#-----.-----          : ----------------------------- 
 DEPT.FT               : MEASURED DEPTH 
 GR.API                : GAMMA RAY (GAMMA RAY) 
 DT.US/FT              : SONIC DELTA TRANSIT TIME (DELTA T) 
 RESD_LL.OHMM          : DEEP LATEROLOG (LLD - DEEP LATEROLOG) 
 DPHI.V/V              : DENSITY POROSITY (DENSITY POROSITY) 
 NPHI.V/V              : NEUTRON POROSITY (NEUTRON POROSITY) 
 #___________________________________________________________________________________________________ 
~A         DEPT             GR             DT        RESD_LL           DPHI           NPHI
# ...
         4378.0         32.003         70.022         5.0100        0.11900        0.11600
         4378.5         32.302         71.265         4.2770        0.11400        0.12800
         4379.0         32.594         72.507         3.8690        0.12400        0.13900
         4379.5         33.689         73.727         3.9930        0.13800        0.14900
         4380.0         35.005         73.727         4.1110        0.14900        0.15600
         4380.5         36.348         73.727         4.2430        0.15600        0.16100
         4381.0         36.694         73.727         4.1810        0.15700        0.16100
         4381.5         36.846         74.305         4.1140        0.16400        0.16500
         4382.0         37.918         75.228         4.0480        0.16900        0.17300
         4382.5         39.173         76.152         3.9820        0.16900        0.17400
         4383.0         39.822         76.944         3.9170        0.17200        0.17800
         4383.5         39.322         77.660         3.7680        0.17900        0.19500
         4384.0         38.826         78.375         3.5950        0.18600        0.19300
         4384.5         38.560         78.317         3.9340        0.19300        0.18800
         4385.0         42.101         77.263         4.4140        0.19100        0.19000
         4385.5         45.668         75.770         4.9540        0.17800        0.18300
         4386.0         49.202         74.195         5.8070        0.15800        0.16200
         4386.5         50.626         73.043         5.7530        0.15400        0.15700
         4387.0         49.701         73.415         5.6680        0.15300        0.16400
         4387.5         49.098         74.060         5.5840        0.15400        0.16300
         4388.0         49.036         74.706         5.5020        0.15400        0.17100
         4388.5         49.550         74.930         5.3940        0.15100        0.18000
         4389.0         50.577         74.810         5.7030        0.14900        0.18300
         4389.5         51.048         73.504         6.1960        0.14800        0.18500
         4390.0         51.070         72.267         6.9840        0.15200        0.18200
         4390.5         51.009         71.031         7.8080        0.18900        0.17900
         4391.0         48.394         70.092         7.8600        0.19900        0.17600
         4391.5         45.565         69.986         7.9120        0.19800        0.15100
         4392.0         42.737         69.880         8.1370        0.20000        0.13500
         4392.5         39.862         69.773         8.7260        0.21300        0.12200
         4393.0         38.884         69.119         9.3580        0.19400        0.11300
         4393.5         38.335         68.437         9.9180        0.17100        0.10900
         4394.0         37.797         67.984        10.4830        0.14900        0.10700
         4394.5         37.212         67.595        10.2920        0.12800        0.10400
         4395.0         36.631         67.595        10.1340        0.12500        0.10600
         4395.5         36.525         67.891        10.1030        0.12100        0.10900
         4396.0         37.910         68.165        11.9760        0.12000        0.11200
         4396.5         41.513         69.617        14.1210        0.12100        0.13000
         4397.0         45.144         70.759        15.4990        0.12400        0.17500
         4397.5         48.771         71.690        17.0170        0.12300        0.16600
         4398.0         52.451         73.347        19.5550        0.12100        0.15500
         4398.5         58.091         75.531        25.6450        0.13300        0.17400
         4399.0         63.694         77.261        33.6320        0.14700        0.19200
         4399.5         69.332         78.256        44.1060        0.15900        0.20500
         4400.0         71.605         78.031        57.8430        0.15900        0.20500
         4400.5         69.810         76.572        61.6610        0.13300        0.18300
         4401.0         66.862         75.114        61.0180        0.12400        0.17800
         4401.5         63.416         74.047        60.5330        0.13300        0.18000
         4402.0         65.455         73.247        60.9940        0.13700        0.17600
         4402.5         68.704         73.537        61.3480        0.14000        0.16100
         4403.0         72.031         75.022        61.6610        0.14300        0.16900
         4403.5         71.203         75.586        56.3970        0.14400        0.17900
         4404.0         65.386         74.810        52.0910        0.13000        0.16800
         4404.5         59.571         72.090        47.4090        0.11600        0.14800
         4405.0         56.996         70.344        41.8990        0.10900        0.12700
         4405.5         56.512         69.851        37.0130        0.11000        0.13500
         4406.0         58.059         69.639        32.6370        0.11500        0.14400
         4406.5         59.755         70.124        28.5490        0.12100        0.15300
         4407.0         60.385         70.634        24.9890        0.12600        0.14900
         4407.5         60.972         71.262        21.5320        0.12900        0.14000
         4408.0         62.517         72.097        17.0800        0.13400        0.14700
         4408.5         63.631         72.933        13.5350        0.14300        0.15500
         4409.0         60.110         72.766        10.6880        0.15200        0.14000
         4409.5         55.681         71.372        10.4780        0.15500        0.12900
         4410.0         50.036         69.938        10.2910        0.14700        0.11400
         4410.5         44.373         68.505         9.5700        0.13700        0.10800
         4411.0         41.482         68.258         8.8780        0.13200        0.11100
         4411.5         40.075         68.585         9.1130        0.13300        0.10900
         4412.0         40.026         68.912         9.3580        0.13000        0.10600
         4412.5         40.653         69.238         9.5580        0.12700        0.11300
         4413.0         41.298         69.569         9.0000        0.12700        0.11600
         4413.5         41.932         69.718         8.4040        0.12800        0.11500
         4414.0         41.718         68.991         8.8330        0.12800        0.11500
         4414.5         40.355         67.423         9.6050        0.12400        0.11400
         4415.0         39.047         66.331         9.9180        0.11500        0.11000
         4415.5         38.071         65.913         9.7370        0.10400        0.10200
         4416.0         38.767         66.541         8.8030        0.10300        0.10800
         4416.5         39.708         67.547         7.9780        0.12300        0.12100
         4417.0         40.661         69.324         7.2300        0.14200        0.13400
         4417.5         41.614         70.032         7.0750        0.15100        0.13000
         4418.0         42.567         70.481         7.0280        0.15600        0.12700
         4418.5         43.520         70.481         6.9840        0.15600        0.13800
         4419.0         44.509         70.544         7.0910        0.15500        0.14800
         4419.5         44.435         70.796         7.1940        0.17100        0.15100
         4420.0         43.889         71.047         7.2990        0.23700        0.15900
         4420.5         43.184         70.971         7.4060        0.30300        0.17100
         4421.0         42.169         70.842         7.5150        0.36500        0.18100
         4421.5         41.922         70.721         7.6570        0.36500        0.18400
