###############################################
##         ENVERUS                           ##
##         ESS - Open Hole                   ##
##         PERMIAN / DELAWARE                ##
##         Nov 04 2023  V4.0                 ##
##         42-389-30422-00-00                ##
###############################################
## Copyright 2017-2023  ENVERUS.  All Rights Reserved. 
## Confidential - Property of ENVERUS, use governed by terms and 
## conditions found within the existing Information Services Subscription Agreement 
## (as may be amended, the “ISSA”) between Customer and ENVERUS. 
## 
~VERSION INFORMATION
# MNEM.UNIT                               DATA : DESCRIPTION OF MNEMONIC
#-----.-----     ----------------------------- : -----------------------------
VERS.                                     2.00 : CWLS LOG ASCII STANDARD - VERSION 2.00
WRAP.                                       NO : MULTIPLE LINES PER DEPTH STEP
VEND.                                  ENVERUS : VENDOR
TYPE.                          ESS - OPEN HOLE : ENVERUS ESSENTIAL CURVES – ACCESSIBLE THROUGH ENVERUS PRISM(TM)
DOC.                                  31749874 : ENVERUS HEADER RAW DOCUMENT ID
#___________________________________________________________________________________________________ 
~WELL INFORMATION 
# u82sU1u0B8de5w9HEAjaYOtqLlVzfD+KUeD2ZoqivGgiUzwSeb1LYInaR9MNeJxDUIxxjb7EPbXz9g+KH10l6Q== 
# MNEM.UNIT                                              DATA : DESCRIPTION OF MNEMONIC 
#-----.-----                    ----------------------------- : ----------------------------- 
CNTY.                                                  REEVES : COUNTY 
STATE.                                                  TEXAS : STATE 
CNTRY.                                                    USA : COUNTRY 
API.                                             42-389-30422 : API (10 Digit) 
API_14.                                    42-389-30422-00-00 : API (14 Digits) 
API_14_std.                                 42-389-30422-0000 : API (14 Digits Standard) 
UWI.                                           42389304220000 : UNIQUE WELL ID 
WELL.                                    BECKHAM  AGNES 26  1 : WELL NAME
STRT.FT                                                  89.0 : START DEPTH
STOP.FT                                               15719.0 : STOP DEPTH
STEP.FT                                                   0.5 : STEP BETWEEN DEPTHS
NULL.                                                 -999.25 : NULL VALUE
COMP.                                     WALSH & WATTS  INC. : COMPANY
#___________________________________________________________________________________________________ 
~CURVE INFORMATION 
# MNEM.UNIT           : CURVE DESCRIPTION 
#-----.-----          : ----------------------------- 
 DEPT.FT               : MEASURED DEPTH 
 CALI.IN               : CALIPER (CAL - CAL) 
 GR.API                : GAMMA RAY (GR) 
 DT.US/FT              : SONIC DELTA TRANSIT TIME (DT) 
 #___________________________________________________________________________________________________ 
~A         DEPT           CALI             GR             DT
# ...
         5831.0         13.132         64.408         65.618
         5831.5         13.132         63.783         65.557
         5832.0         13.132         63.159         64.357
         5832.5         13.132         62.534         63.156
         5833.0         13.132         67.772         62.788
         5833.5         13.128         81.145         63.154
         5834.0         13.122         83.901         63.519
         5834.5         13.116         84.523         63.885
         5835.0         13.110         85.145         64.250
         5835.5         13.104         85.766         64.585
         5836.0         13.098         83.939         64.856
         5836.5         13.092         79.971         65.127
         5837.0         13.086         79.406         65.398
         5837.5         13.080         78.925         65.669
         5838.0         13.074         78.445         65.940
         5838.5         13.068         77.964         66.212
         5839.0         13.062         73.417         66.483
         5839.5         13.056         66.971         66.175
         5840.0         13.050         60.524         65.647
         5840.5         13.044         60.451         65.118
         5841.0         13.038         60.608         64.590
         5841.5         13.032         60.765         64.062
         5842.0         13.032         61.110         63.534
         5842.5         13.031         64.548         63.251
         5843.0         13.031         67.986         63.353
         5843.5         13.031         71.424         63.454
         5844.0         13.031         74.862         63.555
         5844.5         13.031         82.264         63.656
         5845.0         13.031         91.023         63.757
         5845.5         13.030         99.782         63.858
         5846.0         13.030        108.541         63.960
         5846.5         13.030        117.300         64.339
         5847.0         13.030        126.059         68.307
         5847.5         13.030        134.818         68.315
         5848.0         13.023        139.521         67.250
         5848.5         13.015        133.164         66.185
         5849.0         13.007        126.806         65.121
         5849.5         12.999        119.834         64.056
         5850.0         12.991        112.351         62.991
         5850.5         12.983        104.868         61.927
         5851.0         12.995         97.385         60.862
         5851.5         13.021         89.902         59.797
         5852.0         13.046         82.419         58.733
         5852.5         13.072         74.936         61.124
         5853.0         13.098         67.453         61.860
         5853.5         13.124         38.360         62.596
         5854.0         13.149         38.169         63.331
         5854.5         13.175         37.978         64.067
         5855.0         13.207         37.787         64.803
         5855.5         13.238         37.596         65.539
         5856.0         13.269         37.404         66.275
         5856.5         13.301         35.879         67.011
         5857.0         13.332         34.292         67.175
         5857.5         13.363         32.705         67.322
         5858.0         13.395         31.118         67.470
         5858.5         13.426         30.725         67.617
         5859.0         13.458         30.925         66.768
         5859.5         13.468         31.124         65.719
         5860.0         13.472         31.324         64.670
         5860.5         13.476         31.524         63.621
         5861.0         13.481         31.723         62.572
         5861.5         13.485         31.923         62.939
         5862.0         13.490         32.122         64.918
         5862.5         13.494         31.766         66.897
         5863.0         13.498         30.762         68.876
         5863.5         13.503         29.758         68.658
         5864.0         13.507         28.753         68.366
         5864.5         13.512         29.738         68.074
         5865.0         13.516         32.290         67.782
         5865.5         13.520         34.841         67.494
         5866.0         13.525         37.392         67.369
         5866.5         13.529         39.944         67.244
         5867.0         13.534         42.115         67.120
         5867.5         13.538         39.391         66.995
         5868.0         13.542         36.668         66.870
         5868.5         13.547         35.033         66.908
         5869.0         13.551         35.442         67.077
         5869.5         13.556         35.850         67.247
         5870.0         13.564         36.259         67.416
         5870.5         13.576         36.667         67.585
         5871.0         13.588         37.076         67.754
         5871.5         13.600         37.484         67.923
         5872.0         13.612         37.170         68.093
         5872.5         13.624         35.252         67.251
         5873.0         13.636         33.334         66.280
         5873.5         13.648         31.862         65.308
         5874.0         13.660         32.247         64.337
         5874.5         13.672         32.633         65.038
         5875.0         13.684         33.018         65.938
         5875.5         13.696         33.403         66.838
         5876.0         13.708         33.788         67.738
         5876.5         13.720         33.696         68.306
         5877.0         13.733         32.639         68.537
         5877.5         13.745         32.183         68.767
         5878.0         13.757         32.709         68.997
         5878.5         13.769         33.234         69.227
         5879.0         13.777         33.760         69.458
         5879.5         13.781         32.602         69.688
         5880.0         13.786         31.174         69.918
         5880.5         13.791         29.746         69.947
         5881.0         13.795         28.319         69.947
         5881.5         13.800         28.980         69.948
         5882.0         13.805         29.723         69.948
         5882.5         13.809         30.466         69.949
         5883.0         13.814         31.208         69.949
         5883.5         13.819         31.951         69.950
         5884.0         13.823         32.693         69.950
         5884.5         13.828         33.052         69.951
         5885.0         13.833         32.581         69.888
         5885.5         13.837         32.110         69.816
         5886.0         13.842         31.640         69.745
         5886.5         13.847         32.533         69.673
         5887.0         13.851         33.760         69.602
         5887.5         13.856         34.168         69.530
         5888.0         13.861         33.596         69.459
         5888.5         13.865         33.025         69.387
         5889.0         13.861         32.454         69.102
         5889.5         13.843         31.883         68.526
         5890.0         13.825         31.311         67.950
         5890.5         13.806         30.740         67.373
         5891.0         13.788         30.169         66.797
         5891.5         13.770         29.597         66.221
         5892.0         13.751         29.026         65.645
         5892.5         13.733         29.719         65.068
         5893.0         13.723         30.963         66.102
         5893.5         13.729         32.206         67.609
         5894.0         13.735         33.449         69.116
         5894.5         13.741         34.385         70.404
         5895.0         13.748         34.845         70.310
         5895.5         13.754         35.305         70.217
         5896.0         13.760         35.765         70.123
         5896.5         13.766         36.225         70.029
