#--------------------------------------------------#
#-------------------ENVERUS, INC.------------------#
#------------------WWW.ENVERUS.COM-----------------#
#------------------COPYRIGHT 2020------------------#
#--------------------------------------------------#
#THIS FILE MAY BE USED ONLY IN ACCORDANCE WITH A CURRENT SUBSCRIPTION AGREEMENT BETWEEN
#THE USER AND ENVERUS, INC. NO PART OF THIS FILE MAY BE REPRODUCED, USED, COPIED,
#MODIFIED, PROPAGATED, OR DISTRIBUTED EXCEPT IN ACCORDANCE WITH THE SUBSCRIPTION
#AGREEMENT. UNAUTHORIZED USE OR DISTRIBUTION OF ALL OR ANY PART OF THIS FILE MAY VIOLATE
#COPYRIGHT, TRADEMARK, AND/OR OTHER LAWS AND IS SUBJECT TO CIVIL AS WELL AS CRIMINAL
#SANCTIONS.
#--------------------------------------------------#
#THIS FILE IS PROVIDED "AS-IS" AND ALL WARRANTIES ARE EXPRESSLY DISCLAIMED, WHETHER
#EXPRESS, ORAL, IMPLIED, STATUTORY OR OTHERWISE, INCLUDING ANY IMPLIED WARRANTY OF FITNESS
#FOR A PARTICULAR PURPOSE, MERCHANTABILITY, TITLE OR NON-INFRINGEMENT, AND ANY WARRANTIES
#ARISING BY VIRTUE OF CUSTOM OF TRADE OR COURSE OF DEALING.  FURTHER, ENVERUS, INC.
#AND ITS LICENSORS DO NOT REPRESENT OR WARRANT THAT THIS FILE WILL MEET USER'S
#REQUIREMENTS OR ARE SUITABLE FOR USER'S NEEDS OR THAT THE DATA OR RESULTS PROVIDED IN
#CONJUNCTION THEREWITH ARE CORRECT, ACCURATE, TIMELY OR RELIABLE. THESE DISCLAIMERS SHALL
#APPLY REGARDLESS OF ANY FAILURE OF ESSENTIAL PURPOSE OF ANY LIMITED REMEDY.  SOME
#JURISDICTIONS DO NOT ALLOW THE EXCLUSION OF CERTAIN WARRANTIES SO SOME OF THE ABOVE
#EXCLUSIONS MAY NOT APPLY. IN NO EVENT SHALL ENVERUS, INC. OR ANY OF ITS AFFILIATES
#BE LIABLE UNDER ANY LEGAL THEORY, WHETHER IN TORT (INCLUDING WITHOUT LIMITATION
#NEGLIGENCE), CONTRACT, STRICT LIABILITY, STATUTORY OR OTHERWISE, FOR ANY SPECIAL,
#INCIDENTAL, CONSEQUENTIAL, EXEMPLARY, PUNITIVE OR INDIRECT DAMAGE OF ANY KIND, INCLUDING
#WITHOUT LIMITATION LOSS OF REVENUE, PROFITS, GOODWILL, USE, AND/OR DATA OR THE COST OF
#PROCUREMENT OF SUBSTITUTE GOODS OR SERVICES, EVEN IF APPRISED OF THE POSSIBILITY OF SUCH
#DAMAGES IN ADVANCE.
#--------------------------------------------------#

# EXPORTED FROM DI TRANSFORM
# DI TRANSFORM - A PRODUCT OF DRILLINGINFO, INC. - WWW.DRILLINGINFO.COM
#
~VERSION INFORMATION
 VERS.        2.0 : LAS ASCII STANDARD - VERSION 2.0
 WRAP.         NO : ONE LINE PER DEPTH STEP

~WELL INFORMATION
#MNEM.UNIT       DATA TYPE       INFORMATION
#---------       ---------       -----------
 STRT.FT          3310 : START DEPTH
 STOP.FT         11910 : STOP DEPTH
 STEP.FT           0.5 : STEP LENGTH
 NULL.         -999.25 : NULL VALUE
 UWI.   42389328760000 : UNIQUE WELL ID
 API.   42389328760000 : WELL IDENTIFIER
 COMP.                 : COMPANY
 WELL.          DRD_55 : WELL NAME
 FLD.                  : FIELD NAME
 LOC.                  : WELL LOCATION
 CNTY.                 : COUNTY
 STAT.                 : STATE OR PROVINCE
 CTRY.                 : COUNTRY
 SRVC.                 : SERVICE COMPANY
 DATE.                 : DATE

~CURVE INFORMATION
#MNEM.UNIT       API CODE       CURVE DESCRIPTION
#---------       --------       -----------------
 DEPT.FT        : <MEASURED DEPTH>
 CAL.IN         : CALIPER
 DT.US/FT       : SONIC
 GR.GAPI        : GAMMA RAY
 ILD.OHMM       : DEEP RESISTIVITY
 ILS.OHMM       : SHALLOW RESISTIVITY

~PARAMETER INFORMATION
#MNEM.UNIT       VALUE       DESCRIPTION
#---------       -----       -----------
 EKB.FT      3168.5 : ELEVATION ABOVE MSL

~A       DEPT         CAL          DT          GR         ILD         ILS
# ...
        11812      7.8327      73.698     -999.25    295.3974    140.3878
      11812.5      7.8327     72.7832     -999.25    372.9014    168.7674
        11813      7.8327     73.5658     -999.25    475.4549    222.8682
      11813.5      7.8327     76.5269     -999.25    394.8208    208.6013
        11814      7.8327      77.133     -999.25     330.325    206.2749
      11814.5      7.8327     77.8797     -999.25    230.2131    146.2566
        11815      7.8327     78.6826     -999.25     97.4378     47.1557
      11815.5      7.8327     79.5536     -999.25     54.6402     39.7847
        11816      7.8327     79.9597     -999.25     52.4233     39.4294
      11816.5      7.8327     79.9278     -999.25     56.6184     43.2223
        11817      7.8327     78.6664     -999.25       58.88     45.3002
      11817.5      7.8327     76.4266     -999.25     63.4285     48.9846
        11818      7.8327     75.0445     -999.25      89.043     55.4111
      11818.5      7.8327     74.3553     -999.25    130.9889     99.6714
        11819      7.8327     73.6661     -999.25    171.3392    111.2153
      11819.5      7.8327     73.1058     -999.25    190.1592    117.6794
        11820      7.8327     72.5458     -999.25    199.2951    118.6082
      11820.5      7.8327     71.9859     -999.25     213.203    115.2791
        11821      7.8327     71.4467     -999.25    236.3499     110.585
      11821.5      7.8327     71.2109     -999.25    265.4548    112.3386
        11822      7.8327     70.9752     -999.25    292.5544    118.4189
      11822.5      7.8327     70.7394     -999.25     321.438     128.915
        11823      7.8327     68.9651     -999.25    363.8102    149.6499
      11823.5      7.8327     66.4635     -999.25    430.6454    172.8287
        11824      7.8327     63.5182     -999.25    459.6245    166.7937
      11824.5      7.8327     59.8224     -999.25    532.9267     181.163
        11825      7.8327     56.0466     -999.25    578.1703    200.9549
      11825.5      7.8327     55.0806     -999.25   1093.4927    257.4223
        11826      7.8327     54.5973     -999.25   1572.6024   1220.6578
      11826.5      7.8327     56.4437     -999.25    135.5948   1333.6925
        11827      7.8327     60.2829     -999.25     50.6309     41.8579
      11827.5      7.8327      66.708     -999.25     33.8703     25.1458
        11828      7.8327     74.3319     -999.25     28.0603     20.3529
      11828.5      7.8327     74.9853     -999.25     23.8517     16.9684
        11829      7.8327     75.0595     -999.25     23.3342     17.0459
      11829.5      7.8327     75.1995     -999.25     26.6268     19.4221
        11830      7.8327     73.1445     -999.25     30.4637     26.7544
      11830.5      7.8327     70.9908     -999.25     34.6183     29.6875
        11831      7.8327     69.1872     -999.25     47.8828      43.794
      11831.5      7.8327     67.9384     -999.25     65.7106     64.9017
        11832      7.8327     67.9384     -999.25     57.5612     50.3636
      11832.5      7.8327     72.9912     -999.25     42.1487      38.794
        11833      7.8327     81.4553     -999.25     36.7728     37.0754
      11833.5      7.8327      81.376     -999.25     25.5938      23.993
        11834      7.8327      80.736     -999.25     17.9019     13.6615
      11834.5      7.8327     80.0961     -999.25     17.4144     14.0536
        11835      7.8327     79.4561     -999.25     17.2928      14.225
      11835.5      7.8327     78.8135     -999.25      17.096      14.225
        11836      7.8327     78.1687     -999.25      17.567     14.6266
      11836.5      7.8327     77.5239     -999.25     18.9328     15.7549
        11837      7.8327     76.8791     -999.25     20.9097     19.0358
      11837.5      7.8327     76.2342     -999.25     23.2491     21.7687
        11838      7.8327     75.5894     -999.25     23.9901       22.19
      11838.5      7.8327     74.9797     -999.25     23.3157     21.9988
        11839      7.8327     74.8901     -999.25     22.6608     21.0743
      11839.5      7.8327     74.8005     -999.25     21.7321     20.2534
        11840      7.8327     74.7109     -999.25     22.6485     20.8351
      11840.5      7.8327     74.6213     -999.25     23.9962     20.8846
        11841      7.8327     74.4987     -999.25     24.2772      21.292
      11841.5      7.8327     74.1852     -999.25     25.7487     22.1089
        11842      7.8327     73.8716     -999.25     27.6252       22.95
      11842.5      7.8327      73.558     -999.25     28.9547      23.751
        11843      7.8327     73.2444     -999.25     29.7423     23.8549
      11843.5      7.8327     73.1253     -999.25     29.3986     22.3757
        11844      7.8327     73.6523     -999.25     28.5721     21.7204
      11844.5      7.8327     74.1794     -999.25     25.8985     20.8629
        11845      7.8327     74.7064     -999.25     23.8332     19.1333
      11845.5      7.8327      74.411     -999.25     23.8332     19.1333
        11846      7.8327     74.1407     -999.25     23.6796     19.1333
      11846.5      7.8327     73.8704     -999.25     23.3973     19.1333
        11847      7.8327        73.6     -999.25     24.0289     20.5912
      11847.5      7.8327     73.3297     -999.25     27.5958     24.8397
        11848      7.8327     73.0594     -999.25     29.4861      23.812
      11848.5      7.8327     73.0303     -999.25     30.9028     23.9087
        11849      7.8327     73.0642     -999.25     31.7971     24.4552
      11849.5      7.8327     73.0982     -999.25     32.0213     24.9098
        11850      7.8327     73.1321     -999.25     32.6178     25.3405
      11850.5      7.8327      73.166     -999.25     34.0018     25.9309
        11851      7.8327        73.2     -999.25     35.6364     26.7935
      11851.5      7.8327     73.2339     -999.25     38.5352     28.2805
        11852      7.8327     73.2679     -999.25      44.041     31.5039
      11852.5      7.8327     73.3018     -999.25     60.7844     47.0358
        11853      7.8327     73.3357     -999.25    106.6139     83.8344
      11853.5      7.8327     73.3697     -999.25     189.116     145.435
        11854      7.8327     73.4036     -999.25    268.0624    156.7343
      11854.5      7.8327     73.4375     -999.25      298.91    170.5603
        11855      7.8327     73.3736     -999.25    402.6946    223.7838
      11855.5      7.8327     73.2875     -999.25     600.666    422.9026
        11856      7.8327     73.2815     -999.25    930.0227    753.2134
      11856.5      7.8327     -999.25     -999.25     598.345    652.1844
        11857      7.8327     -999.25     -999.25    345.1295    328.9341
      11857.5      7.8327     -999.25     -999.25    170.1763    165.1838
        11858      7.8327     -999.25     -999.25    102.1526     72.6098
      11858.5      7.8327     -999.25     -999.25     71.9778     67.5221
        11859      7.8327     -999.25     -999.25      47.516     44.8673
      11859.5      7.8327     -999.25     -999.25     39.9128     36.7357
        11860      7.8327     -999.25     -999.25     37.0024     33.1093
      11860.5      7.8327     -999.25     -999.25     32.4618     28.4591
        11861      7.8327     -999.25     -999.25     31.2495     29.0693
      11861.5      7.8327     -999.25     -999.25     32.7516     29.2929
        11862      7.8327     -999.25     -999.25     34.3263     29.7993
      11862.5      7.8327     -999.25     -999.25     42.1883     35.2092
        11863      7.8327     -999.25     -999.25     60.9006     59.8152
      11863.5      7.8327     -999.25     -999.25     75.3046     78.0599
        11864      7.8327     -999.25     -999.25     65.2794     64.2064
      11864.5      7.8327     -999.25     -999.25     57.2905     56.1523
        11865      7.8327     -999.25     -999.25     57.8345     57.7998
      11865.5      7.8327     -999.25     -999.25     60.6174     61.2574
        11866      7.8327     -999.25     -999.25     62.2323       60.91
