###############################################
##         ENVERUS                           ##
##         ESS - Open Hole                   ##
##         PERMIAN / DELAWARE                ##
##         Nov 04 2023  V4.0                 ##
##         42-389-32484-00-00                ##
###############################################
## Copyright 2017-2023  ENVERUS.  All Rights Reserved. 
## Confidential - Property of ENVERUS, use governed by terms and 
## conditions found within the existing Information Services Subscription Agreement 
## (as may be amended, the “ISSA”) between Customer and ENVERUS. 
## 
~VERSION INFORMATION
# MNEM.UNIT                               DATA : DESCRIPTION OF MNEMONIC
#-----.-----     ----------------------------- : -----------------------------
VERS.                                     2.00 : CWLS LOG ASCII STANDARD - VERSION 2.00
WRAP.                                       NO : MULTIPLE LINES PER DEPTH STEP
VEND.                                  ENVERUS : VENDOR
TYPE.                          ESS - OPEN HOLE : ENVERUS ESSENTIAL CURVES – ACCESSIBLE THROUGH ENVERUS PRISM(TM)
DOC.                                  31780441 : ENVERUS HEADER RAW DOCUMENT ID
#___________________________________________________________________________________________________ 
~WELL INFORMATION 
# aTsA/KVwhIqB1dg6n/zy22zTJjsJnyaNqg27ywuj9UrTfzbM7gscpQTlR+gOLN+9jERwUBAE6KvHEXpIT+cpyg== 
# MNEM.UNIT                                              DATA : DESCRIPTION OF MNEMONIC 
#-----.-----                    ----------------------------- : ----------------------------- 
CNTY.                                                  REEVES : COUNTY 
STATE.                                                  TEXAS : STATE 
CNTRY.                                                    USA : COUNTRY 
API.                                             42-389-32484 : API (10 Digit) 
API_14.                                    42-389-32484-00-00 : API (14 Digits) 
API_14_std.                                 42-389-32484-0000 : API (14 Digits Standard) 
UWI.                                           42389324840000 : UNIQUE WELL ID 
WELL.                                        BLK 59 ST 37  1H : WELL NAME
STRT.FT                                                 236.0 : START DEPTH
STOP.FT                                               12079.0 : STOP DEPTH
STEP.FT                                                   0.5 : STEP BETWEEN DEPTHS
NULL.                                                 -999.25 : NULL VALUE
COMP.                                       SHELL WESTERN E&P : COMPANY 
DATE.                                             05-SEP-2007 : LOG DATE
#___________________________________________________________________________________________________ 
~CURVE INFORMATION 
# MNEM.UNIT           : CURVE DESCRIPTION 
#-----.-----          : ----------------------------- 
 DEPT.FT               : MEASURED DEPTH 
 CALI.IN               : CALIPER (CAL - CAL) 
 GR.API                : GAMMA RAY (GR) 
 DT.US/FT              : SONIC DELTA TRANSIT TIME (DT) 
 DPHI.V/V              : DENSITY POROSITY (DPHI) 
 NPHI.V/V              : NEUTRON POROSITY (NPHI) 
 RHOB.G/CC             : BULK DENSITY (RHOB) 
 #___________________________________________________________________________________________________ 
~A         DEPT           CALI             GR             DT           DPHI           NPHI           RHOB
# ...
         9964.0          8.801         83.841         70.424        0.08211        0.12471         2.5630
         9964.5          8.778         86.192         71.550        0.07932        0.13988         2.5600
         9965.0          8.763         87.326         72.675        0.07468        0.13971         2.5600
         9965.5          8.757         84.880         73.801        0.06880        0.13824         2.5620
         9966.0          8.752         82.435         75.075        0.06291        0.12936         2.5760
         9966.5          8.747         79.989         76.361        0.06008        0.12410         2.5890
         9967.0          8.721         82.125         77.647        0.05806        0.13001         2.6030
         9967.5          8.714         87.441         78.934        0.05440        0.14523         2.6020
         9968.0          8.714         98.105         80.220        0.05870        0.15265         2.5910
         9968.5          8.714        108.769         80.645        0.06749        0.15714         2.5800
         9969.0          8.703        112.864         78.587        0.07638        0.16295         2.5680
         9969.5          8.683        115.378         76.340        0.08231        0.17290         2.5570
         9970.0          8.688        113.611         74.092        0.08730        0.18285         2.5480
         9970.5          8.692        100.918         71.845        0.07771        0.19110         2.5620
         9971.0          8.692         88.224         69.502        0.06813        0.19110         2.5760
         9971.5          8.680         75.531         66.434        0.05696        0.17239         2.5900
         9972.0          8.668         68.445         63.366        0.05838        0.11760         2.6020
         9972.5          8.660         67.106         61.723        0.06026        0.10693         2.6010
         9973.0          8.653         65.768         62.096        0.05984        0.09638         2.6000
         9973.5          8.647         63.520         65.035        0.05222        0.08594         2.6060
         9974.0          8.629         59.480         68.706        0.04095        0.07697         2.6220
         9974.5          8.641         55.440         72.378        0.03502        0.06992         2.6370
         9975.0          8.652         58.318         76.049        0.03655        0.07003         2.6410
         9975.5          8.659         70.266         77.864        0.04870        0.10197         2.6170
         9976.0          8.660         81.894         79.344        0.07234        0.13244         2.5930
         9976.5          8.661         84.470         80.024        0.09013        0.13899         2.5690
         9977.0          8.663         92.020         79.880        0.09178        0.14355         2.5450
         9977.5          8.664        107.254         78.115        0.09419        0.15107         2.5340
         9978.0          8.639        122.488         76.319        0.09850        0.18021         2.5310
         9978.5          8.627        127.411         74.523        0.09725        0.18720         2.5340
         9979.0          8.627        121.153         73.898        0.09233        0.18535         2.5540
         9979.5          8.627        106.219         75.127        0.07626        0.16315         2.5730
         9980.0          8.627         91.285         77.958        0.06177        0.13003         2.5890
         9980.5          8.627         81.529         81.217        0.06772        0.12152         2.5740
         9981.0          8.627         92.730         84.475        0.07492        0.12880         2.5600
         9981.5          8.637        103.930         85.388        0.08259        0.17014         2.5460
         9982.0          8.652        115.131         84.474        0.09266        0.21614         2.5320
         9982.5          8.665        124.689         80.455        0.10272        0.24239         2.5180
         9983.0          8.667        130.095         76.359        0.11049        0.24593         2.5170
         9983.5          8.668        124.540         72.262        0.10216        0.24593         2.5550
         9984.0          8.670        108.178         68.198        0.07704        0.23089         2.5920
         9984.5          8.672         91.816         66.860        0.04910        0.17207         2.6250
         9985.0          8.674         75.454         65.554        0.04283        0.13088         2.6270
         9985.5          8.676         65.260         65.024        0.04139        0.10683         2.6270
         9986.0          8.678         60.787         67.298        0.04935        0.09861         2.6200
         9986.5          8.683         62.310         69.573        0.05731        0.09595         2.6130
         9987.0          8.689         63.177         71.847        0.05182        0.09766         2.6130
         9987.5          8.677         61.296         75.646        0.04429        0.09700         2.6200
         9988.0          8.656         60.100         79.881        0.03676        0.09406         2.6280
         9988.5          8.642         72.660         84.117        0.05097        0.11067         2.6160
         9989.0          8.635         85.219         86.367        0.05993        0.12907         2.5960
         9989.5          8.628         97.779         87.825        0.07706        0.14838         2.5760
         9990.0          8.621        110.339         88.008        0.09634        0.17463         2.5560
         9990.5          8.601        112.449         87.821        0.11547        0.19649         2.5380
         9991.0          8.629        113.166         87.393        0.12103        0.20310         2.5210
         9991.5          8.632        113.883         86.321        0.11881        0.20454         2.5030
         9992.0          8.629        114.601         84.277        0.10704        0.20481         2.4860
         9992.5          8.626        113.643         81.506        0.09616        0.20528         2.4970
         9993.0          8.624        111.512         78.734        0.09777        0.20804         2.5110
         9993.5          8.621        109.382         76.044        0.09810        0.21027         2.5220
         9994.0          8.619        103.613         74.404        0.09433        0.20649         2.5240
         9994.5          8.616         93.036         73.765        0.07586        0.18667         2.5330
         9995.0          8.614         82.460         75.474        0.05739        0.15700         2.5770
         9995.5          8.611         71.883         79.091        0.04565        0.13299         2.6210
         9996.0          8.609         64.601         82.709        0.04713        0.11849         2.6200
         9996.5          8.606         77.690         86.133        0.06046        0.11758         2.5920
         9997.0          8.604         90.780         88.731        0.07628        0.14251         2.5560
         9997.5          8.616        103.869         90.108        0.10740        0.16593         2.5190
         9998.0          8.611        116.958         89.898        0.13547        0.19571         2.4820
         9998.5          8.599        121.057         88.810        0.13997        0.21200         2.4580
         9999.0          8.586        123.550         84.587        0.13859        0.21292         2.4560
         9999.5          8.581        125.785         79.979        0.13345        0.21141         2.4600
        10000.0          8.596        124.602         76.454        0.12063        0.21007         2.4740
        10000.5          8.609        112.535         74.743        0.09784        0.20881         2.5260
        10001.0          8.611         99.689         75.453        0.06603        0.20755         2.5860
        10001.5          8.613         86.842         76.309        0.03548        0.15705         2.6470
