~Version Information
 VERS.                  2.0:   CWLS log ASCII Standard -VERSION 2.0
 WRAP.                   NO:   One line per depth step
~Well Information Block
#MNEM.UNIT     VALUE/NAME     DESCRIPTION
#---------     -----------    ---------------------------
 STRT.F              8800.0000: START DEPTH
 STOP.F             14300.0000: STOP DEPTH
 STEP.F                 0.5000: STEP DEPTH
 NULL.                 -999.25: NULL VALUE
 LOC .     336'' FSL & 729' FWL:  LOCATION
 FL6 .        API 42-389-36322:  LOCATIONLINE6
 FL4 .           ABSTRACT 3622:  LOCATIONLINE4
 FL3 .        T&P RR CO SURVEY:  LOCATIONLINE3
 FL2 .     SECTION 36, BLOCK 58 T2:  LOCATIONLINE2
 FL1 .     336'' FSL & 729' FWL:  LOCATIONLINE1
 DMF .                      KB:  DRILL MEAS FROM
 PDAT.                      GL:  PERMANENT DATUM
 CNTY.                  REEVES:  COUNTY NAME
 FLD .     FORD, WEST (WOLFCAMP):  FIELD NAME
 WELL.        AVA STATE 36 #2H:  WELL NAME
 COMP.     CAPITAN ENERGY INC.:  COMPANY
 DATE.             01-Nov-2017:  DATE
 SVCO.             Halliburton:  SERVICECONAME
 PROV.                   TEXAS:  PROVINCE
 STAT.                   TEXAS:  STATE NAME
 CTRY.           UNITED STATES:  COUNTRY NAME
 HIDE.                        :  WELLNAMEOPERAT
 BASI.                 PERMIAN:  BASIN
 UWI .            42-389-36322LAT:  UNIQUE WELL IDENTIFIER
 API .            42-389-36322LAT:  API NUMBER
 RANG.                     N/A:  RANGE
 TOWN.                     N/A:  TOWNSHIP
 SECT.                     N/A:  SECTION
 SON .               904399722:  JOB NUMBER
 SRVC.             Halliburton:  SERVICE COMPANY
 LMF .                      KB:  LOG MEASURED FROM
 EGL .ft             3011.0000:  GROUND ELEVATION
 BAP .ft                0.0000:  GL ELEV ONSHORE
 GVFD.g                 1.0000:  GRAVITY FIELD
 EKB .ft             3037.0000:  KB ELEVATION
 EDF .ft             3036.0000:  DF ELEVATION
~Curve Information Block
#MNEM.UNIT                 API CODE     Curve Description
#---------               -----------    ---------------------------
 DEPT.F                 00 000 000 000:  Depth
 CCL .V                 00 000 000 000:  Casing Collar Locator
 NPHI_OH.pu             00 000 000 000:  NPHI_OH
 NPHI_CHI.pu            00 000 000 000:  NPHI_CHI
 GR_CHI.api             00 000 000 000:  GR_CHI
 GR_OH.api              00 000 000 000:  GR_OH
 RHOB_OH.g/cc           00 000 000 000:  RHOB_OH
 RHOB_CHI.g/cc          00 000 000 000:  RHOB_CHI
 PE_CHI.b/e             00 000 000 000:  PE_CHI
 PE_OH.b/e              00 000 000 000:  PE_OH
 DTC_OH.uspf            00 000 000 000:  DTC_OH
 DTC_CHI.uspf           00 000 000 000:  DTC_CHI
 SPHI_CHI.pu            00 000 000 000:  Acou Porosity CHI
 RT10_OH.ohmm           00 000 000 000:  RT10_OH
 RT10_CHI.ohmm          00 000 000 000:  RT10_CHI
 RT30_OH.ohmm           00 000 000 000:  RT30_OH
 RT30_CHI.ohmm          00 000 000 000:  RT30_CHI
 RT90_OH.ohmm           00 000 000 000:  RT90_OH
 RT90_CHI.ohmm          00 000 000 000:  RT90_CHI
 SGF .cu                00 000 000 000:  Formation Sigma
 CRNF.NONE              00 000 000 000:  CM GrsCaptRatio
 RIN .NONE              00 000 000 000:  CM GrsInelRatio
#Other Information
#
#WARRANTY: Halliburton will use its best efforts to furnish customers with 
#accurate information and interpretations that are part of, and incident to, the services 
#provided.  However, Halliburton cannot and does not warrant the accuracy 
#or correctness of such information and interpretations.  Under no circumstances should any 
#such information or interpretation be relied upon as the sole basis for any drilling, 
#completion, production, or financial decision or any procedure involving any risk to the 
#safety of any drilling venture, drilling rig or its crew or any other third party.  The 
#Customer has full responsibility for all drilling, completion and production operation.  
#Halliburton makes no representations or warranties, either expressed or 
#implied, including, but not limited to, the implied warranties of merchantability or fitness 
#for a particular purpose, with respect to the services rendered.  In no event will 
#Halliburton be liable for failure to obtain any particular results or for 
#any damages, including, but not limited to, indirect, special or consequential damages, 
#resulting from the use of any information or interpretation provided by Halliburton.
#
~A    DEPT      CCL   NPHI_OH NPHI_CHI   GR_CHI   GR_OH   RHOB_OH RHOB_CHI  PE_CHI   PE_OH  DTC_OH  DTC_CHI SPHI_CHI RT10_OH  RT10_CHI RT30_OH  RT30_CHI RT90_OH  RT90_CHI   SGF    CRNF   RIN   
# ...
    9535.0000  0.0000 10.7600   13.9543 103.4376  98.0115  2.5439    2.5365  3.2291  3.2679 70.2625 75.2379  19.5500  40.0641  28.5859  40.2472  27.0926  41.4265  27.9555 29.0833 1.1623 1.2115
    9535.5000  0.0000 10.7600   13.7868  99.8388  98.0115  2.5439    2.5361  3.2002  3.2679 70.2625 74.9269  19.3300  40.0641  28.9787  40.2472  27.4764  41.4265  28.2606 27.9162 1.1388 1.2076
    9536.0000  0.0000 14.4500   13.5559  95.3389 103.9391  2.5257    2.5362  3.1689  3.0559 71.1910 74.4558  18.9900  41.7663  29.6349  41.9638  28.1187  43.2662  28.7811 26.9668 1.1241 1.2039
    9536.5000  0.0000 14.4500   13.2887  92.7733 103.9391  2.5257    2.5379  3.1736  3.0559 71.1910 73.8483  18.5600  41.7663  31.5028  41.9638  29.9696  43.2662  30.5026 26.0182 1.1217 1.2040
    9537.0000  0.0000 14.4500   13.0831  94.2683 103.9391  2.5257    2.5402  3.1965  3.0559 72.5030 73.4112  18.2500  41.7663  33.3523  41.9638  31.8451  43.2662  32.2908 25.6504 1.1313 1.2054
    9537.5000  0.0000 14.4500   12.4991  77.8516 103.9391  2.5257    2.5454  3.3076  3.0559 72.5030 72.3630  17.5100  41.7663  35.4380  41.9638  34.2245  43.2662  34.2530 25.6435 1.1466 1.2106
    9538.0000  0.0000 15.7600   12.2725  74.0478 105.0838  2.5201    2.5485  3.3749  2.9817 73.7395 72.0575  17.3000  41.9130  36.6874  42.1486  35.5558  43.5488  35.4559 25.8480 1.1651 1.2167
    9538.5000  0.0000 15.7600   12.3173  74.5887 105.0838  2.5201    2.5492  3.4065  2.9817 73.7395 72.1695  17.3800  41.9130  36.9864  42.1486  35.7688  43.5488  35.7161 26.0154 1.1722 1.2225
    9539.0000  0.0000 15.7600   12.5322  77.6672 105.0838  2.5201    2.5479  3.4068  2.9817 75.0697 72.5281  17.6300  41.9130  36.5330  42.1486  35.1663  43.5488  35.2674 26.1160 1.1752 1.2254
    9539.5000  0.0000 15.7600   13.1841  94.1013 105.0838  2.5201    2.5429  3.3405  2.9817 75.0697 73.5722  18.3700  41.9130  35.7179  42.1486  34.1247  43.5488  34.6583 25.9897 1.1614 1.2217
    9540.0000  0.0000 14.7200   13.3818  90.5987 100.8661  2.5210    2.5392  3.2909  2.9361 76.2018 73.6461  18.4200  40.2826  35.0423  40.5815  33.5411  42.0368  34.0737 25.5352 1.1310 1.2142
    9540.5000  0.0000 14.7200   13.4631  86.9909 100.8661  2.5210    2.5374  3.2728  2.9361 76.2018 73.5791  18.3700  40.2826  34.9328  40.5815  33.5124  42.0368  34.0025 24.7326 1.0981 1.2103
    9541.0000  0.0000 14.7200   13.4150  90.8577 100.8661  2.5210    2.5381  3.2709  2.9361 77.3845 73.5116  18.3300  40.2826  35.7695  40.5815  34.3613  42.0368  34.8379 23.4689 1.0602 1.2096
    9541.5000  0.0000 14.7200   12.9284  87.2424 100.8661  2.5210    2.5430  3.3257  2.9361 77.3845 72.7392  17.7800  40.2826  37.6483  40.5815  36.4502  42.0368  36.6357 22.2319 1.0187 1.2111
    9542.0000  0.0000 12.7500   12.5436  88.0970  80.9606  2.5439    2.5470  3.3817  3.0016 77.8130 71.9981  17.2500  40.4448  40.5038  40.8762  39.7482  42.5914  39.6504 20.5811 0.9776 1.2072
    9542.5000  0.0000 12.7500   11.6831  79.6758  80.9606  2.5439    2.5550  3.5111  3.0016 77.8130 70.7393  16.3600  40.4448  43.4834  40.8762  43.6660  42.5914  43.0009 18.8386 0.9380 1.1972
    9543.0000  0.0000 12.7500   10.5889  74.9814  80.9606  2.5439    2.5664  3.7137  3.0016 76.6126 69.3057  15.3500  40.4448  47.3952  40.8762  49.0154  42.5914  47.6806 17.2707 0.9053 1.1828
    9543.5000  0.0000 12.7500    8.9348  63.8361  80.9606  2.5439    2.5843  4.0372  3.0016 76.6126 67.4562  14.0400  40.4448  51.7883  40.8762  55.5427  42.5914  53.1590 15.9175 0.8780 1.1701
    9544.0000  0.0000  9.9100    6.9571  46.8020  57.6365  2.5867    2.6051  4.4078  3.2022 75.1855 65.5450  12.6900  40.5191  53.4631  41.1255  59.4428  43.1726  55.8529 15.0171 0.8581 1.1543
    9544.5000  0.0000  9.9100    6.1671  45.2543  57.6365  2.5867    2.6150  4.5840  3.2022 75.1855 64.0919  11.6600  40.5191  54.9544  41.1255  62.5252  43.1726  58.2393 14.3704 0.8459 1.1398
    9545.0000  0.0000  9.9100    5.8131  47.6328  57.6365  2.5867    2.6204  4.6719  3.2022 73.4689 62.8705  10.8000  40.5191  56.0925  41.1255  64.7798  43.1726  60.0173 13.9485 0.8485 1.1298
    9545.5000  0.0000  9.9100    5.4597  48.3346  57.6365  2.5867    2.6257  4.7490  3.2022 73.4689 61.8087  10.0500  40.5191  58.5182  41.1255  68.3796  43.1726  62.9983 13.7830 0.8675 1.1296
    9546.0000  0.0000  8.2300    4.8197  44.4553  51.3758  2.6167    2.6339  4.8557  3.4273 71.5762 60.7619   9.3100  38.0726  63.5770  38.7896  75.0784  40.9299  68.6052 13.8948 0.9023 1.1444
    9546.5000  0.0000  8.2300    4.2265  38.3955  51.3758  2.6167    2.6411  4.9427  3.4273 71.5762 60.1768   8.8900  38.0726  71.0993  38.7896  84.5249  40.9299  76.7174 14.3955 0.9491 1.1695
    9547.0000  0.0000  7.7100    4.3308  39.5709  59.4049  2.5964    2.6413  4.9219  3.4659 68.4548 60.2905   8.9700  32.0531  82.6041  32.7000  98.2186  34.4582  89.1953 15.4610 0.9955 1.2014
    9547.5000  0.0000  8.7800    6.0310  61.0495  74.6514  2.5459    2.6254  4.6728  3.2784 67.9261 61.7689  10.0200  30.6720  89.4152  31.3963 104.3206  33.2539  96.2591 17.6250 1.0359 1.2228
    9548.0000  0.0000  8.7800    7.5961  70.4647  74.6514  2.5459    2.6084  4.4363  3.2784 69.0896 64.2981  11.8100  30.6720  81.3582  31.3963  91.8524  33.2539  86.1145 19.4209 1.0519 1.2286
    9548.5000  0.0000 12.5700    9.2556  74.1314  94.3488  2.5103    2.5875  4.1156  3.0556 72.6560 67.1742  13.8400  33.3061  65.0068  34.3296  70.1230  36.8651  66.9978 20.1321 1.0468 1.2179
    9549.0000  0.0000 16.1400   11.3330  88.9991 116.6733  2.4898    2.5627  3.7061  2.9414 76.7348 69.8516  15.7400  33.4537  52.2308  34.6730  53.9123  37.6095  52.7213 19.5018 1.0346 1.1994
    9549.5000  0.0000 17.7600   12.4167  98.9770 131.1848  2.4802    2.5494  3.4780  2.9682 80.8828 71.1394  16.6500  31.6848  47.1199  32.9573  47.7870  35.9673  47.3221 18.7713 1.0251 1.1834
    9550.0000  0.0000 18.1000   12.0028  89.2045 134.1092  2.4715    2.5532  3.5816  3.0605 82.4870 70.7186  16.3500  31.0443  48.0303  32.4386  49.2746  35.7536  48.4837 18.6754 1.0351 1.1769
    9550.5000  0.0000 17.6200   10.9543  75.4838 130.8449  2.4561    2.5649  3.8010  3.0677 84.2878 69.7035  15.6300  30.8783  51.5719  32.3746  53.8889  36.1046  52.3998 19.0591 1.0653 1.1827
    9551.0000  0.0000 16.1000   10.1373  67.9170 121.3593  2.4566    2.5745  3.9422  3.0092 83.6479 68.8549  15.0300  30.2057  55.0901  31.4717  58.1574  35.3930  56.0883 20.7798 1.1089 1.1970
    9551.5000  0.0000 14.9300   10.3523  72.0187 108.5530  2.4713    2.5738  3.9153  3.0267 82.7639 68.9929  15.1300  31.3604  56.0006  32.3046  58.6235  36.8429  56.6434 23.4627 1.1627 1.2146
    9552.0000  0.0000 14.5100   11.3922  84.8341  99.2632  2.4821    2.5635  3.7076  3.1346 80.4603 70.3286  16.0700  34.3235  49.9385  34.8869  50.5440  40.6236  49.5354 26.4358 1.1864 1.2273
    9552.5000  0.0000 13.9300   12.4911 103.4832 102.1403  2.4771    2.5527  3.4776  3.2096 81.1362 72.4226  17.5500  37.8984  41.5299  37.5433  40.2941  44.5964  40.4347 28.7960 1.1873 1.2323
    9553.0000  0.0000 15.4300   13.0878 102.8362 119.2420  2.4592    2.5463  3.3763  3.1370 81.7530 73.8250  18.5500  40.6615  35.4287  38.0210  33.6350  45.4605  34.2932 29.1977 1.1653 1.2299
    9553.5000  0.0000 16.3200   13.2530 101.0415 128.1209  2.4592    2.5440  3.3115  3.0550 80.6598 74.3587  18.9200  39.7776  31.5126  32.9073  29.7343  38.3520  30.4891 28.8546 1.1493 1.2241
    9554.0000  0.0000 14.6300   13.1968  97.0301 115.6872  2.4882    2.5432  3.2846  3.1312 81.0797 74.2667  18.8600  39.0875  30.6677  27.4225  28.9652  31.0077  29.6490 27.7977 1.1302 1.2202
    9554.5000  0.0000 13.1000   13.0045  98.6610 101.8949  2.5218    2.5443  3.2608  3.2710 81.1431 73.9909  18.6600  34.3677  31.2049  24.2386  29.4701  26.8300  30.0966 26.4939 1.1198 1.2184
    9555.0000  0.0000 13.1000   12.7422  91.5611 101.8949  2.5218    2.5459  3.2899  3.2710 81.1772 73.3385  18.2000  34.3677  32.9964  24.2386  31.3466  26.8300  31.7831 25.7729 1.1108 1.2196
    9555.5000  0.0000 13.2000   12.5371  89.1055  94.7247  2.5365    2.5479  3.3340  3.3799 81.1123 72.7656  17.8000  31.2283  35.4591  22.5877  33.9562  24.5957  34.2138 25.6252 1.1171 1.2211
