#   WellGreen Tech Inc.   Digitizing Services
#   www.wellgreentech.com
#   email: sales@wellgreentech.com
#
~Version Information Block
 VERS.                2.00:     CWLS LOG ASCII STANDARD - VERSION 2.000000
 WRAP.                  NO:     One Line Per Depth Step
#
~Well Information Block
#MNEM.UNIT                     Data                         Information
#----------   ------------------------------------------   ----------------
 STRT.FT                                     4000.0000:     START DEPTH
 STOP.FT                                    15710.0000:     STOP DEPTH
 STEP.FT                                        0.5000:     STEP
 NULL.                                       -999.2500:     NULL VALUE
 COMP.                        THE SUPERIOR OIL COMPANY:     COMPANY
 WELL.                                FORTUNE STATE #1:     WELL
 FLD .                                    CHAPMAN DEEP:     FIELD
 LOC .                                                :     LOCATION
 CNTY.                                          REEVES:     COUNTY
 STAT.                                              TX:     STATE
 CTRY.                                             USA:     COUNTRY
 SRVC.                                    SCHLUMBERGER:     SERVICE COMPANY
 DATE.                                      11/10/1974:     DATE
 API .               42389302950000:    API NUMBER
 UWI .               42389302950000:    UWI NUMBER
 TVD .                                              NO:     TVD flag
 MATRIX .G/CC                  :    Matrix Density
#
~Curve Information Block
#MNEM.UNIT       API CODE      Curve Description
#----------    -------------   -------------------
 DEPT.FT                   :   Depth in Feet
 CALI.IN       70 280 01 01:   Caliper
 GR  .API      35 310 01 01:   Gamma Ray
 DT  .US/F     60 520 08 01:   Sonic transit time
#
~Parameter Information Block
#MNEM.UNIT            Value               Description
#----------    --------------------    -------------------
 RUN .                         ONE:    Run Number
 PDAT.                          GL:    Permanent Datum
 EPD .FT                  000.0000:    Elevation Of Perm. Datum
 LMF .               KELLY BUSHING:    Log Measured From
 EKB .FT                  3065.0:    Elevation Of Kelly Bushing
 DF .FT                    000.0:    Elevation Of Derrick Floor
 GL .FT                   3034.0:    Elevation Of Ground Level
 TD .FT                  15710.0000:    Total Depth
 BHT .DEGF               260.00 :  Bottom Hole Temperature
 BLI .FT               15710.0000:   Bottom Log Interval
 CSGSIZE.IN              9.6250:   Casing Size
 BITSIZE.IN               8.750 :  BitSize
 CSGD.FT                  4000.0:    Casing Bottom (Driller) 1
 CSGL.FT                  400.0:    Casing Bottom (Logger) 1
 MUD . BRINE                                :    Drilling Fluid Type
 MUDV .CP                  27.0:    Drilling Fluid Viscosity
 MUDD .LB/USG              9.25:    Drilling Fluid Density
 PH.                        6.2:    Drilling Fluid Ph
 FL .ML/30MIN              11.0:    Drilling Fluid Loss
 MUDS .FLOW LINE                        :    Mud Sample Source
 RM .OHMM                   0.09:    Resistivity Of Mud Sample
 RMT .DEGF                 60.00:    Mud Sample Temperature
 RMF .OHMM                  0.09:    Mud Filtrate Resistivity
 RMFT.DEGF                 60.00:    Mud Filtrate Sample Temperature
 RMC .OHMM                  0.00:    Mud Cake Resistivity
 RMCT.DEGF                 00.00:    Mud Cake Sample Temperature
 RMB .OHMM                 0.027:    Mud Resistivity At Bht
 TMAX .DEGF               260.00:    Bottom Hole Temperature
#
~Other Information Block
<DescLogPlotStart>   NEURALOG PLOT DEFINITION
PLOTDEFVERSION: 3
LASFILE: D:\nds\projects\G\DAVE\new work\RS Energy - Texas - May 17 - Folder 2\
DEPTHSCALE: 240.000000
RESOLUTION: 400
DEPTHLABELFREQ: 100.000000
HEAVYGRIDFREQ: 100.000000
MEDIUMGRIDFREQ: 50.000000
LIGHTGRIDFREQ: 10.000000
#
#   TRACK 1
#
STARTTRACK: 
 LEFTX: 0.500000 inch
 RIGHTX: 3.000000 inch
 SCALETYPE: Linear
 NUMCHARTDIVISIONS: 10
CURVE: CALI  6.000000   16.000000  (0,0,255)      Solid             2     N    
CURVE: GR    0.000000   125.000000 (0,131,131)    Dot               2     Y    
BACKUP: 125.000000 250.000000 (0,131,131)    Dot               2    
ENDTRACK: 
#
#   TRACK 2
#
STARTTRACK: 
 LEFTX: 3.500000 inch
 RIGHTX: 8.500000 inch
 SCALETYPE: Linear
 NUMCHARTDIVISIONS: 10
CURVE: DT    100.000000 40.000000  (255,0,255)    Solid             2     Y    
BACKUP: 160.000000 100.000000 (255,0,255)    Solid             2    
ENDTRACK: 
<DescLogPlotEnd>
~A DEPTH     CALI             GR               DT              
# ...
    9437.500 12.097           50.979           65.924          
    9438.000 12.097           56.505           68.767          
    9438.500 12.097           62.726           73.165          
    9439.000 12.096           65.645           72.197          
    9439.500 12.096           60.673           71.272          
    9440.000 12.096           58.560           69.128          
    9440.500 12.096           55.281           66.040          
    9441.000 12.096           51.094           64.511          
    9441.500 12.096           46.548           66.046          
    9442.000 12.096           49.359           67.803          
    9442.500 12.096           55.474           70.106          
    9443.000 12.096           58.158           71.481          
    9443.500 12.096           55.793           69.137          
    9444.000 12.096           53.492           67.285          
    9444.500 12.096           52.067           67.698          
    9445.000 12.096           55.820           69.313          
    9445.500 12.096           61.866           70.928          
    9446.000 12.096           66.015           71.550          
    9446.500 12.096           67.281           71.152          
    9447.000 12.096           65.111           71.486          
    9447.500 12.096           61.762           71.780          
    9448.000 12.096           58.413           69.363          
    9448.500 12.095           54.778           65.844          
    9449.000 12.095           51.034           63.660          
    9449.500 12.095           49.359           64.257          
    9450.000 12.095           50.079           67.534          
    9450.500 12.095           54.759           72.447          
    9451.000 12.095           62.218           73.591          
    9451.500 12.095           66.813           73.877          
    9452.000 12.095           70.411           74.718          
    9452.500 12.095           70.837           74.292          
    9453.000 12.095           65.305           72.479          
    9453.500 12.095           57.213           69.807          
    9454.000 12.095           49.094           65.678          
    9454.500 12.095           44.589           66.103          
    9455.000 12.095           45.432           66.960          
    9455.500 12.095           48.774           67.544          
    9456.000 12.095           54.237           66.424          
    9456.500 12.095           56.206           67.116          
    9457.000 12.095           54.825           68.914          
    9457.500 12.095           57.569           70.523          
    9458.000 12.094           61.605           68.580          
    9458.500 12.094           63.684           65.666          
    9459.000 12.094           52.778           63.584          
    9459.500 12.094           45.031           65.214          
    9460.000 12.094           40.830           68.349          
    9460.500 12.094           40.001           70.761          
    9461.000 12.094           39.167           72.318          
    9461.500 12.094           38.334           72.236          
    9462.000 12.094           40.023           72.115          
    9462.500 12.094           43.215           72.162          
    9463.000 12.094           45.790           73.066          
    9463.500 12.094           45.847           72.498          
    9464.000 12.094           47.933           70.989          
    9464.500 12.094           53.675           70.686          
    9465.000 12.094           54.550           70.089          
    9465.500 12.094           57.531           70.413          
    9466.000 12.094           63.359           71.547          
    9466.500 12.094           67.878           72.111          
    9467.000 12.094           65.640           72.856          
    9467.500 12.093           64.125           71.929          
    9468.000 12.093           66.975           68.817          
    9468.500 12.093           68.609           67.044          
    9469.000 12.093           60.424           66.672          
    9469.500 12.093           56.396           66.718          
    9470.000 12.093           58.828           68.718          
    9470.500 12.093           58.500           70.643          
    9471.000 12.093           58.699           70.620          
    9471.500 12.093           60.223           70.882          
    9472.000 12.093           61.885           71.945          
    9472.500 12.093           64.779           72.914          
    9473.000 12.093           66.849           72.862          
    9473.500 12.093           64.287           73.403          
    9474.000 12.093           63.182           74.466          
    9474.500 12.093           65.847           74.317          
    9475.000 12.093           70.991           74.044          
    9475.500 12.093           68.021           73.248          
    9476.000 12.093           62.943           70.874          
    9476.500 12.093           60.174           67.291          
    9477.000 12.092           57.444           64.073          
    9477.500 12.092           53.242           63.012          
    9478.000 12.092           50.936           63.102          
    9478.500 12.092           53.202           66.383          
    9479.000 12.092           56.953           69.525          
    9479.500 12.092           55.634           70.676          
    9480.000 12.092           54.296           71.125          
    9480.500 12.092           53.669           71.442          
    9481.000 12.092           56.635           71.568          
    9481.500 12.092           57.814           71.509          
    9482.000 12.092           61.014           71.069          
    9482.500 12.092           64.584           73.130          
    9483.000 12.092           68.397           74.452          
    9483.500 12.092           65.064           74.134          
    9484.000 12.092           59.809           73.425          
    9484.500 12.092           52.901           70.475          
    9485.000 12.092           46.761           67.776          
    9485.500 12.092           42.469           67.286          
    9486.000 12.092           43.365           67.675          
    9486.500 12.091           47.941           68.913          
    9487.000 12.091           52.677           69.727          
    9487.500 12.091           55.876           70.274          
    9488.000 12.091           58.921           71.032          
    9488.500 12.091           61.979           70.043          
    9489.000 12.091           63.350           67.938          
    9489.500 12.091           58.006           66.994          
    9490.000 12.091           53.895           67.392          
    9490.500 12.091           53.132           68.495          
    9491.000 12.091           58.064           70.207          
    9491.500 12.091           61.781           70.323          
    9492.000 12.091           65.801           70.118          
    9492.500 12.091           65.792           70.563          
    9493.000 12.091           64.740           71.118          
    9493.500 12.091           62.974           68.825          
    9494.000 12.091           60.833           65.199          
    9494.500 12.091           57.210           65.015          
    9495.000 12.091           52.628           65.570          
    9495.500 12.091           50.384           67.425          
    9496.000 12.090           53.973           69.925          
    9496.500 12.090           55.654           68.026          
    9497.000 12.090           53.335           65.625          
    9497.500 12.090           51.208           64.752          
    9498.000 12.090           49.068           65.756          
    9498.500 12.090           49.741           69.020          
    9499.000 12.090           54.507           71.008          
    9499.500 12.090           55.250           70.230          
