#--------------------------------------------------#
#-------------------ENVERUS, INC.------------------#
#------------------WWW.ENVERUS.COM-----------------#
#------------------COPYRIGHT 2020------------------#
#--------------------------------------------------#
#THIS FILE MAY BE USED ONLY IN ACCORDANCE WITH A CURRENT SUBSCRIPTION AGREEMENT BETWEEN
#THE USER AND ENVERUS, INC. NO PART OF THIS FILE MAY BE REPRODUCED, USED, COPIED,
#MODIFIED, PROPAGATED, OR DISTRIBUTED EXCEPT IN ACCORDANCE WITH THE SUBSCRIPTION
#AGREEMENT. UNAUTHORIZED USE OR DISTRIBUTION OF ALL OR ANY PART OF THIS FILE MAY VIOLATE
#COPYRIGHT, TRADEMARK, AND/OR OTHER LAWS AND IS SUBJECT TO CIVIL AS WELL AS CRIMINAL
#SANCTIONS.
#--------------------------------------------------#
#THIS FILE IS PROVIDED "AS-IS" AND ALL WARRANTIES ARE EXPRESSLY DISCLAIMED, WHETHER
#EXPRESS, ORAL, IMPLIED, STATUTORY OR OTHERWISE, INCLUDING ANY IMPLIED WARRANTY OF FITNESS
#FOR A PARTICULAR PURPOSE, MERCHANTABILITY, TITLE OR NON-INFRINGEMENT, AND ANY WARRANTIES
#ARISING BY VIRTUE OF CUSTOM OF TRADE OR COURSE OF DEALING.  FURTHER, ENVERUS, INC.
#AND ITS LICENSORS DO NOT REPRESENT OR WARRANT THAT THIS FILE WILL MEET USER'S
#REQUIREMENTS OR ARE SUITABLE FOR USER'S NEEDS OR THAT THE DATA OR RESULTS PROVIDED IN
#CONJUNCTION THEREWITH ARE CORRECT, ACCURATE, TIMELY OR RELIABLE. THESE DISCLAIMERS SHALL
#APPLY REGARDLESS OF ANY FAILURE OF ESSENTIAL PURPOSE OF ANY LIMITED REMEDY.  SOME
#JURISDICTIONS DO NOT ALLOW THE EXCLUSION OF CERTAIN WARRANTIES SO SOME OF THE ABOVE
#EXCLUSIONS MAY NOT APPLY. IN NO EVENT SHALL ENVERUS, INC. OR ANY OF ITS AFFILIATES
#BE LIABLE UNDER ANY LEGAL THEORY, WHETHER IN TORT (INCLUDING WITHOUT LIMITATION
#NEGLIGENCE), CONTRACT, STRICT LIABILITY, STATUTORY OR OTHERWISE, FOR ANY SPECIAL,
#INCIDENTAL, CONSEQUENTIAL, EXEMPLARY, PUNITIVE OR INDIRECT DAMAGE OF ANY KIND, INCLUDING
#WITHOUT LIMITATION LOSS OF REVENUE, PROFITS, GOODWILL, USE, AND/OR DATA OR THE COST OF
#PROCUREMENT OF SUBSTITUTE GOODS OR SERVICES, EVEN IF APPRISED OF THE POSSIBILITY OF SUCH
#DAMAGES IN ADVANCE.
#--------------------------------------------------#

~VERSION INFORMATION
VERS. 2.0 : CWLS LOG ASCII STANDARD - VERSION 2.0
WRAP.  NO : ONE LINE PER DEPTH STEP
~WELL INFORMATION
#MNEMONIC     .UNIT              VALUE :DESCRIPTION
STRT       .FT                0 :START DEPTH
STOP       .FT                15761 :STOP DEPTH
STEP       .FT                   0.500 :STEP
NULL       .                  -999.250 :NULL
UWI        .              42389302550000 :UNIQUE WELL ID
API        .              42389302550000 :API NUMBER
COMP       .         COASTAL STATES GAS PROD. CO. :COMPANY
WELL       .        CHAPMAN  MCGUIRE & WYNNE  3B :WELL
DATE       .                            :LOG DATE
~CURVE INFORMATION
#MNEMONIC     .UNIT      API CODE :CURVE DESCRIPTION
DEPTH       .FT                      :MEASURED DEPTH
GR.API        UNKNOWN   :GR
DT.US/FT        UNKNOWN   :DT
CAL.INCH        UNKNOWN   :CAL
~A    DEPTH    GR    DT    CAL
# ...
 15621.5     33.444   55.868   -999.250
 15622     36.48   55.929   -999.250
 15622.5     37.691   55.99   -999.250
 15623     38.186   56.051   -999.250
 15623.5     38.68   56.112   -999.250
 15624     39.636   56.752   -999.250
 15624.5     46.155   58.438   -999.250
 15625     52.675   59.106   -999.250
 15625.5     59.194   59.775   -999.250
 15626     60.318   59.936   -999.250
 15626.5     61.39   59.46   -999.250
 15627     62.147   59.975   -999.250
 15627.5     61.562   59.585   -999.250
 15628     60.976   59.832   -999.250
 15628.5     61.243   60.556   -999.250
 15629     68.406   61.89   -999.250
 15629.5     75.569   63.542   -999.250
 15630     82.732   64.525   -999.250
 15630.5     89.693   65.073   -999.250
 15631     96.421   64.168   -999.250
 15631.5     97.92   62.943   -999.250
 15632     96.131   63.095   -999.250
 15632.5     97.561   64.48   -999.250
 15633     98.99   63.399   -999.250
 15633.5     96.024   61.111   -999.250
 15634     73.385   57.457   -999.250
 15634.5     51.906   53.804   -999.250
 15635     45.728   52.804   -999.250
 15635.5     39.55   51.817   -999.250
 15636     41.472   52.309   -999.250
 15636.5     45.006   54.987   -999.250
 15637     49.453   57.665   -999.250
 15637.5     78.549   59.918   -999.250
 15638     85.501   61.464   -999.250
 15638.5     84.811   62.031   -999.250
 15639     80.166   62.401   -999.250
 15639.5     81.476   64.252   -999.250
 15640     82.786   65.468   -999.250
 15640.5     91.456   67.098   -999.250
 15641     101.955   67.415   -999.250
 15641.5     114.049   69.28   -999.250
 15642     130.409   70.366   -999.250
 15642.5     153.861   71.857   -999.250
 15643     181.121   75.775   -999.250
 15643.5     197.574   76.77   -999.250
 15644     197.281   77.508   -999.250
 15644.5     196.988   76.678   -999.250
 15645     195.274   77.655   -999.250
 15645.5     190.437   80.691   -999.250
 15646     173.561   81.3   -999.250
 15646.5     145.314   81.196   -999.250
 15647     107.816   77.93   -999.250
 15647.5     98.563   75.712   -999.250
 15648     99.747   75.846   -999.250
 15648.5     109.604   77.026   -999.250
 15649     122.566   80.964   -999.250
 15649.5     135.312   81.904   -999.250
 15650     140.449   82.07   -999.250
 15650.5     144.306   82.307   -999.250
 15651     148.163   81.573   -999.250
 15651.5     152.021   79.556   -999.250
 15652     152.226   77.871   -999.250
 15652.5     144.709   77.871   -999.250
 15653     144.656   79.956   -999.250
 15653.5     149.478   82.226   -999.250
 15654     149.546   83.882   -999.250
 15654.5     150.476   84.163   -999.250
 15655     157.218   84.12   -999.250
 15655.5     163.96   80.068   -999.250
 15656     163.324   77.016   -999.250
 15656.5     160.424   76.553   -999.250
 15657     157.524   77.299   -999.250
 15657.5     191.981   83.139   -999.250
 15658     197.978   86.772   -999.250
 15658.5     197.993   85.481   -999.250
 15659     198.007   84.883   -999.250
 15659.5     198.022   84.419   -999.250
 15660     198.037   83.528   -999.250
 15660.5     198.051   82.637   -999.250
 15661     198.066   81.746   -999.250
 15661.5     198.081   80.855   -999.250
 15662     198.095   81.321   -999.250
 15662.5     198.11   81.796   -999.250
 15663     198.125   80.828   -999.250
 15663.5     198.139   79.952   -999.250
 15664     198.154   79.631   -999.250
 15664.5     198.169   79.309   -999.250
 15665     198.183   79.918   -999.250
 15665.5     198.198   80.54   -999.250
 15666     198.213   80.521   -999.250
 15666.5     198.227   79.996   -999.250
 15667     198.242   79.472   -999.250
 15667.5     198.257   79.098   -999.250
 15668     195.814   79.667   -999.250
 15668.5     189.674   79.434   -999.250
 15669     181.358   79.604   -999.250
 15669.5     170.298   80.244   -999.250
 15670     163.954   79.585   -999.250
 15670.5     162.573   79.128   -999.250
 15671     163.619   79.058   -999.250
 15671.5     159.57   76.506   -999.250
 15672     151.53   74.536   -999.250
 15672.5     134.292   73.49   -999.250
 15673     136.165   72.445   -999.250
 15673.5     144.953   73.471   -999.250
 15674     168.775   75.131   -999.250
 15674.5     168.179   75.26   -999.250
 15675     167.583   76.18   -999.250
 15675.5     165.411   76.82   -999.250
 15676     162.033   77.46   -999.250
 15676.5     163.612   77.335   -999.250
 15677     168.356   77.08   -999.250
 15677.5     183.015   76.825   -999.250
 15678     198.281   76.57   -999.250
 15678.5     198.387   76.505   -999.250
 15679     198.494   76.604   -999.250
 15679.5     185.99   77.13   -999.250
 15680     158.72   77.019   -999.250
 15680.5     154.85   76.522   -999.250
 15681     149.754   76.449   -999.250
 15681.5     144.004   75.805   -999.250
 15682     138.254   75.919   -999.250
 15682.5     132.504   76.273   -999.250
 15683     134.653   75.613   -999.250
 15683.5     139.829   74.952   -999.250
 15684     148.043   75.569   -999.250
 15684.5     156.256   74.971   -999.250
 15685     164.469   75.899   -999.250
 15685.5     165.72   76.894   -999.250
 15686     167.717   76.813   -999.250
 15686.5     171.547   76.637   -999.250
 15687     169.936   77.017   -999.250
 15687.5     166.618   77.187   -999.250
 15688     161.522   76.63   -999.250
 15688.5     157.836   76.073   -999.250
 15689     158.372   75.515   -999.250
 15689.5     158.908   75.666   -999.250
 15690     159.444   76.032   -999.250
 15690.5     166.816   76.14   -999.250
 15691     175.025   75.999   -999.250
 15691.5     177.786   76.769   -999.250
 15692     171.139   76.485   -999.250
 15692.5     164.491   77.032   -999.250
 15693     157.844   77.851   -999.250
 15693.5     151.197   75.454   -999.250
 15694     157.658   75.849   -999.250
 15694.5     166.002   75.934   -999.250
 15695     175.554   75.376   -999.250
 15695.5     185.105   76.857   -999.250
 15696     194.657   77.18   -999.250
 15696.5     198.782   77.253   -999.250
 15697     198.684   77.506   -999.250
 15697.5     198.586   76.987   -999.250
 15698     198.488   76.468   -999.250
 15698.5     198.39   75.949   -999.250
 15699     198.292   75.417   -999.250
 15699.5     198.194   74.762   -999.250
 15700     198.096   74.107   -999.250
 15700.5     197.997   73.452   -999.250
 15701     196.665   73.238   -999.250
 15701.5     192.762   73.454   -999.250
 15702     188.858   73.209   -999.250
 15702.5     188.134   72.965   -999.250
 15703     197.121   73.934   -999.250
 15703.5     198.529   74.899   -999.250
 15704     198.528   75.368   -999.250
 15704.5     198.528   76.783   -999.250
 15705     198.527   76.766   -999.250
 15705.5     198.527   78.129   -999.250
 15706     198.526   77.705   -999.250
 15706.5     198.527   77.28   -999.250
 15707     -999.250   77.759   -999.250
 15707.5     -999.250   77.023   -999.250
 15708     -999.250   78.611   -999.250
 15708.5     -999.250   80.447   -999.250
 15709     -999.250   81.763   -999.250
 15709.5     -999.250   82.752   -999.250
 15710     -999.250   83.741   -999.250
 15710.5     -999.250   83.548   -999.250
 15711     -999.250   83.556   -999.250
 15711.5     -999.250   82.384   -999.250
 15712     -999.250   81.053   -999.250
 15712.5     -999.250   78.635   -999.250
 15713     -999.250   77.864   -999.250
 15713.5     -999.250   77.098   -999.250
 15714     -999.250   77.965   -999.250
 15714.5     -999.250   78.624   -999.250
 15715     -999.250   78.158   -999.250
 15715.5     -999.250   77.691   -999.250
 15716     -999.250   77.853   -999.250
 15716.5     -999.250   76.499   -999.250
 15717     -999.250   76.467   -999.250
 15717.5     -999.250   76.044   -999.250
 15718     -999.250   75.615   -999.250
 15718.5     -999.250   75.935   -999.250
 15719     -999.250   76.575   -999.250
 15719.5     -999.250   77.215   -999.250
 15720     -999.250   77.854   -999.250
 15720.5     -999.250   77.993   -999.250
 15721     -999.250   77.959   -999.250
 15721.5     -999.250   77.924   -999.250
 15722     -999.250   77.972   -999.250
