###############################################
##         ENVERUS                           ##
##         ESS - Open Hole                   ##
##         PERMIAN / DELAWARE                ##
##         Nov 04 2023  V4.0                 ##
##         42-389-30259-00-00                ##
###############################################
## Copyright 2017-2023  ENVERUS.  All Rights Reserved. 
## Confidential - Property of ENVERUS, use governed by terms and 
## conditions found within the existing Information Services Subscription Agreement 
## (as may be amended, the “ISSA”) between Customer and ENVERUS. 
## 
~VERSION INFORMATION
# MNEM.UNIT                               DATA : DESCRIPTION OF MNEMONIC
#-----.-----     ----------------------------- : -----------------------------
VERS.                                     2.00 : CWLS LOG ASCII STANDARD - VERSION 2.00
WRAP.                                       NO : MULTIPLE LINES PER DEPTH STEP
VEND.                                  ENVERUS : VENDOR
TYPE.                          ESS - OPEN HOLE : ENVERUS ESSENTIAL CURVES – ACCESSIBLE THROUGH ENVERUS PRISM(TM)
DOC.                                  32063127 : ENVERUS HEADER RAW DOCUMENT ID
#___________________________________________________________________________________________________ 
~WELL INFORMATION 
# gPsidqVjAScFWwbHY3NvrhVb9Q0dnpAvxUas8qP1mSjKWoj7hBgJ2nw/4lW9Nf69eTG+8mlPQw3CFq6Jh/Hagw== 
# MNEM.UNIT                                              DATA : DESCRIPTION OF MNEMONIC 
#-----.-----                    ----------------------------- : ----------------------------- 
CNTY.                                                  REEVES : COUNTY 
STATE.                                                  TEXAS : STATE 
CNTRY.                                                    USA : COUNTRY 
API.                                             42-389-30259 : API (10 Digit) 
API_14.                                    42-389-30259-00-00 : API (14 Digits) 
API_14_std.                                 42-389-30259-0000 : API (14 Digits Standard) 
UWI.                                           42389302590000 : UNIQUE WELL ID 
WELL.                                         FORTUNE UNIT  1 : WELL NAME
STRT.FT                                                     0 : START DEPTH
STOP.FT                                               15675.0 : STOP DEPTH
STEP.FT                                                   0.5 : STEP BETWEEN DEPTHS
NULL.                                                 -999.25 : NULL VALUE
COMP.                          SANDRIDGE EXPL. AND PROD.  LLC : COMPANY 
DATE.                                             19-FEB-2007 : LOG DATE
#___________________________________________________________________________________________________ 
~CURVE INFORMATION 
# MNEM.UNIT           : CURVE DESCRIPTION 
#-----.-----          : ----------------------------- 
 DEPT.FT               : MEASURED DEPTH 
 CALI__B.IN            : CALIPER (CAL - CAL) 
 GR__B.API             : GAMMA RAY (GR) 
 DT__B.US/FT           : SONIC DELTA TRANSIT TIME (DT) 
 #___________________________________________________________________________________________________ 
~A         DEPT        CALI__B          GR__B          DT__B
# ...
         4686.0         13.082         30.156         70.370
         4686.5         13.080         28.269         70.946
         4687.0         13.078         28.968         70.552
         4687.5         13.076         30.319         68.970
         4688.0         13.074         28.773         66.787
         4688.5         13.072         26.751         65.296
         4689.0         13.070         25.369         64.512
         4689.5         13.067         25.737         65.713
         4690.0         13.065         26.105         68.368
         4690.5         13.063         28.573         71.280
         4691.0         13.061         31.821         71.369
         4691.5         13.059         37.610         71.937
         4692.0         13.057         43.399         71.693
         4692.5         13.055         49.187         70.847
         4693.0         13.053         49.299         70.001
         4693.5         13.053         49.163         69.155
         4694.0         13.053         48.656         68.116
         4694.5         13.053         48.058         67.023
         4695.0         13.053         47.868         66.701
         4695.5         13.053         47.746         66.514
         4696.0         13.053         47.947         66.365
         4696.5         13.053         48.487         66.178
         4697.0         13.053         49.027         65.991
         4697.5         13.053         51.086         65.905
         4698.0         13.053         57.572         66.296
         4698.5         13.053         62.973         67.070
         4699.0         13.053         65.892         67.735
         4699.5         13.053         62.303         67.789
         4700.0         13.053         59.197         67.270
         4700.5         13.053         61.057         66.218
         4701.0         13.053         64.824         66.347
         4701.5         13.053         71.880         66.567
         4702.0         13.053         81.315         66.406
         4702.5         13.053         99.109         67.097
         4703.0         13.053        115.682         68.334
         4703.5         13.053        136.973         70.379
         4704.0         13.053        115.364         71.412
         4704.5         13.053         96.178         70.422
         4705.0         13.053         76.824         68.231
         4705.5         13.053         62.713         65.436
         4706.0         13.053         53.365         65.364
         4706.5         13.053         49.414         65.416
         4707.0         13.053         43.371         65.467
         4707.5         13.053         37.940         64.713
         4708.0         13.053         33.380         62.982
         4708.5         13.053         28.820         60.224
         4709.0         13.052         24.259         57.752
         4709.5         13.051         22.945         56.850
         4710.0         13.050         24.634         58.896
         4710.5         13.049         25.964         62.677
         4711.0         13.048         27.203         65.859
         4711.5         13.047         28.236         67.203
         4712.0         13.046         28.507         66.506
         4712.5         13.045         28.798         65.616
         4713.0         13.044         29.421         65.326
         4713.5         13.043         30.045         65.741
         4714.0         13.042         30.370         67.020
         4714.5         13.041         29.830         68.158
         4715.0         13.041         29.290         68.372
         4715.5         13.040         28.805         68.088
         4716.0         13.039         30.757         68.120
         4716.5         13.038         32.455         68.965
         4717.0         13.037         31.376         69.207
         4717.5         13.036         30.296         67.948
         4718.0         13.035         29.216         65.692
         4718.5         13.034         32.086         63.278
         4719.0         13.033         35.661         60.760
         4719.5         13.032         39.236         60.101
         4720.0         13.031         43.898         61.451
         4720.5         13.030         48.773         63.292
         4721.0         13.029         50.764         65.133
         4721.5         13.028         48.642         68.054
         4722.0         13.028         42.214         69.873
         4722.5         13.027         38.656         71.283
         4723.0         13.026         38.656         72.023
         4723.5         13.025         38.803         71.872
         4724.0         13.024         40.780         71.288
         4724.5         13.023         42.757         70.557
         4725.0         13.022         46.437         69.826
         4725.5         13.021         54.580         69.094
         4726.0         13.020         62.723         68.361
         4726.5         13.019         71.555         68.033
         4727.0         13.009         91.332         68.519
         4727.5         12.998        111.109         70.227
         4728.0         12.987        115.573         71.724
         4728.5         12.976        114.054         71.186
         4729.0         12.965        100.764         69.215
         4729.5         12.954         74.968         66.057
         4730.0         12.943         73.207         63.274
         4730.5         12.932         76.252         61.955
         4731.0         12.921         77.504         62.384
         4731.5         12.910         76.493         62.760
         4732.0         12.899         77.331         62.652
         4732.5         12.888         77.051         62.839
         4733.0         12.877         74.235         62.389
         4733.5         12.866         71.542         61.735
         4734.0         12.854         71.391         60.729
         4734.5         12.843         72.034         59.723
         4735.0         12.832         79.310         59.863
         4735.5         12.821         86.585         60.007
         4736.0         12.810         92.271         60.357
         4736.5         12.799         97.418         61.239
         4737.0         12.788        101.440         62.374
         4737.5         12.777        104.703         63.978
         4738.0         12.766        107.965         66.529
         4738.5         12.766        111.228         69.428
         4739.0         12.791        102.604         69.865
         4739.5         12.815         85.557         69.565
         4740.0         12.840         68.691         69.887
         4740.5         12.864         63.883         68.681
         4741.0         12.889         56.820         68.375
         4741.5         12.913         48.230         67.228
         4742.0         12.938         39.749         64.524
         4742.5         12.962         31.417         60.630
         4743.0         12.985         25.493         58.915
         4743.5         12.985         26.352         58.735
         4744.0         12.986         27.211         59.483
         4744.5         12.987         28.990         60.707
         4745.0         12.988         30.882         61.576
         4745.5         12.989         32.773         61.540
         4746.0         12.989         32.651         61.504
         4746.5         12.990         31.657         62.863
         4747.0         12.991         31.582         64.506
         4747.5         12.992         31.507         66.150
         4748.0         12.993         31.432         67.649
         4748.5         12.993         30.763         68.105
         4749.0         12.994         28.489         68.561
         4749.5         12.995         26.214         69.017
         4750.0         12.996         23.940         69.473
         4750.5         12.996         24.071         69.395
         4751.0         12.997         24.747         69.250
         4751.5         12.998         25.577         69.106
