#   WellGreen Tech Inc.   Digitizing Services
#   www.wellgreentech.com
#   email: sales@wellgreentech.com
#
~Version Information Block
 VERS.                2.00:     CWLS LOG ASCII STANDARD - VERSION 2.000000
 WRAP.                  NO:     One Line Per Depth Step
#
~Well Information Block
#MNEM.UNIT                     Data                         Information
#----------   ------------------------------------------   ----------------
 STRT.FT                                     4000.0000:     START DEPTH
 STOP.FT                                    15710.0000:     STOP DEPTH
 STEP.FT                                        0.5000:     STEP
 NULL.                                       -999.2500:     NULL VALUE
 COMP.                        THE SUPERIOR OIL COMPANY:     COMPANY
 WELL.                                FORTUNE STATE #1:     WELL
 FLD .                                    CHAPMAN DEEP:     FIELD
 LOC .                                                :     LOCATION
 CNTY.                                          REEVES:     COUNTY
 STAT.                                              TX:     STATE
 CTRY.                                             USA:     COUNTRY
 SRVC.                                    SCHLUMBERGER:     SERVICE COMPANY
 DATE.                                      11/10/1974:     DATE
 API .               42389302950000:    API NUMBER
 UWI .               42389302950000:    UWI NUMBER
 TVD .                                              NO:     TVD flag
 MATRIX .G/CC                  :    Matrix Density
#
~Curve Information Block
#MNEM.UNIT       API CODE      Curve Description
#----------    -------------   -------------------
 DEPT.FT                   :   Depth in Feet
 CALI.IN       70 280 01 01:   Caliper
 GR  .API      35 310 01 01:   Gamma Ray
 DT  .US/F     60 520 08 01:   Sonic transit time
#
~Parameter Information Block
#MNEM.UNIT            Value               Description
#----------    --------------------    -------------------
 RUN .                         ONE:    Run Number
 PDAT.                          GL:    Permanent Datum
 EPD .FT                  000.0000:    Elevation Of Perm. Datum
 LMF .               KELLY BUSHING:    Log Measured From
 EKB .FT                  3065.0:    Elevation Of Kelly Bushing
 DF .FT                    000.0:    Elevation Of Derrick Floor
 GL .FT                   3034.0:    Elevation Of Ground Level
 TD .FT                  15710.0000:    Total Depth
 BHT .DEGF               260.00 :  Bottom Hole Temperature
 BLI .FT               15710.0000:   Bottom Log Interval
 CSGSIZE.IN              9.6250:   Casing Size
 BITSIZE.IN               8.750 :  BitSize
 CSGD.FT                  4000.0:    Casing Bottom (Driller) 1
 CSGL.FT                  400.0:    Casing Bottom (Logger) 1
 MUD . BRINE                                :    Drilling Fluid Type
 MUDV .CP                  27.0:    Drilling Fluid Viscosity
 MUDD .LB/USG              9.25:    Drilling Fluid Density
 PH.                        6.2:    Drilling Fluid Ph
 FL .ML/30MIN              11.0:    Drilling Fluid Loss
 MUDS .FLOW LINE                        :    Mud Sample Source
 RM .OHMM                   0.09:    Resistivity Of Mud Sample
 RMT .DEGF                 60.00:    Mud Sample Temperature
 RMF .OHMM                  0.09:    Mud Filtrate Resistivity
 RMFT.DEGF                 60.00:    Mud Filtrate Sample Temperature
 RMC .OHMM                  0.00:    Mud Cake Resistivity
 RMCT.DEGF                 00.00:    Mud Cake Sample Temperature
 RMB .OHMM                 0.027:    Mud Resistivity At Bht
 TMAX .DEGF               260.00:    Bottom Hole Temperature
#
~Other Information Block
<DescLogPlotStart>   NEURALOG PLOT DEFINITION
PLOTDEFVERSION: 3
LASFILE: D:\nds\projects\G\DAVE\new work\RS Energy - Texas - May 17 - Folder 2\
DEPTHSCALE: 240.000000
RESOLUTION: 400
DEPTHLABELFREQ: 100.000000
HEAVYGRIDFREQ: 100.000000
MEDIUMGRIDFREQ: 50.000000
LIGHTGRIDFREQ: 10.000000
#
#   TRACK 1
#
STARTTRACK: 
 LEFTX: 0.500000 inch
 RIGHTX: 3.000000 inch
 SCALETYPE: Linear
 NUMCHARTDIVISIONS: 10
CURVE: CALI  6.000000   16.000000  (0,0,255)      Solid             2     N    
CURVE: GR    0.000000   125.000000 (0,131,131)    Dot               2     Y    
BACKUP: 125.000000 250.000000 (0,131,131)    Dot               2    
ENDTRACK: 
#
#   TRACK 2
#
STARTTRACK: 
 LEFTX: 3.500000 inch
 RIGHTX: 8.500000 inch
 SCALETYPE: Linear
 NUMCHARTDIVISIONS: 10
CURVE: DT    100.000000 40.000000  (255,0,255)    Solid             2     Y    
BACKUP: 160.000000 100.000000 (255,0,255)    Solid             2    
ENDTRACK: 
<DescLogPlotEnd>
~A DEPTH     CALI             GR               DT              
# ...
   12500.000 10.120           58.608           65.405          
   12500.500 10.094           57.503           63.122          
   12501.000 10.080           55.311           60.840          
   12501.500 10.084           48.491           58.558          
   12502.000 10.087           41.376           56.837          
   12502.500 10.090           45.268           58.426          
   12503.000 10.093           51.928           60.598          
   12503.500 10.096           58.214           61.604          
   12504.000 10.100           52.765           59.209          
   12504.500 10.103           47.323           57.356          
   12505.000 10.106           41.875           55.277          
   12505.500 10.109           37.178           57.839          
   12506.000 10.112           43.344           60.757          
   12506.500 10.116           52.162           63.097          
   12507.000 10.119           50.701           60.362          
   12507.500 10.122           48.408           58.096          
   12508.000 10.125           47.534           60.200          
   12508.500 10.128           54.133           64.308          
   12509.000 10.113           58.824           70.120          
   12509.500 10.092           62.853           66.639          
   12510.000 10.071           55.429           58.516          
   12510.500 10.050           47.995           59.535          
   12511.000 10.029           43.281           61.143          
   12511.500 10.008           46.347           63.613          
   12512.000 9.987            48.638           62.999          
   12512.500 9.966            50.929           61.673          
   12513.000 9.941            53.214           60.347          
   12513.500 9.905            52.090           59.124          
   12514.000 9.868            48.845           59.912          
   12514.500 9.831            45.605           60.700          
   12515.000 9.794            43.000           61.488          
   12515.500 9.769            41.277           62.276          
   12516.000 9.818            44.264           63.311          
   12516.500 9.877            47.219           62.581          
   12517.000 9.936            50.277           61.503          
   12517.500 9.995            47.970           60.209          
   12518.000 10.054           50.099           60.760          
   12518.500 10.113           52.699           61.549          
   12519.000 10.158           55.293           62.080          
   12519.500 10.151           57.119           59.985          
   12520.000 10.145           56.608           61.874          
   12520.500 10.138           56.092           60.825          
   12521.000 10.132           56.315           62.534          
   12521.500 10.125           57.139           63.523          
   12522.000 10.119           55.471           60.735          
   12522.500 10.112           53.367           61.313          
   12523.000 10.105           51.266           62.084          
   12523.500 10.099           49.161           61.418          
   12524.000 10.092           47.963           60.978          
   12524.500 10.086           50.435           62.714          
   12525.000 10.079           53.255           60.279          
   12525.500 10.073           49.834           57.427          
   12526.000 10.066           44.986           54.575          
   12526.500 10.060           40.145           52.279          
   12527.000 10.053           35.763           53.807          
   12527.500 10.049           37.004           55.397          
   12528.000 10.052           38.180           55.000          
   12528.500 10.055           36.847           54.224          
   12529.000 10.058           34.117           53.448          
   12529.500 10.060           31.384           52.369          
   12530.000 10.063           28.905           54.601          
   12530.500 10.066           33.360           58.262          
   12531.000 10.068           38.524           61.923          
   12531.500 10.069           44.471           65.586          
   12532.000 10.069           50.401           68.362          
   12532.500 10.080           56.326           67.784          
   12533.000 10.086           61.457           67.001          
   12533.500 10.099           55.982           67.697          
   12534.000 10.111           57.489           68.734          
   12534.500 10.124           58.926           66.541          
   12535.000 10.136           60.362           64.118          
   12535.500 10.149           61.798           63.433          
   12536.000 10.123           63.233           65.235          
   12536.500 10.097           64.669           68.718          
   12537.000 10.070           66.105           68.561          
   12537.500 10.043           67.535           65.117          
   12538.000 10.019           65.605           61.587          
   12538.500 10.031           56.913           58.057          
   12539.000 10.050           48.186           54.525          
   12539.500 10.070           39.442           50.480          
   12540.000 10.089           32.329           51.605          
   12540.500 10.109           35.754           52.923          
   12541.000 10.138           38.769           54.241          
   12541.500 10.118           41.786           56.267          
   12542.000 10.089           46.139           55.573          
   12542.500 10.059           44.349           54.075          
   12543.000 10.030           40.694           52.249          
   12543.500 10.001           36.610           55.203          
   12544.000 9.991            40.862           58.988          
   12544.500 9.995            46.132           62.772          
   12545.000 9.999            51.392           65.172          
   12545.500 10.003           56.664           63.373          
   12546.000 10.007           58.884           65.082          
   12546.500 10.010           57.144           61.961          
   12547.000 10.014           55.416           59.755          
   12547.500 10.018           53.704           57.546          
   12548.000 10.018           50.202           54.858          
   12548.500 10.018           43.179           59.271          
   12549.000 10.017           46.257           62.547          
   12549.500 10.016           52.303           63.962          
   12550.000 10.016           58.335           65.892          
   12550.500 10.015           66.272           65.357          
   12551.000 10.014           64.412           64.515          
   12551.500 10.014           61.466           63.433          
   12552.000 10.013           58.515           63.823          
   12552.500 10.012           55.564           62.262          
   12553.000 10.012           52.613           60.992          
   12553.500 10.011           49.661           59.840          
   12554.000 10.010           45.729           60.363          
   12554.500 10.009           48.683           60.888          
   12555.000 10.009           53.604           61.238          
   12555.500 10.008           58.559           60.575          
   12556.000 10.007           60.756           59.955          
   12556.500 10.007           51.718           62.026          
   12557.000 10.006           48.330           64.931          
   12557.500 10.005           52.912           67.836          
   12558.000 10.005           57.395           69.850          
   12558.500 10.004           62.474           64.794          
   12559.000 10.003           58.565           60.924          
   12559.500 10.002           52.647           55.727          
   12560.000 10.002           46.736           57.332          
   12560.500 10.001           41.057           59.774          
   12561.000 10.000           43.229           62.264          
   12561.500 10.000           46.357           61.832          
   12562.000 9.998            49.481           61.993          
