#--------------------------------------------------#
#-------------------ENVERUS, INC.------------------#
#------------------WWW.ENVERUS.COM-----------------#
#------------------COPYRIGHT 2020------------------#
#--------------------------------------------------#
#THIS FILE MAY BE USED ONLY IN ACCORDANCE WITH A CURRENT SUBSCRIPTION AGREEMENT BETWEEN
#THE USER AND ENVERUS, INC. NO PART OF THIS FILE MAY BE REPRODUCED, USED, COPIED,
#MODIFIED, PROPAGATED, OR DISTRIBUTED EXCEPT IN ACCORDANCE WITH THE SUBSCRIPTION
#AGREEMENT. UNAUTHORIZED USE OR DISTRIBUTION OF ALL OR ANY PART OF THIS FILE MAY VIOLATE
#COPYRIGHT, TRADEMARK, AND/OR OTHER LAWS AND IS SUBJECT TO CIVIL AS WELL AS CRIMINAL
#SANCTIONS.
#--------------------------------------------------#
#THIS FILE IS PROVIDED "AS-IS" AND ALL WARRANTIES ARE EXPRESSLY DISCLAIMED, WHETHER
#EXPRESS, ORAL, IMPLIED, STATUTORY OR OTHERWISE, INCLUDING ANY IMPLIED WARRANTY OF FITNESS
#FOR A PARTICULAR PURPOSE, MERCHANTABILITY, TITLE OR NON-INFRINGEMENT, AND ANY WARRANTIES
#ARISING BY VIRTUE OF CUSTOM OF TRADE OR COURSE OF DEALING.  FURTHER, ENVERUS, INC.
#AND ITS LICENSORS DO NOT REPRESENT OR WARRANT THAT THIS FILE WILL MEET USER'S
#REQUIREMENTS OR ARE SUITABLE FOR USER'S NEEDS OR THAT THE DATA OR RESULTS PROVIDED IN
#CONJUNCTION THEREWITH ARE CORRECT, ACCURATE, TIMELY OR RELIABLE. THESE DISCLAIMERS SHALL
#APPLY REGARDLESS OF ANY FAILURE OF ESSENTIAL PURPOSE OF ANY LIMITED REMEDY.  SOME
#JURISDICTIONS DO NOT ALLOW THE EXCLUSION OF CERTAIN WARRANTIES SO SOME OF THE ABOVE
#EXCLUSIONS MAY NOT APPLY. IN NO EVENT SHALL ENVERUS, INC. OR ANY OF ITS AFFILIATES
#BE LIABLE UNDER ANY LEGAL THEORY, WHETHER IN TORT (INCLUDING WITHOUT LIMITATION
#NEGLIGENCE), CONTRACT, STRICT LIABILITY, STATUTORY OR OTHERWISE, FOR ANY SPECIAL,
#INCIDENTAL, CONSEQUENTIAL, EXEMPLARY, PUNITIVE OR INDIRECT DAMAGE OF ANY KIND, INCLUDING
#WITHOUT LIMITATION LOSS OF REVENUE, PROFITS, GOODWILL, USE, AND/OR DATA OR THE COST OF
#PROCUREMENT OF SUBSTITUTE GOODS OR SERVICES, EVEN IF APPRISED OF THE POSSIBILITY OF SUCH
#DAMAGES IN ADVANCE.
#--------------------------------------------------#

# EXPORTED FROM DI TRANSFORM
# DI TRANSFORM - A PRODUCT OF DRILLINGINFO, INC. - WWW.DRILLINGINFO.COM
#
~VERSION INFORMATION
 VERS.        2.0 : LAS ASCII STANDARD - VERSION 2.0
 WRAP.         NO : ONE LINE PER DEPTH STEP

~WELL INFORMATION
#MNEM.UNIT       DATA TYPE       INFORMATION
#---------       ---------       -----------
 STRT.FT                3800 : START DEPTH
 STOP.FT               10654 : STOP DEPTH
 STEP.FT                 0.5 : STEP LENGTH
 NULL.               -999.25 : NULL VALUE
 UWI.         42389340250000 : UNIQUE WELL ID
 API.         42389340250000 : WELL IDENTIFIER
 COMP.                       : COMPANY
 WELL.  42389340250000_API14 : WELL NAME
 FLD.                        : FIELD NAME
 LOC.                        : WELL LOCATION
 CNTY.                       : COUNTY
 STAT.                       : STATE OR PROVINCE
 CTRY.                       : COUNTRY
 SRVC.                       : SERVICE COMPANY
 DATE.                       : DATE

~CURVE INFORMATION
#MNEM.UNIT       API CODE       CURVE DESCRIPTION
#---------       --------       -----------------
 DEPT.FT        : <MEASURED DEPTH>
 CAL.IN         : CALIPER
 DT.US/FT       : SONIC
 GR.GAPI        : GAMMA RAY

~PARAMETER INFORMATION
#MNEM.UNIT       VALUE       DESCRIPTION
#---------       -----       -----------
 EKB.FT      3120.5 : ELEVATION ABOVE MSL

~A      DEPT         CAL          DT          GR
        3800     -999.25     -999.25     -999.25
      3800.5      9.6855     49.1733     14.4843
        3801      9.6855     49.1733     20.0632
      3801.5      9.6855     49.4087     20.8343
        3802      9.6926     49.4283     18.0467
      3802.5      9.6926     49.6289      14.679
        3803      9.6926     49.6289      13.376
      3803.5      9.6926     49.6289      10.707
        3804      9.6926     49.6289     10.0397
      3804.5      9.6926     49.6289     10.5823
        3805      9.6926     49.7872     13.3461
      3805.5      9.6926     50.1122     14.9104
        3806      9.6926     49.1581      17.068
      3806.5      9.6926     49.2277     17.3646
        3807      9.6926      49.328     17.0038
      3807.5      9.6926     49.5286     16.2341
        3808      9.6926     49.5286     15.0664
      3808.5      9.7122     49.5286      14.283
        3809      9.7126     49.6289     13.5094
      3809.5      9.7126     49.8295     12.5976
        3810      9.6926     49.8295     11.5818
      3810.5      9.6926     49.8295     11.1962
        3811      9.6926     49.8295     11.1962
      3811.5      9.6926     50.1634     10.8107
        3812      9.6926     50.6707     10.8107
      3812.5      9.6926     50.8325     11.1962
        3813      9.6926      51.585     12.8345
      3813.5      9.6926      51.679     13.1238
        3814      9.6926     51.6349     14.5172
      3814.5      9.6926      51.803     16.1448
        3815      9.6926     51.7352     17.4236
      3815.5      9.6926     51.6349     18.8656
        3816      9.6926     52.3742     19.8406
      3816.5      9.6926     54.6568     21.5677
        3817      9.6926      57.433      23.718
      3817.5      9.6926     58.3152     25.2081
        3818      9.6727     61.7014     26.6171
      3818.5      9.6727     63.5553     27.5337
        3819      9.6727     64.8333     28.7742
      3819.5      9.6727     67.0701     32.7064
        3820      9.6727     68.4164     49.9057
      3820.5      9.6727     69.3249     52.9728
        3821      9.6727     69.9754     54.2631
      3821.5      9.6926     70.6092     55.1457
        3822      9.6926     70.6879     53.7822
      3822.5      9.6926     70.6879     50.5922
        3823      9.7126     70.8671     54.9724
      3823.5      9.7467     70.9567     56.4639
        3824      9.8876     70.6911     88.6402
      3824.5      9.9521     70.3077     94.7644
        3825     10.0027      70.001     97.8028
      3825.5      9.7337     69.4937      96.805
        3826      9.6727     68.9864     84.6431
      3826.5      9.6327     68.4195     89.1358
        3827      9.5906     67.2697     97.3495
      3827.5      9.5563     66.7624     106.649
        3828      9.5774     66.3791     106.957
      3828.5      9.6727     66.3813     105.566
        3829      9.6926     66.5797     93.5878
      3829.5      9.7126     66.7211     85.8759
        3830      9.7325     66.7803     68.6304
      3830.5      9.7325     66.9333     69.5962
        3831       9.744     67.4406     74.6514
      3831.5      9.7525     67.5827     83.6962
        3832      9.7325     67.5827    101.4758
      3832.5      9.7126     67.5827    107.5719
        3833      9.7126     67.3821    109.9976
      3833.5      9.7126     67.3821     112.988
        3834      9.7309     67.3821      99.598
      3834.5      9.7525     67.4824     89.1683
        3835      9.7725     67.5827     83.1748
      3835.5      9.7525     67.8837     80.5966
        3836      9.7525     68.0001     82.9715
      3836.5      9.7525     68.3852      88.509
        3837      9.7525     68.7138       92.45
      3837.5      9.7525     69.2654     96.2864
        3838      9.6651     69.3272    106.5421
      3838.5      9.6128     69.6339    115.4665
        3839      9.6128     69.9406    124.3734
      3839.5      9.5928     70.3476    130.9216
        3840      9.5875     70.3912    129.9998
      3840.5      9.6727     70.3228    124.5395
        3841      9.6727     70.1906     123.821
      3841.5      9.6926     70.1906    120.1951
        3842      9.6926     69.9042    114.1371
      3842.5      9.6926     69.4972    106.3243
        3843      9.7716     69.1876     93.5359
      3843.5      9.8124     69.2907     79.8241
        3844      9.8124     69.5974     69.2168
      3844.5      9.8323     69.7894     66.2383
        3845      9.7687     69.7894     71.7648
      3845.5      9.7325     69.7634     73.1105
        3846      9.7325     69.6891     73.5523
      3846.5      9.7325     69.5888     74.0636
        3847      9.7325     69.5454     74.4816
      3847.5      9.7325     69.1876     75.3652
        3848      9.7126     69.1876     76.7857
      3848.5      9.7126     69.1268     77.7857
        3849      9.7126     68.6195     86.0297
      3849.5      9.7525     68.3852     89.5065
        3850      9.7325     68.2849     90.0228
      3850.5      9.7325     68.1846     85.7458
        3851      9.6926     68.1846     88.8716
      3851.5      9.6926     68.1846     89.1983
        3852      9.6926     68.0843     78.6794
      3852.5      9.7325     67.6762     82.7196
        3853      9.6926     67.3821      79.715
      3853.5      9.6926     67.1815     69.0013
        3854      9.6926      67.057     84.4815
      3854.5      9.6926     66.8806      67.664
        3855      9.6926     66.7803     70.8109
      3855.5      9.6926     66.7803     83.5347
        3856      9.7017     67.0812     65.0453
      3856.5      9.7126     67.2818     67.4842
        3857      9.7126     67.6418      74.626
      3857.5      9.7126     67.8482     74.1278
        3858      9.6989     68.1549     65.4742
      3858.5      9.6926     68.7625     80.4967
        3859      9.6926     68.9689       78.31
      3859.5      9.6926     69.3759     78.6849
        3860      9.6926     69.6891      83.283
      3860.5      9.6926     70.0896     91.4508
        3861      9.6926     70.4966     96.0615
      3861.5      9.6926     71.0039     89.4649
        3862      9.6926     71.5112     87.2969
      3862.5      9.6926     71.8179    103.8596
        3863      9.6926     72.1966    100.9718
      3863.5      9.6926     72.1966     85.2229
        3864      9.6926     72.3972     84.4453
      3864.5      9.7013      71.996     84.4453
        3865      9.7325     71.6436     83.2887
      3865.5      9.7325     71.2366     81.7331
        3866      9.7325     70.7924     70.3038
      3866.5      9.7525     70.7924     64.8461
        3867      9.7525     70.6921     71.4853
      3867.5      9.7681     70.8927     78.7408
        3868       9.869     71.0792     72.4534
      3868.5      9.9101     71.1936     57.7577
        3869      9.9321     71.2914     59.4778
      3869.5      9.9321     71.4945     60.6042
        3870      9.9321     71.7042     61.5509
      3870.5      9.9546     71.8957    111.1626
        3871      9.9724     71.9164     83.1411
      3871.5      9.9074     72.1966     70.4753
        3872      9.8323     72.1966     74.4846
      3872.5      9.8181     72.1966     76.1076
        3873      9.8323     72.2405     76.4768
      3873.5      9.8323     72.4975     76.1076
        3874      9.8429     72.7984     71.4927
      3874.5      9.9039     72.8987     72.6336
        3875      9.9521      72.999     75.2067
      3875.5      9.9521     73.0993     86.3792
        3876      9.9521     73.1996     88.4656
      3876.5      9.9521     73.4002     86.8044
        3877     10.0294     73.5908     81.8058
      3877.5     10.0519     73.8014     80.5378
        3878     10.0319     74.2026     78.1381
      3878.5     10.0319     74.4032     85.7255
        3879     10.0319      74.617     86.4449
      3879.5     10.0319     75.1243     82.5067
        3880     10.0519     75.6564     76.4542
      3880.5     10.0974     76.2392     65.1171
        3881      10.125     76.6098     62.3849
      3881.5     10.1118     76.5677     65.1786
