~Version Information
 VERS.                  2.0:   CWLS log ASCII Standard -VERSION 2.0
 WRAP.                   NO:   One line per depth step
~Well Information Block
#MNEM.UNIT     VALUE/NAME     DESCRIPTION
#---------     -----------    ---------------------------
 STRT.F              8800.0000: START DEPTH
 STOP.F             14300.0000: STOP DEPTH
 STEP.F                 0.5000: STEP DEPTH
 NULL.                 -999.25: NULL VALUE
 LOC .     336'' FSL & 729' FWL:  LOCATION
 FL6 .        API 42-389-36322:  LOCATIONLINE6
 FL4 .           ABSTRACT 3622:  LOCATIONLINE4
 FL3 .        T&P RR CO SURVEY:  LOCATIONLINE3
 FL2 .     SECTION 36, BLOCK 58 T2:  LOCATIONLINE2
 FL1 .     336'' FSL & 729' FWL:  LOCATIONLINE1
 DMF .                      KB:  DRILL MEAS FROM
 PDAT.                      GL:  PERMANENT DATUM
 CNTY.                  REEVES:  COUNTY NAME
 FLD .     FORD, WEST (WOLFCAMP):  FIELD NAME
 WELL.        AVA STATE 36 #2H:  WELL NAME
 COMP.     CAPITAN ENERGY INC.:  COMPANY
 DATE.             01-Nov-2017:  DATE
 SVCO.             Halliburton:  SERVICECONAME
 PROV.                   TEXAS:  PROVINCE
 STAT.                   TEXAS:  STATE NAME
 CTRY.           UNITED STATES:  COUNTRY NAME
 HIDE.                        :  WELLNAMEOPERAT
 BASI.                 PERMIAN:  BASIN
 UWI .            42-389-36322LAT:  UNIQUE WELL IDENTIFIER
 API .            42-389-36322LAT:  API NUMBER
 RANG.                     N/A:  RANGE
 TOWN.                     N/A:  TOWNSHIP
 SECT.                     N/A:  SECTION
 SON .               904399722:  JOB NUMBER
 SRVC.             Halliburton:  SERVICE COMPANY
 LMF .                      KB:  LOG MEASURED FROM
 EGL .ft             3011.0000:  GROUND ELEVATION
 BAP .ft                0.0000:  GL ELEV ONSHORE
 GVFD.g                 1.0000:  GRAVITY FIELD
 EKB .ft             3037.0000:  KB ELEVATION
 EDF .ft             3036.0000:  DF ELEVATION
~Curve Information Block
#MNEM.UNIT                 API CODE     Curve Description
#---------               -----------    ---------------------------
 DEPT.F                 00 000 000 000:  Depth
 CCL .V                 00 000 000 000:  Casing Collar Locator
 NPHI_OH.pu             00 000 000 000:  NPHI_OH
 NPHI_CHI.pu            00 000 000 000:  NPHI_CHI
 GR_CHI.api             00 000 000 000:  GR_CHI
 GR_OH.api              00 000 000 000:  GR_OH
 RHOB_OH.g/cc           00 000 000 000:  RHOB_OH
 RHOB_CHI.g/cc          00 000 000 000:  RHOB_CHI
 PE_CHI.b/e             00 000 000 000:  PE_CHI
 PE_OH.b/e              00 000 000 000:  PE_OH
 DTC_OH.uspf            00 000 000 000:  DTC_OH
 DTC_CHI.uspf           00 000 000 000:  DTC_CHI
 SPHI_CHI.pu            00 000 000 000:  Acou Porosity CHI
 RT10_OH.ohmm           00 000 000 000:  RT10_OH
 RT10_CHI.ohmm          00 000 000 000:  RT10_CHI
 RT30_OH.ohmm           00 000 000 000:  RT30_OH
 RT30_CHI.ohmm          00 000 000 000:  RT30_CHI
 RT90_OH.ohmm           00 000 000 000:  RT90_OH
 RT90_CHI.ohmm          00 000 000 000:  RT90_CHI
 SGF .cu                00 000 000 000:  Formation Sigma
 CRNF.NONE              00 000 000 000:  CM GrsCaptRatio
 RIN .NONE              00 000 000 000:  CM GrsInelRatio
#Other Information
#
#WARRANTY: Halliburton will use its best efforts to furnish customers with 
#accurate information and interpretations that are part of, and incident to, the services 
#provided.  However, Halliburton cannot and does not warrant the accuracy 
#or correctness of such information and interpretations.  Under no circumstances should any 
#such information or interpretation be relied upon as the sole basis for any drilling, 
#completion, production, or financial decision or any procedure involving any risk to the 
#safety of any drilling venture, drilling rig or its crew or any other third party.  The 
#Customer has full responsibility for all drilling, completion and production operation.  
#Halliburton makes no representations or warranties, either expressed or 
#implied, including, but not limited to, the implied warranties of merchantability or fitness 
#for a particular purpose, with respect to the services rendered.  In no event will 
#Halliburton be liable for failure to obtain any particular results or for 
#any damages, including, but not limited to, indirect, special or consequential damages, 
#resulting from the use of any information or interpretation provided by Halliburton.
#
~A    DEPT      CCL   NPHI_OH NPHI_CHI   GR_CHI   GR_OH   RHOB_OH RHOB_CHI  PE_CHI   PE_OH  DTC_OH  DTC_CHI SPHI_CHI RT10_OH  RT10_CHI RT30_OH  RT30_CHI RT90_OH  RT90_CHI   SGF    CRNF   RIN   
# ...
   12454.0000  0.0000 -999.25   10.7527 105.7160  -999.25 -999.25    2.5664  4.0720 -999.25 -999.25 62.4789  10.5200  -999.25  49.5846  -999.25  55.8921  -999.25  62.7572 18.4954 0.8931 0.9840
   12454.5000  0.0000 -999.25   10.6238 102.0232  -999.25 -999.25    2.5669  4.0924 -999.25 -999.25 62.4460  10.5000  -999.25  49.7614  -999.25  56.3114  -999.25  63.3709 18.1742 0.8876 0.9758
   12455.0000  0.0000 -999.25   10.5406  99.2205  -999.25 -999.25    2.5671  4.1117 -999.25 -999.25 62.4618  10.5100  -999.25  49.8817  -999.25  56.7224  -999.25  63.9710 17.8732 0.8767 0.9679
   12455.5000  0.0000 -999.25   10.5954  99.7584  -999.25 -999.25    2.5667  4.1187 -999.25 -999.25 62.5031  10.5400  -999.25  50.2133  -999.25  57.3895  -999.25  64.8185 17.6033 0.8656 0.9644
   12456.0000  0.0000 -999.25   10.1711  93.5373  -999.25 -999.25    2.5709  4.2024 -999.25 -999.25 62.1463  10.2900  -999.25  50.2810  -999.25  57.4429  -999.25  64.9594 17.3985 0.8553 0.9620
   12456.5000  0.0000 -999.25    9.7173  90.1542  -999.25 -999.25    2.5761  4.2828 -999.25 -999.25 61.4769   9.8100  -999.25  50.7057  -999.25  57.9561  -999.25  65.6220 17.1948 0.8512 0.9636
   12457.0000  0.0000 -999.25    9.5545  92.3880  -999.25 -999.25    2.5786  4.3097 -999.25 -999.25 60.8910   9.4000  -999.25  51.4093  -999.25  59.0133  -999.25  66.9120 17.0268 0.8542 0.9662
   12457.5000  0.0000 -999.25    9.6061  98.1155  -999.25 -999.25    2.5792  4.3007 -999.25 -999.25 60.4384   9.0800  -999.25  52.2427  -999.25  60.4063  -999.25  68.5994 16.8406 0.8601 0.9685
   12458.0000  0.0000 -999.25    9.6436 100.9040  -999.25 -999.25    2.5794  4.2988 -999.25 -999.25 60.2569   8.9500  -999.25  52.6286  -999.25  61.0589  -999.25  69.3840 16.7210 0.8636 0.9701
   12458.5000  0.0000 -999.25    9.9900 105.6208  -999.25 -999.25    2.5760  4.2516 -999.25 -999.25 60.5443   9.1500  -999.25  52.9582  -999.25  61.8308  -999.25  70.3295 16.6249 0.8601 0.9670
   12459.0000  0.0000 -999.25    9.9041 100.1515  -999.25 -999.25    2.5762  4.2804 -999.25 -999.25 60.8352   9.3600  -999.25  52.6425  -999.25  61.3601  -999.25  69.8194 16.6392 0.8512 0.9613
   12459.5000  0.0000 -999.25   10.1795 102.6211  -999.25 -999.25    2.5731  4.2418 -999.25 -999.25 61.1673   9.5900  -999.25  52.7852  -999.25  61.8486  -999.25  70.4525 16.7470 0.8421 0.9559
   12460.0000  0.0000 -999.25    9.5736  92.2240  -999.25 -999.25    2.5787  4.3427 -999.25 -999.25 60.8509   9.3700  -999.25  52.2582  -999.25  60.8133  -999.25  69.2651 16.9228 0.8347 0.9544
   12460.5000  0.0000 -999.25    9.1962  88.8861  -999.25 -999.25    2.5825  4.3920 -999.25 -999.25 60.3752   9.0300  -999.25  52.2484  -999.25  60.7034  -999.25  69.1721 17.0572 0.8312 0.9550
   12461.0000  0.0000 -999.25    8.7136  84.0237  -999.25 -999.25    2.5872  4.4551 -999.25 -999.25 59.8650   8.6700  -999.25  52.0710  -999.25  60.2614  -999.25  68.6691 17.0394 0.8299 0.9566
   12461.5000  0.0000 -999.25    8.2007  77.7310  -999.25 -999.25    2.5920  4.5267 -999.25 -999.25 59.4623   8.3900  -999.25  51.7123  -999.25  59.5974  -999.25  67.9146 16.9257 0.8314 0.9565
   12462.0000  0.0000 -999.25    7.9129  73.7085  -999.25 -999.25    2.5947  4.5722 -999.25 -999.25 59.2886   8.2700  -999.25  51.4937  -999.25  59.2590  -999.25  67.5486 16.7846 0.8342 0.9551
   12462.5000  0.0000 -999.25    8.4708  83.7518  -999.25 -999.25    2.5898  4.4858 -999.25 -999.25 59.3826   8.3300  -999.25  52.3990  -999.25  60.8906  -999.25  69.5093 16.6673 0.8378 0.9545
   12463.0000  0.0000 -999.25    8.3816  81.3232  -999.25 -999.25    2.5907  4.5096 -999.25 -999.25 59.4276   8.3600  -999.25  52.3009  -999.25  60.7309  -999.25  69.3345 16.5671 0.8359 0.9533
   12463.5000  0.0000 -999.25    8.3696  79.4491  -999.25 -999.25    2.5905  4.5205 -999.25 -999.25 59.5750   8.4700  -999.25  52.1169  -999.25  60.5357  -999.25  69.1269 16.4575 0.8312 0.9505
   12464.0000  0.0000 -999.25    8.6571  82.2035  -999.25 -999.25    2.5875  4.4820 -999.25 -999.25 59.8644   8.6700  -999.25  52.1642  -999.25  60.8857  -999.25  69.5809 16.3404 0.8215 0.9461
   12464.5000  0.0000 -999.25    8.2691  75.3346  -999.25 -999.25    2.5910  4.5513 -999.25 -999.25 59.7544   8.6000  -999.25  51.6501  -999.25  60.1492  -999.25  68.7591 16.2491 0.8147 0.9427
   12465.0000  0.0000 -999.25    8.0949  73.6683  -999.25 -999.25    2.5929  4.5830 -999.25 -999.25 59.5500   8.4500  -999.25  51.7381  -999.25  60.3291  -999.25  69.0205 16.1788 0.8140 0.9414
   12465.5000  0.0000 -999.25    8.0729  76.9893  -999.25 -999.25    2.5939  4.5844 -999.25 -999.25 59.1463   8.1700  -999.25  52.5250  -999.25  61.5127  -999.25  70.4728 16.1296 0.8158 0.9431
   12466.0000  0.0000 -999.25    8.4636  86.3802  -999.25 -999.25    2.5909  4.5186 -999.25 -999.25 58.9916   8.0600  -999.25  53.6236  -999.25  63.3513  -999.25  72.7019 16.0511 0.8199 0.9441
   12466.5000  0.0000 -999.25    7.8341  75.5877  -999.25 -999.25    2.5967  4.6246 -999.25 -999.25 58.7934   7.9200  -999.25  52.8624  -999.25  61.9395  -999.25  71.0181 16.0148 0.8257 0.9443
   12467.0000  0.0000 -999.25    8.0418  77.9430  -999.25 -999.25    2.5946  4.5968 -999.25 -999.25 58.9538   8.0300  -999.25  52.9606  -999.25  62.2835  -999.25  71.4567 15.9700 0.8296 0.9415
   12467.5000  0.0000 -999.25    7.8904  72.8622  -999.25 -999.25    2.5954  4.6276 -999.25 -999.25 59.1519   8.1700  -999.25  52.1575  -999.25  61.2400  -999.25  70.2424 15.9233 0.8324 0.9366
   12468.0000  0.0000 -999.25    7.5535  64.5946  -999.25 -999.25    2.5980  4.6883 -999.25 -999.25 59.3390   8.3000  -999.25  51.1320  -999.25  59.6761  -999.25  68.3712 15.8210 0.8343 0.9341
   12468.5000  0.0000 -999.25    7.9902  70.2970  -999.25 -999.25    2.5938  4.6238 -999.25 -999.25 59.6135   8.5000  -999.25  51.4793  -999.25  60.3880  -999.25  69.2252 15.7027 0.8287 0.9323
   12469.0000  0.0000 -999.25    8.2363  73.3587  -999.25 -999.25    2.5915  4.5915 -999.25 -999.25 59.7825   8.6200  -999.25  51.7861  -999.25  60.9185  -999.25  69.8602 15.5527 0.8173 0.9316
   12469.5000  0.0000 -999.25    8.7318  80.5226  -999.25 -999.25    2.5868  4.5188 -999.25 -999.25 60.0341   8.7900  -999.25  52.3033  -999.25  62.0201  -999.25  71.2146 15.3643 0.8018 0.9282
   12470.0000  0.0000 -999.25    8.9206  85.0917  -999.25 -999.25    2.5853  4.4921 -999.25 -999.25 59.9160   8.7100  -999.25  52.8849  -999.25  63.1688  -999.25  72.6645 15.1974 0.7889 0.9253
   12470.5000  0.0000 -999.25    8.0190  72.3221  -999.25 -999.25    2.5941  4.6450 -999.25 -999.25 59.3233   8.2900  -999.25  51.9812  -999.25  61.8401  -999.25  71.1776 15.1041 0.7848 0.9217
   12471.0000  0.0000 -999.25    7.4539  66.7874  -999.25 -999.25    2.6001  4.7378 -999.25 -999.25 58.7012   7.8500  -999.25  51.7417  -999.25  61.6774  -999.25  71.1012 15.0279 0.7857 0.9184
   12471.5000  0.0000 -999.25    6.9967  62.2816  -999.25 -999.25    2.6049  4.8111 -999.25 -999.25 58.2253   7.5100  -999.25  51.3646  -999.25  61.3218  -999.25  70.7659 15.0148 0.7886 0.9155
   12472.0000  0.0000 -999.25    6.9394  61.8733  -999.25 -999.25    2.6055  4.8238 -999.25 -999.25 58.1273   7.4500  -999.25  51.1941  -999.25  61.2743  -999.25  70.7569 14.9056 0.7885 0.9128
   12472.5000  0.0000 -999.25    7.2779  66.5139  -999.25 -999.25    2.6022  4.7731 -999.25 -999.25 58.2950   7.5600  -999.25  51.2066  -999.25  61.6258  -999.25  71.2122 14.7998 0.7861 0.9091
   12473.0000  0.0000 -999.25    7.0856  61.3483  -999.25 -999.25    2.6036  4.8123 -999.25 -999.25 58.4183   7.6500  -999.25  50.1061  -999.25  60.2420  -999.25  69.5733 14.6922 0.7822 0.9046
   12473.5000  0.0000 -999.25    7.2637  63.5878  -999.25 -999.25    2.6019  4.7910 -999.25 -999.25 58.4990   7.7100  -999.25  50.1351  -999.25  60.5146  -999.25  69.9369 14.6345 0.7767 0.9016
   12474.0000  0.0000 -999.25    7.6715  70.2611  -999.25 -999.25    2.5983  4.7323 -999.25 -999.25 58.5696   7.7600  -999.25  50.6406  -999.25  61.5982  -999.25  71.2983 14.5754 0.7729 0.8980
   12474.5000  0.0000 -999.25    7.2187  63.6254  -999.25 -999.25    2.6026  4.8063 -999.25 -999.25 58.3445   7.6000  -999.25  49.9893  -999.25  60.5942  -999.25  70.1030 14.5002 0.7690 0.8978
