###############################################
##         ENVERUS                           ##
##         ESS - Open Hole                   ##
##         PERMIAN / DELAWARE                ##
##         Nov 04 2023  V4.0                 ##
##         42-389-30297-00-00                ##
###############################################
## Copyright 2017-2023  ENVERUS.  All Rights Reserved. 
## Confidential - Property of ENVERUS, use governed by terms and 
## conditions found within the existing Information Services Subscription Agreement 
## (as may be amended, the “ISSA”) between Customer and ENVERUS. 
## 
~VERSION INFORMATION
# MNEM.UNIT                               DATA : DESCRIPTION OF MNEMONIC
#-----.-----     ----------------------------- : -----------------------------
VERS.                                     2.00 : CWLS LOG ASCII STANDARD - VERSION 2.00
WRAP.                                       NO : MULTIPLE LINES PER DEPTH STEP
VEND.                                  ENVERUS : VENDOR
TYPE.                          ESS - OPEN HOLE : ENVERUS ESSENTIAL CURVES – ACCESSIBLE THROUGH ENVERUS PRISM(TM)
DOC.                                  32306493 : ENVERUS HEADER RAW DOCUMENT ID
#___________________________________________________________________________________________________ 
~WELL INFORMATION 
# rQStLE5sYsP+YdYw4QOWpp6z6mWwFJBvCxgTqRv2Ioz+qyoYLl+79qTOna8BSHgUk5jTgp49hkgrAQ1kFKyHCg== 
# MNEM.UNIT                                              DATA : DESCRIPTION OF MNEMONIC 
#-----.-----                    ----------------------------- : ----------------------------- 
CNTY.                                                  REEVES : COUNTY 
STATE.                                                  TEXAS : STATE 
CNTRY.                                                    USA : COUNTRY 
API.                                             42-389-30297 : API (10 Digit) 
API_14.                                    42-389-30297-00-00 : API (14 Digits) 
API_14_std.                                 42-389-30297-0000 : API (14 Digits Standard) 
UWI.                                           42389302970000 : UNIQUE WELL ID 
WELL.                              R.S. BRENNAND, JR. ET AL 1 : WELL NAME
STRT.FT                                                   3.0 : START DEPTH
STOP.FT                                               13007.0 : STOP DEPTH
STEP.FT                                                   0.5 : STEP BETWEEN DEPTHS
NULL.                                                 -999.25 : NULL VALUE
#___________________________________________________________________________________________________ 
~CURVE INFORMATION 
# MNEM.UNIT           : CURVE DESCRIPTION 
#-----.-----          : ----------------------------- 
 DEPT.FT               : MEASURED DEPTH 
 CALI.IN               : CALIPER (CAL - CAL) 
 GR.API                : GAMMA RAY (GR) 
 DT.US/FT              : SONIC DELTA TRANSIT TIME (DT) 
 NPHI.V/V              : NEUTRON POROSITY (NPHI) 
 RHOB.G/CC             : BULK DENSITY (RHOB) 
 #___________________________________________________________________________________________________ 
~A         DEPT           CALI             GR             DT           NPHI           RHOB
# ...
         6383.0          9.924         84.734         60.676     -999.25000         2.6266
         6383.5          9.926         82.807         60.574     -999.25000         2.6212
         6384.0          9.927         80.879         60.471     -999.25000         2.6115
         6384.5          9.929         79.512         60.369     -999.25000         2.6018
         6385.0          9.930         78.226         60.267     -999.25000         2.5921
         6385.5          9.932         76.940         60.134     -999.25000         2.5872
         6386.0          9.933         75.654         60.002     -999.25000         2.5946
         6386.5          9.935         74.368         59.869     -999.25000         2.6020
         6387.0          9.936         76.897         59.737     -999.25000         2.6094
         6387.5          9.938         81.855         59.604     -999.25000         2.6112
         6388.0          9.939         86.813         59.472     -999.25000         2.6030
         6388.5          9.941         91.869         59.339     -999.25000         2.5948
         6389.0          9.942         96.957         59.270     -999.25000         2.5866
         6389.5          9.944        102.045         59.229     -999.25000         2.5903
         6390.0          9.945         88.212         59.189     -999.25000         2.5911
         6390.5          9.947         72.378         59.148     -999.25000         2.5865
         6391.0          9.948         74.609         59.107     -999.25000         2.5820
         6391.5          9.950         79.537         59.067     -999.25000         2.5774
         6392.0          9.951         79.022         59.719     -999.25000         2.5728
         6392.5          9.953         74.608         60.544     -999.25000         2.5852
         6393.0          9.954         70.194         61.022     -999.25000         2.6067
         6393.5          9.956         88.478         61.348     -999.25000         2.6221
         6394.0          9.957        113.597         61.397     -999.25000         2.6140
         6394.5          9.959        136.811         61.315     -999.25000         2.6059
         6395.0          9.960        133.549         60.894     -999.25000         2.5978
         6395.5          9.962        130.288         60.473     -999.25000         2.5897
         6396.0          9.963        127.027         60.051     -999.25000         2.5863
         6396.5          9.965        123.259         59.753     -999.25000         2.5967
         6397.0          9.966        119.465         59.491     -999.25000         2.6070
         6397.5          9.968        115.671         59.230     -999.25000         2.6174
         6398.0          9.969        113.973         59.302     -999.25000         2.6278
         6398.5          9.971        113.135         60.067     -999.25000         2.6381
         6399.0          9.972        110.978         60.722     -999.25000         2.6485
         6399.5          9.974        106.457         61.101     -999.25000         2.6537
         6400.0          9.975        101.846         61.481     -999.25000         2.6348
         6400.5          9.977         97.829         61.860     -999.25000         2.6159
         6401.0          9.978         99.219         62.240     -999.25000         2.6068
         6401.5          9.980        100.610         62.619     -999.25000         2.6451
         6402.0          9.981        102.000         62.551     -999.25000         2.6582
         6402.5          9.983         99.840         62.334     -999.25000         2.6431
         6403.0          9.984         92.189         62.117     -999.25000         2.6281
         6403.5          9.986         88.936         61.900     -999.25000         2.6165
         6404.0          9.987         86.552         61.827     -999.25000         2.6081
         6404.5          9.986         84.169         62.067     -999.25000         2.5996
         6405.0          9.983         81.786         62.306     -999.25000         2.5910
         6405.5          9.980         79.687         62.546     -999.25000         2.5824
         6406.0          9.978         80.069         62.284     -999.25000         2.5738
         6406.5          9.975         80.451         61.904     -999.25000         2.5775
         6407.0          9.972         79.133         61.523     -999.25000         2.5833
         6407.5          9.969         76.551         61.143     -999.25000         2.5870
         6408.0          9.966         73.968         60.763     -999.25000         2.5833
         6408.5          9.964         71.386         61.414     -999.25000         2.5796
         6409.0          9.961         68.804         62.167     -999.25000         2.5759
         6409.5          9.958         66.221         62.595     -999.25000         2.5732
         6410.0          9.955         78.700         62.442     -999.25000         2.5813
         6410.5          9.952         77.533         62.290     -999.25000         2.5895
         6411.0          9.949         76.366         62.138     -999.25000         2.5976
         6411.5          9.947         75.199         61.986     -999.25000         2.6033
         6412.0          9.944         74.032         61.833     -999.25000         2.5974
         6412.5          9.941         76.738         61.681     -999.25000         2.5922
         6413.0          9.938         78.920         61.529     -999.25000         2.5960
         6413.5          9.935         76.536         61.120     -999.25000         2.5997
         6414.0          9.933         76.570         60.407     -999.25000         2.6034
         6414.5          9.930         80.086         59.694     -999.25000         2.5957
         6415.0          9.927         83.602         58.981     -999.25000         2.5842
         6415.5          9.924         87.118         57.927     -999.25000         2.5727
         6416.0          9.921         89.481         56.630     -999.25000         2.5888
         6416.5          9.918         88.982         56.828     -999.25000         2.6081
         6417.0          9.916         88.483         57.714     -999.25000         2.5987
         6417.5          9.913         88.835         58.347     -999.25000         2.6031
         6418.0          9.910        103.007         58.643     -999.25000         2.6075
         6418.5          9.907        117.179         58.940     -999.25000         2.6119
         6419.0          9.904        114.451         59.237     -999.25000         2.6163
         6419.5          9.902        103.446         59.533     -999.25000         2.6207
         6420.0          9.899         84.732         59.830     -999.25000         2.6251
         6420.5          9.896         65.562         60.127     -999.25000         2.6296
         6421.0          9.893         63.463         60.423     -999.25000         2.6340
         6421.5          9.890         72.373         60.080     -999.25000         2.6384
         6422.0          9.887         81.283         59.313     -999.25000         2.6428
         6422.5          9.885         90.194         58.547     -999.25000         2.6472
         6423.0          9.886         91.513         57.947     -999.25000         2.6467
         6423.5          9.896         92.172         57.417     -999.25000         2.6377
         6424.0          9.907         92.831         56.886     -999.25000         2.6329
         6424.5          9.917         93.490         56.356     -999.25000         2.6430
         6425.0          9.927         97.783         55.826     -999.25000         2.6531
         6425.5          9.937        105.384         56.116     -999.25000         2.6632
         6426.0          9.947        107.963         56.575     -999.25000         2.6734
         6426.5          9.957        101.686         57.033     -999.25000         2.6676
