###############################################
##         ENVERUS                           ##
##         ESS - Open Hole                   ##
##         PERMIAN / DELAWARE                ##
##         Nov 04 2023  V4.0                 ##
##         42-389-31270-00-00                ##
###############################################
## Copyright 2017-2023  ENVERUS.  All Rights Reserved. 
## Confidential - Property of ENVERUS, use governed by terms and 
## conditions found within the existing Information Services Subscription Agreement 
## (as may be amended, the “ISSA”) between Customer and ENVERUS. 
## 
~VERSION INFORMATION
# MNEM.UNIT                               DATA : DESCRIPTION OF MNEMONIC
#-----.-----     ----------------------------- : -----------------------------
VERS.                                     2.00 : CWLS LOG ASCII STANDARD - VERSION 2.00
WRAP.                                       NO : MULTIPLE LINES PER DEPTH STEP
VEND.                                  ENVERUS : VENDOR
TYPE.                          ESS - OPEN HOLE : ENVERUS ESSENTIAL CURVES – ACCESSIBLE THROUGH ENVERUS PRISM(TM)
DOC.                                  31950282 : ENVERUS HEADER RAW DOCUMENT ID
#___________________________________________________________________________________________________ 
~WELL INFORMATION 
# 0CODbT4LMl4UGLa7W4QP9cEC157HhgZEtdKI2U+cm8ET/zLKkJfEe4mvdgudHboWMGmWziBYTrzgVEWtCsCjWg== 
# MNEM.UNIT                                              DATA : DESCRIPTION OF MNEMONIC 
#-----.-----                    ----------------------------- : ----------------------------- 
CNTY.                                                  REEVES : COUNTY 
STATE.                                                  TEXAS : STATE 
CNTRY.                                                    USA : COUNTRY 
API.                                             42-389-31270 : API (10 Digit) 
API_14.                                    42-389-31270-00-00 : API (14 Digits) 
API_14_std.                                 42-389-31270-0000 : API (14 Digits Standard) 
UWI.                                           42389312700000 : UNIQUE WELL ID 
WELL.                                        FORTUNE UNIT  2R : WELL NAME
STRT.FT                                                3825.0 : START DEPTH
STOP.FT                                               13654.0 : STOP DEPTH
STEP.FT                                                   0.5 : STEP BETWEEN DEPTHS
NULL.                                                 -999.25 : NULL VALUE
COMP.                          SANDRIDGE EXPL. AND PROD.  LLC : COMPANY 
DATE.                                             19-AUG-2004 : LOG DATE
#___________________________________________________________________________________________________ 
~CURVE INFORMATION 
# MNEM.UNIT           : CURVE DESCRIPTION 
#-----.-----          : ----------------------------- 
 DEPT.FT               : MEASURED DEPTH 
 CALI__B.IN            : CALIPER (CAL - CAL) 
 GR__B.API             : GAMMA RAY (GR) 
 DT__B.US/FT           : SONIC DELTA TRANSIT TIME (DT) 
 #___________________________________________________________________________________________________ 
~A         DEPT        CALI__B          GR__B          DT__B
# ...
         7719.0         10.376         86.350         59.543
         7719.5         10.342         85.304         58.646
         7720.0         10.312         84.258         59.643
         7720.5         10.281         83.211         60.639
         7721.0         10.251         53.335         61.636
         7721.5         10.221         56.245         62.633
         7722.0         10.190         59.155         63.629
         7722.5         10.160         62.066         64.539
         7723.0         10.130         64.976         65.396
         7723.5         10.099         69.766         66.253
         7724.0         10.069        102.587         66.579
         7724.5         10.054        108.952         66.108
         7725.0         10.068        115.317         65.637
         7725.5         10.082        121.682         65.167
         7726.0         10.096        128.047         64.696
         7726.5         10.110        127.205         64.834
         7727.0         10.124        116.454         65.406
         7727.5         10.138        112.379         65.967
         7728.0         10.152        109.211         66.474
         7728.5         10.171        106.973         66.981
         7729.0         10.201        104.419         67.489
         7729.5         10.230        101.243         67.996
         7730.0         10.260         96.842         68.504
         7730.5         10.290         87.228         68.446
         7731.0         10.319         77.614         67.905
         7731.5         10.349         68.000         67.365
         7732.0         10.378         58.385         66.825
         7732.5         10.408         48.771         66.925
         7733.0         10.437         39.157         67.598
         7733.5         10.467         36.544         68.272
         7734.0         10.496         34.261         68.472
         7734.5         10.526         31.979         67.612
         7735.0         10.556         32.575         66.753
         7735.5         10.585         34.298         65.893
         7736.0         10.608         36.021         65.034
         7736.5         10.610         37.179         65.172
         7737.0         10.611         37.551         66.335
         7737.5         10.613         37.923         67.498
         7738.0         10.614         38.295         68.661
         7738.5         10.615         43.262         69.824
         7739.0         10.617         51.404         70.987
         7739.5         10.618         48.812         72.068
         7740.0         10.619         44.770         71.700
         7740.5         10.621         42.151         71.332
         7741.0         10.622         44.890         70.964
         7741.5         10.623         47.629         70.596
         7742.0         10.625         50.368         70.227
         7742.5         10.626        136.458         69.859
         7743.0         10.627        134.518         65.664
         7743.5         10.632        128.222         65.480
         7744.0         10.637        120.661         65.296
         7744.5         10.642        112.630         65.112
         7745.0         10.646        106.841         64.929
         7745.5         10.651        102.090         63.739
         7746.0         10.656         97.186         62.318
         7746.5         10.660         92.282         60.896
         7747.0         10.665         80.521         59.475
         7747.5         10.670         58.239         60.345
         7748.0         10.674         55.732         61.816
         7748.5         10.679         54.459         63.287
         7749.0         10.684         53.187         64.759
         7749.5         10.688         52.466         66.230
         7750.0         10.693         54.931         67.701
         7750.5         10.698         57.396         67.682
         7751.0         10.703         60.939         65.044
         7751.5         10.707         66.238         64.640
         7752.0         10.712         71.536         64.955
         7752.5         10.717         76.809         65.271
         7753.0         10.721         72.932         65.586
         7753.5         10.724         69.055         65.901
         7754.0         10.726         65.178         66.140
         7754.5         10.728         63.942         65.871
         7755.0         10.730         69.967         65.601
         7755.5         10.732         75.991         65.331
         7756.0         10.734         74.477         65.108
         7756.5         10.736         63.279         65.255
         7757.0         10.738         52.080         65.402
         7757.5         10.741         49.518         65.549
         7758.0         10.743         48.178         65.651
         7758.5         10.745         46.839         65.303
         7759.0         10.747         45.499         64.956
         7759.5         10.749         44.162         64.609
         7760.0         10.751         46.002         64.262
         7760.5         10.753         47.843         64.115
         7761.0         10.756         49.683         64.514
         7761.5         10.758         51.568         64.912
         7762.0         10.754         53.727         65.311
         7762.5         10.728         55.885         65.709
         7763.0         10.702         60.641         66.108
         7763.5         10.675         69.696         66.506
         7764.0         10.649         78.752         64.926
         7764.5         10.622         87.807         63.380
         7765.0         10.596         91.127         63.216
         7765.5         10.569         82.834         63.053
         7766.0         10.543         74.541         62.890
         7766.5         10.517         67.819         62.726
         7767.0         10.490         66.847         61.254
         7767.5         10.464         65.875         57.854
         7768.0         10.437         64.903         54.453
         7768.5         10.411         50.538         58.197
         7769.0         10.409         41.819         62.156
         7769.5         10.411         34.060         63.893
         7770.0         10.414         37.943         64.033
         7770.5         10.416         43.479         64.173
         7771.0         10.418         49.301         64.313
         7771.5         10.420         60.141         64.454
         7772.0         10.423         70.932         64.594
         7772.5         10.425         80.095         63.257
         7773.0         10.427         78.943         61.853
         7773.5         10.430         77.790         60.448
         7774.0         10.432         76.638         60.860
         7774.5         10.434         75.486         61.945
         7775.0         10.437         74.333         63.031
         7775.5         10.439         59.676         64.116
         7776.0         10.441         61.450         65.201
         7776.5         10.443         70.982         64.841
         7777.0         10.447         83.479         64.351
         7777.5         10.453         97.192         63.862
         7778.0         10.458         98.225         63.372
         7778.5         10.464         99.259         63.070
         7779.0         10.469        100.292         64.711
         7779.5         10.475        103.390         66.351
         7780.0         10.481        106.743         66.811
         7780.5         10.489        108.582         66.730
         7781.0         10.498         92.555         66.648
         7781.5         10.507         74.017         66.566
         7782.0         10.516         63.917         66.485
         7782.5         10.526         58.424         64.589
         7783.0         10.535         52.924         62.400
         7783.5         10.544         46.800         60.210
         7784.0         10.553         40.676         58.020
         7784.5         10.562         34.552         55.843
