###############################################
##         ENVERUS                           ##
##         ESS - Open Hole                   ##
##         PERMIAN / DELAWARE                ##
##         Nov 04 2023  V4.0                 ##
##         42-389-32730-00-00                ##
###############################################
## Copyright 2017-2023  ENVERUS.  All Rights Reserved. 
## Confidential - Property of ENVERUS, use governed by terms and 
## conditions found within the existing Information Services Subscription Agreement 
## (as may be amended, the “ISSA”) between Customer and ENVERUS. 
## 
~VERSION INFORMATION
# MNEM.UNIT                               DATA : DESCRIPTION OF MNEMONIC
#-----.-----     ----------------------------- : -----------------------------
VERS.                                     2.00 : CWLS LOG ASCII STANDARD - VERSION 2.00
WRAP.                                       NO : MULTIPLE LINES PER DEPTH STEP
VEND.                                  ENVERUS : VENDOR
TYPE.                          ESS - OPEN HOLE : ENVERUS ESSENTIAL CURVES – ACCESSIBLE THROUGH ENVERUS PRISM(TM)
DOC.                                  19552736 : ENVERUS HEADER RAW DOCUMENT ID
#___________________________________________________________________________________________________ 
~WELL INFORMATION 
# Emv0q1Fc4UOVqi1FEPTQ50pHgS2U6oO6A9wxQf5ozJtTAVTQXtUhuyCOytio7eHVwvke0CQF/LYkoyLsbhUTsQ== 
# MNEM.UNIT                                              DATA : DESCRIPTION OF MNEMONIC 
#-----.-----                    ----------------------------- : ----------------------------- 
CNTY.                                                  REEVES : COUNTY 
STATE.                                                  TEXAS : STATE 
CNTRY.                                                    USA : COUNTRY 
API.                                             42-389-32730 : API (10 Digit) 
API_14.                                    42-389-32730-00-00 : API (14 Digits) 
API_14_std.                                 42-389-32730-0000 : API (14 Digits Standard) 
UWI.                                           42389327300000 : UNIQUE WELL ID 
WELL.                                  BIG SKY 55 - 16 NO. 1H : WELL NAME
STRT.FT                                                3850.0 : START DEPTH
STOP.FT                                               12070.5 : STOP DEPTH
STEP.FT                                                   0.5 : STEP BETWEEN DEPTHS
NULL.                                                 -999.25 : NULL VALUE
COMP.                                      CIMAREX ENERGY CO. : COMPANY 
FLD.                                                  WILDCAT : FIELD 
SRVC.                                             HALLIBURTON : SERVICE COMPANY 
DATE.                                              03/23/2011 : DATE 
TVD.                                                       NO : TVD FLAG 
WSTA.                                                     LOC : WELL STATUS
#___________________________________________________________________________________________________ 
~PARAMETER INFORMATION 
# MNEM.UNIT                                              DATA : DESCRIPTION OF MNEMONIC 
#-----.-----                    ----------------------------- : ----------------------------- 
RUN.                                                      ONE : RUN NUMBER 
PDAT.                                                      GL : PERMANENT DATUM 
EPD.FT                                              2996.0000 : ELEVATION OF PERM. DATUM 
LMF.                                            KELLY BUSHING : LOG MEASURED FROM 
EKB.FT                                              3021.0000 : ELEVATION OF KELLY BUSHING 
DF.FT                                               3020.0000 : ELEVATION OF DERRICK FLOOR 
GL.FT                                               2996.0000 : ELEVATION OF GROUND LEVEL 
TD.FT                                              12100.0000 : TOTAL DEPTH 
CSGD.FT                                                  3861 : CASING BOTTOM (DRILLER) 1 
CSGL.FT                                                  3855 : CASING BOTTOM (LOGGER) 1 
MUD.                                                    BRINE : DRILLING FLUID TYPE 
MUDV.CP                                               36.0000 : DRILLING FLUID VISCOSITY 
MUDD.LB/USG                                           10.1000 : DRILLING FLUID DENSITY 
PH.                                                   10.0000 : DRILLING FLUID PH 
MUDS.                                                FLOWLINE : MUD SAMPLE SOURCE 
RM.OHMM                                                0.0600 : RESISTIVITY OF MUD SAMPLE 
RMT.DEGF                                              75.0000 : MUD SAMPLE TEMPERATURE 
RMF.OHMM                                               0.0400 : MUD FILTRATE RESISTIVITY 
RMFT.DEGF                                             75.0000 : MUD FILTRATE SAMPLE TEMPERATURE 
RMC.OHMM                                               0.0600 : MUD CAKE RESISTIVITY 
RMCT.DEGF                                             75.0000 : MUD CAKE SAMPLE TEMPERATURE 
RMB.OHMM                                               0.0240 : MUD RESISTIVITY AT BHT 
TMAX.DEGF                                            200.0000 : BOTTOM HOLE TEMPERATURE
#___________________________________________________________________________________________________ 
~CURVE INFORMATION 
# MNEM.UNIT           : CURVE DESCRIPTION 
#-----.-----          : ----------------------------- 
 DEPT.FT               : MEASURED DEPTH 
 GR.API                : GAMMA RAY (GAMMA RAY) 
 DT.US/FT              : SONIC DELTA TRANSIT TIME (DELTA T) 
 RESD_LL.OHMM          : DEEP LATEROLOG (LLD - DEEP LATEROLOG) 
 DPHI.V/V              : DENSITY POROSITY (DENSITY POROSITY) 
 NPHI.V/V              : NEUTRON POROSITY (NEUTRON POROSITY) 
 #___________________________________________________________________________________________________ 
~A         DEPT             GR             DT        RESD_LL           DPHI           NPHI
# ...
         8206.0         40.809         72.485       251.1120        0.08700        0.12200
         8206.5         49.553         75.803       224.5380        0.10500        0.15900
         8207.0         58.583         78.279       146.8120        0.10700        0.17600
         8207.5         61.919         80.335       147.9060        0.11600        0.19200
         8208.0         58.071         80.360       151.1460        0.12500        0.20700
         8208.5         52.864         79.281       157.9680        0.12200        0.19300
         8209.0         47.968         77.486       165.0250        0.11400        0.17000
         8209.5         47.166         77.595       170.1280        0.10700        0.17200
         8210.0         45.964         77.760       170.2900        0.10400        0.17800
         8210.5         43.811         77.454       126.6580        0.09700        0.16900
         8211.0         41.606         76.613       138.0940        0.09000        0.16200
         8211.5         40.817         76.716       157.5880        0.08900        0.17000
         8212.0         42.349         78.184       181.2960        0.10900        0.17900
         8212.5         46.926         79.824       219.3360        0.12600        0.18600
         8213.0         50.895         80.887       265.3580        0.12700        0.18200
         8213.5         49.899         80.400       321.0360        0.12600        0.18300
         8214.0         44.351         79.108       388.3970        0.12500        0.19000
         8214.5         40.230         77.408       421.3290        0.12300        0.18700
         8215.0         36.134         76.792       422.9030        0.12000        0.17200
         8215.5         34.878         76.195       424.4820        0.11600        0.16800
         8216.0         33.066         74.983       426.0680        0.12500        0.16800
         8216.5         29.931         73.727       428.2440        0.12800        0.16300
         8217.0         26.842         71.682       407.3670        0.11400        0.14600
         8217.5         24.871         70.907       376.4720        0.09500        0.13200
         8218.0         25.207         71.146       349.5550        0.08300        0.13300
         8218.5         25.319         70.842       343.1620        0.08300        0.13800
         8219.0         20.254         66.902       437.0280        0.07900        0.13600
         8219.5         14.859         62.880       538.8790        0.06600        0.11800
         8220.0          9.517         58.938       591.5230        0.05300        0.08800
         8220.5          5.819         56.894       642.7530        0.04500        0.05700
         8221.0          6.504         56.894       564.3270        0.04200        0.04600
         8221.5          8.633         60.475       470.1710        0.04000        0.06000
         8222.0         14.006         65.443       391.7240        0.04900        0.07700
         8222.5         19.332         70.864       326.3660        0.08100        0.10700
         8223.0         26.466         76.284       269.9540        0.11200        0.13700
         8223.5         34.760         80.718       267.7660        0.12600        0.16700
         8224.0         41.993         81.275       265.0170        0.13200        0.17700
         8224.5         44.344         83.644       276.4060        0.13800        0.18100
         8225.0         46.761         83.828       297.0490        0.13800        0.19400
         8225.5         46.895         83.226       319.2340        0.13400        0.20600
         8226.0         43.298         80.812       343.0750        0.12900        0.21000
         8226.5         37.506         78.131       383.3500        0.11700        0.18200
         8227.0         31.930         76.504       285.6050        0.10600        0.14100
         8227.5         32.451         77.263       214.5970        0.10200        0.13400
         8228.0         33.628         78.864       164.0190        0.12500        0.14500
         8228.5         34.787         80.352       172.9320        0.13700        0.16000
         8229.0         35.744         80.574       181.7780        0.13300        0.17000
         8229.5         35.879         80.341       209.6390        0.13000        0.17900
         8230.0         36.087         80.522       243.8730        0.12300        0.18600
         8230.5         38.724         80.721       283.7240        0.12400        0.17000
         8231.0         41.579         80.338       329.7500        0.12500        0.17700
         8231.5         41.900         77.890       375.7140        0.12300        0.18500
         8232.0         37.176         74.559       428.0860        0.11500        0.17200
         8232.5         29.233         71.305       487.7580        0.10900        0.14700
         8233.0         28.004         70.362       544.3770        0.11400        0.12900
         8233.5         32.621         74.176       378.8530        0.12200        0.12300
         8234.0         40.771         77.887       277.1350        0.13100        0.15100
         8234.5         49.400         81.599       196.5590        0.14000        0.17700
         8235.0         53.349         83.106       132.6170        0.14000        0.19700
         8235.5         49.273         82.024       103.8270        0.12700        0.19100
         8236.0         44.240         78.778       100.2610        0.11400        0.18300
         8236.5         41.332         76.931        99.6380        0.10100        0.17100
         8237.0         41.211         76.274       123.6550        0.09900        0.16300
         8237.5         41.046         75.926       143.8780        0.11400        0.16500
         8238.0         39.528         75.826       167.4080        0.12300        0.17200
         8238.5         38.078         76.373       204.5510        0.11900        0.17900
         8239.0         39.845         78.178       189.0850        0.11700        0.16300
         8239.5         41.898         80.138       167.3620        0.13200        0.17500
         8240.0         43.760         81.080       146.5990        0.14700        0.18700
         8240.5         43.262         80.400       146.7690        0.13900        0.17900
         8241.0         41.360         79.144       148.8490        0.13000        0.17900
         8241.5         39.477         78.226       157.0440        0.12400        0.17500
         8242.0         38.150         79.273       172.3860        0.13800        0.16900
         8242.5         39.835         80.341       186.5020        0.15400        0.16800
         8243.0         41.452         80.580       197.2500        0.16700        0.18800
         8243.5         41.305         78.121       223.5250        0.17400        0.17600
         8244.0         36.801         75.610       257.0680        0.15500        0.15500
         8244.5         32.504         73.089       269.9540        0.13400        0.13700
         8245.0         30.486         72.290       230.9500        0.11700        0.12100
         8245.5         33.022         74.728       196.6060        0.11200        0.12300
         8246.0         36.993         77.680       169.5460        0.13000        0.15600
         8246.5         40.960         80.466       153.1530        0.15900        0.18200
         8247.0         41.600         80.340       138.9040        0.16500        0.18800
         8247.5         38.599         78.641       138.9040        0.14800        0.17300
         8248.0         35.646         77.970       149.8560        0.12600        0.15700
         8248.5         34.596         77.739       169.9970        0.11500        0.15700
         8249.0         34.306         77.833       192.8460        0.12800        0.17000
         8249.5         34.042         77.926       216.3210        0.13700        0.18500
