###############################################
##         ENVERUS                           ##
##         ESS - Open Hole                   ##
##         PERMIAN / DELAWARE                ##
##         Nov 04 2023  V4.0                 ##
##         42-389-30414-00-00                ##
###############################################
## Copyright 2017-2023  ENVERUS.  All Rights Reserved. 
## Confidential - Property of ENVERUS, use governed by terms and 
## conditions found within the existing Information Services Subscription Agreement 
## (as may be amended, the “ISSA”) between Customer and ENVERUS. 
## 
~VERSION INFORMATION
# MNEM.UNIT                               DATA : DESCRIPTION OF MNEMONIC
#-----.-----     ----------------------------- : -----------------------------
VERS.                                     2.00 : CWLS LOG ASCII STANDARD - VERSION 2.00
WRAP.                                       NO : MULTIPLE LINES PER DEPTH STEP
VEND.                                  ENVERUS : VENDOR
TYPE.                          ESS - OPEN HOLE : ENVERUS ESSENTIAL CURVES – ACCESSIBLE THROUGH ENVERUS PRISM(TM)
DOC.                                  31965441 : ENVERUS HEADER RAW DOCUMENT ID
#___________________________________________________________________________________________________ 
~WELL INFORMATION 
# 4Nagw4FJNzCtYOfTAudVsymR6uv0ccMrNFKiy1Vrqa1gQVNLoB6NNR/Tzdk8H0Jxf2Akv2rjPRKaT9zVNBkTiw== 
# MNEM.UNIT                                              DATA : DESCRIPTION OF MNEMONIC 
#-----.-----                    ----------------------------- : ----------------------------- 
CNTY.                                                  REEVES : COUNTY 
STATE.                                                  TEXAS : STATE 
CNTRY.                                                    USA : COUNTRY 
API.                                             42-389-30414 : API (10 Digit) 
API_14.                                    42-389-30414-00-00 : API (14 Digits) 
API_14_std.                                 42-389-30414-0000 : API (14 Digits Standard) 
UWI.                                           42389304140000 : UNIQUE WELL ID 
WELL.                                            TXL 17-39  2 : WELL NAME
STRT.FT                                                 237.0 : START DEPTH
STOP.FT                                               13872.0 : STOP DEPTH
STEP.FT                                                   0.5 : STEP BETWEEN DEPTHS
NULL.                                                 -999.25 : NULL VALUE
COMP.                          ENDEAVOR ENERGY RESOURCES L.P. : COMPANY
#___________________________________________________________________________________________________ 
~CURVE INFORMATION 
# MNEM.UNIT           : CURVE DESCRIPTION 
#-----.-----          : ----------------------------- 
 DEPT.FT               : MEASURED DEPTH 
 CALI.IN               : CALIPER (CAL - CAL) 
 GR.API                : GAMMA RAY (GR) 
 DT.US/FT              : SONIC DELTA TRANSIT TIME (DT) 
 RESS.OHMM             : SHALLOW INDUCTION RESISTIVITY (ILS - ILS) 
 RESD.OHMM             : DEEP INDUCTION RESISTIVITY (ILD - ILD) 
 #___________________________________________________________________________________________________ 
~A         DEPT           CALI             GR             DT           RESS           RESD
# ...
        11765.0          7.212         83.924         77.487       -999.250          8.312
        11765.5          7.214         82.732         78.719       -999.250          8.056
        11766.0          7.215         81.539         79.163       -999.250          8.101
        11766.5          7.217         80.347         78.763       -999.250          8.150
        11767.0          7.219         79.331         78.245       -999.250          8.199
        11767.5          7.220         79.334         77.719       -999.250          8.248
        11768.0          7.222         79.337         77.193       -999.250          8.619
        11768.5          7.224         79.340         76.667       -999.250          9.825
        11769.0          7.225         75.793         76.142       -999.250         11.031
        11769.5          7.227         71.830         75.235       -999.250         12.237
        11770.0          7.228         67.867         73.912       -999.250         13.284
        11770.5          7.230         63.904         72.435       -999.250         13.754
        11771.0          7.232         59.942         69.086       -999.250         14.224
        11771.5          7.233         55.979         65.737       -999.250         14.432
        11772.0          7.235         52.016         62.388       -999.250         14.358
        11772.5          7.237         55.098         58.489       -999.250         14.284
        11773.0          7.238         59.133         64.110       -999.250         14.210
        11773.5          7.240         63.168         69.022       -999.250         13.126
        11774.0          7.242         67.203         71.612       -999.250         11.980
        11774.5          7.243         71.237         73.333       -999.250         10.834
        11775.0          7.245         74.360         73.078       -999.250         10.367
        11775.5          7.247         75.266         72.823       -999.250         10.118
        11776.0          7.248         76.171         72.567       -999.250          9.869
        11776.5          7.250         77.077         73.445       -999.250          9.628
        11777.0          7.251         76.685         74.528       -999.250         10.042
        11777.5          7.253         74.849         73.741       -999.250         10.457
        11778.0          7.255         73.014         71.864       -999.250         10.871
        11778.5          7.256         71.178         69.988       -999.250         11.286
        11779.0          7.258         69.343         69.209       -999.250         11.700
        11779.5          7.260         67.507         68.541       -999.250         12.246
        11780.0          7.261         67.475         67.873       -999.250         12.840
        11780.5          7.263         68.659         68.492       -999.250         13.433
        11781.0          7.265         69.843         70.176       -999.250         14.026
        11781.5          7.266         71.027         68.887       -999.250         13.967
        11782.0          7.268         72.212         67.597       -999.250         13.085
        11782.5          7.270         73.396         67.894       -999.250         12.203
        11783.0          7.271         74.580         68.954       -999.250         11.412
        11783.5          7.273         75.764         70.218       -999.250         11.796
        11784.0          7.274         76.823         71.567       -999.250         12.181
        11784.5          7.276         73.914         72.108       -999.250         12.565
        11785.0          7.278         71.006         72.386       -999.250         12.950
        11785.5          7.279         68.097         72.664       -999.250         13.334
        11786.0          7.281         65.188         71.048       -999.250         13.724
        11786.5          7.283         62.280         66.468       -999.250         14.774
        11787.0          7.284         59.541         62.328       -999.250         15.824
        11787.5          7.286         62.735         62.921       -999.250         16.874
        11788.0          7.288         65.930         63.514       -999.250         16.501
        11788.5          7.289         69.124         65.772       -999.250         15.960
        11789.0          7.291         71.658         69.916       -999.250         15.590
        11789.5          7.292         70.023         69.155       -999.250         15.235
        11790.0          7.294         68.389         67.863       -999.250         14.879
        11790.5          7.296         66.754         65.846       -999.250         14.524
        11791.0          7.297         65.120         65.481       -999.250         15.307
        11791.5          7.299         64.209         66.748       -999.250         16.890
        11792.0          7.301         64.015         68.014       -999.250         18.473
        11792.5          7.302         63.187         69.280       -999.250         19.859
        11793.0          7.304         58.946         69.292       -999.250         19.405
        11793.5          7.306         54.706         62.104       -999.250         18.950
        11794.0          7.307         50.594         56.512       -999.250         18.770
        11794.5          7.309         56.104         54.743       -999.250         18.692
        11795.0          7.311         61.614         57.085       -999.250         17.897
        11795.5          7.312         67.124         61.097       -999.250         16.563
        11796.0          7.314         72.634         65.452       -999.250         15.229
        11796.5          7.315         74.058         69.807       -999.250         14.705
        11797.0          7.317         73.464         69.630       -999.250         14.191
        11797.5          7.319         72.869         69.215       -999.250         13.677
        11798.0          7.320         72.275         68.800       -999.250         13.811
        11798.5          7.322         71.681         68.737       -999.250         14.325
        11799.0          7.324         71.086         68.923       -999.250         14.840
        11799.5          7.325         70.492         69.109       -999.250         15.354
        11800.0          7.327         69.898         69.295       -999.250         15.507
        11800.5          7.329         69.303         69.444       -999.250         13.633
        11801.0          7.330         68.709         67.964       -999.250         13.737
        11801.5          7.332         68.115         66.892       -999.250         13.842
        11802.0          7.334         69.317         68.349       -999.250         13.946
        11802.5          7.335         70.751         69.807       -999.250         14.361
        11803.0          7.337         72.185         71.265       -999.250         15.234
        11803.5          7.338         73.619         73.064       -999.250         16.106
        11804.0          7.340         68.684         70.795       -999.250         16.793
        11804.5          7.342         62.777         66.189       -999.250         17.279
        11805.0          7.343         56.870         61.582       -999.250         17.765
        11805.5          7.345         53.472         57.785       -999.250         18.133
        11806.0          7.347         57.712         57.610       -999.250         17.853
        11806.5          7.348         61.951         59.067       -999.250         17.574
        11807.0          7.350         66.190         66.517       -999.250         16.314
        11807.5          7.352         70.430         68.971       -999.250         14.798
        11808.0          7.353         74.952         71.016       -999.250         13.662
        11808.5          7.355         80.054         73.061       -999.250         13.094
