#--------------------------------------------------#
#-------------------ENVERUS, INC.------------------#
#------------------WWW.ENVERUS.COM-----------------#
#------------------COPYRIGHT 2020------------------#
#--------------------------------------------------#
#THIS FILE MAY BE USED ONLY IN ACCORDANCE WITH A CURRENT SUBSCRIPTION AGREEMENT BETWEEN
#THE USER AND ENVERUS, INC. NO PART OF THIS FILE MAY BE REPRODUCED, USED, COPIED,
#MODIFIED, PROPAGATED, OR DISTRIBUTED EXCEPT IN ACCORDANCE WITH THE SUBSCRIPTION
#AGREEMENT. UNAUTHORIZED USE OR DISTRIBUTION OF ALL OR ANY PART OF THIS FILE MAY VIOLATE
#COPYRIGHT, TRADEMARK, AND/OR OTHER LAWS AND IS SUBJECT TO CIVIL AS WELL AS CRIMINAL
#SANCTIONS.
#--------------------------------------------------#
#THIS FILE IS PROVIDED "AS-IS" AND ALL WARRANTIES ARE EXPRESSLY DISCLAIMED, WHETHER
#EXPRESS, ORAL, IMPLIED, STATUTORY OR OTHERWISE, INCLUDING ANY IMPLIED WARRANTY OF FITNESS
#FOR A PARTICULAR PURPOSE, MERCHANTABILITY, TITLE OR NON-INFRINGEMENT, AND ANY WARRANTIES
#ARISING BY VIRTUE OF CUSTOM OF TRADE OR COURSE OF DEALING.  FURTHER, ENVERUS, INC.
#AND ITS LICENSORS DO NOT REPRESENT OR WARRANT THAT THIS FILE WILL MEET USER'S
#REQUIREMENTS OR ARE SUITABLE FOR USER'S NEEDS OR THAT THE DATA OR RESULTS PROVIDED IN
#CONJUNCTION THEREWITH ARE CORRECT, ACCURATE, TIMELY OR RELIABLE. THESE DISCLAIMERS SHALL
#APPLY REGARDLESS OF ANY FAILURE OF ESSENTIAL PURPOSE OF ANY LIMITED REMEDY.  SOME
#JURISDICTIONS DO NOT ALLOW THE EXCLUSION OF CERTAIN WARRANTIES SO SOME OF THE ABOVE
#EXCLUSIONS MAY NOT APPLY. IN NO EVENT SHALL ENVERUS, INC. OR ANY OF ITS AFFILIATES
#BE LIABLE UNDER ANY LEGAL THEORY, WHETHER IN TORT (INCLUDING WITHOUT LIMITATION
#NEGLIGENCE), CONTRACT, STRICT LIABILITY, STATUTORY OR OTHERWISE, FOR ANY SPECIAL,
#INCIDENTAL, CONSEQUENTIAL, EXEMPLARY, PUNITIVE OR INDIRECT DAMAGE OF ANY KIND, INCLUDING
#WITHOUT LIMITATION LOSS OF REVENUE, PROFITS, GOODWILL, USE, AND/OR DATA OR THE COST OF
#PROCUREMENT OF SUBSTITUTE GOODS OR SERVICES, EVEN IF APPRISED OF THE POSSIBILITY OF SUCH
#DAMAGES IN ADVANCE.
#--------------------------------------------------#

~VERSION INFORMATION
VERS. 2.0 : CWLS LOG ASCII STANDARD - VERSION 2.0
WRAP.  NO : ONE LINE PER DEPTH STEP
~WELL INFORMATION
#MNEMONIC     .UNIT              VALUE :DESCRIPTION
STRT       .FT                51 :START DEPTH
STOP       .FT                4494 :STOP DEPTH
STEP       .FT                   0.500 :STEP
NULL       .                  -999.990 :NULL
UWI        .              42389102200000 :UNIQUE WELL ID
API        .              42389102200000 :API NUMBER
COMP       .         GRUY PETROLEUM MANAGEMENT CO. :COMPANY
WELL       .        REEVES -AQ- FEE  2 :WELL
DATE       .                30-NOV-1992 :LOG DATE
~CURVE INFORMATION
#MNEMONIC     .UNIT      API CODE :CURVE DESCRIPTION
DEPTH       .FT                      :MEASURED DEPTH
CAL.INCH        UNKNOWN   :CAL
GR.API        UNKNOWN   :GR
DT.US/FT        UNKNOWN   :DT
~A    DEPTH    CAL    GR    DT
# ...
 1251     9.059   6.635   52.051
 1251.5     9.079   6.302   51.951
 1252     9.099   6.184   51.85
 1252.5     9.119   6.454   51.926
 1253     9.139   6.724   52.046
 1253.5     9.159   6.995   52.167
 1254     9.179   7.265   52.277
 1254.5     9.199   7.535   52.277
 1255     9.219   7.805   52.277
 1255.5     9.239   8.076   52.277
 1256     9.266   8.346   52.277
 1256.5     9.294   8.616   52.276
 1257     9.321   8.788   52.276
 1257.5     9.348   8.622   52.482
 1258     9.376   8.456   52.706
 1258.5     9.403   8.289   52.93
 1259     9.43   8.72   53.154
 1259.5     9.458   8.968   53.353
 1260     9.485   8.869   53.534
 1260.5     9.513   8.769   53.715
 1261     9.54   8.67   53.896
 1261.5     9.567   8.57   54.077
 1262     9.595   8.471   53.884
 1262.5     9.614   8.828   53.486
 1263     9.616   9.386   53.089
 1263.5     9.619   9.943   52.692
 1264     9.621   10.852   52.382
 1264.5     9.623   13.25   52.251
 1265     9.626   14.289   52.12
 1265.5     9.628   14.576   51.989
 1266     9.631   14.862   51.858
 1266.5     9.633   13.82   51.727
 1267     9.635   12.657   51.596
 1267.5     9.638   11.494   51.465
 1268     9.64   10.331   50.955
 1268.5     9.642   9.477   50.709
 1269     9.645   9.728   50.601
 1269.5     9.647   9.979   50.494
 1270     9.65   10.23   50.386
 1270.5     9.652   10.209   50.279
 1271     9.654   9.62   50.238
 1271.5     9.657   9.03   50.66
 1272     9.659   8.44   51.083
 1272.5     9.662   7.871   51.505
 1273     9.656   8.122   51.928
 1273.5     9.633   8.373   52.35
 1274     9.609   8.623   52.773
 1274.5     9.586   8.013   52.52
 1275     9.563   7.314   52.228
 1275.5     9.539   6.615   51.935
 1276     9.516   5.916   51.643
 1276.5     9.493   5.218   51.351
 1277     9.489   4.533   51.059
 1277.5     9.489   4.159   50.767
 1278     9.488   4.117   50.635
 1278.5     9.487   4.43   50.641
 1279     9.486   4.743   50.647
 1279.5     9.486   4.81   50.654
 1280     9.485   4.447   50.66
 1280.5     9.484   4.083   50.666
 1281     9.483   3.72   50.673
 1281.5     9.483   3.373   50.679
 1282     9.482   3.23   50.685
 1282.5     9.481   3.088   50.691
 1283     9.48   2.994   50.698
 1283.5     9.48   2.995   50.704
 1284     9.479   2.995   50.628
 1284.5     9.478   2.996   50.531
 1285     9.477   2.996   50.434
 1285.5     9.477   2.997   50.338
 1286     9.476   3.034   50.241
 1286.5     9.475   3.411   50.144
 1287     9.474   3.787   50.133
 1287.5     9.474   4.163   50.173
 1288     9.473   4.54   50.213
 1288.5     9.472   4.582   50.253
 1289     9.471   4.174   50.257
 1289.5     9.471   3.766   50.256
 1290     9.47   3.357   50.256
 1290.5     9.469   2.985   50.256
 1291     9.468   2.861   50.256
 1291.5     9.468   3.134   50.256
 1292     9.467   3.707   50.256
 1292.5     9.466   4.281   50.256
 1293     9.467   4.271   50.283
 1293.5     9.467   4.154   50.313
 1294     9.467   4.037   50.343
 1294.5     9.467   3.919   50.373
 1295     9.467   3.802   50.403
 1295.5     9.467   3.685   50.433
 1296     9.467   3.645   50.463
 1296.5     9.467   3.896   50.494
 1297     9.467   4.147   50.524
 1297.5     9.467   4.398   50.554
 1298     9.467   4.649   50.584
 1298.5     9.467   4.708   50.614
 1299     9.467   4.6   50.644
 1299.5     9.467   4.492   50.674
 1300     9.467   4.383   50.7
 1300.5     9.467   4.275   50.66
 1301     9.467   4.167   50.619
 1301.5     9.467   4.059   50.579
 1302     9.47   3.951   50.538
 1302.5     9.473   3.842   50.498
 1303     9.477   3.907   50.458
 1303.5     9.48   4.108   50.417
 1304     9.484   4.309   50.403
 1304.5     9.488   4.51   50.403
 1305     9.491   4.711   50.403
 1305.5     9.495   4.912   50.403
 1306     9.498   5.113   50.403
 1306.5     9.502   5.313   50.403
 1307     9.505   5.215   50.403
 1307.5     9.509   5.025   50.403
 1308     9.512   4.835   50.434
 1308.5     9.516   4.644   50.484
 1309     9.517   4.454   50.534
 1309.5     9.516   4.264   50.585
 1310     9.516   4.074   50.635
 1310.5     9.515   3.884   50.685
 1311     9.515   3.835   50.735
 1311.5     9.514   3.891   50.766
 1312     9.513   3.947   50.72
 1312.5     9.513   4.018   50.675
 1313     9.512   4.319   50.63
 1313.5     9.512   4.62   50.584
 1314     9.511   4.921   50.57
 1314.5     9.511   5.222   50.645
 1315     9.51   5.523   50.719
 1315.5     9.509   5.696   50.793
 1316     9.509   5.402   50.867
 1316.5     9.508   5.109   50.942
 1317     9.508   4.815   51.016
 1317.5     9.507   4.522   51.09
 1318     9.507   4.228   51.125
 1318.5     9.506   3.935   51.031
 1319     9.506   3.89   50.937
 1319.5     9.505   4.027   50.843
 1320     9.504   4.164   50.749
 1320.5     9.504   4.301   50.655
 1321     9.503   4.322   50.561
 1321.5     9.503   4.058   50.467
 1322     9.502   3.793   50.373
 1322.5     9.502   3.529   50.279
 1323     9.501   3.265   50.185
 1323.5     9.5   3.001   50.101
 1324     9.5   2.737   50.101
 1324.5     9.499   2.872   50.101
 1325     9.499   3.22   50.101
 1325.5     9.498   3.567   50.101
 1326     9.498   3.914   50.101
 1326.5     9.497   4.262   50.101
 1327     9.496   4.405   50.101
 1327.5     9.496   4.405   50.096
 1328     9.495   4.406   50.042
 1328.5     9.495   4.406   49.989
 1329     9.494   4.324   49.935
 1329.5     9.479   4.047   49.881
 1330     9.459   3.77   49.827
 1330.5     9.439   3.492   49.731
 1331     9.419   3.215   49.597
 1331.5     9.399   2.938   49.462
 1332     9.379   2.661   49.328
 1332.5     9.359   2.422   49.194
 1333     9.339   2.286   49.06
 1333.5     9.321   2.15   49.032
 1334     9.321   2.014   49.007
 1334.5     9.321   1.878   48.983
 1335     9.321   1.937   48.959
 1335.5     9.321   2   48.935
 1336     9.321   2.063   48.91
 1336.5     9.321   2.267   48.977
 1337     9.321   2.496   49.067
 1337.5     9.321   2.724   49.158
 1338     9.321   2.952   49.248
 1338.5     9.321   2.92   49.339
 1339     9.321   2.694   49.429
 1339.5     9.321   2.467   49.519
 1340     9.321   2.24   49.594
 1340.5     9.322   2.152   49.642
 1341     9.322   2.426   49.691
 1341.5     9.322   2.7   49.739
 1342     9.322   2.973   49.787
 1342.5     9.322   3.247   49.835
 1343     9.322   3.217   49.883
 1343.5     9.322   3.184   49.932
 1344     9.322   3.152   49.98
 1344.5     9.322   3.119   50.025
 1345     9.322   3.086   50.044
 1345.5     9.322   3.039   50.063
 1346     9.322   2.903   50.082
 1346.5     9.322   2.767   50.101
 1347     9.322   2.631   50.12
 1347.5     9.322   2.496   50.139
 1348     9.322   2.711   50.158
 1348.5     9.322   2.989   50.177
 1349     9.322   3.268   50.196
 1349.5     9.322   3.547   50.215
 1350     9.322   3.826   50.234
 1350.5     9.322   4.104   50.236
 1351     9.322   4.383   50.21
 1351.5     9.322   4.33   50.184
 1352     9.322   4.21   50.158
 1352.5     9.323   4.09   50.132
 1353     9.323   3.969   50.106
 1353.5     9.323   3.849   50.08
 1354     9.323   3.729   50.054
 1354.5     9.323   3.609   50.028
 1355     9.323   3.489   50.061
 1355.5     9.323   3.368   50.118
 1356     9.323   3.248   50.174
 1356.5     9.323   3.128   50.23
 1357     9.323   3.038   50.286
 1357.5     9.323   2.976   50.343
 1358     9.323   2.914   50.399
 1358.5     9.323   2.852   50.455
 1359     9.323   2.79   50.511
 1359.5     9.323   2.728   50.528
 1360     9.323   2.769   50.497
 1360.5     9.323   3.086   50.465
 1361     9.323   3.403   50.433
 1361.5     9.323   3.72   50.402
 1362     9.323   4.037   50.37
 1362.5     9.323   4.354   50.339
 1363     9.323   4.671   50.307
 1363.5     9.323   4.987   50.275
 1364     9.323   4.884   50.244
 1364.5     9.323   4.718   50.212
 1365     9.324   4.552   50.181
 1365.5     9.324   4.386   50.149
 1366     9.324   4.22   50.117
 1366.5     9.324   4.054   50.097
 1367     9.324   3.888   50.113
 1367.5     9.324   3.721   50.129
 1368     9.324   3.555   50.145
 1368.5     9.324   3.389   50.161
 1369     9.324   3.223   50.177
 1369.5     9.324   3.13   50.193
