###############################################
##         ENVERUS                           ##
##         ESS - Open Hole                   ##
##         PERMIAN / DELAWARE                ##
##         Nov 04 2023  V4.0                 ##
##         42-389-32245-00-00                ##
###############################################
## Copyright 2017-2023  ENVERUS.  All Rights Reserved. 
## Confidential - Property of ENVERUS, use governed by terms and 
## conditions found within the existing Information Services Subscription Agreement 
## (as may be amended, the “ISSA”) between Customer and ENVERUS. 
## 
~VERSION INFORMATION
# MNEM.UNIT                               DATA : DESCRIPTION OF MNEMONIC
#-----.-----     ----------------------------- : -----------------------------
VERS.                                     2.00 : CWLS LOG ASCII STANDARD - VERSION 2.00
WRAP.                                       NO : MULTIPLE LINES PER DEPTH STEP
VEND.                                  ENVERUS : VENDOR
TYPE.                          ESS - OPEN HOLE : ENVERUS ESSENTIAL CURVES – ACCESSIBLE THROUGH ENVERUS PRISM(TM)
DOC.                                  31784178 : ENVERUS HEADER RAW DOCUMENT ID
#___________________________________________________________________________________________________ 
~WELL INFORMATION 
# v5kOeJgG8V8Fdrn76qwaaSXPAkEfLGq57aawfXlCwOXh55ROPeN2VCvB7JmY2/dENYnWxxZwl4Ma/Wu+4c2YGQ== 
# MNEM.UNIT                                              DATA : DESCRIPTION OF MNEMONIC 
#-----.-----                    ----------------------------- : ----------------------------- 
CNTY.                                                  REEVES : COUNTY 
STATE.                                                  TEXAS : STATE 
CNTRY.                                                    USA : COUNTRY 
API.                                             42-389-32245 : API (10 Digit) 
API_14.                                    42-389-32245-00-00 : API (14 Digits) 
API_14_std.                                 42-389-32245-0000 : API (14 Digits Standard) 
UWI.                                           42389322450000 : UNIQUE WELL ID 
WELL.                          TEXAS PACIFIC LAND TRUST 25 1H : WELL NAME
STRT.FT                                                2519.0 : START DEPTH
STOP.FT                                               10624.0 : STOP DEPTH
STEP.FT                                                   0.5 : STEP BETWEEN DEPTHS
NULL.                                                 -999.25 : NULL VALUE
#___________________________________________________________________________________________________ 
~CURVE INFORMATION 
# MNEM.UNIT           : CURVE DESCRIPTION 
#-----.-----          : ----------------------------- 
 DEPT.FT               : MEASURED DEPTH 
 CALI__B.IN            : CALIPER (CAL - CAL) 
 GR__B.API             : GAMMA RAY (GR) 
 DT__B.US/FT           : SONIC DELTA TRANSIT TIME (DT) 
 #___________________________________________________________________________________________________ 
~A         DEPT        CALI__B          GR__B          DT__B
# ...
         7865.0         13.096         69.247         65.012
         7865.5         13.098         65.309         66.929
         7866.0         13.100         67.431         68.845
         7866.5         13.102         71.470         70.762
         7867.0         13.105         75.509         72.007
         7867.5         13.107         79.548         72.279
         7868.0         13.109         80.924         71.377
         7868.5         13.112         78.784         68.867
         7869.0         13.114         72.253         66.357
         7869.5         13.116         61.401         65.049
         7870.0         13.119         56.758         65.104
         7870.5         13.121         58.229         65.112
         7871.0         13.123         62.431         64.559
         7871.5         13.126         61.288         63.008
         7872.0         13.128         54.316         61.456
         7872.5         13.130         45.486         61.361
         7873.0         13.133         45.904         63.444
         7873.5         13.135         48.016         66.394
         7874.0         13.137         52.935         69.345
         7874.5         13.139         59.066         72.377
         7875.0         13.142         65.197         74.820
         7875.5         13.144         78.939         74.619
         7876.0         13.146         83.935         75.307
         7876.5         13.149         84.541         83.787
         7877.0         13.151         85.151         91.185
         7877.5         13.153         86.634         83.447
         7878.0         13.156         88.116         75.707
         7878.5         13.158         89.563         74.735
         7879.0         13.160         88.818         73.762
         7879.5         13.160         83.966         72.790
         7880.0         13.160         79.114         71.818
         7880.5         13.160         72.896         70.661
         7881.0         13.160         62.495         69.383
         7881.5         13.160         52.094         65.871
         7882.0         13.160         44.446         61.909
         7882.5         13.160         38.559         59.024
         7883.0         13.160         38.880         59.998
         7883.5         13.160         42.433         65.323
         7884.0         13.160         48.183         68.912
         7884.5         13.160         63.295         71.639
         7885.0         13.160         78.860         74.160
         7885.5         13.160         94.425         76.053
         7886.0         13.160         92.431         74.396
         7886.5         13.160         83.220         68.636
         7887.0         13.160         74.010         62.877
         7887.5         13.160         58.395         58.638
         7888.0         13.160         40.254         58.406
         7888.5         13.160         35.016         59.097
         7889.0         13.160         34.861         59.788
         7889.5         13.160         36.975         61.919
         7890.0         13.160         45.483         65.686
         7890.5         13.160         56.225         70.453
         7891.0         13.160         66.966         73.362
         7891.5         13.160         77.708         71.573
         7892.0         13.160         82.344         69.448
         7892.5         13.160         78.236         67.047
         7893.0         13.160         65.698         64.797
         7893.5         13.160         53.160         64.314
         7894.0         13.160         52.064         64.437
         7894.5         13.160         54.663         64.151
         7895.0         13.160         55.849         63.749
         7895.5         13.160         51.962         65.075
         7896.0         13.160         48.075         68.262
         7896.5         13.160         55.928         71.450
         7897.0         13.154         68.233         73.830
         7897.5         13.143         75.684         74.134
         7898.0         13.132         70.114         71.079
         7898.5         13.122         63.709         68.943
         7899.0         13.111         61.037         68.105
         7899.5         13.100         62.890         69.764
         7900.0         13.090         65.424         71.422
         7900.5         13.079         73.247         73.081
         7901.0         13.070         81.070         74.739
         7901.5         13.070         88.893         75.821
         7902.0         13.070         92.596         75.153
         7902.5         13.070         85.289         70.352
         7903.0         13.070         72.905         65.279
         7903.5         13.070         60.015         63.133
         7904.0         13.070         44.032         62.977
         7904.5         13.070         39.251         64.224
         7905.0         13.090         43.575         65.888
         7905.5         13.120         49.400         67.552
         7906.0         13.149         55.224         67.949
         7906.5         13.179         53.885         67.563
         7907.0         13.208         51.962         67.847
         7907.5         13.238         51.365         69.737
         7908.0         13.267         59.428         71.626
         7908.5         13.297         69.110         73.239
         7909.0         13.321         71.602         73.186
         7909.5         13.333         70.094         72.665
         7910.0         13.346         68.587         72.463
         7910.5         13.359         69.135         72.671
         7911.0         13.372         73.335         72.879
         7911.5         13.385         77.504         71.791
         7912.0         13.397         74.284         70.480
         7912.5         13.410         71.063         69.168
         7913.0         13.423         68.438         68.877
         7913.5         13.436         68.355         68.855
         7914.0         13.448         68.273         69.159
         7914.5         13.461         69.808         69.463
         7915.0         13.474         72.412         69.185
         7915.5         13.487         75.015         68.590
         7916.0         13.495         74.463         67.957
         7916.5         13.495         72.374         67.514
         7917.0         13.495         70.286         67.701
         7917.5         13.495         68.197         68.162
         7918.0         13.495         69.267         68.521
         7918.5         13.495         71.295         68.260
         7919.0         13.495         72.823         67.299
         7919.5         13.495         67.932         66.338
         7920.0         13.495         62.298         66.089
         7920.5         13.495         59.577         67.199
         7921.0         13.492         66.863         69.657
         7921.5         13.488         74.148         72.419
         7922.0         13.485         81.434         75.147
         7922.5         13.482         88.719         77.503
         7923.0         13.479         97.152         77.539
         7923.5         13.476        100.932         74.405
         7924.0         13.473         91.935         70.713
         7924.5         13.470         77.046         64.997
         7925.0         13.467         62.156         59.066
         7925.5         13.464         47.267         53.832
         7926.0         13.460         34.051         52.742
         7926.5         13.457         28.115         54.241
         7927.0         13.454         29.761         59.293
         7927.5         13.451         40.701         65.275
         7928.0         13.461         57.321         69.362
         7928.5         13.474         73.080         72.880
         7929.0         13.488         87.577         75.618
         7929.5         13.501         87.045         75.720
         7930.0         13.514         77.631         74.808
         7930.5         13.528         67.410         73.896
