###############################################
##         ENVERUS                           ##
##         ESS - Open Hole                   ##
##         PERMIAN / DELAWARE                ##
##         Nov 04 2023  V4.0                 ##
##         42-389-30422-00-00                ##
###############################################
## Copyright 2017-2023  ENVERUS.  All Rights Reserved. 
## Confidential - Property of ENVERUS, use governed by terms and 
## conditions found within the existing Information Services Subscription Agreement 
## (as may be amended, the “ISSA”) between Customer and ENVERUS. 
## 
~VERSION INFORMATION
# MNEM.UNIT                               DATA : DESCRIPTION OF MNEMONIC
#-----.-----     ----------------------------- : -----------------------------
VERS.                                     2.00 : CWLS LOG ASCII STANDARD - VERSION 2.00
WRAP.                                       NO : MULTIPLE LINES PER DEPTH STEP
VEND.                                  ENVERUS : VENDOR
TYPE.                          ESS - OPEN HOLE : ENVERUS ESSENTIAL CURVES – ACCESSIBLE THROUGH ENVERUS PRISM(TM)
DOC.                                  31749874 : ENVERUS HEADER RAW DOCUMENT ID
#___________________________________________________________________________________________________ 
~WELL INFORMATION 
# u82sU1u0B8de5w9HEAjaYOtqLlVzfD+KUeD2ZoqivGgiUzwSeb1LYInaR9MNeJxDUIxxjb7EPbXz9g+KH10l6Q== 
# MNEM.UNIT                                              DATA : DESCRIPTION OF MNEMONIC 
#-----.-----                    ----------------------------- : ----------------------------- 
CNTY.                                                  REEVES : COUNTY 
STATE.                                                  TEXAS : STATE 
CNTRY.                                                    USA : COUNTRY 
API.                                             42-389-30422 : API (10 Digit) 
API_14.                                    42-389-30422-00-00 : API (14 Digits) 
API_14_std.                                 42-389-30422-0000 : API (14 Digits Standard) 
UWI.                                           42389304220000 : UNIQUE WELL ID 
WELL.                                    BECKHAM  AGNES 26  1 : WELL NAME
STRT.FT                                                  89.0 : START DEPTH
STOP.FT                                               15719.0 : STOP DEPTH
STEP.FT                                                   0.5 : STEP BETWEEN DEPTHS
NULL.                                                 -999.25 : NULL VALUE
COMP.                                     WALSH & WATTS  INC. : COMPANY
#___________________________________________________________________________________________________ 
~CURVE INFORMATION 
# MNEM.UNIT           : CURVE DESCRIPTION 
#-----.-----          : ----------------------------- 
 DEPT.FT               : MEASURED DEPTH 
 CALI.IN               : CALIPER (CAL - CAL) 
 GR.API                : GAMMA RAY (GR) 
 DT.US/FT              : SONIC DELTA TRANSIT TIME (DT) 
 #___________________________________________________________________________________________________ 
~A         DEPT           CALI             GR             DT
# ...
        13091.0          8.511         14.713         53.533
        13091.5          8.506         15.269         53.759
        13092.0          8.500         15.161         53.984
        13092.5          8.495         14.615         54.194
        13093.0          8.490         14.069         54.227
        13093.5          8.485         13.524         54.260
        13094.0          8.479         12.978         54.293
        13094.5          8.474         12.432         54.326
        13095.0          8.469         11.886         54.359
        13095.5          8.464         11.341         54.392
        13096.0          8.458         10.795         54.426
        13096.5          8.453         10.300         54.459
        13097.0          8.448         10.343         54.551
        13097.5          8.443         10.386         54.998
        13098.0          8.437         10.429         55.444
        13098.5          8.432         10.472         55.890
        13099.0          8.427         10.515         56.336
        13099.5          8.422         10.558         56.782
        13100.0          8.416         10.601         57.036
        13100.5          8.417         10.644         56.658
        13101.0          8.429         10.687         56.280
        13101.5          8.441         10.868         55.903
        13102.0          8.453         11.086         55.533
        13102.5          8.465         11.304         55.406
        13103.0          8.477         11.522         55.279
        13103.5          8.489         11.740         55.152
        13104.0          8.501         11.958         55.025
        13104.5          8.513         12.176         54.899
        13105.0          8.542         12.394         54.772
        13105.5          8.594         12.612         54.645
        13106.0          8.646         12.830         54.518
        13106.5          8.698         13.097         54.391
        13107.0          8.750         13.441         54.264
        13107.5          8.802         13.785         54.029
        13108.0          8.854         14.130         53.500
        13108.5          8.907         14.474         52.971
        13109.0          8.959         14.818         52.442
        13109.5          9.011         15.163         51.913
        13110.0          9.063         15.507         51.384
        13110.5          9.115         15.851         50.948
        13111.0          9.099         16.195         50.530
        13111.5          9.082         16.540         50.111
        13112.0          9.065         16.348         49.801
        13112.5          9.048         15.543         49.852
        13113.0          9.031         14.739         49.904
        13113.5          9.014         13.935         49.955
        13114.0          8.998         13.131         50.006
        13114.5          8.997         12.327         50.057
        13115.0          9.012         12.961         50.108
        13115.5          9.026         15.288         50.160
        13116.0          9.041         15.305         50.211
        13116.5          9.056         14.929         50.262
        13117.0          9.071         14.553         50.313
        13117.5          9.085         14.177         50.364
        13118.0          9.100         13.802         50.415
        13118.5          9.115         13.426         50.444
        13119.0          9.129         13.516         50.317
        13119.5          9.144         13.632         50.190
        13120.0          9.159         13.748         50.064
        13120.5          9.174         13.864         49.937
        13121.0          9.188         13.981         49.810
        13121.5          9.203         14.097         49.683
        13122.0          9.218         14.213         49.622
        13122.5          9.232         14.329         49.616
        13123.0          9.247         14.445         49.610
        13123.5          9.262         14.569         49.604
        13124.0          9.256         14.774         49.598
        13124.5          9.235         14.978         49.592
        13125.0          9.215         15.183         49.586
        13125.5          9.195         15.387         49.579
        13126.0          9.175         15.591         49.573
        13126.5          9.154         15.796         49.567
        13127.0          9.134         16.000         49.561
        13127.5          9.114         16.205         49.555
        13128.0          9.093         16.409         49.549
        13128.5          9.073         20.210         49.543
        13129.0          9.053         24.698         50.448
        13129.5          9.033         27.259         51.540
        13130.0          9.012         29.466         52.632
        13130.5          8.988         31.673         53.724
        13131.0          8.931         33.880         53.672
        13131.5          8.875         36.087         53.249
        13132.0          8.819         38.294         52.827
        13132.5          8.762         36.745         52.405
        13133.0          8.706         34.886         51.983
        13133.5          8.650         33.028         51.561
        13134.0          8.594         31.169         51.316
        13134.5          8.537         29.311         52.234
        13135.0          8.487         27.452         53.152
        13135.5          8.488         25.593         54.070
        13136.0          8.488         23.735         54.988
        13136.5          8.488         21.876         55.906
        13137.0          8.488         20.018         55.759
        13137.5          8.488         20.232         55.462
        13138.0          8.488         20.656         55.164
        13138.5          8.488         21.079         54.866
        13139.0          8.489         21.502         54.569
        13139.5          8.489         21.926         54.271
        13140.0          8.489         22.349         54.117
        13140.5          8.489         22.772         54.350
        13141.0          8.489         23.196         54.582
        13141.5          8.489         23.619         54.815
        13142.0          8.490         23.872         55.048
        13142.5          8.490         23.209         55.280
        13143.0          8.545         22.546         55.513
        13143.5          8.629         21.883         55.648
        13144.0          8.712         21.219         55.255
        13144.5          8.796         20.556         54.862
        13145.0          8.879         19.893         54.468
        13145.5          8.963         19.230         54.075
        13146.0          9.046         18.566         53.682
        13146.5          9.130         18.187         53.289
        13147.0          9.213         18.949         52.895
        13147.5          9.297         19.711         52.502
        13148.0          9.325         20.473         52.101
        13148.5          9.335         21.235         51.647
        13149.0          9.344         21.997         51.193
        13149.5          9.354         22.759         50.739
        13150.0          9.364         23.521         50.285
        13150.5          9.374         23.064         49.967
        13151.0          9.383         22.360         49.966
        13151.5          9.393         21.656         49.965
        13152.0          9.403         20.953         49.965
        13152.5          9.413         20.249         49.964
        13153.0          9.422         19.545         49.964
        13153.5          9.432         18.841         49.963
        13154.0          9.442         18.137         50.056
        13154.5          9.452         17.433         50.182
        13155.0          9.461         19.274         50.309
        13155.5          9.470         21.527         50.435
        13156.0          9.475         21.029         50.561
        13156.5          9.481         19.391         50.687
