###############################################
##         ENVERUS                           ##
##         ESS - Open Hole                   ##
##         PERMIAN / DELAWARE                ##
##         Nov 04 2023  V4.0                 ##
##         42-389-32245-00-00                ##
###############################################
## Copyright 2017-2023  ENVERUS.  All Rights Reserved. 
## Confidential - Property of ENVERUS, use governed by terms and 
## conditions found within the existing Information Services Subscription Agreement 
## (as may be amended, the “ISSA”) between Customer and ENVERUS. 
## 
~VERSION INFORMATION
# MNEM.UNIT                               DATA : DESCRIPTION OF MNEMONIC
#-----.-----     ----------------------------- : -----------------------------
VERS.                                     2.00 : CWLS LOG ASCII STANDARD - VERSION 2.00
WRAP.                                       NO : MULTIPLE LINES PER DEPTH STEP
VEND.                                  ENVERUS : VENDOR
TYPE.                          ESS - OPEN HOLE : ENVERUS ESSENTIAL CURVES – ACCESSIBLE THROUGH ENVERUS PRISM(TM)
DOC.                                  24742630 : ENVERUS HEADER RAW DOCUMENT ID
#___________________________________________________________________________________________________ 
~WELL INFORMATION 
# u9Wg0OWXiPz858M7Kubpm0lpDPxjGuyhH3tqBPDGtvBYDDDqGrwiIchrhDPbdkpmsDZNCKsM7+2eKUVstoQO7Q== 
# MNEM.UNIT                                              DATA : DESCRIPTION OF MNEMONIC 
#-----.-----                    ----------------------------- : ----------------------------- 
CNTY.                                                  REEVES : COUNTY 
STATE.                                                  TEXAS : STATE 
CNTRY.                                                    USA : COUNTRY 
API.                                             42-389-32245 : API (10 Digit) 
API_14.                                    42-389-32245-00-00 : API (14 Digits) 
API_14_std.                                 42-389-32245-0000 : API (14 Digits Standard) 
UWI.                                           42389322450000 : UNIQUE WELL ID 
WELL.                          TEXAS PACIFIC LAND TRUST #25-1 : WELL NAME
STRT.FT                                                2530.0 : START DEPTH
STOP.FT                                               10610.0 : STOP DEPTH
STEP.FT                                                   0.5 : STEP BETWEEN DEPTHS
NULL.                                                 -999.25 : NULL VALUE
COMP.                                             CONOCO INC. : COMPANY 
FLD.                                            FORD WOLFCAMP : FIELD 
LOC.                                                 25-2S-58 : LOCATION 
SRVC.                                            SCHLUMBERGER : SERVICE COMPANY 
DATE.                                              03/21/2002 : DATE 
TVD.                                                       NO : TVD FLAG
#___________________________________________________________________________________________________ 
~PARAMETER INFORMATION 
# MNEM.UNIT                                              DATA : DESCRIPTION OF MNEMONIC 
#-----.-----                    ----------------------------- : ----------------------------- 
RUN.                                                      ONE : RUN NUMBER 
PDAT.                                                      GL : PERMANENT DATUM 
EPD.FT                                              2993.0000 : ELEVATION OF PERM. DATUM 
LMF.                                            KELLY BUSHING : LOG MEASURED FROM 
EKB.FT                                              3021.0000 : ELEVATION OF KELLY BUSHING 
DF.FT                                               3020.0000 : ELEVATION OF DERRICK FLOOR 
GL.FT                                               2993.0000 : ELEVATION OF GROUND LEVEL 
TD.FT                                              10610.0000 : TOTAL DEPTH 
BHT.DEGF                                               130.00 : BOTTOM HOLE TEMPERATURE 
BLI.FT                                             10610.0000 : BOTTOM LOG INTERVAL 
CSGSIZE.IN                                             9.6250 : CASING SIZE 
BITSIZE.IN                                              8.750 : BITSIZE 
CSGD.FT                                                  2642 : CASING BOTTOM (DRILLER) 1 
CSGL.FT                                                  2538 : CASING BOTTOM (LOGGER) 1 
MUD.                                                CUT BRINE : DRILLING FLUID TYPE 
MUDV.CP                                               28.0000 : DRILLING FLUID VISCOSITY 
MUDD.LB/USG                                           10.0000 : DRILLING FLUID DENSITY 
PH.                                                    8.5000 : DRILLING FLUID PH 
MUDS.                                        CIRCULATION TANK : MUD SAMPLE SOURCE 
RM.OHMM                                                0.0610 : RESISTIVITY OF MUD SAMPLE 
RMT.DEGF                                              75.0000 : MUD SAMPLE TEMPERATURE 
RMF.OHMM                                               0.0610 : MUD FILTRATE RESISTIVITY 
RMFT.DEGF                                             75.0000 : MUD FILTRATE SAMPLE TEMPERATURE
#___________________________________________________________________________________________________ 
~CURVE INFORMATION 
# MNEM.UNIT           : CURVE DESCRIPTION 
#-----.-----          : ----------------------------- 
 DEPT.FT               : MEASURED DEPTH 
 CALI.IN               : CALIPER (CALIPER) 
 GR.API                : GAMMA RAY (GAMMA RAY) 
 DT.US/FT              : SONIC DELTA TRANSIT TIME (DELTA T) 
 SPHI.V/V              : SONIC POROSITY (SONIC POROSITY) 
 #___________________________________________________________________________________________________ 
~A         DEPT           CALI             GR             DT           SPHI
# ...
        10003.0          8.950         86.790         77.280        0.21000
        10003.5          8.930         85.560         77.060        0.21000
        10004.0          8.920         84.870         76.650        0.20000
        10004.5          8.910         84.430         76.240        0.20000
        10005.0          8.900         85.440         76.010        0.20000
        10005.5          8.900         86.680         76.300        0.20000
        10006.0          8.900         86.930         76.720        0.21000
        10006.5          8.900         84.400         77.150        0.21000
        10007.0          8.890         82.180         77.580        0.22000
        10007.5          8.890         82.840         78.410        0.22000
        10008.0          8.890         84.430         80.050        0.23000
        10008.5          8.890         85.990         81.680        0.25000
        10009.0          8.890         89.360         83.320        0.26000
        10009.5          8.890         94.630         83.730        0.25000
        10010.0          8.890         97.660         82.460        0.24000
        10010.5          8.890         95.450         80.590        0.22000
        10011.0          8.890         88.750         78.290        0.20000
        10011.5          8.880         81.580         75.990        0.19000
        10012.0          8.880         73.450         74.700        0.19000
        10012.5          8.880         71.700         75.870        0.21000
        10013.0          8.880         70.960         78.570        0.23000
        10013.5          8.880         73.930         81.280        0.25000
        10014.0          8.880         78.060         83.500        0.26000
        10014.5          8.880         82.220         84.320        0.26000
        10015.0          8.880         85.240         83.820        0.25000
        10015.5          8.870         85.940         82.610        0.25000
        10016.0          8.870         83.560         81.090        0.23000
        10016.5          8.870         81.780         78.620        0.21000
        10017.0          8.870         79.200         76.140        0.20000
        10017.5          8.870         72.210         73.880        0.18000
        10018.0          8.870         65.330         73.290        0.19000
        10018.5          8.870         61.650         74.880        0.20000
        10019.0          8.870         67.040         77.410        0.22000
        10019.5          8.870         75.010         79.930        0.23000
        10020.0          8.860         83.060         81.350        0.24000
        10020.5          8.860         88.230         81.220        0.24000
        10021.0          8.860         91.440         81.060        0.24000
        10021.5          8.860         93.820         80.900        0.23000
        10022.0          8.860         95.920         80.730        0.23000
        10022.5          8.860         97.040         80.550        0.23000
        10023.0          8.860         96.860         80.240        0.23000
        10023.5          8.860         94.590         79.710        0.22000
        10024.0          8.860         88.550         77.940        0.20000
        10024.5          8.860         82.060         75.950        0.19000
        10025.0          8.870         75.570         73.820        0.19000
        10025.5          8.870         69.540         73.550        0.19000
        10026.0          8.870         67.200         73.940        0.19000
        10026.5          8.880         65.070         74.340        0.19000
        10027.0          8.880         64.210         74.530        0.19000
        10027.5          8.890         63.310         74.530        0.19000
        10028.0          8.890         62.830         76.200        0.21000
        10028.5          8.900         64.820         78.210        0.23000
        10029.0          8.900         72.100         80.220        0.23000
        10029.5          8.900         80.140         81.010        0.24000
        10030.0          8.910         87.550         81.630        0.24000
        10030.5          8.910         89.570         81.760        0.24000
        10031.0          8.920         90.200         81.650        0.24000
        10031.5          8.920         91.020         81.780        0.24000
        10032.0          8.930         92.340         81.930        0.24000
        10032.5          8.930         93.640         82.030        0.24000
        10033.0          8.930         94.940         81.540        0.24000
        10033.5          8.940         95.930         80.930        0.23000
        10034.0          8.940         94.340         80.330        0.23000
        10034.5          8.930         89.180         79.720        0.22000
        10035.0          8.900         83.620         79.120        0.22000
        10035.5          8.880         79.360         78.940        0.23000
        10036.0          8.860         77.880         79.870        0.23000
        10036.5          8.830         79.790         80.930        0.24000
        10037.0          8.810         82.460         81.940        0.25000
        10037.5          8.790         85.130         82.830        0.25000
        10038.0          8.800         87.830         83.010        0.25000
        10038.5          8.830         88.930         82.340        0.24000
        10039.0          8.870         86.980         81.120        0.22000
        10039.5          8.860         79.300         76.790        0.20000
        10040.0          8.840         71.900         72.650        0.17000
        10040.5          8.820         64.390         67.880        0.15000
        10041.0          8.790         58.860         68.190        0.14000
        10041.5          8.770         59.870         69.620        0.16000
        10042.0          8.750         63.080         72.150        0.18000
        10042.5          8.750         68.230         74.470        0.19000
        10043.0          8.750         73.370         75.400        0.20000
        10043.5          8.750         77.620         76.260        0.21000
        10044.0          8.750         81.090         77.140        0.21000
        10044.5          8.760         84.550         77.210        0.21000
        10045.0          8.760         87.790         75.670        0.20000
        10045.5          8.760         88.610         74.700        0.19000
        10046.0          8.760         87.400         74.910        0.20000
        10046.5          8.770         84.720         76.110        0.21000
        10047.0          8.770         83.240         77.300        0.22000
        10047.5          8.770         84.910         78.490        0.23000
        10048.0          8.770         86.670         79.680        0.23000
        10048.5          8.770         87.760         80.790        0.24000
        10049.0          8.780         86.410         81.320        0.24000
        10049.5          8.780         83.770         80.840        0.23000
        10050.0          8.780         81.950         80.350        0.23000
        10050.5          8.780         83.490         80.100        0.23000
        10051.0          8.790         86.390         79.940        0.23000
        10051.5          8.790         90.250         80.180        0.23000
        10052.0          8.790         93.650         80.470        0.23000
        10052.5          8.790         92.230         80.870        0.24000
        10053.0          8.790         88.900         81.260        0.23000
        10053.5          8.800         86.660         80.080        0.21000
        10054.0          8.800         86.600         75.390        0.18000
        10054.5          8.800         84.100         70.510        0.15000
        10055.0          8.800         74.870         66.450        0.12000
        10055.5          8.810         62.320         64.880        0.12000
