#--------------------------------------------------#
#-------------------ENVERUS, INC.------------------#
#------------------WWW.ENVERUS.COM-----------------#
#------------------COPYRIGHT 2020------------------#
#--------------------------------------------------#
#THIS FILE MAY BE USED ONLY IN ACCORDANCE WITH A CURRENT SUBSCRIPTION AGREEMENT BETWEEN
#THE USER AND ENVERUS, INC. NO PART OF THIS FILE MAY BE REPRODUCED, USED, COPIED,
#MODIFIED, PROPAGATED, OR DISTRIBUTED EXCEPT IN ACCORDANCE WITH THE SUBSCRIPTION
#AGREEMENT. UNAUTHORIZED USE OR DISTRIBUTION OF ALL OR ANY PART OF THIS FILE MAY VIOLATE
#COPYRIGHT, TRADEMARK, AND/OR OTHER LAWS AND IS SUBJECT TO CIVIL AS WELL AS CRIMINAL
#SANCTIONS.
#--------------------------------------------------#
#THIS FILE IS PROVIDED "AS-IS" AND ALL WARRANTIES ARE EXPRESSLY DISCLAIMED, WHETHER
#EXPRESS, ORAL, IMPLIED, STATUTORY OR OTHERWISE, INCLUDING ANY IMPLIED WARRANTY OF FITNESS
#FOR A PARTICULAR PURPOSE, MERCHANTABILITY, TITLE OR NON-INFRINGEMENT, AND ANY WARRANTIES
#ARISING BY VIRTUE OF CUSTOM OF TRADE OR COURSE OF DEALING.  FURTHER, ENVERUS, INC.
#AND ITS LICENSORS DO NOT REPRESENT OR WARRANT THAT THIS FILE WILL MEET USER'S
#REQUIREMENTS OR ARE SUITABLE FOR USER'S NEEDS OR THAT THE DATA OR RESULTS PROVIDED IN
#CONJUNCTION THEREWITH ARE CORRECT, ACCURATE, TIMELY OR RELIABLE. THESE DISCLAIMERS SHALL
#APPLY REGARDLESS OF ANY FAILURE OF ESSENTIAL PURPOSE OF ANY LIMITED REMEDY.  SOME
#JURISDICTIONS DO NOT ALLOW THE EXCLUSION OF CERTAIN WARRANTIES SO SOME OF THE ABOVE
#EXCLUSIONS MAY NOT APPLY. IN NO EVENT SHALL ENVERUS, INC. OR ANY OF ITS AFFILIATES
#BE LIABLE UNDER ANY LEGAL THEORY, WHETHER IN TORT (INCLUDING WITHOUT LIMITATION
#NEGLIGENCE), CONTRACT, STRICT LIABILITY, STATUTORY OR OTHERWISE, FOR ANY SPECIAL,
#INCIDENTAL, CONSEQUENTIAL, EXEMPLARY, PUNITIVE OR INDIRECT DAMAGE OF ANY KIND, INCLUDING
#WITHOUT LIMITATION LOSS OF REVENUE, PROFITS, GOODWILL, USE, AND/OR DATA OR THE COST OF
#PROCUREMENT OF SUBSTITUTE GOODS OR SERVICES, EVEN IF APPRISED OF THE POSSIBILITY OF SUCH
#DAMAGES IN ADVANCE.
#--------------------------------------------------#

~VERSION INFORMATION
VERS. 2.0 : CWLS LOG ASCII STANDARD - VERSION 2.0
WRAP.  NO : ONE LINE PER DEPTH STEP
~WELL INFORMATION
#MNEMONIC     .UNIT              VALUE :DESCRIPTION
STRT       .FT                47 :START DEPTH
STOP       .FT                15730 :STOP DEPTH
STEP       .FT                   0.500 :STEP
NULL       .                  -999.250 :NULL
UWI        .              42389303580000 :UNIQUE WELL ID
API        .              42389303580000 :API NUMBER
COMP       .         CIMAREX ENERGY CO. OF COLORADO :COMPANY
WELL       .        REEVES  AZ  FEE  1 :WELL
DATE       .                08-JAN-2006 :LOG DATE
~CURVE INFORMATION
#MNEMONIC     .UNIT      API CODE :CURVE DESCRIPTION
DEPTH       .FT                      :MEASURED DEPTH
NEUT.API        UNKNOWN   :NEUT
GR.API        UNKNOWN   :GR
DT.US/FT        UNKNOWN   :DT
CAL.INCH        UNKNOWN   :CAL
~A    DEPTH    NEUT    GR    DT    CAL
# ...
 7887.5     -999.250   122.725   69.144   12.478
 7888     -999.250   121.395   67.956   12.478
 7888.5     -999.250   122.896   66.768   12.478
 7889     -999.250   124.398   66.76   12.478
 7889.5     -999.250   125.899   68.763   12.479
 7890     -999.250   127.401   70.765   12.479
 7890.5     -999.250   128.902   72.199   12.479
 7891     -999.250   124.3   72.24   12.48
 7891.5     -999.250   119.313   72.281   12.48
 7892     -999.250   114.326   70.639   12.48
 7892.5     -999.250   109.339   68.19   12.481
 7893     -999.250   104.352   68.842   12.481
 7893.5     -999.250   99.366   68.693   12.481
 7894     -999.250   97.773   67.426   12.481
 7894.5     -999.250   94.656   66.159   12.482
 7895     -999.250   91.538   67.918   12.482
 7895.5     -999.250   88.421   69.997   12.482
 7896     -999.250   85.304   72.076   12.483
 7896.5     -999.250   82.187   69.246   12.483
 7897     -999.250   79.07   70.708   12.483
 7897.5     -999.250   75.953   71.769   12.484
 7898     -999.250   72.836   69.822   12.484
 7898.5     -999.250   69.882   67.875   12.484
 7899     -999.250   74.408   65.927   12.485
 7899.5     -999.250   77.657   64.096   12.485
 7900     -999.250   77.651   66.264   12.485
 7900.5     -999.250   77.645   68.432   12.485
 7901     -999.250   77.64   70.6   12.486
 7901.5     -999.250   77.634   72.587   12.486
 7902     -999.250   79.449   71.456   12.486
 7902.5     -999.250   82.187   70.325   12.487
 7903     -999.250   84.925   69.194   12.487
 7903.5     -999.250   87.663   68.093   12.487
 7904     -999.250   90.401   67.024   12.488
 7904.5     -999.250   93.139   65.954   12.488
 7905     -999.250   95.877   64.885   12.488
 7905.5     -999.250   95.172   67.012   12.489
 7906     -999.250   93.608   71.857   12.489
 7906.5     -999.250   92.044   71.227   12.489
 7907     -999.250   90.48   70.597   12.489
 7907.5     -999.250   88.916   69.968   12.49
 7908     -999.250   87.352   69.338   12.49
 7908.5     -999.250   85.788   68.766   12.49
 7909     -999.250   84.224   68.284   12.491
 7909.5     -999.250   82.902   67.802   12.491
 7910     -999.250   84.045   68.384   12.491
 7910.5     -999.250   85.187   68.998   12.492
 7911     -999.250   86.329   69.56   12.492
 7911.5     -999.250   87.471   67.867   12.492
 7912     -999.250   88.614   66.175   12.493
 7912.5     -999.250   89.756   65.566   12.493
 7913     -999.250   90.898   66.273   12.493
 7913.5     -999.250   90.828   66.981   12.494
 7914     -999.250   89.345   67.688   12.494
 7914.5     -999.250   87.863   66.982   12.494
 7915     -999.250   86.38   65.069   12.494
 7915.5     -999.250   85.385   63.446   12.495
 7916     -999.250   85.465   62.172   12.495
 7916.5     -999.250   85.546   62.148   12.495
 7917     -999.250   85.627   62.123   12.496
 7917.5     -999.250   85.708   62.098   12.496
 7918     -999.250   84.96   62.142   12.496
 7918.5     -999.250   81.965   62.529   12.497
 7919     -999.250   78.969   62.916   12.497
 7919.5     -999.250   75.974   63.302   12.497
 7920     -999.250   72.979   64.446   12.498
 7920.5     -999.250   69.984   65.078   12.498
 7921     -999.250   66.989   63.939   12.498
 7921.5     -999.250   63.994   62.913   12.498
 7922     -999.250   61.277   62.688   12.499
 7922.5     -999.250   62.51   62.463   12.499
 7923     -999.250   63.744   62.238   12.499
 7923.5     -999.250   64.977   62.309   12.5
 7924     -999.250   66.211   62.884   12.5
 7924.5     -999.250   68.426   63.459   12.5
 7925     -999.250   70.849   64.034   12.501
 7925.5     -999.250   73.271   64.597   12.501
 7926     -999.250   76.285   65.068   12.501
 7926.5     -999.250   80.185   65.538   12.502
 7927     -999.250   84.085   66.009   12.502
 7927.5     -999.250   87.986   66.127   12.502
 7928     -999.250   91.886   65.859   12.503
 7928.5     -999.250   95.786   65.591   12.503
 7929     -999.250   99.686   65.324   12.503
 7929.5     -999.250   99.863   65.056   12.503
 7930     -999.250   99.616   65.243   12.504
 7930.5     -999.250   99.369   66.274   12.504
 7931     -999.250   99.122   67.305   12.504
 7931.5     -999.250   98.875   67.651   12.505
 7932     -999.250   97.234   67.191   12.505
 7932.5     -999.250   93.872   66.731   12.505
 7933     -999.250   90.511   66.271   12.506
 7933.5     -999.250   87.15   66.175   12.506
 7934     -999.250   83.788   66.86   12.506
 7934.5     -999.250   80.427   67.546   12.507
 7935     -999.250   78.37   68.155   12.507
 7935.5     -999.250   79.164   67.41   12.507
 7936     -999.250   79.958   66.665   12.508
 7936.5     -999.250   80.753   65.92   12.508
 7937     -999.250   81.547   65.174   12.508
 7937.5     -999.250   82.342   65.589   12.508
 7938     -999.250   83.136   67.161   12.508
 7938.5     -999.250   83.93   68.732   12.507
 7939     -999.250   84.725   68.269   12.505
 7939.5     -999.250   85.478   67.798   12.504
 7940     -999.250   83.171   67.326   12.502
 7940.5     -999.250   80.864   66.855   12.5
 7941     -999.250   77.64   66.733   12.499
 7941.5     -999.250   73.634   66.956   12.497
 7942     -999.250   69.629   67.178   12.496
 7942.5     -999.250   65.623   67.4   12.494
 7943     -999.250   61.617   67.439   12.493
 7943.5     -999.250   57.611   66.565   12.491
 7944     -999.250   53.839   65.69   12.489
 7944.5     -999.250   50.109   64.815   12.488
 7945     -999.250   46.38   64.316   12.486
 7945.5     -999.250   42.65   64.746   12.485
 7946     -999.250   38.92   65.177   12.483
 7946.5     -999.250   35.191   65.317   12.482
 7947     -999.250   34.405   64.819   12.48
 7947.5     -999.250   34.711   64.322   12.478
 7948     -999.250   35.017   63.544   12.477
 7948.5     -999.250   35.323   62.534   12.475
 7949     -999.250   37.702   61.524   12.474
 7949.5     -999.250   41.996   60.513   12.472
 7950     -999.250   46.289   59.503   12.471
 7950.5     -999.250   50.582   61.677   12.469
 7951     -999.250   54.875   64.103   12.467
 7951.5     -999.250   59.115   66.528   12.466
 7952     -999.250   63.335   68.954   12.464
 7952.5     -999.250   64.586   69.919   12.463
 7953     -999.250   63.472   68.792   12.461
 7953.5     -999.250   62.358   67.688   12.46
 7954     -999.250   61.244   66.598   12.458
 7954.5     -999.250   60.13   65.589   12.456
 7955     -999.250   59.016   64.666   12.455
 7955.5     -999.250   57.902   63.743   12.453
 7956     -999.250   56.789   62.821   12.452
 7956.5     -999.250   54.753   61.898   12.45
 7957     -999.250   52.219   63.244   12.449
 7957.5     -999.250   49.685   64.888   12.447
 7958     -999.250   47.152   66.531   12.445
 7958.5     -999.250   44.618   65.922   12.444
 7959     -999.250   42.084   63.502   12.442
 7959.5     -999.250   39.823   63.955   12.441
 7960     -999.250   41.513   63.717   12.439
 7960.5     -999.250   43.203   62.998   12.438
 7961     -999.250   44.894   62.279   12.436
 7961.5     -999.250   46.584   61.005   12.434
 7962     -999.250   48.274   59.581   12.433
 7962.5     -999.250   49.965   58.158   12.433
 7963     -999.250   51.655   60.14   12.435
 7963.5     -999.250   53.345   62.58   12.437
 7964     -999.250   51.751   65.021   12.439
 7964.5     -999.250   47.426   64.485   12.441
 7965     -999.250   43.1   63.524   12.443
 7965.5     -999.250   40.075   62.563   12.445
 7966     -999.250   40.069   61.602   12.447
 7966.5     -999.250   40.063   60.64   12.449
 7967     -999.250   40.056   63.04   12.451
 7967.5     -999.250   40.05   65.771   12.453
 7968     -999.250   40.043   66.341   12.455
 7968.5     -999.250   40.037   65.035   12.457
 7969     -999.250   40.03   63.729   12.459
 7969.5     -999.250   40.024   61.692   12.461
 7970     -999.250   42.853   57.828   12.463
 7970.5     -999.250   45.998   56.664   12.465
 7971     -999.250   49.144   57.233   12.467
 7971.5     -999.250   52.289   57.801   12.469
 7972     -999.250   55.434   60.058   12.471
 7972.5     -999.250   58.579   62.341   12.472
 7973     -999.250   61.724   64.185   12.474
