###############################################
##         ENVERUS                           ##
##         ESS - Open Hole                   ##
##         PERMIAN / DELAWARE                ##
##         Nov 04 2023  V4.0                 ##
##         42-389-30297-00-00                ##
###############################################
## Copyright 2017-2023  ENVERUS.  All Rights Reserved. 
## Confidential - Property of ENVERUS, use governed by terms and 
## conditions found within the existing Information Services Subscription Agreement 
## (as may be amended, the “ISSA”) between Customer and ENVERUS. 
## 
~VERSION INFORMATION
# MNEM.UNIT                               DATA : DESCRIPTION OF MNEMONIC
#-----.-----     ----------------------------- : -----------------------------
VERS.                                     2.00 : CWLS LOG ASCII STANDARD - VERSION 2.00
WRAP.                                       NO : MULTIPLE LINES PER DEPTH STEP
VEND.                                  ENVERUS : VENDOR
TYPE.                          ESS - OPEN HOLE : ENVERUS ESSENTIAL CURVES – ACCESSIBLE THROUGH ENVERUS PRISM(TM)
DOC.                                  32306493 : ENVERUS HEADER RAW DOCUMENT ID
#___________________________________________________________________________________________________ 
~WELL INFORMATION 
# rQStLE5sYsP+YdYw4QOWpp6z6mWwFJBvCxgTqRv2Ioz+qyoYLl+79qTOna8BSHgUk5jTgp49hkgrAQ1kFKyHCg== 
# MNEM.UNIT                                              DATA : DESCRIPTION OF MNEMONIC 
#-----.-----                    ----------------------------- : ----------------------------- 
CNTY.                                                  REEVES : COUNTY 
STATE.                                                  TEXAS : STATE 
CNTRY.                                                    USA : COUNTRY 
API.                                             42-389-30297 : API (10 Digit) 
API_14.                                    42-389-30297-00-00 : API (14 Digits) 
API_14_std.                                 42-389-30297-0000 : API (14 Digits Standard) 
UWI.                                           42389302970000 : UNIQUE WELL ID 
WELL.                              R.S. BRENNAND, JR. ET AL 1 : WELL NAME
STRT.FT                                                   3.0 : START DEPTH
STOP.FT                                               13007.0 : STOP DEPTH
STEP.FT                                                   0.5 : STEP BETWEEN DEPTHS
NULL.                                                 -999.25 : NULL VALUE
#___________________________________________________________________________________________________ 
~CURVE INFORMATION 
# MNEM.UNIT           : CURVE DESCRIPTION 
#-----.-----          : ----------------------------- 
 DEPT.FT               : MEASURED DEPTH 
 CALI.IN               : CALIPER (CAL - CAL) 
 GR.API                : GAMMA RAY (GR) 
 DT.US/FT              : SONIC DELTA TRANSIT TIME (DT) 
 NPHI.V/V              : NEUTRON POROSITY (NPHI) 
 RHOB.G/CC             : BULK DENSITY (RHOB) 
 #___________________________________________________________________________________________________ 
~A         DEPT           CALI             GR             DT           NPHI           RHOB
# ...
         9331.0          9.800        177.900         74.478     -999.25000         2.4966
         9331.5          9.800        192.725         77.498     -999.25000         2.5006
         9332.0          9.800        176.247         80.519     -999.25000         2.5046
         9332.5          9.800        155.406         83.997     -999.25000         2.5086
         9333.0          9.800        138.531         83.780     -999.25000         2.5125
         9333.5          9.800        137.950         80.758     -999.25000         2.5165
         9334.0          9.799        137.369         77.736     -999.25000         2.5205
         9334.5          9.799        136.788         74.714     -999.25000         2.5245
         9335.0          9.799        135.740         72.804     -999.25000         2.5285
         9335.5          9.799        131.530         72.992     -999.25000         2.5325
         9336.0          9.799        127.319         73.179     -999.25000         2.5365
         9336.5          9.799        123.109         73.367     -999.25000         2.5418
         9337.0          9.799        118.898         73.555     -999.25000         2.5474
         9337.5          9.799        115.577         73.743     -999.25000         2.5531
         9338.0          9.798        116.587         73.030     -999.25000         2.5587
         9338.5          9.798        117.596         72.249     -999.25000         2.5644
         9339.0          9.798        118.605         71.469     -999.25000         2.5672
         9339.5          9.798        111.005         70.688     -999.25000         2.5656
         9340.0          9.798        101.785         69.907     -999.25000         2.5640
         9340.5          9.798        102.571         69.126     -999.25000         2.5623
         9341.0          9.798        110.663         70.674     -999.25000         2.5523
         9341.5          9.797        118.755         72.457     -999.25000         2.5423
         9342.0          9.797        133.610         74.240     -999.25000         2.5322
         9342.5          9.797        143.524         76.022     -999.25000         2.5221
         9343.0          9.797        137.659         77.652     -999.25000         2.5340
         9343.5          9.797        131.794         75.861     -999.25000         2.5491
         9344.0          9.797        125.929         74.070     -999.25000         2.5643
         9344.5          9.797        115.756         72.280     -999.25000         2.5795
         9345.0          9.796        104.563         70.489     -999.25000         2.5947
         9345.5          9.796         93.370         68.699     -999.25000         2.6099
         9346.0          9.796         93.015         66.908     -999.25000         2.6251
         9346.5          9.796         97.068         66.365     -999.25000         2.6090
         9347.0          9.796         99.822         67.337     -999.25000         2.5705
         9347.5          9.796         94.437         68.309     -999.25000         2.5320
         9348.0          9.796         95.244         69.280     -999.25000         2.5255
         9348.5          9.795         98.708         70.252     -999.25000         2.5323
         9349.0          9.795        108.045         71.224     -999.25000         2.5390
         9349.5          9.795        119.260         72.196     -999.25000         2.5458
         9350.0          9.795        130.475         73.167     -999.25000         2.5525
         9350.5          9.795        137.708         74.139     -999.25000         2.5592
         9351.0          9.795        127.580         75.111     -999.25000         2.5660
         9351.5          9.795        119.102         73.722     -999.25000         2.5697
         9352.0          9.795        111.483         72.225     -999.25000         2.5672
         9352.5          9.794        103.864         70.730     -999.25000         2.5648
         9353.0          9.794        104.540         72.183     -999.25000         2.5623
         9353.5          9.794        108.827         73.635     -999.25000         2.5599
         9354.0          9.794        113.113         75.088     -999.25000         2.5574
         9354.5          9.794        117.400         76.541     -999.25000         2.5550
         9355.0          9.794        141.375         77.994     -999.25000         2.5442
         9355.5          9.794        136.038         79.447     -999.25000         2.5263
         9356.0          9.793        130.700         79.257     -999.25000         2.5085
         9356.5          9.793        125.362         77.916     -999.25000         2.4920
         9357.0          9.793        119.119         76.575     -999.25000         2.4987
         9357.5          9.793        112.762         75.234     -999.25000         2.5055
         9358.0          9.793        106.405         76.684     -999.25000         2.5123
         9358.5          9.793        114.869         78.529     -999.25000         2.5191
         9359.0          9.793        123.708         80.375     -999.25000         2.5210
         9359.5          9.792        132.546         82.220     -999.25000         2.5144
         9360.0          9.792        141.385         81.265     -999.25000         2.5078
         9360.5          9.792        147.865         79.726     -999.25000         2.5112
         9361.0          9.792        133.407         76.830     -999.25000         2.5206
         9361.5          9.792        111.166         73.069     -999.25000         2.5299
         9362.0          9.792         94.254         69.308     -999.25000         2.5392
         9362.5          9.792         97.901         69.125     -999.25000         2.5485
         9363.0          9.792        101.548         69.744     -999.25000         2.5578
         9363.5          9.791        101.263         70.363     -999.25000         2.5672
         9364.0          9.791        100.135         70.982     -999.25000         2.5610
         9364.5          9.791         99.006         71.601     -999.25000         2.5541
         9365.0          9.791         97.878         72.219     -999.25000         2.5472
         9365.5          9.791         96.629         71.379     -999.25000         2.5528
         9366.0          9.791         92.720         69.371     -999.25000         2.5693
         9366.5          9.791         88.810         67.363     -999.25000         2.5857
         9367.0          9.790         84.901         65.355     -999.25000         2.6022
         9367.5          9.790         78.656         63.347     -999.25000         2.6187
         9368.0          9.790         70.183         61.339     -999.25000         2.6351
         9368.5          9.790         61.709         59.331     -999.25000         2.6516
         9369.0          9.790         53.236         57.323     -999.25000         2.6681
         9369.5          9.790         45.164         55.315     -999.25000         2.6845
         9370.0          9.790         54.847         59.427     -999.25000         2.6584
         9370.5          9.789         64.531         65.137     -999.25000         2.6309
         9371.0          9.789         74.214         70.543     -999.25000         2.6034
         9371.5          9.789        126.065         71.611     -999.25000         2.5759
         9372.0          9.789        131.385         72.678     -999.25000         2.5484
         9372.5          9.789        132.294         73.746     -999.25000         2.5209
         9373.0          9.789        125.204         74.813     -999.25000         2.5047
         9373.5          9.789        112.844         75.436     -999.25000         2.4966
         9374.0          9.788        104.570         75.089     -999.25000         2.4886
         9374.5          9.788        108.320         74.742     -999.25000         2.4946
