###############################################
##         ENVERUS                           ##
##         ESS - Open Hole                   ##
##         PERMIAN / DELAWARE                ##
##         Nov 04 2023  V4.0                 ##
##         42-389-30259-00-00                ##
###############################################
## Copyright 2017-2023  ENVERUS.  All Rights Reserved. 
## Confidential - Property of ENVERUS, use governed by terms and 
## conditions found within the existing Information Services Subscription Agreement 
## (as may be amended, the “ISSA”) between Customer and ENVERUS. 
## 
~VERSION INFORMATION
# MNEM.UNIT                               DATA : DESCRIPTION OF MNEMONIC
#-----.-----     ----------------------------- : -----------------------------
VERS.                                     2.00 : CWLS LOG ASCII STANDARD - VERSION 2.00
WRAP.                                       NO : MULTIPLE LINES PER DEPTH STEP
VEND.                                  ENVERUS : VENDOR
TYPE.                          ESS - OPEN HOLE : ENVERUS ESSENTIAL CURVES – ACCESSIBLE THROUGH ENVERUS PRISM(TM)
DOC.                                  32063127 : ENVERUS HEADER RAW DOCUMENT ID
#___________________________________________________________________________________________________ 
~WELL INFORMATION 
# gPsidqVjAScFWwbHY3NvrhVb9Q0dnpAvxUas8qP1mSjKWoj7hBgJ2nw/4lW9Nf69eTG+8mlPQw3CFq6Jh/Hagw== 
# MNEM.UNIT                                              DATA : DESCRIPTION OF MNEMONIC 
#-----.-----                    ----------------------------- : ----------------------------- 
CNTY.                                                  REEVES : COUNTY 
STATE.                                                  TEXAS : STATE 
CNTRY.                                                    USA : COUNTRY 
API.                                             42-389-30259 : API (10 Digit) 
API_14.                                    42-389-30259-00-00 : API (14 Digits) 
API_14_std.                                 42-389-30259-0000 : API (14 Digits Standard) 
UWI.                                           42389302590000 : UNIQUE WELL ID 
WELL.                                         FORTUNE UNIT  1 : WELL NAME
STRT.FT                                                     0 : START DEPTH
STOP.FT                                               15675.0 : STOP DEPTH
STEP.FT                                                   0.5 : STEP BETWEEN DEPTHS
NULL.                                                 -999.25 : NULL VALUE
COMP.                          SANDRIDGE EXPL. AND PROD.  LLC : COMPANY 
DATE.                                             19-FEB-2007 : LOG DATE
#___________________________________________________________________________________________________ 
~CURVE INFORMATION 
# MNEM.UNIT           : CURVE DESCRIPTION 
#-----.-----          : ----------------------------- 
 DEPT.FT               : MEASURED DEPTH 
 CALI__B.IN            : CALIPER (CAL - CAL) 
 GR__B.API             : GAMMA RAY (GR) 
 DT__B.US/FT           : SONIC DELTA TRANSIT TIME (DT) 
 #___________________________________________________________________________________________________ 
~A         DEPT        CALI__B          GR__B          DT__B
# ...
         6270.0         13.129         43.321         65.335
         6270.5         13.126         46.363         65.259
         6271.0         13.124         50.387         65.182
         6271.5         13.122         54.887         65.106
         6272.0         13.119         60.761         65.028
         6272.5         13.117         61.556         64.951
         6273.0         13.114         57.988         64.873
         6273.5         13.112         56.519         64.795
         6274.0         13.109         50.930         64.637
         6274.5         13.107         46.701         64.152
         6275.0         13.104         42.678         63.097
         6275.5         13.102         38.655         62.119
         6276.0         13.100         36.790         61.320
         6276.5         13.097         36.171         60.521
         6277.0         13.095         35.552         59.860
         6277.5         13.092         38.648         59.893
         6278.0         13.090         42.495         60.576
         6278.5         13.087         46.343         61.587
         6279.0         13.085         48.114         62.484
         6279.5         13.082         48.301         63.313
         6280.0         13.080         46.480         63.443
         6280.5         13.078         44.659         63.305
         6281.0         13.075         42.968         62.735
         6281.5         13.073         42.969         62.070
         6282.0         13.070         45.439         61.831
         6282.5         13.068         49.829         62.087
         6283.0         13.065         53.523         62.552
         6283.5         13.063         54.269         63.016
         6284.0         13.060         54.047         63.385
         6284.5         13.055         50.917         63.206
         6285.0         13.050         51.636         63.027
         6285.5         13.045         52.488         62.847
         6286.0         13.040         50.879         62.972
         6286.5         13.035         53.174         63.145
         6287.0         13.030         55.722         63.233
         6287.5         13.024         53.229         63.415
         6288.0         13.019         49.336         63.426
         6288.5         13.014         48.310         63.437
         6289.0         13.009         48.979         63.448
         6289.5         13.004         47.834         63.528
         6290.0         12.999         48.128         63.803
         6290.5         12.993         49.471         64.078
         6291.0         12.988         45.569         64.353
         6291.5         12.983         40.986         64.112
         6292.0         12.978         38.420         63.510
         6292.5         12.975         40.601         62.803
         6293.0         12.976         45.534         62.010
         6293.5         12.977         52.508         62.292
         6294.0         12.978         56.512         63.077
         6294.5         12.979         56.378         66.267
         6295.0         12.979         55.520         65.981
         6295.5         12.980         52.614         63.240
         6296.0         12.981         47.328         64.105
         6296.5         12.982         45.869         64.210
         6297.0         12.983         44.894         64.314
         6297.5         12.984         46.624         64.419
         6298.0         12.985         50.884         64.484
         6298.5         12.986         54.705         64.246
         6299.0         12.987         55.778         64.009
         6299.5         12.988         56.850         64.091
         6300.0         12.989         59.331         64.083
         6300.5         12.990         60.456         64.022
         6301.0         12.991         60.122         64.148
         6301.5         12.992         70.839         62.706
         6302.0         12.991         84.496         62.705
         6302.5         12.990         80.854         63.276
         6303.0         12.989         71.614         63.754
         6303.5         12.988         57.307         64.306
         6304.0         12.988         42.999         64.798
         6304.5         12.987         38.969         64.239
         6305.0         12.986         35.618         63.867
         6305.5         12.985         32.788         64.115
         6306.0         12.984         30.182         63.951
         6306.5         12.983         28.843         63.305
         6307.0         12.982         28.756         61.904
         6307.5         12.981         31.196         59.682
         6308.0         12.980         33.635         57.876
         6308.5         12.980         34.525         57.511
         6309.0         12.979         35.351         58.673
         6309.5         12.978         37.019         59.834
         6310.0         12.977         43.337         61.784
         6310.5         12.976         51.388         62.716
         6311.0         12.975         59.439         63.139
         6311.5         12.949         67.489         63.945
         6312.0         12.911         69.288         64.600
         6312.5         12.872         67.444         63.471
         6313.0         12.834         65.600         61.835
         6313.5         12.796         65.231         59.310
         6314.0         12.757         71.490         58.371
         6314.5         12.735         77.750         58.961
         6315.0         12.742         77.093         61.291
         6315.5         12.748         71.728         62.851
         6316.0         12.754         69.362         62.945
         6316.5         12.761         77.737         62.405
         6317.0         12.767         86.194         62.847
         6317.5         12.773         94.651         63.290
         6318.0         12.780        103.108         63.732
         6318.5         12.786        111.565         64.174
         6319.0         12.792        118.021         64.264
         6319.5         12.799        115.739         63.643
         6320.0         12.805        113.115         64.069
         6320.5         12.811        105.860         64.313
         6321.0         12.818        107.717         64.221
         6321.5         12.824        109.574         64.898
         6322.0         12.830        108.983         65.254
         6322.5         12.837        106.636         64.726
         6323.0         12.843         88.797         64.714
         6323.5         12.849         68.864         64.453
         6324.0         12.856         56.787         62.931
         6324.5         12.862         47.638         61.714
         6325.0         12.868         44.421         61.459
         6325.5         12.875         41.737         61.276
         6326.0         12.881         37.393         60.493
         6326.5         12.887         30.825         59.306
         6327.0         12.894         27.573         57.395
         6327.5         12.900         28.765         56.042
         6328.0         12.907         33.089         57.722
         6328.5         12.920         36.696         59.887
         6329.0         12.933         41.612         62.053
         6329.5         12.947         47.813         64.648
         6330.0         12.958         54.015         65.590
         6330.5         12.961         59.363         65.978
         6331.0         12.964         58.423         66.004
         6331.5         12.966         57.482         65.298
         6332.0         12.969         52.281         64.449
         6332.5         12.971         49.580         63.893
         6333.0         12.974         50.067         64.024
         6333.5         12.977         50.605         63.728
         6334.0         12.979         51.723         63.768
         6334.5         12.982         52.841         63.382
         6335.0         12.984         54.924         62.987
         6335.5         12.987         57.990         62.784
