###############################################
##         ENVERUS                           ##
##         ESS - Open Hole                   ##
##         PERMIAN / DELAWARE                ##
##         Nov 04 2023  V4.0                 ##
##         42-389-32421-01-00                ##
###############################################
## Copyright 2017-2023  ENVERUS.  All Rights Reserved. 
## Confidential - Property of ENVERUS, use governed by terms and 
## conditions found within the existing Information Services Subscription Agreement 
## (as may be amended, the “ISSA”) between Customer and ENVERUS. 
## 
~VERSION INFORMATION
# MNEM.UNIT                               DATA : DESCRIPTION OF MNEMONIC
#-----.-----     ----------------------------- : -----------------------------
VERS.                                     2.00 : CWLS LOG ASCII STANDARD - VERSION 2.00
WRAP.                                       NO : MULTIPLE LINES PER DEPTH STEP
VEND.                                  ENVERUS : VENDOR
TYPE.                          ESS - OPEN HOLE : ENVERUS ESSENTIAL CURVES – ACCESSIBLE THROUGH ENVERUS PRISM(TM)
DOC.                                  51226874 : ENVERUS HEADER RAW DOCUMENT ID
#___________________________________________________________________________________________________ 
~WELL INFORMATION 
# Tb73rb1SL3MkDZoC3l18/hn1AqNnLhXquKbAWMIBLpWCEGQs+cUq/9XFz1I3dh1trdNBSXyPtAuUBW0L3ONtkQ== 
# MNEM.UNIT                                              DATA : DESCRIPTION OF MNEMONIC 
#-----.-----                    ----------------------------- : ----------------------------- 
CNTY.                                                  REEVES : COUNTY 
STATE.                                                  TEXAS : STATE 
CNTRY.                                                    USA : COUNTRY 
API.                                             42-389-32421 : API (10 Digit) 
API_14.                                    42-389-32421-01-00 : API (14 Digits) 
API_14_std.                                 42-389-32421-0100 : API (14 Digits Standard) 
UWI.                                           42389324210100 : UNIQUE WELL ID 
WELL.                                      ARMSTRONG STATE  1 : WELL NAME
STRT.FT                                                 182.0 : START DEPTH
STOP.FT                                               14775.0 : STOP DEPTH
STEP.FT                                                   0.5 : STEP BETWEEN DEPTHS
NULL.                                                 -999.25 : NULL VALUE
PREV_UWI.                                      42389324210000 : UNIQUE WELL ID 
PREV_API.                                      42389324210000 : API NUMBER 
COMP.                                    STALEY OPERATING CO. : COMPANY 
DATE.                                             26-JUN-2006 : LOG DATE
#___________________________________________________________________________________________________ 
~CURVE INFORMATION 
# MNEM.UNIT           : CURVE DESCRIPTION 
#-----.-----          : ----------------------------- 
 DEPT.FT               : MEASURED DEPTH 
 CALI__A.IN            : CALIPER (CAL - CAL) 
 GR__A.API             : GAMMA RAY (GR) 
 DT__A.US/FT           : SONIC DELTA TRANSIT TIME (DT) 
 DPHI__A.V/V           : DENSITY POROSITY (DPHI) 
 NPHI__A.V/V           : NEUTRON POROSITY (NPHI) 
 RHOB__A.G/CC          : BULK DENSITY (RHOB) 
 #___________________________________________________________________________________________________ 
~A         DEPT        CALI__A          GR__A          DT__A        DPHI__A        NPHI__A        RHOB__A
# ...
        13026.0          9.118         90.266         64.581       -0.00682        0.11731         2.7230
        13026.5          9.186         92.235         65.125       -0.00729        0.11640         2.7180
        13027.0          9.160         94.703         65.668       -0.00776        0.12167         2.7060
        13027.5          9.134         97.171         66.090        0.00223        0.12839         2.6940
        13028.0          9.108         99.639         66.475        0.01808        0.13470         2.6820
        13028.5          9.082        102.061         66.860        0.03450        0.14084         2.6700
        13029.0          9.056        101.382         67.245        0.03159        0.14596         2.6580
        13029.5          9.102         99.648         67.630        0.02868        0.14873         2.6570
        13030.0          9.178         94.972         67.374        0.02050        0.14599         2.6740
        13030.5          9.255         92.613         67.063        0.00622        0.14068         2.6920
        13031.0          9.331         91.468         66.753        0.00575        0.13538         2.6980
        13031.5          9.526         89.854         66.442        0.00528        0.13008         2.7000
        13032.0          9.727         88.972         66.132        0.00320        0.12527         2.7020
        13032.5          9.856         89.274         65.821        0.00120        0.12655         2.7030
        13033.0          9.907         89.218         66.094        0.00817        0.12783         2.6980
        13033.5          9.957         88.757         66.420        0.01514        0.12445         2.6920
        13034.0          9.741         87.096         66.745        0.01486        0.11719         2.6860
        13034.5          9.491         83.007         67.071        0.01196        0.11010         2.6860
        13035.0          9.332         79.183         67.283        0.00975        0.10919         2.6880
        13035.5          9.365         76.380         66.087        0.01358        0.11138         2.6900
        13036.0          9.398         73.576         64.890        0.01371        0.11126         2.6920
        13036.5          9.431         72.935         63.847        0.01458        0.10886         2.6840
        13037.0          9.464         72.578         63.424        0.02042        0.10465         2.6750
        13037.5          9.497         72.220         63.002        0.02729        0.10161         2.6660
        13038.0          9.530         70.661         62.580        0.03299        0.10127         2.6570
        13038.5          9.563         68.213         62.157        0.03238        0.10104         2.6530
        13039.0          9.491         69.819         61.735        0.03594        0.10736         2.6530
        13039.5          9.395         76.529         63.129        0.04315        0.12188         2.6520
        13040.0          9.300         84.197         65.083        0.04498        0.13640         2.6520
        13040.5          9.204         92.991         67.037        0.03800        0.14807         2.6490
        13041.0          9.132         94.235         68.723        0.02453        0.14818         2.6580
        13041.5          9.183         92.141         67.838        0.01625        0.14620         2.6680
        13042.0          9.218         90.446         66.953        0.00798        0.14372         2.6780
        13042.5          9.243         90.749         66.068        0.00225        0.14124         2.6870
        13043.0          9.268         92.019         65.744        0.00346        0.14050         2.6970
        13043.5          9.293         97.144         66.392        0.00468        0.15149         2.7040
        13044.0          9.318        101.306         67.041        0.01108        0.16305         2.6940
        13044.5          9.286        104.760         67.689        0.01940        0.16420         2.6850
        13045.0          9.178        103.660         68.142        0.01981        0.15969         2.6780
        13045.5          9.085        101.396         68.279        0.01446        0.15519         2.6820
        13046.0          9.096         99.471         68.416        0.01172        0.15068         2.6850
        13046.5          9.107         98.253         68.553        0.01662        0.14990         2.6860
        13047.0          8.955         96.765         68.690        0.03115        0.14941         2.6760
        13047.5          8.758         94.831         68.827        0.03234        0.14827         2.6670
        13048.0          8.734         94.506         68.895        0.03354        0.14949         2.6580
        13048.5          8.711         96.144         68.395        0.03016        0.15724         2.6530
        13049.0          8.689         96.651         68.158        0.02494        0.16498         2.6640
        13049.5          8.648         96.987         68.333        0.01972        0.16982         2.6750
        13050.0          8.588         96.049         68.509        0.01736        0.17252         2.6870
        13050.5          8.515         95.111         68.685        0.01358        0.17523         2.6980
        13051.0          8.454         94.940         68.861        0.00822        0.17609         2.7090
        13051.5          8.467         95.300         69.037        0.00305        0.17612         2.7050
        13052.0          8.568         95.659         68.845        0.00276        0.17493         2.7000
        13052.5          8.686         96.172         68.487        0.00661        0.16951         2.6950
        13053.0          8.745         96.711         68.129        0.01045        0.16280         2.6900
        13053.5          8.771         97.249         67.771        0.01215        0.15609         2.7010
        13054.0          8.797         98.225         67.413       -0.00750        0.14938         2.7270
        13054.5          8.823         99.232         67.055       -0.01865        0.15144         2.7290
        13055.0          8.882        100.239         67.126        0.02161        0.16337         2.6420
        13055.5          9.189        101.898         67.397        0.08801        0.17119         2.5550
        13056.0          9.404        104.298         67.667        0.06573        0.17451         2.5910
        13056.5          9.123        102.152         67.938        0.01930        0.16839         2.6610
        13057.0          8.842         99.582         67.036       -0.02714        0.16049         2.7320
        13057.5          8.597         97.556         66.108       -0.04254        0.15590         2.7730
        13058.0          8.764         99.113         66.665        0.00546        0.15498         2.7320
        13058.5          8.842        100.519         67.270        0.03464        0.15294         2.6910
        13059.0          8.911         99.689         67.739        0.04950        0.14895         2.6490
        13059.5          8.967         98.190         67.238        0.05143        0.14496         2.6080
        13060.0          8.815         94.440         66.737        0.02643        0.14046         2.6440
        13060.5          8.662         90.690         66.236        0.01437        0.13486         2.6830
        13061.0          8.647         89.736         66.309        0.04373        0.12927         2.6440
        13061.5          9.103        103.340         67.239        0.07203        0.13321         2.6060
        13062.0          9.870        123.729         68.168        0.08483        0.14275         2.5680
        13062.5         10.637        133.913         69.097        0.12617        0.14739         2.5290
        13063.0         11.408        131.594         70.027        0.18147        0.14801         2.4910
        13063.5         12.178        125.465         70.956        0.24725        0.15556         2.2810
