###############################################
##         ENVERUS                           ##
##         ESS - Open Hole                   ##
##         PERMIAN / DELAWARE                ##
##         Nov 04 2023  V4.0                 ##
##         42-389-32421-01-00                ##
###############################################
## Copyright 2017-2023  ENVERUS.  All Rights Reserved. 
## Confidential - Property of ENVERUS, use governed by terms and 
## conditions found within the existing Information Services Subscription Agreement 
## (as may be amended, the “ISSA”) between Customer and ENVERUS. 
## 
~VERSION INFORMATION
# MNEM.UNIT                               DATA : DESCRIPTION OF MNEMONIC
#-----.-----     ----------------------------- : -----------------------------
VERS.                                     2.00 : CWLS LOG ASCII STANDARD - VERSION 2.00
WRAP.                                       NO : MULTIPLE LINES PER DEPTH STEP
VEND.                                  ENVERUS : VENDOR
TYPE.                          ESS - OPEN HOLE : ENVERUS ESSENTIAL CURVES – ACCESSIBLE THROUGH ENVERUS PRISM(TM)
DOC.                                  51226874 : ENVERUS HEADER RAW DOCUMENT ID
#___________________________________________________________________________________________________ 
~WELL INFORMATION 
# Tb73rb1SL3MkDZoC3l18/hn1AqNnLhXquKbAWMIBLpWCEGQs+cUq/9XFz1I3dh1trdNBSXyPtAuUBW0L3ONtkQ== 
# MNEM.UNIT                                              DATA : DESCRIPTION OF MNEMONIC 
#-----.-----                    ----------------------------- : ----------------------------- 
CNTY.                                                  REEVES : COUNTY 
STATE.                                                  TEXAS : STATE 
CNTRY.                                                    USA : COUNTRY 
API.                                             42-389-32421 : API (10 Digit) 
API_14.                                    42-389-32421-01-00 : API (14 Digits) 
API_14_std.                                 42-389-32421-0100 : API (14 Digits Standard) 
UWI.                                           42389324210100 : UNIQUE WELL ID 
WELL.                                      ARMSTRONG STATE  1 : WELL NAME
STRT.FT                                                 182.0 : START DEPTH
STOP.FT                                               14775.0 : STOP DEPTH
STEP.FT                                                   0.5 : STEP BETWEEN DEPTHS
NULL.                                                 -999.25 : NULL VALUE
PREV_UWI.                                      42389324210000 : UNIQUE WELL ID 
PREV_API.                                      42389324210000 : API NUMBER 
COMP.                                    STALEY OPERATING CO. : COMPANY 
DATE.                                             26-JUN-2006 : LOG DATE
#___________________________________________________________________________________________________ 
~CURVE INFORMATION 
# MNEM.UNIT           : CURVE DESCRIPTION 
#-----.-----          : ----------------------------- 
 DEPT.FT               : MEASURED DEPTH 
 CALI__A.IN            : CALIPER (CAL - CAL) 
 GR__A.API             : GAMMA RAY (GR) 
 DT__A.US/FT           : SONIC DELTA TRANSIT TIME (DT) 
 DPHI__A.V/V           : DENSITY POROSITY (DPHI) 
 NPHI__A.V/V           : NEUTRON POROSITY (NPHI) 
 RHOB__A.G/CC          : BULK DENSITY (RHOB) 
 #___________________________________________________________________________________________________ 
~A         DEPT        CALI__A          GR__A          DT__A        DPHI__A        NPHI__A        RHOB__A
# ...
        14736.0          8.487       -999.250       -999.250       -0.05311        0.03247         2.8010
        14736.5          8.479       -999.250       -999.250       -0.05639        0.02867         2.8060
        14737.0          8.471       -999.250       -999.250       -0.05690        0.02908         2.8070
        14737.5          8.463       -999.250       -999.250       -0.05669        0.02949         2.8030
        14738.0          8.455       -999.250       -999.250       -0.05490        0.02990         2.7990
        14738.5          8.447       -999.250       -999.250       -0.05003        0.03032         2.7950
        14739.0          8.441       -999.250       -999.250       -0.04516        0.03463         2.7900
        14739.5          8.437       -999.250       -999.250       -0.04523        0.03858         2.7860
        14740.0          8.433       -999.250       -999.250       -0.05257        0.03876         2.7830
        14740.5          8.429       -999.250       -999.250       -0.05990        0.02882         2.7980
        14741.0          8.445       -999.250       -999.250       -0.06596        0.01688         2.8120
        14741.5          8.463       -999.250       -999.250       -0.06161        0.01520         2.8150
        14742.0          8.482       -999.250       -999.250       -0.05727        0.01539         2.8060
        14742.5          8.501       -999.250       -999.250       -0.05602        0.01509         2.8130
        14743.0          8.519       -999.250       -999.250       -0.06207        0.01478         2.8190
        14743.5          8.538       -999.250       -999.250       -0.06812        0.01447         2.8260
        14744.0          8.568       -999.250       -999.250       -0.06774        0.01447         2.8170
        14744.5          8.536       -999.250       -999.250       -0.06691        0.01499         2.8060
        14745.0          8.505       -999.250       -999.250       -0.05514        0.01550         2.7960
        14745.5          8.473       -999.250       -999.250       -0.03968        0.01602         2.7850
        14746.0          8.442       -999.250       -999.250       -0.04301        0.01654         2.7840
        14746.5          8.410       -999.250       -999.250       -0.04633        0.01590         2.7900
        14747.0          8.394       -999.250       -999.250       -0.04966        0.01529         2.7960
        14747.5          8.409       -999.250       -999.250       -0.05587        0.01489         2.8020
        14748.0          8.424       -999.250       -999.250       -0.05583        0.01449         2.8080
        14748.5          8.439       -999.250       -999.250       -0.05684        0.01408         2.8070
        14749.0          8.454       -999.250       -999.250       -0.05485        0.01368         2.8060
        14749.5          8.469       -999.250       -999.250       -0.05391        0.01348         2.8040
        14750.0          8.484       -999.250       -999.250       -0.05425        0.01401         2.8030
        14750.5          8.499       -999.250       -999.250       -0.05219        0.01455         2.8020
        14751.0          8.539       -999.250       -999.250       -0.05236        0.01509         2.8010
        14751.5          8.542       -999.250       -999.250       -0.04939        0.01520         2.7980
        14752.0          8.476       -999.250       -999.250       -0.04526        0.01519         2.7930
        14752.5          8.409       -999.250       -999.250       -0.04114        0.01542         2.7870
        14753.0          8.331       -999.250       -999.250       -0.03701        0.01598         2.7820
        14753.5          8.254       -999.250       -999.250       -0.04585        0.01654         2.7770
        14754.0          8.176       -999.250       -999.250       -0.05629        0.01710         2.7890
        14754.5          8.155       -999.250       -999.250       -0.06463        0.01723         2.8020
        14755.0          8.156       -999.250       -999.250       -0.05449        0.01647         2.8150
        14755.5          8.156       -999.250       -999.250       -0.05336        0.01571         2.8160
        14756.0          8.157       -999.250       -999.250       -0.05819        0.01556         2.8090
        14756.5          8.158       -999.250       -999.250       -0.06640        0.01546         2.8020
        14757.0          8.158       -999.250       -999.250       -0.07411        0.01536         2.8110
        14757.5          8.159       -999.250       -999.250       -0.07094        0.01526         2.8310
        14758.0          8.160       -999.250       -999.250       -0.06777        0.01516         2.8300
        14758.5       -999.250       -999.250       -999.250       -0.06426        0.01506         2.8190
        14759.0       -999.250       -999.250       -999.250       -0.05749        0.01496         2.8050
        14759.5       -999.250       -999.250       -999.250       -0.05071        0.01485         2.7860
        14760.0       -999.250       -999.250       -999.250       -0.04393        0.01474         2.7690
        14760.5       -999.250       -999.250       -999.250       -0.04352        0.01462         2.7780
        14761.0       -999.250       -999.250       -999.250       -0.05222        0.01451         2.7870
        14761.5       -999.250       -999.250       -999.250       -0.06093        0.01494         2.7960
        14762.0       -999.250       -999.250       -999.250       -0.06369        0.01546         2.8060
        14762.5       -999.250       -999.250       -999.250       -0.06344        0.01598         2.8150
        14763.0       -999.250       -999.250       -999.250       -0.06774        0.01649         2.8230
        14763.5       -999.250       -999.250       -999.250       -0.07203        0.01647         2.8300
        14764.0       -999.250       -999.250       -999.250       -0.07089        0.01577         2.8300
        14764.5       -999.250       -999.250       -999.250       -0.06619        0.01507         2.8200
        14765.0       -999.250       -999.250       -999.250       -0.06106        0.01514         2.8100
        14765.5       -999.250       -999.250       -999.250       -0.05602        0.01539         2.8000
        14766.0       -999.250       -999.250       -999.250       -0.05467        0.01564         2.8020
        14766.5       -999.250       -999.250       -999.250       -0.05403        0.01583         2.8060
        14767.0       -999.250       -999.250       -999.250       -0.05908        0.01529         2.8100
        14767.5       -999.250       -999.250       -999.250       -0.05169        0.01512         2.8130
        14768.0       -999.250       -999.250       -999.250       -0.04612        0.01562         2.8020
        14768.5       -999.250       -999.250       -999.250       -0.05088     -999.25000         2.7910
        14769.0       -999.250       -999.250       -999.250       -0.05496     -999.25000         2.7940
        14769.5       -999.250       -999.250       -999.250       -0.05603     -999.25000         2.7980
        14770.0       -999.250       -999.250       -999.250       -0.05574     -999.25000         2.8010
        14770.5       -999.250       -999.250       -999.250       -0.05346     -999.25000         2.8080
        14771.0       -999.250       -999.250       -999.250       -0.05941     -999.25000         2.8160
        14771.5       -999.250       -999.250       -999.250     -999.25000     -999.25000         2.8250
        14772.0       -999.250       -999.250       -999.250     -999.25000     -999.25000         2.8340
        14772.5       -999.250       -999.250       -999.250     -999.25000     -999.25000         2.8390
        14773.0       -999.250       -999.250       -999.250     -999.25000     -999.25000         2.8410
        14773.5       -999.250       -999.250       -999.250     -999.25000     -999.25000         2.8420
