#--------------------------------------------------#
#-------------------ENVERUS, INC.------------------#
#------------------WWW.ENVERUS.COM-----------------#
#------------------COPYRIGHT 2020------------------#
#--------------------------------------------------#
#THIS FILE MAY BE USED ONLY IN ACCORDANCE WITH A CURRENT SUBSCRIPTION AGREEMENT BETWEEN
#THE USER AND ENVERUS, INC. NO PART OF THIS FILE MAY BE REPRODUCED, USED, COPIED,
#MODIFIED, PROPAGATED, OR DISTRIBUTED EXCEPT IN ACCORDANCE WITH THE SUBSCRIPTION
#AGREEMENT. UNAUTHORIZED USE OR DISTRIBUTION OF ALL OR ANY PART OF THIS FILE MAY VIOLATE
#COPYRIGHT, TRADEMARK, AND/OR OTHER LAWS AND IS SUBJECT TO CIVIL AS WELL AS CRIMINAL
#SANCTIONS.
#--------------------------------------------------#
#THIS FILE IS PROVIDED "AS-IS" AND ALL WARRANTIES ARE EXPRESSLY DISCLAIMED, WHETHER
#EXPRESS, ORAL, IMPLIED, STATUTORY OR OTHERWISE, INCLUDING ANY IMPLIED WARRANTY OF FITNESS
#FOR A PARTICULAR PURPOSE, MERCHANTABILITY, TITLE OR NON-INFRINGEMENT, AND ANY WARRANTIES
#ARISING BY VIRTUE OF CUSTOM OF TRADE OR COURSE OF DEALING.  FURTHER, ENVERUS, INC.
#AND ITS LICENSORS DO NOT REPRESENT OR WARRANT THAT THIS FILE WILL MEET USER'S
#REQUIREMENTS OR ARE SUITABLE FOR USER'S NEEDS OR THAT THE DATA OR RESULTS PROVIDED IN
#CONJUNCTION THEREWITH ARE CORRECT, ACCURATE, TIMELY OR RELIABLE. THESE DISCLAIMERS SHALL
#APPLY REGARDLESS OF ANY FAILURE OF ESSENTIAL PURPOSE OF ANY LIMITED REMEDY.  SOME
#JURISDICTIONS DO NOT ALLOW THE EXCLUSION OF CERTAIN WARRANTIES SO SOME OF THE ABOVE
#EXCLUSIONS MAY NOT APPLY. IN NO EVENT SHALL ENVERUS, INC. OR ANY OF ITS AFFILIATES
#BE LIABLE UNDER ANY LEGAL THEORY, WHETHER IN TORT (INCLUDING WITHOUT LIMITATION
#NEGLIGENCE), CONTRACT, STRICT LIABILITY, STATUTORY OR OTHERWISE, FOR ANY SPECIAL,
#INCIDENTAL, CONSEQUENTIAL, EXEMPLARY, PUNITIVE OR INDIRECT DAMAGE OF ANY KIND, INCLUDING
#WITHOUT LIMITATION LOSS OF REVENUE, PROFITS, GOODWILL, USE, AND/OR DATA OR THE COST OF
#PROCUREMENT OF SUBSTITUTE GOODS OR SERVICES, EVEN IF APPRISED OF THE POSSIBILITY OF SUCH
#DAMAGES IN ADVANCE.
#--------------------------------------------------#

# EXPORTED FROM DI TRANSFORM
# DI TRANSFORM - A PRODUCT OF DRILLINGINFO, INC. - WWW.DRILLINGINFO.COM
#
~VERSION INFORMATION
 VERS.        2.0 : LAS ASCII STANDARD - VERSION 2.0
 WRAP.         NO : ONE LINE PER DEPTH STEP

~WELL INFORMATION
#MNEM.UNIT       DATA TYPE       INFORMATION
#---------       ---------       -----------
 STRT.FT                3800 : START DEPTH
 STOP.FT               10654 : STOP DEPTH
 STEP.FT                 0.5 : STEP LENGTH
 NULL.               -999.25 : NULL VALUE
 UWI.         42389340250000 : UNIQUE WELL ID
 API.         42389340250000 : WELL IDENTIFIER
 COMP.                       : COMPANY
 WELL.  42389340250000_API14 : WELL NAME
 FLD.                        : FIELD NAME
 LOC.                        : WELL LOCATION
 CNTY.                       : COUNTY
 STAT.                       : STATE OR PROVINCE
 CTRY.                       : COUNTRY
 SRVC.                       : SERVICE COMPANY
 DATE.                       : DATE

~CURVE INFORMATION
#MNEM.UNIT       API CODE       CURVE DESCRIPTION
#---------       --------       -----------------
 DEPT.FT        : <MEASURED DEPTH>
 CAL.IN         : CALIPER
 DT.US/FT       : SONIC
 GR.GAPI        : GAMMA RAY

~PARAMETER INFORMATION
#MNEM.UNIT       VALUE       DESCRIPTION
#---------       -----       -----------
 EKB.FT      3120.5 : ELEVATION ABOVE MSL

~A      DEPT         CAL          DT          GR
# ...
        5112     10.2959     78.4853     54.1216
      5112.5     10.3942     77.1406      59.426
        5113     10.2048     76.3558     58.4075
      5113.5     10.1039      74.875      57.389
        5114     10.0029      74.002     53.6918
      5114.5      9.9219     74.0963     49.6701
        5115      9.9122     74.8042     47.5821
      5115.5      9.9247      76.008     49.5738
        5116      9.9857     76.2976     51.5655
      5116.5       9.992     75.9077     54.6043
        5117       9.992     75.9077     59.5391
      5117.5     10.0291     75.8074     56.1931
        5118      10.111     75.7071      52.606
      5118.5     10.1118     75.7071      49.019
        5119     10.1118     75.9538     46.3467
      5119.5     10.1118     77.2671     47.0135
        5120     10.1118     78.7313     47.6804
      5120.5     10.1118     79.1174     53.3174
        5121     10.1369     79.4566     65.1043
      5121.5      10.158     80.7222     63.5007
        5122     10.1916     80.9034     59.8107
      5122.5     10.1916     80.8361     56.1207
        5123     10.1916     80.8225     52.4307
      5123.5     10.1916     80.7222     52.4537
        5124     10.1916      80.321     50.2165
      5124.5     10.1916     80.2111     49.5926
        5125     10.1717     80.2053     49.7106
      5125.5     10.1561     79.3759     50.8181
        5126      10.115     79.0634     51.7168
      5126.5     10.0719     78.7161     51.1521
        5127     10.0719     79.0171     54.7897
      5127.5     10.0719     79.1617     53.4422
        5128     10.0719      79.318      49.618
      5128.5     10.0719      79.318     47.0249
        5129     10.0719     79.4183     46.1075
      5129.5     10.0719     79.4183     50.1705
        5130     10.0778     79.2177     52.6109
      5130.5     10.1317      78.637     52.4031
        5131     10.1317     78.3149     50.5572
      5131.5      10.181     78.0743     54.3468
        5132     10.1916     77.8172     71.6916
      5132.5     10.1916     77.5105     82.1619
        5133     10.2444     77.1113     85.1332
      5133.5     10.2515     76.8971     69.3428
        5134     10.2515     76.4901     59.1507
      5134.5     10.2515     75.9828     55.3177
        5135     10.2515     75.9077     53.7841
      5135.5     10.2515      76.446     50.4489
        5136     10.2515     77.0963     60.8362
      5136.5     10.2515     77.9103     74.9711
        5137     10.2515      78.624     82.0748
      5137.5     10.2515     80.5216     82.0294
        5138     10.2471     80.9886     50.4794
      5138.5     10.1916     81.2953     43.3723
        5139     10.1916     81.8255     44.9053
      5139.5     10.1916     81.7252     50.2464
        5140     10.2206     81.5359     50.2006
      5140.5     10.2515     81.2292     47.5262
        5141     10.2628     80.5213     45.8458
      5141.5     10.2715     80.2207     46.2704
        5142     10.2715     80.2207     49.7269
      5142.5     10.2862      80.203     52.5144
        5143     10.3114     80.1204     52.8487
      5143.5     10.3114     80.5216     51.9418
        5144     10.3313     80.6219     51.0082
      5144.5     10.3313     80.6627     49.6951
        5145     10.3313     81.0231     47.7857
      5145.5     10.3313     81.0231     51.2406
        5146     10.3313     80.7642     65.8459
      5146.5     10.3313     80.3935     68.5848
        5147     10.3313     79.9198     68.2962
      5147.5     10.3912     79.7438     67.6628
        5148     10.3912     79.5186     65.3069
      5148.5     10.3912     78.8906     61.7418
        5149     10.3416     78.7161     57.8155
      5149.5     10.3313     78.7161     55.0253
        5150     10.3313     78.7161     53.2802
      5150.5     10.3313     78.7161     52.4795
        5151     10.3313     78.9327     60.6218
      5151.5     10.3867      79.318     60.2306
        5152     10.4078     79.6189     48.9722
      5152.5     10.4134     79.7525     51.1231
        5153     10.3713     80.0592     57.6555
      5153.5     10.3113     80.1204     60.7363
        5154     10.2303     79.5682     64.8903
      5154.5     10.1692     78.6597     70.7877
        5155     10.0918     78.1524     68.5392
      5155.5     10.0671     77.8134     64.9978
        5156     10.0319     77.1113     60.6229
      5156.5     10.0319     76.4092     54.9065
        5157     10.0319     76.2235     51.2101
      5157.5     10.0319     76.2086     48.4958
        5158     10.0319     75.7071     46.9416
      5158.5     10.0602     75.4062     49.2093
        5159      9.9721     75.4146     52.1563
      5159.5      9.9721     75.7071     61.4515
        5160      9.9721     75.4062     65.6912
      5160.5      9.9721     75.3805     62.3846
        5161      9.9721     75.2056     59.0781
      5161.5      9.9521      75.243     55.7715
        5162      9.9521     75.6068      52.465
      5162.5       9.953     75.8564     47.3409
        5163     10.0539     76.6646     40.7404
      5163.5     10.1317     77.1719     33.0258
        5164     10.1361     77.7131     25.3112
      5164.5      10.237     78.1143     17.5966
        5165      10.338     78.3149     18.6419
      5165.5     10.3912     78.4152     29.4522
        5166     10.4511     78.0356     40.2625
      5166.5     10.4511     77.3169     51.0728
        5167     10.4511     75.6068     53.0245
      5167.5     10.3857     74.4903     63.4567
        5168      10.218      73.789     73.8888
      5168.5      10.137     73.0629     84.3209
        5169     10.0519     72.3732     94.7531
      5169.5     10.0519     71.7954     95.1317
        5170       10.07     71.6951     88.0937
      5170.5     10.1317     71.8368     81.1073
        5171     10.1517     72.4444     84.1883
      5171.5     10.1517     73.1523     87.0025
        5172     10.1545     73.7771     80.5256
      5172.5     10.1955      74.002     74.0486
        5173     10.2315     74.3733     67.5717
      5173.5     10.2914     74.8806     63.6551
        5174     10.2914     75.1689     60.1404
      5174.5     10.2914     75.3937     56.6256
        5175     10.2914     75.7004     53.7229
      5175.5     10.2914     76.1083     51.4248
        5176     10.3114     76.6147     49.1267
      5176.5     10.3513     76.9107     50.3014
        5177     10.3713     77.1278     51.7264
      5177.5     10.4066     77.2339     53.1514
        5178     10.4112     77.4122     53.9784
      5178.5     10.4112     77.5125     52.0074
        5179     10.4112     77.4096     48.2262
      5179.5     10.4311      77.011     46.9416
        5180     10.4311     76.8104     49.7056
      5180.5     10.3889     76.8104     56.2958
        5181     10.3513     76.8104     62.8861
      5181.5     10.3513     76.9477     68.9107
        5182     10.3114     77.4122     65.7764
      5182.5     10.3114     77.8936     62.6421
        5183     10.3114        78.1     59.5078
      5183.5     10.3114     78.4067     56.3736
        5184     10.2515      78.914     53.2393
      5184.5     10.2515     79.1204     51.6436
        5185     10.2515     79.4183     51.4569
      5185.5     10.2515     79.5186     51.2702
        5186     10.2515     79.7192     52.4855
      5186.5     10.2515     79.7192     54.8195
        5187     10.3087     79.6871     57.1536
      5187.5     10.3513     79.5186     59.4876
        5188     10.3709      79.318     68.3388
      5188.5     10.4511     79.1174     76.7153
        5189      10.491     79.2177     60.9773
      5189.5      10.491      79.318     56.9217
        5190      10.491     79.2177     59.5528
      5190.5     10.4964     79.1174     51.3456
        5191      10.511     79.1174     53.7574
      5191.5      10.511     78.8164     56.1693
        5192     10.4822     78.6056     46.0728
      5192.5     10.4112     78.8209      53.512
        5193     10.4112     78.7161      51.178
      5193.5     10.3713     78.6087      50.408
