###############################################
##         ENVERUS                           ##
##         ESS - Open Hole                   ##
##         PERMIAN / DELAWARE                ##
##         Nov 04 2023  V4.0                 ##
##         42-389-32353-00-00                ##
###############################################
## Copyright 2017-2023  ENVERUS.  All Rights Reserved. 
## Confidential - Property of ENVERUS, use governed by terms and 
## conditions found within the existing Information Services Subscription Agreement 
## (as may be amended, the “ISSA”) between Customer and ENVERUS. 
## 
~VERSION INFORMATION
# MNEM.UNIT                               DATA : DESCRIPTION OF MNEMONIC
#-----.-----     ----------------------------- : -----------------------------
VERS.                                     2.00 : CWLS LOG ASCII STANDARD - VERSION 2.00
WRAP.                                       NO : MULTIPLE LINES PER DEPTH STEP
VEND.                                  ENVERUS : VENDOR
TYPE.                          ESS - OPEN HOLE : ENVERUS ESSENTIAL CURVES – ACCESSIBLE THROUGH ENVERUS PRISM(TM)
DOC.                                  31816014 : ENVERUS HEADER RAW DOCUMENT ID
#___________________________________________________________________________________________________ 
~WELL INFORMATION 
# N6wmpYeOPIEODBGNmaSz+o1WStwpnSM+Mr70h4S2k9wmNhpeTZrfoFyYX6I24xyp8IiB7B51j2C/wpla6NseZQ== 
# MNEM.UNIT                                              DATA : DESCRIPTION OF MNEMONIC 
#-----.-----                    ----------------------------- : ----------------------------- 
CNTY.                                                  REEVES : COUNTY 
STATE.                                                  TEXAS : STATE 
CNTRY.                                                    USA : COUNTRY 
API.                                             42-389-32353 : API (10 Digit) 
API_14.                                    42-389-32353-00-00 : API (14 Digits) 
API_14_std.                                 42-389-32353-0000 : API (14 Digits Standard) 
UWI.                                           42389323530000 : UNIQUE WELL ID 
WELL.                                             DORNFIELD 1 : WELL NAME
STRT.FT                                                 210.0 : START DEPTH
STOP.FT                                               13522.0 : STOP DEPTH
STEP.FT                                                   0.5 : STEP BETWEEN DEPTHS
NULL.                                                 -999.25 : NULL VALUE
LOC.                                                      UNK : LOCATION 
SRVC.                                                     UNK : SERVICE COMPANY
#___________________________________________________________________________________________________ 
~CURVE INFORMATION 
# MNEM.UNIT           : CURVE DESCRIPTION 
#-----.-----          : ----------------------------- 
 DEPT.FT               : MEASURED DEPTH 
 CALI.IN               : CALIPER (CAL - CAL) 
 GR.API                : GAMMA RAY (GR) 
 DT.US/FT              : SONIC DELTA TRANSIT TIME (DT) 
 RESS.OHMM             : SHALLOW INDUCTION RESISTIVITY (ILS - ILS) 
 RESD.OHMM             : DEEP INDUCTION RESISTIVITY (ILD - ILD) 
 DPHI.V/V              : DENSITY POROSITY (DPHI) 
 NPHI.V/V              : NEUTRON POROSITY (NPHI) 
 RHOB.G/CC             : BULK DENSITY (RHOB) 
 #___________________________________________________________________________________________________ 
~A         DEPT           CALI             GR             DT           RESS           RESD           DPHI           NPHI           RHOB
# ...
        11538.0          8.998         97.070         70.304         18.492         21.639       -0.00819        0.20110         2.6311
        11538.5          9.000         98.111         70.946         15.611         18.614        0.01006        0.20471         2.6214
        11539.0          9.003         99.065         71.438         14.935         15.589        0.02068        0.20912         2.6306
        11539.5          9.005         98.541         71.159         16.117         14.763        0.01926        0.20542         2.6397
        11540.0          9.007         97.865         70.880         16.937         15.848        0.01550        0.20003         2.6746
        11540.5          9.009         97.898         70.900         16.084         17.296       -0.00486        0.19464         2.6982
        11541.0          9.011        100.529         71.279         15.493         16.529       -0.02733        0.19680         2.7033
        11541.5          9.013        101.210         71.411         15.739         17.003       -0.03232        0.20351         2.7083
        11542.0          9.015         98.940         71.252         15.985         18.830       -0.02999        0.20931         2.7134
        11542.5          9.017         96.362         71.251         16.138         20.283       -0.03501        0.19752         2.7185
        11543.0          9.019         96.352         71.251         16.178         20.205       -0.04490        0.18573         2.6948
        11543.5          9.021        100.972         70.936         16.219         20.127       -0.04387        0.18369         2.6752
        11544.0          9.023        105.593         70.691         16.259         19.634       -0.02998        0.18692         2.6555
        11544.5          9.025        107.486         70.843         16.300         18.506       -0.01575        0.19015         2.6553
        11545.0          9.027        107.316         70.995         16.308         17.562        0.00027        0.19339         2.6637
        11545.5          9.029        106.365         70.949         16.309         16.618       -0.00175        0.19662         2.6720
        11546.0          9.031        104.239         71.035         15.227         15.673       -0.01342        0.19986         2.6804
        11546.5          9.033        102.114         71.950         13.937         14.729       -0.02508        0.20488         2.6888
        11547.0          9.035        102.387         72.228         13.534         13.784       -0.02645        0.21394         2.6972
        11547.5          9.037        103.150         72.506         18.650         12.840       -0.01891        0.22300         2.6981
        11548.0          9.039        102.330         72.692         23.765         21.059       -0.02534        0.23206         2.6835
        11548.5          9.041         99.129         72.200         19.525         19.186       -0.03264        0.24111         2.6689
        11549.0          9.044         96.796         71.709         15.933         15.999       -0.02231        0.24627         2.6574
        11549.5          9.046         97.996         71.217         16.704         15.418       -0.00866        0.24650         2.6693
        11550.0          9.048         99.197         70.768         17.020         16.834       -0.00191        0.24134         2.6812
        11550.5          9.050        100.398         70.372         16.047         16.904       -0.01255        0.23617         2.6932
        11551.0          9.052        100.518         70.259         15.074         15.281       -0.02319        0.23118         2.7051
        11551.5          9.054        100.365         70.259         15.345         14.624       -0.03365        0.22864         2.7170
        11552.0          9.056        100.213         70.258         15.913         14.956       -0.04355        0.22061         2.7132
        11552.5          9.058        100.061         70.257         16.480         15.288       -0.04675        0.20409         2.6967
        11553.0          9.060         99.909         70.256         15.509         15.621       -0.03600        0.21185         2.6801
        11553.5          9.062        101.010         70.256         13.613         15.839       -0.02526        0.22023         2.6636
        11554.0          9.064        102.096         70.689         11.717         13.971       -0.01235        0.22862         2.6547
        11554.5          9.066        103.226         71.494         12.113         11.400       -0.00057        0.23700         2.6521
        11555.0          9.068        104.356         72.299         12.694         12.529        0.00188        0.24538         2.6496
        11555.5          9.083        105.486         73.104         13.275         13.774        0.00217        0.25377         2.6410
        11556.0          9.099        106.616         73.816         13.856         15.019        0.00957        0.25722         2.6318
        11556.5          9.114        107.511         72.745         14.437         16.264        0.01743        0.24352         2.6318
        11557.0          9.130        108.021         71.674         15.018         16.787        0.01488        0.22982         2.6362
        11557.5          9.146        108.433         70.604         15.599         16.787        0.01452        0.21613         2.6646
        11558.0          9.162        109.914         70.206         16.180         16.980        0.01478        0.20851         2.6927
        11558.5          9.177        112.077         70.251         16.312         17.139        0.00065        0.20870         2.7208
        11559.0          9.193        114.290         70.398         14.434         14.583       -0.02114        0.21090         2.7489
        11559.5          9.209        114.496         71.673         12.494         13.797       -0.04292        0.21311         2.7771
        11560.0          9.251        113.628         72.385         10.517         16.658       -0.06584        0.21531         2.8052
        11560.5          9.299        111.431         72.771         11.199         19.323       -0.09489        0.21679         2.8311
        11561.0          9.346        108.509         73.157         13.186         19.919       -0.12300        0.21679         2.7937
        11561.5          9.394        105.587         72.783         14.527         20.514       -0.11685        0.21740         2.7562
        11562.0          9.442        102.665         72.352         13.639         17.918       -0.08146        0.21801         2.7187
        11562.5          9.446        103.616         72.580         12.751         13.088       -0.05392        0.21862         2.6813
        11563.0          9.417        107.791         73.533         13.078         13.564       -0.02638        0.22904         2.6438
        11563.5          9.388        111.967         74.504         13.766         15.658        0.00826        0.24022         2.5455
        11564.0          9.358        116.223         75.476          9.188          9.592        0.01902        0.25141         2.3478
        11564.5          9.329        116.551         75.930          9.130          9.592        0.19171        0.26259         2.2091
        11565.0          9.445        116.117         76.190         12.362         14.226        0.27829        0.27132         2.0994
        11565.5          9.860        115.853         75.385         15.594         18.860        0.42466        0.24417         1.9896
        11566.0         10.275        112.768         72.788         17.194         16.077        0.62620        0.21411         1.8799
        11566.5         11.617        108.053         70.858         10.215         11.065        0.68002        0.17967         1.7702
        11567.0         13.079        100.255         70.242          6.722          6.053        0.67595        0.14408         1.6604
