###############################################
##         ENVERUS                           ##
##         ESS - Open Hole                   ##
##         PERMIAN / DELAWARE                ##
##         Nov 04 2023  V4.0                 ##
##         42-389-32421-01-00                ##
###############################################
## Copyright 2017-2023  ENVERUS.  All Rights Reserved. 
## Confidential - Property of ENVERUS, use governed by terms and 
## conditions found within the existing Information Services Subscription Agreement 
## (as may be amended, the “ISSA”) between Customer and ENVERUS. 
## 
~VERSION INFORMATION
# MNEM.UNIT                               DATA : DESCRIPTION OF MNEMONIC
#-----.-----     ----------------------------- : -----------------------------
VERS.                                     2.00 : CWLS LOG ASCII STANDARD - VERSION 2.00
WRAP.                                       NO : MULTIPLE LINES PER DEPTH STEP
VEND.                                  ENVERUS : VENDOR
TYPE.                          ESS - OPEN HOLE : ENVERUS ESSENTIAL CURVES – ACCESSIBLE THROUGH ENVERUS PRISM(TM)
DOC.                                  51227099 : ENVERUS HEADER RAW DOCUMENT ID
#___________________________________________________________________________________________________ 
~WELL INFORMATION 
# zrraAS4ibxVPgm4F4FjILRFQbgMcjf5VKWH9QXz9oP+5l3DBeEvHFHP9dTNjNwXm2+WMaTXZz7qhRLDoyN0AVg== 
# MNEM.UNIT                                              DATA : DESCRIPTION OF MNEMONIC 
#-----.-----                    ----------------------------- : ----------------------------- 
CNTY.                                                  REEVES : COUNTY 
STATE.                                                  TEXAS : STATE 
CNTRY.                                                    USA : COUNTRY 
API.                                             42-389-32421 : API (10 Digit) 
API_14.                                    42-389-32421-01-00 : API (14 Digits) 
API_14_std.                                 42-389-32421-0100 : API (14 Digits Standard) 
UWI.                                           42389324210100 : UNIQUE WELL ID 
WELL.                                      ARMSTRONG STATE #1 : WELL NAME
STRT.FT                                                2000.0 : START DEPTH
STOP.FT                                               14700.0 : STOP DEPTH
STEP.FT                                                   0.5 : STEP BETWEEN DEPTHS
NULL.                                                 -999.25 : NULL VALUE
COMP.                                   BULLDOG OPERATING CO. : COMPANY 
FLD.                                                  WILDCAT : FIELD 
LOC.                                                3-59-2778 : LOCATION 
SRVC.                                            SCHLUMBERGER : SERVICE COMPANY 
DATE.                                              08/28/2006 : DATE 
PREV_APII.                                       423893242100 : API NUMBER 
PREV_UWI.                                        423893242100 : UWI NUMBER 
TVD.                                                       NO : TVD FLAG
#___________________________________________________________________________________________________ 
~PARAMETER INFORMATION 
# MNEM.UNIT                                              DATA : DESCRIPTION OF MNEMONIC 
#-----.-----                    ----------------------------- : ----------------------------- 
RUN.                                                      ONE : RUN NUMBER 
PDAT.                                                      GL : PERMANENT DATUM 
EPD.FT                                              3134.8000 : ELEVATION OF PERM. DATUM 
LMF.                                            KELLY BUSHING : LOG MEASURED FROM 
EKB.FT                                              3157.8000 : ELEVATION OF KELLY BUSHING 
DF.FT                                               3156.8000 : ELEVATION OF DERRICK FLOOR 
GL.FT                                               3134.8000 : ELEVATION OF GROUND LEVEL 
TD.FT                                              14700.0000 : TOTAL DEPTH 
BHT.DEGF                                               230.00 : BOTTOM HOLE TEMPERATURE 
BLI.FT                                             14700.0000 : BOTTOM LOG INTERVAL 
CSGSIZE.IN                                             9.6250 : CASING SIZE 
BITSIZE.IN                                              8.750 : BITSIZE 
CSGD.FT                                                  2014 : CASING BOTTOM (DRILLER) 1 
CSGL.FT                                                  2014 : CASING BOTTOM (LOGGER) 1 
MUD.                                                    BRINE : DRILLING FLUID TYPE 
MUDV.CP                                               31.0000 : DRILLING FLUID VISCOSITY 
MUDD.LB/USG                                            9.3000 : DRILLING FLUID DENSITY 
FL.ML/30MIN                                           13.0000 : DRILLING FLUID LOSS 
PH.                                                   10.0000 : DRILLING FLUID PH 
MUDS.                                        CIRCULATION TANK : MUD SAMPLE SOURCE 
RM.OHMM                                                0.0540 : RESISTIVITY OF MUD SAMPLE 
RMT.DEGF                                              90.0000 : MUD SAMPLE TEMPERATURE 
RMF.OHMM                                               0.0640 : MUD FILTRATE RESISTIVITY 
RMFT.DEGF                                             80.0000 : MUD FILTRATE SAMPLE TEMPERATURE
#___________________________________________________________________________________________________ 
~CURVE INFORMATION 
# MNEM.UNIT           : CURVE DESCRIPTION 
#-----.-----          : ----------------------------- 
 DEPT.FT               : MEASURED DEPTH 
 DT.US/FT              : SONIC DELTA TRANSIT TIME (DELTA T) 
 SPHI.V/V              : SONIC POROSITY (SONIC POROSITY) 
 #___________________________________________________________________________________________________ 
~A         DEPT             DT           SPHI
# ...
         8699.0         65.980        0.13500
         8699.5         67.448        0.14500
         8700.0         67.213        0.14600
         8700.5         66.746        0.14400
         8701.0         65.956        0.13800
         8701.5         65.165        0.13100
         8702.0         64.375        0.12400
         8702.5         63.584        0.11800
         8703.0         62.636        0.11300
         8703.5         62.767        0.11200
         8704.0         62.906        0.11200
         8704.5         63.040        0.12100
         8705.0         64.337        0.12800
         8705.5         65.635        0.13300
         8706.0         65.430        0.13400
         8706.5         65.229        0.12800
         8707.0         61.801        0.10800
         8707.5         58.374        0.08100
         8708.0         55.346        0.05400
         8708.5         52.579        0.03800
         8709.0         52.172        0.03800
         8709.5         53.827        0.06900
         8710.0         60.819        0.10800
         8710.5         68.115        0.14700
         8711.0         70.682        0.16500
         8711.5         70.845        0.17000
         8712.0         71.087        0.17000
         8712.5         70.237        0.17000
         8713.0         69.175        0.16300
         8713.5         68.113        0.15600
         8714.0         67.264        0.14700
         8714.5         67.532        0.14800
         8715.0         67.755        0.15000
         8715.5         67.979        0.15000
         8716.0         66.650        0.14900
         8716.5         64.286        0.12800
         8717.0         61.922        0.11000
         8717.5         59.557        0.09200
         8718.0         58.385        0.07800
         8718.5         58.008        0.08000
         8719.0         61.076        0.10200
         8719.5         64.145        0.12400
         8720.0         67.213        0.14600
         8720.5         70.282        0.16800
         8721.0         70.080        0.16200
         8721.5         67.213        0.14700
         8722.0         64.824        0.12900
         8722.5         62.435        0.11000
         8723.0         61.227        0.10200
         8723.5         61.227        0.10300
         8724.0         63.365        0.12400
         8724.5         66.056        0.14500
         8725.0         69.577        0.16600
         8725.5         73.099        0.18700
         8726.0         73.099        0.18800
         8726.5         72.093        0.18100
         8727.0         69.577        0.16200
         8727.5         67.062        0.14200
         8728.0         64.547        0.12300
         8728.5         62.032        0.10300
         8729.0         59.517        0.07200
         8729.5         57.002        0.07400
         8730.0         59.936        0.09400
         8730.5         62.871        0.11400
         8731.0         65.805        0.13400
         8731.5         68.739        0.15400
         8732.0         71.087        0.17000
         8732.5         69.351        0.16500
         8733.0         67.905        0.15400
         8733.5         66.459        0.14300
         8734.0         68.031        0.15400
         8734.5         69.585        0.16400
         8735.0         71.464        0.17600
         8735.5         71.262        0.17200
         8736.0         68.563        0.15400
         8736.5         65.869        0.13600
         8737.0         62.630        0.10800
         8737.5         62.409        0.11000
         8738.0         63.355        0.11900
         8738.5         64.299        0.12700
         8739.0         65.064        0.13000
         8739.5         64.349        0.12900
         8740.0         62.995        0.11600
         8740.5         61.641        0.10400
         8741.0         60.285        0.09200
         8741.5         58.924        0.08000
         8742.0         58.779        0.08500
         8742.5         59.963        0.09300
         8743.0         61.400        0.10200
         8743.5         62.837        0.11000
         8744.0         62.082        0.10600
         8744.5         61.328        0.10200
         8745.0         61.127        0.09900
         8745.5         62.233        0.11700
         8746.0         64.748        0.13300
         8746.5         67.264        0.14500
         8747.0         67.375        0.14700
         8747.5         67.487        0.14700
         8748.0         67.599        0.14700
         8748.5         68.270        0.15800
         8749.0         69.779        0.16700
         8749.5         71.288        0.17200
         8750.0         71.087        0.17100
         8750.5         70.885        0.16900
         8751.0         67.913        0.14800
         8751.5         64.941        0.12700
         8752.0         61.968        0.10600
         8752.5         58.996        0.08500
         8753.0         57.203        0.06800
         8753.5         56.197        0.06500
         8754.0         56.197        0.06300
         8754.5         56.270        0.06500
         8755.0         56.362        0.06500
         8755.5         56.453        0.06600
         8756.0         56.545        0.06600
         8756.5         57.807        0.08500
         8757.0         61.429        0.10800
         8757.5         64.728        0.13700
         8758.0         69.678        0.16000
         8758.5         67.901        0.15200
         8759.0         65.679        0.13400
         8759.5         63.457        0.11500
         8760.0         61.236        0.09900
         8760.5         59.014        0.08500
         8761.0         58.763        0.08500
         8761.5         58.511        0.08400
         8762.0         57.153        0.07100
         8762.5         55.057        0.05700
         8763.0         53.380        0.04600
         8763.5         53.380        0.05600
         8764.0         55.770        0.07100
         8764.5         57.203        0.07000
         8765.0         57.203        0.06900
         8765.5         55.543        0.06000
         8766.0         54.160        0.04100
         8766.5         52.777        0.05000
         8767.0         55.191        0.07400
         8767.5         58.746        0.09700
         8768.0         63.189        0.12100
         8768.5         65.905        0.13700
         8769.0         66.056        0.14000
         8769.5         64.760        0.12600
         8770.0         63.139        0.11400
         8770.5         61.518        0.10200
         8771.0         60.221        0.08400
         8771.5         58.813        0.08700
         8772.0         59.618        0.09400
         8772.5         60.959        0.10200
         8773.0         62.032        0.10800
         8773.5         61.946        0.10600
         8774.0         61.874        0.10500
         8774.5         62.994        0.11700
         8775.0         65.900        0.14000
         8775.5         68.806        0.16300
         8776.0         72.294        0.17600
         8776.5         72.830        0.18400
         8777.0         72.269        0.18600
         8777.5         70.885        0.16600
         8778.0         67.553        0.14100
         8778.5         64.220        0.11600
         8779.0         60.221        0.09600
         8779.5         60.825        0.10400
         8780.0         66.056        0.14900
         8780.5         71.288        0.17900
         8781.0         73.099        0.18500
         8781.5         72.275        0.17600
         8782.0         70.218        0.16100
         8782.5         68.160        0.14600
         8783.0         66.102        0.13200
         8783.5         64.044        0.11900
         8784.0         62.598        0.11000
         8784.5         61.152        0.10100
         8785.0         59.446        0.08600
         8785.5         59.645        0.09100
