###############################################
##         ENVERUS                           ##
##         ESS - Open Hole                   ##
##         PERMIAN / DELAWARE                ##
##         Nov 04 2023  V4.0                 ##
##         42-389-32421-01-00                ##
###############################################
## Copyright 2017-2023  ENVERUS.  All Rights Reserved. 
## Confidential - Property of ENVERUS, use governed by terms and 
## conditions found within the existing Information Services Subscription Agreement 
## (as may be amended, the “ISSA”) between Customer and ENVERUS. 
## 
~VERSION INFORMATION
# MNEM.UNIT                               DATA : DESCRIPTION OF MNEMONIC
#-----.-----     ----------------------------- : -----------------------------
VERS.                                     2.00 : CWLS LOG ASCII STANDARD - VERSION 2.00
WRAP.                                       NO : MULTIPLE LINES PER DEPTH STEP
VEND.                                  ENVERUS : VENDOR
TYPE.                          ESS - OPEN HOLE : ENVERUS ESSENTIAL CURVES – ACCESSIBLE THROUGH ENVERUS PRISM(TM)
DOC.                                  51226874 : ENVERUS HEADER RAW DOCUMENT ID
#___________________________________________________________________________________________________ 
~WELL INFORMATION 
# Tb73rb1SL3MkDZoC3l18/hn1AqNnLhXquKbAWMIBLpWCEGQs+cUq/9XFz1I3dh1trdNBSXyPtAuUBW0L3ONtkQ== 
# MNEM.UNIT                                              DATA : DESCRIPTION OF MNEMONIC 
#-----.-----                    ----------------------------- : ----------------------------- 
CNTY.                                                  REEVES : COUNTY 
STATE.                                                  TEXAS : STATE 
CNTRY.                                                    USA : COUNTRY 
API.                                             42-389-32421 : API (10 Digit) 
API_14.                                    42-389-32421-01-00 : API (14 Digits) 
API_14_std.                                 42-389-32421-0100 : API (14 Digits Standard) 
UWI.                                           42389324210100 : UNIQUE WELL ID 
WELL.                                      ARMSTRONG STATE  1 : WELL NAME
STRT.FT                                                 182.0 : START DEPTH
STOP.FT                                               14775.0 : STOP DEPTH
STEP.FT                                                   0.5 : STEP BETWEEN DEPTHS
NULL.                                                 -999.25 : NULL VALUE
PREV_UWI.                                      42389324210000 : UNIQUE WELL ID 
PREV_API.                                      42389324210000 : API NUMBER 
COMP.                                    STALEY OPERATING CO. : COMPANY 
DATE.                                             26-JUN-2006 : LOG DATE
#___________________________________________________________________________________________________ 
~CURVE INFORMATION 
# MNEM.UNIT           : CURVE DESCRIPTION 
#-----.-----          : ----------------------------- 
 DEPT.FT               : MEASURED DEPTH 
 CALI__A.IN            : CALIPER (CAL - CAL) 
 GR__A.API             : GAMMA RAY (GR) 
 DT__A.US/FT           : SONIC DELTA TRANSIT TIME (DT) 
 DPHI__A.V/V           : DENSITY POROSITY (DPHI) 
 NPHI__A.V/V           : NEUTRON POROSITY (NPHI) 
 RHOB__A.G/CC          : BULK DENSITY (RHOB) 
 #___________________________________________________________________________________________________ 
~A         DEPT        CALI__A          GR__A          DT__A        DPHI__A        NPHI__A        RHOB__A
# ...
        11354.0          9.395         74.555         60.058        0.05183        0.06831         2.6180
        11354.5          9.408         75.550         59.310        0.03801        0.06678         2.6460
        11355.0          9.421         75.044         58.562        0.02722        0.06022         2.6630
        11355.5          9.371         75.053         58.448        0.02722        0.05896         2.6630
        11356.0          9.310         81.364         59.729        0.02722        0.07470         2.6630
        11356.5          9.248         88.270         61.010        0.02581        0.10209         2.6640
        11357.0          9.190         94.343         62.292        0.02423        0.11146         2.6640
        11357.5          9.140         94.030         63.398        0.02266        0.11091         2.6640
        11358.0          9.203         92.233         62.006        0.02751        0.10124         2.6610
        11358.5          9.265         86.553         61.351        0.03292        0.08313         2.6540
        11359.0          9.328         80.024         61.136        0.03519        0.06503         2.6470
        11359.5          9.353         73.088         59.822        0.02680        0.06119         2.6540
        11360.0          9.296         65.138         57.843        0.01841        0.05913         2.6630
        11360.5          9.238         65.296         56.963        0.01957        0.06043         2.6720
        11361.0          9.181         69.614         58.542        0.02397        0.06792         2.6740
        11361.5          9.123         76.900         60.121        0.02838        0.08388         2.6710
        11362.0          9.066         87.884         61.701        0.02533        0.10075         2.6680
        11362.5          9.008         91.924         63.280        0.02033        0.10867         2.6650
        11363.0          8.951         89.462         63.375        0.01533        0.10801         2.6730
        11363.5          8.933         82.442         62.009        0.01942        0.10160         2.6830
        11364.0          8.925         74.748         60.642        0.02418        0.08973         2.6660
        11364.5          8.916         72.981         59.202        0.02894        0.08200         2.6550
        11365.0          8.908         72.537         58.649        0.03228        0.08093         2.6500
        11365.5          8.899         73.087         58.873        0.03466        0.07692         2.6460
        11366.0          8.891         72.757         58.907        0.03704        0.06472         2.6430
        11366.5          8.883         71.242         58.137        0.03942        0.04800         2.6450
        11367.0          8.874         69.287         57.366        0.03707        0.03440         2.6460
        11367.5          8.866         67.264         56.595        0.03467        0.02311         2.6480
        11368.0          8.857         64.997         55.825        0.03530        0.01396         2.6440
        11368.5          8.849         62.709         55.054        0.04393        0.00938         2.6340
        11369.0          8.897         60.420         54.283        0.05257        0.01422         2.6250
        11369.5          8.948         69.194         56.275        0.05953        0.02839         2.6150
        11370.0          8.998         81.843         58.663        0.04736        0.04938         2.6230
        11370.5          9.049         89.298         61.051        0.03519        0.07759         2.6570
        11371.0          9.099         94.579         63.439        0.02302        0.11772         2.6720
        11371.5          9.150         97.606         65.021        0.01957        0.14150         2.6660
        11372.0          9.190         98.658         65.272        0.02900        0.14878         2.6650
        11372.5          9.196         98.993         65.489        0.02158        0.14711         2.6780
        11373.0          9.202         97.127         65.385        0.01415        0.14347         2.6900
        11373.5          9.209         95.192         65.281        0.01207        0.14128         2.6900
        11374.0          9.215         93.172         65.177        0.01387        0.14076         2.6830
        11374.5          9.221         91.151         65.073        0.01915        0.14105         2.6770
        11375.0          9.227         89.131         64.969        0.02082        0.14194         2.6740
        11375.5          9.234         87.111         64.864        0.02231        0.14303         2.6730
        11376.0          9.240         85.092         64.877        0.02612        0.14412         2.6730
        11376.5          9.246         83.074         65.266        0.03222        0.14257         2.6680
        11377.0          9.252         86.493         65.655        0.03044        0.14276         2.6560
        11377.5          9.259         89.249         66.043        0.02718        0.15067         2.6550
        11378.0          9.265         91.582         66.432        0.02723        0.15789         2.6600
        11378.5          9.271         93.649         66.821        0.02829        0.16052         2.6580
        11379.0          9.277         93.261         67.209        0.02895        0.15882         2.6560
        11379.5          9.259         92.874         67.183        0.02332        0.15683         2.6580
        11380.0          9.226         91.775         67.144        0.02350        0.15474         2.6660
        11380.5          9.194         90.118         67.105        0.02717        0.15264         2.6670
        11381.0          9.161         86.405         66.552        0.03083        0.14568         2.6560
        11381.5          9.128         79.851         64.529        0.02701        0.12951         2.6620
        11382.0          9.095         74.279         62.505        0.02080        0.10750         2.6690
        11382.5          9.063         74.923         60.547        0.01460        0.08798         2.6750
        11383.0          9.030         81.631         60.225        0.01545        0.07951         2.6810
        11383.5          8.997         89.109         63.033        0.01947        0.10069         2.6770
        11384.0          8.966         96.587         65.841        0.02774        0.13626         2.6680
        11384.5          8.936         99.422         65.650        0.03296        0.14302         2.6580
        11385.0          8.906         97.807         65.358        0.02707        0.14493         2.6650
        11385.5          8.877         92.458         65.067        0.02123        0.14146         2.6630
        11386.0          8.849         94.770         65.140        0.02705        0.14337         2.6570
        11386.5          8.849         97.083         65.531        0.03287        0.15313         2.6520
        11387.0          8.849         97.518         65.922        0.03750        0.15556         2.6460
        11387.5          8.849         95.459         64.646        0.03694        0.14392         2.6410
        11388.0          8.849         92.227         63.320        0.03638        0.12381         2.6470
        11388.5          8.849         88.907         61.995        0.02937        0.10370         2.6570
        11389.0          8.849         85.587         60.669        0.02130        0.08568         2.6670
        11389.5          8.849         82.267         59.343        0.01490        0.07409         2.6770
        11390.0          8.850         85.814         60.437        0.02099        0.06847         2.6750
        11390.5          8.890         92.354         62.185        0.02569        0.08875         2.6660
        11391.0          8.930         98.599         63.932        0.02469        0.11455         2.6610
        11391.5          8.970        104.380         65.679        0.02368        0.13943         2.6620
