###############################################
##         ENVERUS                           ##
##         ESS - Open Hole                   ##
##         PERMIAN / DELAWARE                ##
##         Nov 04 2023  V4.0                 ##
##         42-389-31270-00-00                ##
###############################################
## Copyright 2017-2023  ENVERUS.  All Rights Reserved. 
## Confidential - Property of ENVERUS, use governed by terms and 
## conditions found within the existing Information Services Subscription Agreement 
## (as may be amended, the “ISSA”) between Customer and ENVERUS. 
## 
~VERSION INFORMATION
# MNEM.UNIT                               DATA : DESCRIPTION OF MNEMONIC
#-----.-----     ----------------------------- : -----------------------------
VERS.                                     2.00 : CWLS LOG ASCII STANDARD - VERSION 2.00
WRAP.                                       NO : MULTIPLE LINES PER DEPTH STEP
VEND.                                  ENVERUS : VENDOR
TYPE.                          ESS - OPEN HOLE : ENVERUS ESSENTIAL CURVES – ACCESSIBLE THROUGH ENVERUS PRISM(TM)
DOC.                                  31950282 : ENVERUS HEADER RAW DOCUMENT ID
#___________________________________________________________________________________________________ 
~WELL INFORMATION 
# 0CODbT4LMl4UGLa7W4QP9cEC157HhgZEtdKI2U+cm8ET/zLKkJfEe4mvdgudHboWMGmWziBYTrzgVEWtCsCjWg== 
# MNEM.UNIT                                              DATA : DESCRIPTION OF MNEMONIC 
#-----.-----                    ----------------------------- : ----------------------------- 
CNTY.                                                  REEVES : COUNTY 
STATE.                                                  TEXAS : STATE 
CNTRY.                                                    USA : COUNTRY 
API.                                             42-389-31270 : API (10 Digit) 
API_14.                                    42-389-31270-00-00 : API (14 Digits) 
API_14_std.                                 42-389-31270-0000 : API (14 Digits Standard) 
UWI.                                           42389312700000 : UNIQUE WELL ID 
WELL.                                        FORTUNE UNIT  2R : WELL NAME
STRT.FT                                                3825.0 : START DEPTH
STOP.FT                                               13654.0 : STOP DEPTH
STEP.FT                                                   0.5 : STEP BETWEEN DEPTHS
NULL.                                                 -999.25 : NULL VALUE
COMP.                          SANDRIDGE EXPL. AND PROD.  LLC : COMPANY 
DATE.                                             19-AUG-2004 : LOG DATE
#___________________________________________________________________________________________________ 
~CURVE INFORMATION 
# MNEM.UNIT           : CURVE DESCRIPTION 
#-----.-----          : ----------------------------- 
 DEPT.FT               : MEASURED DEPTH 
 CALI__B.IN            : CALIPER (CAL - CAL) 
 GR__B.API             : GAMMA RAY (GR) 
 DT__B.US/FT           : SONIC DELTA TRANSIT TIME (DT) 
 #___________________________________________________________________________________________________ 
~A         DEPT        CALI__B          GR__B          DT__B
# ...
         5145.0         10.603         80.567         65.511
         5145.5         10.614         84.499         66.354
         5146.0         10.626         85.165         67.196
         5146.5         10.637         85.831         66.946
         5147.0         10.648         86.497         66.085
         5147.5         10.659         87.163         66.869
         5148.0         10.671         87.829         67.793
         5148.5         10.682        102.293         68.716
         5149.0         10.693         91.832         69.354
         5149.5         10.704         81.370         68.687
         5150.0         10.716         70.909         68.021
         5150.5         10.727         64.018         67.355
         5151.0         10.738         65.155         66.689
         5151.5         10.749         66.292         66.023
         5152.0         10.767         67.428         65.553
         5152.5         10.793         68.565         65.660
         5153.0         10.819         68.327         65.766
         5153.5         10.846         67.744         65.873
         5154.0         10.872         67.161         65.979
         5154.5         10.898         66.577         66.086
         5155.0         10.924         65.994         66.016
         5155.5         10.951         66.068         65.864
         5156.0         10.977         67.000         65.712
         5156.5         11.003         67.932         65.560
         5157.0         11.005         68.286         65.409
         5157.5         10.985         61.253         65.257
         5158.0         10.965         57.064         65.360
         5158.5         10.945         61.348         66.571
         5159.0         10.925         65.632         66.769
         5159.5         10.905         69.915         66.572
         5160.0         10.885         73.908         66.375
         5160.5         10.865         77.642         66.179
         5161.0         10.844         81.376         65.982
         5161.5         10.824         86.670         65.786
         5162.0         10.808         93.650         65.969
         5162.5         10.799        113.117         67.677
         5163.0         10.790        136.549         69.386
         5163.5         10.781        136.549         69.932
         5164.0         10.771        123.252         68.487
         5164.5         10.762         93.970         67.042
         5165.0         10.753         74.366         65.597
         5165.5         10.743         67.847         64.153
         5166.0         10.738         61.328         62.708
         5166.5         10.738         54.809         61.263
         5167.0         10.738         48.290         59.700
         5167.5         10.738         41.771         57.343
         5168.0         10.738         36.000         55.658
         5168.5         10.738         38.584         57.462
         5169.0         10.738         41.168         59.266
         5169.5         10.738         43.752         61.070
         5170.0         10.738         46.337         62.874
         5170.5         10.738         48.921         64.230
         5171.0         10.738         47.598         64.149
         5171.5         10.738         45.266         64.068
         5172.0         10.738         49.770         65.719
         5172.5         10.738         54.520         67.765
         5173.0         10.738         59.270         69.810
         5173.5         10.738         64.021         71.856
         5174.0         10.738         68.771         71.845
         5174.5         10.738         74.555         70.801
         5175.0         10.738         80.541         69.757
         5175.5         10.738         79.922         68.646
         5176.0         10.747         79.303         67.202
         5176.5         10.767         77.813         65.759
         5177.0         10.787         75.743         64.315
         5177.5         10.807         73.673         63.548
         5178.0         10.827         71.604         63.342
         5178.5         10.847         68.583         63.137
         5179.0         10.866         64.544         62.931
         5179.5         10.886         64.803         62.726
         5180.0         10.906         65.062         62.520
         5180.5         10.926         65.322         62.315
         5181.0         10.946         65.581         62.109
         5181.5         10.966         65.840         62.902
         5182.0         10.980         66.100         65.273
         5182.5         10.980         70.234         67.645
         5183.0         10.980         79.924         67.775
         5183.5         10.980         76.045         66.863
         5184.0         10.980         70.871         65.951
         5184.5         10.980         65.697         65.038
         5185.0         11.001         60.524         64.457
         5185.5         11.023         59.150         64.470
         5186.0         11.045         60.082         64.484
         5186.5         11.067         61.014         64.498
         5187.0         11.089         62.567         64.512
         5187.5         11.110         65.882         64.526
         5188.0         11.132         69.197         64.540
         5188.5         11.154         76.325         64.584
         5189.0         11.183         79.321         64.819
         5189.5         11.221         76.810         65.054
         5190.0         11.259         74.300         65.289
         5190.5         11.297         71.789         65.524
         5191.0         11.336         68.682         65.759
         5191.5         11.374         64.620         65.994
         5192.0         11.404         60.558         66.199
         5192.5         11.379         59.043         66.399
         5193.0         11.355         57.713         66.599
         5193.5         11.330         56.382         66.799
         5194.0         11.305         55.052         66.823
         5194.5         11.281         53.722         66.823
         5195.0         11.216         52.391         66.823
         5195.5         11.145         51.322         66.823
         5196.0         11.073         52.901         66.874
         5196.5         11.001         54.481         67.642
         5197.0         10.930         56.060         68.411
         5197.5         10.888         80.453         69.179
         5198.0         10.861        116.303         69.947
         5198.5         10.833        129.041         70.715
         5199.0         10.806        140.384         71.483
         5199.5         10.779        151.727         72.346
         5200.0         10.751        163.070         73.485
         5200.5         10.724        174.413         74.624
         5201.0         10.703        176.003         74.983
         5201.5         10.706        161.156         73.614
         5202.0         10.710        150.628         72.244
         5202.5         10.713        145.687         70.874
         5203.0         10.717        143.628         70.784
         5203.5         10.720        141.580         71.219
         5204.0         10.723        139.533         71.653
         5204.5         10.727        138.580         72.088
         5205.0         10.730        139.396         72.522
         5205.5         10.733        140.212         72.957
         5206.0         10.737        148.780         73.391
         5206.5         10.740        162.709         73.825
         5207.0         10.747        176.638         74.260
         5207.5         10.754        112.559         72.113
         5208.0         10.760         96.267         66.023
         5208.5         10.767         90.370         64.626
         5209.0         10.774         84.473         64.121
         5209.5         10.780         78.683         63.615
         5210.0         10.787         75.701         63.110
         5210.5         10.794         72.719         62.605
