###############################################
##         ENVERUS                           ##
##         ESS - Open Hole                   ##
##         PERMIAN / DELAWARE                ##
##         Nov 04 2023  V4.0                 ##
##         42-389-30424-00-00                ##
###############################################
## Copyright 2017-2023  ENVERUS.  All Rights Reserved. 
## Confidential - Property of ENVERUS, use governed by terms and 
## conditions found within the existing Information Services Subscription Agreement 
## (as may be amended, the “ISSA”) between Customer and ENVERUS. 
## 
~VERSION INFORMATION
# MNEM.UNIT                               DATA : DESCRIPTION OF MNEMONIC
#-----.-----     ----------------------------- : -----------------------------
VERS.                                     2.00 : CWLS LOG ASCII STANDARD - VERSION 2.00
WRAP.                                       NO : MULTIPLE LINES PER DEPTH STEP
VEND.                                  ENVERUS : VENDOR
TYPE.                          ESS - OPEN HOLE : ENVERUS ESSENTIAL CURVES – ACCESSIBLE THROUGH ENVERUS PRISM(TM)
DOC.                                  32008121 : ENVERUS HEADER RAW DOCUMENT ID
#___________________________________________________________________________________________________ 
~WELL INFORMATION 
# BBd8zmUYmd+wUdICSlYDIOWaOe8iOeA0ELK9EhSbx74Kr6OX4zJxS/eo6cO6KK5SWMTSkVzaKbU2EBBfROvOKA== 
# MNEM.UNIT                                              DATA : DESCRIPTION OF MNEMONIC 
#-----.-----                    ----------------------------- : ----------------------------- 
CNTY.                                                  REEVES : COUNTY 
STATE.                                                  TEXAS : STATE 
CNTRY.                                                    USA : COUNTRY 
API.                                             42-389-30424 : API (10 Digit) 
API_14.                                    42-389-30424-00-00 : API (14 Digits) 
API_14_std.                                 42-389-30424-0000 : API (14 Digits Standard) 
UWI.                                           42389304240000 : UNIQUE WELL ID 
WELL.                                      LEWELLING STATE  1 : WELL NAME
STRT.FT                                                   7.0 : START DEPTH
STOP.FT                                               15912.0 : STOP DEPTH
STEP.FT                                                   0.5 : STEP BETWEEN DEPTHS
NULL.                                                 -999.25 : NULL VALUE
COMP.                           PENN VIRGINIA OIL & GAS CORP. : COMPANY 
DATE.                                             14-AUG-1976 : LOG DATE
#___________________________________________________________________________________________________ 
~CURVE INFORMATION 
# MNEM.UNIT           : CURVE DESCRIPTION 
#-----.-----          : ----------------------------- 
 DEPT.FT               : MEASURED DEPTH 
 CALI__A.IN            : CALIPER (CAL - CAL) 
 GR__A.API             : GAMMA RAY (GR) 
 DT__A.US/FT           : SONIC DELTA TRANSIT TIME (DT) 
 DPHI__A.V/V           : DENSITY POROSITY (DPHI) 
 NPHI__A.V/V           : NEUTRON POROSITY (NPHI) 
 #___________________________________________________________________________________________________ 
~A         DEPT        CALI__A          GR__A          DT__A        DPHI__A        NPHI__A
# ...
         6255.0         13.133         53.512         64.226     -999.25000     -999.25000
         6255.5         13.134         57.779         63.794     -999.25000     -999.25000
         6256.0         13.135         56.344         63.363     -999.25000     -999.25000
         6256.5         13.136         54.634         63.236     -999.25000     -999.25000
         6257.0         13.137         45.795         63.293     -999.25000     -999.25000
         6257.5         13.138         41.489         64.386     -999.25000     -999.25000
         6258.0         13.139         37.480         65.249     -999.25000     -999.25000
         6258.5         13.139         40.586         65.289     -999.25000     -999.25000
         6259.0         13.139         45.550         64.139     -999.25000     -999.25000
         6259.5         13.140         50.513         62.699     -999.25000     -999.25000
         6260.0         13.140         55.477         61.626     -999.25000     -999.25000
         6260.5         13.141         60.441         61.909     -999.25000     -999.25000
         6261.0         13.141         65.404         62.192     -999.25000     -999.25000
         6261.5         13.142         66.957         62.475     -999.25000     -999.25000
         6262.0         13.142         67.656         62.530     -999.25000     -999.25000
         6262.5         13.142         67.139         62.304     -999.25000     -999.25000
         6263.0         13.143         66.622         62.289     -999.25000     -999.25000
         6263.5         13.143         65.543         62.695     -999.25000     -999.25000
         6264.0         13.144         63.185         63.102     -999.25000     -999.25000
         6264.5         13.144         60.828         63.170     -999.25000     -999.25000
         6265.0         13.144         55.930         63.100     -999.25000     -999.25000
         6265.5         13.145         50.824         62.350     -999.25000     -999.25000
         6266.0         13.145         45.718         61.594     -999.25000     -999.25000
         6266.5         13.146         40.613         60.837     -999.25000     -999.25000
         6267.0         13.146         38.745         60.470     -999.25000     -999.25000
         6267.5         13.146         38.491         61.097     -999.25000     -999.25000
         6268.0         13.147         38.765         61.795     -999.25000     -999.25000
         6268.5         13.147         39.185         62.493     -999.25000     -999.25000
         6269.0         13.148         39.605         62.723     -999.25000     -999.25000
         6269.5         13.148         40.024         62.787     -999.25000     -999.25000
         6270.0         13.149         40.444         62.851     -999.25000     -999.25000
         6270.5         13.149         41.030         62.915     -999.25000     -999.25000
         6271.0         13.149         41.798         62.932     -999.25000     -999.25000
         6271.5         13.150         42.567         62.733     -999.25000     -999.25000
         6272.0         13.150         43.336         62.534     -999.25000     -999.25000
         6272.5         13.151         44.104         62.335     -999.25000     -999.25000
         6273.0         13.151         44.873         62.137     -999.25000     -999.25000
         6273.5         13.151         45.641         62.118     -999.25000     -999.25000
         6274.0         13.152         47.948         62.398     -999.25000     -999.25000
         6274.5         13.152         52.277         62.677     -999.25000     -999.25000
         6275.0         13.153         56.606         62.956     -999.25000     -999.25000
         6275.5         13.153         60.936         62.999     -999.25000     -999.25000
         6276.0         13.154         63.486         63.040     -999.25000     -999.25000
         6276.5         13.154         60.641         63.075     -999.25000     -999.25000
         6277.0         13.154         57.796         63.074     -999.25000     -999.25000
         6277.5         13.155         55.897         62.224     -999.25000     -999.25000
         6278.0         13.155         55.902         61.372     -999.25000     -999.25000
         6278.5         13.156         56.009         61.013     -999.25000     -999.25000
         6279.0         13.156         55.539         61.374     -999.25000     -999.25000
         6279.5         13.156         55.070         61.943     -999.25000     -999.25000
         6280.0         13.157         54.601         62.485     -999.25000     -999.25000
         6280.5         13.157         53.344         62.646     -999.25000     -999.25000
         6281.0         13.158         51.733         62.807     -999.25000     -999.25000
         6281.5         13.158         50.122         62.968     -999.25000     -999.25000
         6282.0         13.159         48.512         63.129     -999.25000     -999.25000
         6282.5         13.157         46.901         63.290     -999.25000     -999.25000
         6283.0         13.151         47.386         63.302     -999.25000     -999.25000
         6283.5         13.145         48.783         63.207     -999.25000     -999.25000
         6284.0         13.138         47.939         63.111     -999.25000     -999.25000
         6284.5         13.132         45.508         63.015     -999.25000     -999.25000
         6285.0         13.126         43.078         62.919     -999.25000     -999.25000
         6285.5         13.119         42.400         62.823     -999.25000     -999.25000
         6286.0         13.113         43.682         62.727     -999.25000     -999.25000
         6286.5         13.107         44.964         62.766     -999.25000     -999.25000
         6287.0         13.100         46.246         62.865     -999.25000     -999.25000
         6287.5         13.094         47.200         62.964     -999.25000     -999.25000
         6288.0         13.088         47.205         63.063     -999.25000     -999.25000
         6288.5         13.081         47.588         63.162     -999.25000     -999.25000
         6289.0         13.075         48.617         63.260     -999.25000     -999.25000
         6289.5         13.069         50.196         63.359     -999.25000     -999.25000
         6290.0         13.062         52.424         63.458     -999.25000     -999.25000
         6290.5         13.056         54.652         63.557     -999.25000     -999.25000
         6291.0         13.050         56.879         63.500     -999.25000     -999.25000
         6291.5         13.047         57.990         63.400     -999.25000     -999.25000
         6292.0         13.048         57.341         63.299     -999.25000     -999.25000
         6292.5         13.049         55.275         63.199     -999.25000     -999.25000
         6293.0         13.050         53.038         63.098     -999.25000     -999.25000
         6293.5         13.051         50.801         62.595     -999.25000     -999.25000
         6294.0         13.052         48.214         62.092     -999.25000     -999.25000
         6294.5         13.053         45.109         61.522     -999.25000     -999.25000
         6295.0         13.054         42.004         60.773     -999.25000     -999.25000
         6295.5         13.055         40.150         60.025     -999.25000     -999.25000
         6296.0         13.057         39.574         59.277     -999.25000     -999.25000
         6296.5         13.058         40.940         59.467     -999.25000     -999.25000
         6297.0         13.059         42.768         60.106     -999.25000     -999.25000
         6297.5         13.060         44.595         60.744     -999.25000     -999.25000
         6298.0         13.061         46.304         61.383     -999.25000     -999.25000
         6298.5         13.062         47.968         61.823     -999.25000     -999.25000
