#--------------------------------------------------#
#-------------------ENVERUS, INC.------------------#
#------------------WWW.ENVERUS.COM-----------------#
#------------------COPYRIGHT 2020------------------#
#--------------------------------------------------#
#THIS FILE MAY BE USED ONLY IN ACCORDANCE WITH A CURRENT SUBSCRIPTION AGREEMENT BETWEEN
#THE USER AND ENVERUS, INC. NO PART OF THIS FILE MAY BE REPRODUCED, USED, COPIED,
#MODIFIED, PROPAGATED, OR DISTRIBUTED EXCEPT IN ACCORDANCE WITH THE SUBSCRIPTION
#AGREEMENT. UNAUTHORIZED USE OR DISTRIBUTION OF ALL OR ANY PART OF THIS FILE MAY VIOLATE
#COPYRIGHT, TRADEMARK, AND/OR OTHER LAWS AND IS SUBJECT TO CIVIL AS WELL AS CRIMINAL
#SANCTIONS.
#--------------------------------------------------#
#THIS FILE IS PROVIDED "AS-IS" AND ALL WARRANTIES ARE EXPRESSLY DISCLAIMED, WHETHER
#EXPRESS, ORAL, IMPLIED, STATUTORY OR OTHERWISE, INCLUDING ANY IMPLIED WARRANTY OF FITNESS
#FOR A PARTICULAR PURPOSE, MERCHANTABILITY, TITLE OR NON-INFRINGEMENT, AND ANY WARRANTIES
#ARISING BY VIRTUE OF CUSTOM OF TRADE OR COURSE OF DEALING.  FURTHER, ENVERUS, INC.
#AND ITS LICENSORS DO NOT REPRESENT OR WARRANT THAT THIS FILE WILL MEET USER'S
#REQUIREMENTS OR ARE SUITABLE FOR USER'S NEEDS OR THAT THE DATA OR RESULTS PROVIDED IN
#CONJUNCTION THEREWITH ARE CORRECT, ACCURATE, TIMELY OR RELIABLE. THESE DISCLAIMERS SHALL
#APPLY REGARDLESS OF ANY FAILURE OF ESSENTIAL PURPOSE OF ANY LIMITED REMEDY.  SOME
#JURISDICTIONS DO NOT ALLOW THE EXCLUSION OF CERTAIN WARRANTIES SO SOME OF THE ABOVE
#EXCLUSIONS MAY NOT APPLY. IN NO EVENT SHALL ENVERUS, INC. OR ANY OF ITS AFFILIATES
#BE LIABLE UNDER ANY LEGAL THEORY, WHETHER IN TORT (INCLUDING WITHOUT LIMITATION
#NEGLIGENCE), CONTRACT, STRICT LIABILITY, STATUTORY OR OTHERWISE, FOR ANY SPECIAL,
#INCIDENTAL, CONSEQUENTIAL, EXEMPLARY, PUNITIVE OR INDIRECT DAMAGE OF ANY KIND, INCLUDING
#WITHOUT LIMITATION LOSS OF REVENUE, PROFITS, GOODWILL, USE, AND/OR DATA OR THE COST OF
#PROCUREMENT OF SUBSTITUTE GOODS OR SERVICES, EVEN IF APPRISED OF THE POSSIBILITY OF SUCH
#DAMAGES IN ADVANCE.
#--------------------------------------------------#

~VERSION INFORMATION
VERS. 2.0 : CWLS LOG ASCII STANDARD - VERSION 2.0
WRAP.  NO : ONE LINE PER DEPTH STEP
~WELL INFORMATION
#MNEMONIC     .UNIT              VALUE :DESCRIPTION
STRT       .FT                51 :START DEPTH
STOP       .FT                4494 :STOP DEPTH
STEP       .FT                   0.500 :STEP
NULL       .                  -999.990 :NULL
UWI        .              42389102200000 :UNIQUE WELL ID
API        .              42389102200000 :API NUMBER
COMP       .         GRUY PETROLEUM MANAGEMENT CO. :COMPANY
WELL       .        REEVES -AQ- FEE  2 :WELL
DATE       .                30-NOV-1992 :LOG DATE
~CURVE INFORMATION
#MNEMONIC     .UNIT      API CODE :CURVE DESCRIPTION
DEPTH       .FT                      :MEASURED DEPTH
CAL.INCH        UNKNOWN   :CAL
GR.API        UNKNOWN   :GR
DT.US/FT        UNKNOWN   :DT
~A    DEPTH    CAL    GR    DT
# ...
 372     -999.990   24.949   58.081
 372.5     -999.990   27.041   65.505
 373     -999.990   29.134   72.929
 373.5     -999.990   31.226   80.353
 374     -999.990   30.737   87.776
 374.5     -999.990   30.167   93.299
 375     -999.990   29.597   86.518
 375.5     -999.990   27.853   79.738
 376     -999.990   27.49   72.958
 376.5     -999.990   27.634   69.396
 377     -999.990   27.723   67.058
 377.5     -999.990   25.4   65.176
 378     -999.990   23.078   65.46
 378.5     -999.990   20.755   65.744
 379     -999.990   18.432   66.028
 379.5     -999.990   16.918   66.311
 380     -999.990   20.333   66.595
 380.5     -999.990   23.747   70.861
 381     -999.990   27.213   73.631
 381.5     -999.990   30.703   73.362
 382     -999.990   33.916   73.094
 382.5     -999.990   36.104   72.825
 383     -999.990   38.291   72.557
 383.5     -999.990   40.479   72.288
 384     -999.990   41.671   86.205
 384.5     -999.990   42.84   85.376
 385     -999.990   42.724   83.864
 385.5     -999.990   42.608   82.351
 386     -999.990   42.493   80.839
 386.5     -999.990   42.377   79.326
 387     -999.990   42.262   82.027
 387.5     -999.990   44.895   85.057
 388     -999.990   47.626   88.087
 388.5     -999.990   48.789   91.117
 389     -999.990   48.565   89.412
 389.5     -999.990   48.341   86.475
 390     -999.990   48.385   85.075
 390.5     -999.990   50.566   88.832
 391     -999.990   50.399   92.589
 391.5     -999.990   50.231   93.531
 392     -999.990   50.064   94.117
 392.5     -999.990   49.897   94.703
 393     -999.990   49.729   93.029
 393.5     -999.990   51.112   92.236
 394     -999.990   52.887   92.448
 394.5     -999.990   54.663   92.566
 395     -999.990   55.04   91.945
 395.5     -999.990   54.495   91.324
 396     -999.990   53.95   90.703
 396.5     -999.990   53.404   90.842
 397     -999.990   52.859   92.164
 397.5     -999.990   53.451   93.487
 398     -999.990   54.839   94.809
 398.5     -999.990   56.227   96.131
 399     -999.990   57.615   97.453
 399.5     -999.990   58.576   98.775
 400     -999.990   58.019   98.352
 400.5     -999.990   57.462   97.305
 401     -999.990   56.904   96.484
 401.5     -999.990   56.772   96.363
 402     -999.990   57.382   96.242
 402.5     -999.990   57.992   96.018
 403     -999.990   58.601   95.258
 403.5     -999.990   55.518   93.609
 404     -999.990   51.694   89.837
 404.5     -999.990   45.942   86.064
 405     -999.990   40.175   81.273
 405.5     -999.990   36.367   76.057
 406     -999.990   34.651   70.841
 406.5     -999.990   32.934   65.625
 407     -999.990   31.217   60.678
 407.5     -999.990   29.5   59.982
 408     -999.990   29.082   59.287
 408.5     -999.990   28.762   58.591
 409     -999.990   28.441   61.125
 409.5     -999.990   28.12   63.823
 410     -999.990   26.763   66.521
 410.5     -999.990   27.146   69.219
 411     -999.990   27.529   68.686
 411.5     -999.990   27.912   67.377
 412     -999.990   28.295   66.069
 412.5     -999.990   28.678   64.76
 413     -999.990   29.06   64.652
 413.5     -999.990   28.72   66.208
 414     -999.990   27.994   67.765
 414.5     -999.990   27.269   69.322
 415     -999.990   28.808   69.766
 415.5     -999.990   30.445   65.871
 416     -999.990   30.864   63.192
 416.5     -999.990   30.358   60.644
 417     -999.990   29.853   58.096
 417.5     -999.990   29.347   58.804
 418     -999.990   28.841   60.83
 418.5     -999.990   30.107   61.827
 419     -999.990   31.496   60.635
 419.5     -999.990   32.885   59.873
 420     -999.990   34.274   59.651
 420.5     -999.990   34.366   59.43
 421     -999.990   33.62   59.208
 421.5     -999.990   37.041   64.885
 422     -999.990   40.462   72.634
 422.5     -999.990   43.882   80.383
 423     -999.990   47.303   88.132
 423.5     -999.990   50.724   92.222
 424     -999.990   49.745   95.63
 424.5     -999.990   47.031   99.037
 425     -999.990   40.89   102.445
 425.5     -999.990   34.121   105.152
 426     -999.990   28.778   102.52
 426.5     -999.990   25.956   99.888
 427     -999.990   24.874   97.255
 427.5     -999.990   25.599   94.623
 428     -999.990   26.323   97.675
 428.5     -999.990   27.048   103.554
 429     -999.990   28.17   103.677
 429.5     -999.990   31.262   103.45
 430     -999.990   34.353   103.223
 430.5     -999.990   35.98   102.997
 431     -999.990   34.514   102.754
 431.5     -999.990   33.049   99.755
 432     -999.990   31.876   96.643
 432.5     -999.990   30.857   92.398
 433     -999.990   30.263   88.154
 433.5     -999.990   30.452   83.909
 434     -999.990   30.641   79.664
 434.5     -999.990   31.145   80.019
 435     -999.990   32.692   84.279
 435.5     -999.990   34.238   88.539
 436     -999.990   34.77   92.799
 436.5     -999.990   34.06   97.059
 437     -999.990   33.35   94.754
 437.5     -999.990   32.641   91.442
 438     -999.990   31.951   88.131
 438.5     -999.990   31.275   84.82
 439     -999.990   30.599   81.509
 439.5     -999.990   29.924   81.832
 440     -999.990   29.248   83.482
 440.5     -999.990   29.474   84.813
 441     -999.990   29.725   86.118
 441.5     -999.990   29.976   87.423
 442     -999.990   30.289   89.438
 442.5     -999.990   31.444   91.534
 443     -999.990   32.599   93.631
 443.5     -999.990   33.754   95.727
 444     -999.990   35.381   97.415
 444.5     -999.990   37.459   95.219
 445     -999.990   38.674   93.024
 445.5     -999.990   39.806   90.828
 446     -999.990   40.637   94.159
 446.5     -999.990   39.713   97.865
 447     -999.990   38.788   101.571
 447.5     -999.990   37.863   103.082
 448     -999.990   36.939   101.231
 448.5     -999.990   37.778   99.38
 449     -999.990   38.771   98.722
 449.5     -999.990   39.764   101.597
 450     -999.990   39.486   104.472
 450.5     -999.990   37.064   105.638
 451     -999.990   33.937   102.179
 451.5     -999.990   25.234   96.898
 452     -999.990   16.664   88.243
 452.5     -999.990   13.658   79.588
 453     -999.990   10.653   69.638
 453.5     -999.990   7.73   58.831
 454     -999.990   7.361   52.693
 454.5     -999.990   6.991   52.279
 455     -999.990   6.622   51.866
 455.5     -999.990   6.252   51.452
 456     -999.990   5.883   51.176
 456.5     -999.990   5.834   51.911
 457     -999.990   6.902   52.645
 457.5     -999.990   7.969   53.38
 458     -999.990   9.037   53.509
 458.5     -999.990   10.104   52.944
 459     -999.990   11.203   52.378
 459.5     -999.990   12.612   51.813
 460     -999.990   14.021   51.247
 460.5     -999.990   14.785   50.682
 461     -999.990   14.152   51.992
 461.5     -999.990   13.519   58.454
 462     -999.990   12.887   64.917
 462.5     -999.990   12.254   71.379
 463     -999.990   11.998   69.895
 463.5     -999.990   11.915   67.147
 464     -999.990   12.169   64.399
 464.5     -999.990   13.039   61.651
 465     -999.990   13.909   58.904
 465.5     -999.990   14.779   64.181
 466     -999.990   15.65   71.988
 466.5     -999.990   16.52   79.795
 467     -999.990   17.39   82.644
 467.5     -999.990   18.26   85.294
 468     -999.990   19.118   87.944
 468.5     -999.990   19.963   90.595
 469     -999.990   20.809   93.245
 469.5     -999.990   21.654   95.896
 470     -999.990   23.628   98.546
 470.5     -999.990   25.164   100.013
 471     -999.990   23.999   95.402
 471.5     -999.990   22.834   89.815
 472     -999.990   19.431   84.227
 472.5     -999.990   14.84   78.639
 473     -999.990   10.25   73.052
 473.5     -999.990   8.109   67.464
 474     -999.990   6.944   61.877
 474.5     -999.990   5.803   56.289
 475     -999.990   5.37   50.702
 475.5     -999.990   4.938   50.287
 476     -999.990   4.92   50.243
 476.5     -999.990   5.772   51.916
 477     -999.990   6.625   53.588
 477.5     -999.990   6.905   55.261
 478     -999.990   6.751   55.711
 478.5     -999.990   6.597   54.991
 479     -999.990   6.443   54.27
 479.5     -999.990   6.288   53.55
 480     -999.990   6.497   52.829
 480.5     -999.990   7.042   52.108
