#--------------------------------------------------#
#-------------------ENVERUS, INC.------------------#
#------------------WWW.ENVERUS.COM-----------------#
#------------------COPYRIGHT 2020------------------#
#--------------------------------------------------#
#THIS FILE MAY BE USED ONLY IN ACCORDANCE WITH A CURRENT SUBSCRIPTION AGREEMENT BETWEEN
#THE USER AND ENVERUS, INC. NO PART OF THIS FILE MAY BE REPRODUCED, USED, COPIED,
#MODIFIED, PROPAGATED, OR DISTRIBUTED EXCEPT IN ACCORDANCE WITH THE SUBSCRIPTION
#AGREEMENT. UNAUTHORIZED USE OR DISTRIBUTION OF ALL OR ANY PART OF THIS FILE MAY VIOLATE
#COPYRIGHT, TRADEMARK, AND/OR OTHER LAWS AND IS SUBJECT TO CIVIL AS WELL AS CRIMINAL
#SANCTIONS.
#--------------------------------------------------#
#THIS FILE IS PROVIDED "AS-IS" AND ALL WARRANTIES ARE EXPRESSLY DISCLAIMED, WHETHER
#EXPRESS, ORAL, IMPLIED, STATUTORY OR OTHERWISE, INCLUDING ANY IMPLIED WARRANTY OF FITNESS
#FOR A PARTICULAR PURPOSE, MERCHANTABILITY, TITLE OR NON-INFRINGEMENT, AND ANY WARRANTIES
#ARISING BY VIRTUE OF CUSTOM OF TRADE OR COURSE OF DEALING.  FURTHER, ENVERUS, INC.
#AND ITS LICENSORS DO NOT REPRESENT OR WARRANT THAT THIS FILE WILL MEET USER'S
#REQUIREMENTS OR ARE SUITABLE FOR USER'S NEEDS OR THAT THE DATA OR RESULTS PROVIDED IN
#CONJUNCTION THEREWITH ARE CORRECT, ACCURATE, TIMELY OR RELIABLE. THESE DISCLAIMERS SHALL
#APPLY REGARDLESS OF ANY FAILURE OF ESSENTIAL PURPOSE OF ANY LIMITED REMEDY.  SOME
#JURISDICTIONS DO NOT ALLOW THE EXCLUSION OF CERTAIN WARRANTIES SO SOME OF THE ABOVE
#EXCLUSIONS MAY NOT APPLY. IN NO EVENT SHALL ENVERUS, INC. OR ANY OF ITS AFFILIATES
#BE LIABLE UNDER ANY LEGAL THEORY, WHETHER IN TORT (INCLUDING WITHOUT LIMITATION
#NEGLIGENCE), CONTRACT, STRICT LIABILITY, STATUTORY OR OTHERWISE, FOR ANY SPECIAL,
#INCIDENTAL, CONSEQUENTIAL, EXEMPLARY, PUNITIVE OR INDIRECT DAMAGE OF ANY KIND, INCLUDING
#WITHOUT LIMITATION LOSS OF REVENUE, PROFITS, GOODWILL, USE, AND/OR DATA OR THE COST OF
#PROCUREMENT OF SUBSTITUTE GOODS OR SERVICES, EVEN IF APPRISED OF THE POSSIBILITY OF SUCH
#DAMAGES IN ADVANCE.
#--------------------------------------------------#

~VERSION INFORMATION
VERS. 2.0 : CWLS LOG ASCII STANDARD - VERSION 2.0
WRAP.  NO : ONE LINE PER DEPTH STEP
~WELL INFORMATION
#MNEMONIC     .UNIT              VALUE :DESCRIPTION
STRT       .FT                24 :START DEPTH
STOP       .FT                5035 :STOP DEPTH
STEP       .FT                   0.500 :STEP
NULL       .                  -999.250 :NULL
UWI        .              42389314500000 :UNIQUE WELL ID
API        .              42389314500000 :API NUMBER
COMP       .         SLEDGE BROS. OIL CO. :COMPANY
WELL       .        ELIZABETH MITCHELL  1 :WELL
DATE       .                18-DEC-1983 :LOG DATE
~CURVE INFORMATION
#MNEMONIC     .UNIT      API CODE :CURVE DESCRIPTION
DEPTH       .FT                      :MEASURED DEPTH
CAL.INCH        UNKNOWN   :CAL
DT.US/FT        UNKNOWN   :DT
GR.API        UNKNOWN   :GR
~A    DEPTH    CAL    DT    GR
 24     8.356   -999.250   -999.250
 24.5     8.356   -999.250   -999.250
 25     8.356   -999.250   -999.250
 25.5     8.356   -999.250   -999.250
 26     8.356   -999.250   50.866
 26.5     8.356   -999.250   50.198
 27     8.357   -999.250   49.531
 27.5     8.357   -999.250   47.99
 28     8.357   -999.250   46.037
 28.5     8.357   -999.250   44.084
 29     8.357   -999.250   43.593
 29.5     8.357   -999.250   43.57
 30     8.357   -999.250   44.194
 30.5     8.357   -999.250   48.348
 31     8.357   -999.250   52.503
 31.5     8.358   -999.250   56.232
 32     8.358   -999.250   58.264
 32.5     8.358   -999.250   57.498
 33     8.358   -999.250   56.731
 33.5     8.358   -999.250   55.965
 34     8.358   -999.250   55.648
 34.5     8.358   -999.250   55.844
 35     8.358   -999.250   56.04
 35.5     8.358   -999.250   56.699
 36     8.358   -999.250   58.16
 36.5     8.359   -999.250   59.621
 37     8.359   -999.250   61.082
 37.5     8.359   -999.250   62.543
 38     8.359   -999.250   61.327
 38.5     8.359   -999.250   59.466
 39     8.359   -999.250   59.067
 39.5     8.359   -999.250   59.657
 40     8.359   -999.250   58.913
 40.5     8.359   -999.250   57.733
 41     8.359   -999.250   58.299
 41.5     8.36   -999.250   59.292
 42     8.36   -999.250   60.285
 42.5     8.36   -999.250   61.279
 43     8.36   -999.250   62.272
 43.5     8.36   -999.250   63.108
 44     8.36   -999.250   59.002
 44.5     8.36   -999.250   54.896
 45     8.36   -999.250   54.41
 45.5     8.36   -999.250   56.95
 46     8.361   -999.250   59.491
 46.5     8.361   -999.250   62.031
 47     8.361   -999.250   64.571
 47.5     8.361   -999.250   65.221
 48     8.361   -999.250   62.386
 48.5     8.361   -999.250   59.55
 49     8.361   -999.250   60.092
 49.5     8.361   -999.250   62.663
 50     8.361   -999.250   62.244
 50.5     8.361   -999.250   61.437
 51     8.362   -999.250   60.631
 51.5     8.362   -999.250   59.825
 52     8.362   -999.250   60.548
 52.5     8.362   -999.250   61.531
 53     8.362   -999.250   62.514
 53.5     8.362   -999.250   64.228
 54     8.362   -999.250   66.703
 54.5     8.362   -999.250   67.582
 55     8.362   -999.250   67.995
 55.5     8.363   -999.250   68.408
 56     8.363   -999.250   67.78
 56.5     8.363   -999.250   61.312
 57     8.363   -999.250   54.993
 57.5     8.363   -999.250   57.781
 58     8.363   -999.250   60.569
 58.5     8.363   -999.250   63.357
 59     8.363   -999.250   66.144
 59.5     8.363   -999.250   64.467
 60     8.363   -999.250   61.953
 60.5     8.364   -999.250   61.115
 61     8.364   -999.250   62.824
 61.5     8.364   -999.250   64.532
 62     8.364   -999.250   66.241
 62.5     8.364   -999.250   67.345
 63     8.364   -999.250   66.394
 63.5     8.364   -999.250   65.444
 64     8.364   -999.250   64.494
 64.5     8.364   -999.250   63.543
 65     8.364   -999.250   65.902
 65.5     8.365   -999.250   68.845
 66     8.365   -999.250   70.727
 66.5     8.365   -999.250   71.12
 67     8.365   -999.250   71.513
 67.5     8.365   -999.250   69.921
 68     8.365   -999.250   66.758
 68.5     8.365   -999.250   61.848
 69     8.365   -999.250   56.939
 69.5     8.365   -999.250   53.645
 70     8.366   -999.250   50.45
 70.5     8.366   -999.250   51.724
 71     8.366   -999.250   53.228
 71.5     8.366   -999.250   54.732
 72     8.366   -999.250   56.236
 72.5     8.366   -999.250   58.011
 73     8.366   -999.250   60.245
 73.5     8.366   -999.250   62.48
 74     8.366   -999.250   64.715
 74.5     8.366   -999.250   66.949
 75     8.367   -999.250   67.039
 75.5     8.367   -999.250   63.54
 76     8.367   -999.250   60.042
 76.5     8.367   -999.250   56.543
 77     8.367   -999.250   56.931
 77.5     8.367   -999.250   58.264
 78     8.367   -999.250   59.596
 78.5     8.367   -999.250   60.929
 79     8.367   -999.250   60.049
 79.5     8.368   -999.250   58.65
 80     8.368   -999.250   56.795
 80.5     8.368   -999.250   54.508
 81     8.368   -999.250   52.305
 81.5     8.368   -999.250   53.581
 82     8.368   -999.250   54.858
 82.5     8.368   -999.250   56.134
 83     8.368   -999.250   55.092
 83.5     8.368   -999.250   52.161
 84     8.368   -999.250   49.231
 84.5     8.369   -999.250   46.3
 85     8.369   -999.250   47.208
 85.5     8.369   -999.250   48.917
 86     8.369   -999.250   50.102
 86.5     8.369   -999.250   49.448
 87     8.369   -999.250   48.795
 87.5     8.369   -999.250   48.141
 88     8.369   -999.250   47.488
 88.5     8.369   -999.250   46.835
 89     8.369   -999.250   47.15
 89.5     8.37   -999.250   48.439
 90     8.37   -999.250   49.729
 90.5     8.37   -999.250   51.018
 91     8.37   -999.250   52.186
 91.5     8.37   -999.250   49.247
 92     8.37   -999.250   46.307
 92.5     8.37   -999.250   44.36
 93     8.37   -999.250   44.508
 93.5     8.37   -999.250   44.655
 94     8.371   -999.250   45.857
 94.5     8.371   -999.250   47.567
 95     8.371   -999.250   49.277
 95.5     8.371   -999.250   50.89
 96     8.371   -999.250   49.233
 96.5     8.371   -999.250   47.576
 97     8.371   50.935   46.582
 97.5     8.371   52.862   46.559
 98     8.371   54.79   46.101
 98.5     8.371   56.718   44.241
 99     8.372   57.814   42.38
 99.5     8.372   57.394   43.309
 100     8.372   56.974   45.683
 100.5     8.372   56.555   44.472
 101     8.372   56.135   44.375
 101.5     8.372   55.809   45.951
 102     8.372   55.841   47.527
 102.5     8.372   55.873   49.103
 103     8.372   55.905   50.679
 103.5     8.373   55.937   52.255
 104     8.373   55.969   50.476
 104.5     8.373   56.001   47.768
 105     8.373   56.033   45.059
 105.5     8.373   56.065   43.376
 106     8.373   56.097   43.688
 106.5     8.373   56.129   44
 107     8.373   56.161   44.313
 107.5     8.373   56.143   44.443
 108     8.373   56.058   44.153
 108.5     8.374   55.973   43.864
 109     8.374   55.888   44.421
 109.5     8.374   55.802   45.234
 110     8.374   55.717   44.74
 110.5     8.374   55.632   44.067
 111     8.374   55.547   43.394
 111.5     8.374   55.549   42.721
 112     8.374   55.597   42.048
 112.5     8.374   55.644   41.375
 113     8.374   55.692   40.702
 113.5     8.375   55.74   42.799
 114     8.375   55.787   44.759
 114.5     8.375   55.835   45.872
 115     8.375   55.882   46.986
 115.5     8.375   55.93   48.1
 116     8.375   55.978   49.214
 116.5     8.375   56.025   50.327
 117     8.375   56.008   49.206
 117.5     8.375   55.937   47.864
 118     8.376   55.867   46.522
 118.5     8.376   55.796   45.18
 119     8.376   55.726   45.625
 119.5     8.376   55.696   50.375
 120     8.376   55.727   49.398
 120.5     8.376   55.757   45.803
 121     8.376   55.788   42.209
 121.5     8.376   55.818   43.155
 122     8.376   55.849   43.735
 122.5     8.376   55.86   43.523
 123     8.377   55.788   43.311
 123.5     8.377   55.716   43.099
 124     8.377   55.644   42.887
 124.5     8.377   55.572   42.675
 125     8.377   55.5   43.545
 125.5     8.377   55.428   44.853
 126     8.377   55.375   46.162
 126.5     8.377   55.463   47.471
 127     8.377   55.551   48.78
 127.5     8.378   55.639   50.089
 128     8.378   55.727   51.398
 128.5     8.378   55.814   52.706
 129     8.378   55.902   50.047
 129.5     8.378   55.99   48.792
 130     8.378   56.078   47.537
 130.5     8.378   56.074   46.283
 131     8.378   56.007   45.929
 131.5     8.378   55.939   46.828
 132     8.378   55.872   47.726
 132.5     8.379   55.804   48.625
 133     8.379   55.736   49.523
 133.5     8.379   55.682   50.422
 134     8.379   55.694   51.32
 134.5     8.379   55.705   50.132
 135     8.379   55.717   47.66
 135.5     8.379   55.729   45.188
 136     8.379   55.74   42.716
 136.5     8.379   55.752   40.627
 137     8.38   55.764   40.529
 137.5     8.38   55.775   40.431
 138     8.38   55.787   41.877
 138.5     8.38   55.799   43.784
 139     8.38   55.81   45.69
 139.5     8.38   55.822   47.597
 140     8.38   56.148   44.017
