###############################################
##         ENVERUS                           ##
##         ESS - Open Hole                   ##
##         PERMIAN / DELAWARE                ##
##         Nov 04 2023  V4.0                 ##
##         42-389-30414-00-00                ##
###############################################
## Copyright 2017-2023  ENVERUS.  All Rights Reserved. 
## Confidential - Property of ENVERUS, use governed by terms and 
## conditions found within the existing Information Services Subscription Agreement 
## (as may be amended, the “ISSA”) between Customer and ENVERUS. 
## 
~VERSION INFORMATION
# MNEM.UNIT                               DATA : DESCRIPTION OF MNEMONIC
#-----.-----     ----------------------------- : -----------------------------
VERS.                                     2.00 : CWLS LOG ASCII STANDARD - VERSION 2.00
WRAP.                                       NO : MULTIPLE LINES PER DEPTH STEP
VEND.                                  ENVERUS : VENDOR
TYPE.                          ESS - OPEN HOLE : ENVERUS ESSENTIAL CURVES – ACCESSIBLE THROUGH ENVERUS PRISM(TM)
DOC.                                  31965441 : ENVERUS HEADER RAW DOCUMENT ID
#___________________________________________________________________________________________________ 
~WELL INFORMATION 
# 4Nagw4FJNzCtYOfTAudVsymR6uv0ccMrNFKiy1Vrqa1gQVNLoB6NNR/Tzdk8H0Jxf2Akv2rjPRKaT9zVNBkTiw== 
# MNEM.UNIT                                              DATA : DESCRIPTION OF MNEMONIC 
#-----.-----                    ----------------------------- : ----------------------------- 
CNTY.                                                  REEVES : COUNTY 
STATE.                                                  TEXAS : STATE 
CNTRY.                                                    USA : COUNTRY 
API.                                             42-389-30414 : API (10 Digit) 
API_14.                                    42-389-30414-00-00 : API (14 Digits) 
API_14_std.                                 42-389-30414-0000 : API (14 Digits Standard) 
UWI.                                           42389304140000 : UNIQUE WELL ID 
WELL.                                            TXL 17-39  2 : WELL NAME
STRT.FT                                                 237.0 : START DEPTH
STOP.FT                                               13872.0 : STOP DEPTH
STEP.FT                                                   0.5 : STEP BETWEEN DEPTHS
NULL.                                                 -999.25 : NULL VALUE
COMP.                          ENDEAVOR ENERGY RESOURCES L.P. : COMPANY
#___________________________________________________________________________________________________ 
~CURVE INFORMATION 
# MNEM.UNIT           : CURVE DESCRIPTION 
#-----.-----          : ----------------------------- 
 DEPT.FT               : MEASURED DEPTH 
 CALI.IN               : CALIPER (CAL - CAL) 
 GR.API                : GAMMA RAY (GR) 
 DT.US/FT              : SONIC DELTA TRANSIT TIME (DT) 
 RESS.OHMM             : SHALLOW INDUCTION RESISTIVITY (ILS - ILS) 
 RESD.OHMM             : DEEP INDUCTION RESISTIVITY (ILD - ILD) 
 #___________________________________________________________________________________________________ 
~A         DEPT           CALI             GR             DT           RESS           RESD
# ...
         3537.0         10.085         37.736         66.153       -999.250       -999.250
         3537.5         10.084         36.544         64.079       -999.250       -999.250
         3538.0         10.084         35.352         62.005       -999.250       -999.250
         3538.5         10.083         34.335         59.930       -999.250       -999.250
         3539.0         10.083         34.026         61.434       -999.250       -999.250
         3539.5         10.082         33.716         63.458       -999.250       -999.250
         3540.0         10.082         33.406         65.483       -999.250       -999.250
         3540.5         10.081         33.096         67.507       -999.250       -999.250
         3541.0         10.081         32.786         66.586       -999.250       -999.250
         3541.5         10.080         32.476         63.381       -999.250       -999.250
         3542.0         10.080         32.298         60.176       -999.250       -999.250
         3542.5         10.079         32.729         57.012       -999.250       -999.250
         3543.0         10.079         33.159         57.415       -999.250       -999.250
         3543.5         10.078         33.589         57.819       -999.250       -999.250
         3544.0         10.078         34.019         57.857       -999.250       -999.250
         3544.5         10.078         34.449         57.352       -999.250       -999.250
         3545.0         10.077         34.880         56.846       -999.250       -999.250
         3545.5         10.077         35.310         57.126       -999.250       -999.250
         3546.0         10.076         35.740         57.631       -999.250       -999.250
         3546.5         10.076         36.170         57.917       -999.250       -999.250
         3547.0         10.075         36.600         57.130       -999.250       -999.250
         3547.5         10.075         36.660         56.343       -999.250       -999.250
         3548.0         10.074         36.518         56.981       -999.250       -999.250
         3548.5         10.074         36.376         57.650       -999.250       -999.250
         3549.0         10.073         36.234         57.410       -999.250       -999.250
         3549.5         10.073         36.092         56.954       -999.250       -999.250
         3550.0         10.072         35.950         56.498       -999.250       -999.250
         3550.5         10.072         35.807         56.402       -999.250       -999.250
         3551.0         10.071         35.665         57.096       -999.250       -999.250
         3551.5         10.071         35.523         57.791       -999.250       -999.250
         3552.0         10.070         35.381         58.162       -999.250       -999.250
         3552.5         10.070         37.566         57.676       -999.250       -999.250
         3553.0         10.069         38.753         57.191       -999.250       -999.250
         3553.5         10.069         38.175         56.705       -999.250       -999.250
         3554.0         10.069         37.596         56.219       -999.250       -999.250
         3554.5         10.068         37.017         56.748       -999.250       -999.250
         3555.0         10.068         36.439         57.390       -999.250       -999.250
         3555.5         10.067         35.860         58.031       -999.250       -999.250
         3556.0         10.067         35.281         58.673       -999.250       -999.250
         3556.5         10.066         34.703         58.194       -999.250       -999.250
         3557.0         10.066         35.109         57.709       -999.250       -999.250
         3557.5         10.065         35.592         57.223       -999.250       -999.250
         3558.0         10.065         36.074         56.737       -999.250       -999.250
         3558.5         10.064         36.557         56.867       -999.250       -999.250
         3559.0         10.064         36.756         57.372       -999.250       -999.250
         3559.5         10.063         36.080         57.878       -999.250       -999.250
         3560.0         10.063         35.404         58.384       -999.250       -999.250
         3560.5         10.062         34.727         58.170       -999.250       -999.250
         3561.0         10.062         34.051         57.664       -999.250       -999.250
         3561.5         10.061         33.375         57.158       -999.250       -999.250
         3562.0         10.061         32.698         56.652       -999.250       -999.250
         3562.5         10.061         32.022         56.920       -999.250       -999.250
         3563.0         10.060         32.703         57.413       -999.250       -999.250
         3563.5         10.060         34.136         57.906       -999.250       -999.250
         3564.0         10.059         35.569         57.960       -999.250       -999.250
         3564.5         10.059         37.002         56.979       -999.250       -999.250
         3565.0         10.058         38.435         56.924       -999.250       -999.250
         3565.5         10.058         37.615         57.655       -999.250       -999.250
         3566.0         10.057         36.699         57.690       -999.250       -999.250
         3566.5         10.057         35.783         56.560       -999.250       -999.250
         3567.0         10.056         34.867         56.405       -999.250       -999.250
         3567.5         10.056         33.951         56.860       -999.250       -999.250
         3568.0         10.055         33.035         57.315       -999.250       -999.250
         3568.5         10.055         32.940         57.770       -999.250       -999.250
         3569.0         10.054         33.582         58.225       -999.250       -999.250
         3569.5         10.054         34.223         58.679       -999.250       -999.250
         3570.0         10.053         34.864         58.432       -999.250       -999.250
         3570.5         10.053         35.505         57.568       -999.250       -999.250
         3571.0         10.052         36.146         56.705       -999.250       -999.250
         3571.5         10.052         34.859         56.635       -999.250       -999.250
         3572.0         10.052         32.641         57.489       -999.250       -999.250
         3572.5         10.051         31.346         57.909       -999.250       -999.250
         3573.0         10.051         31.850         57.303       -999.250       -999.250
         3573.5         10.050         32.353         56.697       -999.250       -999.250
         3574.0         10.050         32.857         57.315       -999.250       -999.250
         3574.5         10.049         33.360         58.537       -999.250       -999.250
         3575.0         10.049         33.864         57.852       -999.250       -999.250
         3575.5         10.048         34.367         57.045       -999.250       -999.250
         3576.0         10.048         34.871         56.625       -999.250       -999.250
         3576.5         10.047         35.375         57.063       -999.250       -999.250
         3577.0         10.047         35.878         57.501       -999.250       -999.250
         3577.5         10.049         36.382         57.939       -999.250       -999.250
         3578.0         10.051         36.885         57.908       -999.250       -999.250
         3578.5         10.054         37.389         57.173       -999.250       -999.250
         3579.0         10.056         37.893         56.437       -999.250       -999.250
         3579.5         10.058         37.482         56.302       -999.250       -999.250
         3580.0         10.061         36.944         57.371       -999.250       -999.250
         3580.5         10.063         36.407         57.547       -999.250       -999.250
