###############################################
##         ENVERUS                           ##
##         ESS - Open Hole                   ##
##         PERMIAN / DELAWARE                ##
##         Nov 04 2023  V4.0                 ##
##         42-389-32245-00-00                ##
###############################################
## Copyright 2017-2023  ENVERUS.  All Rights Reserved. 
## Confidential - Property of ENVERUS, use governed by terms and 
## conditions found within the existing Information Services Subscription Agreement 
## (as may be amended, the “ISSA”) between Customer and ENVERUS. 
## 
~VERSION INFORMATION
# MNEM.UNIT                               DATA : DESCRIPTION OF MNEMONIC
#-----.-----     ----------------------------- : -----------------------------
VERS.                                     2.00 : CWLS LOG ASCII STANDARD - VERSION 2.00
WRAP.                                       NO : MULTIPLE LINES PER DEPTH STEP
VEND.                                  ENVERUS : VENDOR
TYPE.                          ESS - OPEN HOLE : ENVERUS ESSENTIAL CURVES – ACCESSIBLE THROUGH ENVERUS PRISM(TM)
DOC.                                  24742630 : ENVERUS HEADER RAW DOCUMENT ID
#___________________________________________________________________________________________________ 
~WELL INFORMATION 
# u9Wg0OWXiPz858M7Kubpm0lpDPxjGuyhH3tqBPDGtvBYDDDqGrwiIchrhDPbdkpmsDZNCKsM7+2eKUVstoQO7Q== 
# MNEM.UNIT                                              DATA : DESCRIPTION OF MNEMONIC 
#-----.-----                    ----------------------------- : ----------------------------- 
CNTY.                                                  REEVES : COUNTY 
STATE.                                                  TEXAS : STATE 
CNTRY.                                                    USA : COUNTRY 
API.                                             42-389-32245 : API (10 Digit) 
API_14.                                    42-389-32245-00-00 : API (14 Digits) 
API_14_std.                                 42-389-32245-0000 : API (14 Digits Standard) 
UWI.                                           42389322450000 : UNIQUE WELL ID 
WELL.                          TEXAS PACIFIC LAND TRUST #25-1 : WELL NAME
STRT.FT                                                2530.0 : START DEPTH
STOP.FT                                               10610.0 : STOP DEPTH
STEP.FT                                                   0.5 : STEP BETWEEN DEPTHS
NULL.                                                 -999.25 : NULL VALUE
COMP.                                             CONOCO INC. : COMPANY 
FLD.                                            FORD WOLFCAMP : FIELD 
LOC.                                                 25-2S-58 : LOCATION 
SRVC.                                            SCHLUMBERGER : SERVICE COMPANY 
DATE.                                              03/21/2002 : DATE 
TVD.                                                       NO : TVD FLAG
#___________________________________________________________________________________________________ 
~PARAMETER INFORMATION 
# MNEM.UNIT                                              DATA : DESCRIPTION OF MNEMONIC 
#-----.-----                    ----------------------------- : ----------------------------- 
RUN.                                                      ONE : RUN NUMBER 
PDAT.                                                      GL : PERMANENT DATUM 
EPD.FT                                              2993.0000 : ELEVATION OF PERM. DATUM 
LMF.                                            KELLY BUSHING : LOG MEASURED FROM 
EKB.FT                                              3021.0000 : ELEVATION OF KELLY BUSHING 
DF.FT                                               3020.0000 : ELEVATION OF DERRICK FLOOR 
GL.FT                                               2993.0000 : ELEVATION OF GROUND LEVEL 
TD.FT                                              10610.0000 : TOTAL DEPTH 
BHT.DEGF                                               130.00 : BOTTOM HOLE TEMPERATURE 
BLI.FT                                             10610.0000 : BOTTOM LOG INTERVAL 
CSGSIZE.IN                                             9.6250 : CASING SIZE 
BITSIZE.IN                                              8.750 : BITSIZE 
CSGD.FT                                                  2642 : CASING BOTTOM (DRILLER) 1 
CSGL.FT                                                  2538 : CASING BOTTOM (LOGGER) 1 
MUD.                                                CUT BRINE : DRILLING FLUID TYPE 
MUDV.CP                                               28.0000 : DRILLING FLUID VISCOSITY 
MUDD.LB/USG                                           10.0000 : DRILLING FLUID DENSITY 
PH.                                                    8.5000 : DRILLING FLUID PH 
MUDS.                                        CIRCULATION TANK : MUD SAMPLE SOURCE 
RM.OHMM                                                0.0610 : RESISTIVITY OF MUD SAMPLE 
RMT.DEGF                                              75.0000 : MUD SAMPLE TEMPERATURE 
RMF.OHMM                                               0.0610 : MUD FILTRATE RESISTIVITY 
RMFT.DEGF                                             75.0000 : MUD FILTRATE SAMPLE TEMPERATURE
#___________________________________________________________________________________________________ 
~CURVE INFORMATION 
# MNEM.UNIT           : CURVE DESCRIPTION 
#-----.-----          : ----------------------------- 
 DEPT.FT               : MEASURED DEPTH 
 CALI.IN               : CALIPER (CALIPER) 
 GR.API                : GAMMA RAY (GAMMA RAY) 
 DT.US/FT              : SONIC DELTA TRANSIT TIME (DELTA T) 
 SPHI.V/V              : SONIC POROSITY (SONIC POROSITY) 
 #___________________________________________________________________________________________________ 
~A         DEPT           CALI             GR             DT           SPHI
# ...
         3060.0         10.360         54.670         84.920        0.27000
         3060.5         10.390         47.740         92.900        0.30000
         3061.0         10.410         42.610         99.930        0.30000
         3061.5         10.410         42.140         99.900        0.29000
         3062.0         10.420         43.680         90.840        0.24000
         3062.5         10.430         45.220         81.250        0.23000
         3063.0         10.440         46.770         80.340        0.23000
         3063.5         10.450         48.300         81.300        0.24000
         3064.0         10.460         49.460         82.380        0.25000
         3064.5         10.470         48.720         82.620        0.24000
         3065.0         10.480         48.690         81.520        0.23000
         3065.5         10.490         49.850         80.000        0.22000
         3066.0         10.490         51.170         78.470        0.21000
         3066.5         10.470         52.500         76.940        0.21000
         3067.0         10.450         53.820         76.110        0.20000
         3067.5         10.430         55.150         75.580        0.19000
         3068.0         10.410         56.480         74.930        0.19000
         3068.5         10.390         57.900         74.070        0.18000
         3069.0         10.370         60.200         73.220        0.18000
         3069.5         10.360         64.580         72.630        0.18000
         3070.0         10.350         68.890         72.380        0.17000
         3070.5         10.340         73.190         72.260        0.18000
         3071.0         10.330         76.680         73.010        0.18000
         3071.5         10.320         72.640         73.880        0.19000
         3072.0         10.320         68.050         74.590        0.19000
         3072.5         10.310         63.270         75.180        0.20000
         3073.0         10.300         61.660         75.380        0.20000
         3073.5         10.300         61.990         75.220        0.19000
         3074.0         10.290         64.610         74.700        0.19000
         3074.5         10.280         67.610         74.170        0.19000
         3075.0         10.270         70.210         73.670        0.18000
         3075.5         10.260         72.580         73.280        0.18000
         3076.0         10.240         70.900         72.760        0.18000
         3076.5         10.230         67.390         72.120        0.17000
         3077.0         10.210         63.910         71.470        0.17000
         3077.5         10.190         61.520         71.140        0.16000
         3078.0         10.180         61.370         70.810        0.16000
         3078.5         10.160         60.950         70.490        0.16000
         3079.0         10.140         60.670         70.760        0.16000
         3079.5         10.130         63.460         71.550        0.17000
         3080.0         10.100         73.370         73.790        0.19000
         3080.5         10.070         95.350         76.470        0.21000
         3081.0         10.030        118.050         79.160        0.23000
         3081.5         10.000        137.260         81.340        0.24000
         3082.0          9.970        157.490         82.450        0.25000
         3082.5          9.940        165.090         82.680        0.24000
         3083.0          9.930        155.770         80.600        0.23000
         3083.5          9.920        143.590         78.080        0.21000
         3084.0          9.920        131.390         75.640        0.19000
         3084.5          9.910        118.930         73.700        0.18000
         3085.0          9.910         99.230         71.930        0.17000
         3085.5          9.910         84.290         71.210        0.17000
         3086.0          9.920         67.790         74.250        0.20000
         3086.5          9.940         53.190         77.070        0.22000
         3087.0          9.950         49.400         79.630        0.23000
         3087.5          9.960         49.540         79.400        0.22000
         3088.0          9.980         52.900         87.760        0.30000
         3088.5          9.990         64.290         99.900        0.30000
         3089.0         10.000         75.790         92.730        0.30000
         3089.5         10.020         87.310         93.770        0.30000
         3090.0         10.030         98.760        116.400        0.30000
         3090.5         10.040         94.060        140.600        0.30000
         3091.0         10.050         81.000        126.950        0.30000
         3091.5         10.060         65.110        100.030        0.28000
         3092.0         10.070         58.050         79.910        0.19000
         3092.5         10.080         55.750         74.540        0.19000
         3093.0         10.090         52.570         74.170        0.19000
         3093.5         10.100         48.990         74.310        0.19000
         3094.0         10.100         46.140         74.720        0.19000
         3094.5         10.090         44.550         74.990        0.19000
         3095.0         10.080         44.110         74.260        0.18000
         3095.5         10.070         44.640         73.390        0.18000
         3096.0         10.060         45.500         72.760        0.18000
         3096.5         10.050         46.170         72.980        0.18000
         3097.0         10.040         44.060         73.360        0.20000
         3097.5         10.030         41.970         78.930        0.22000
         3098.0         10.020         41.080         82.550        0.25000
         3098.5         10.020         43.480         78.630        0.21000
         3099.0         10.030         44.230         74.340        0.19000
         3099.5         10.040         42.580         74.090        0.19000
         3100.0         10.050         41.080         73.630        0.18000
         3100.5         10.060         41.680         73.030        0.18000
         3101.0         10.070         42.830         72.430        0.17000
         3101.5         10.080         45.290         71.890        0.17000
         3102.0         10.090         48.450         71.660        0.17000
         3102.5         10.100         54.020         71.730        0.17000
         3103.0         10.100         59.460         71.910        0.17000
         3103.5         10.090         64.680         72.090        0.17000
         3104.0         10.080         66.410         72.180        0.17000
         3104.5         10.070         65.990         71.910        0.17000
         3105.0         10.050         66.040         71.490        0.17000
         3105.5         10.040         70.010         71.290        0.17000
         3106.0         10.030         74.230         71.560        0.17000
         3106.5         10.020         78.310         72.220        0.18000
         3107.0         10.010         79.620         72.950        0.18000
         3107.5         10.010         76.240         73.680        0.19000
         3108.0         10.010         70.790         74.080        0.19000
         3108.5         10.000         65.350         73.670        0.18000
         3109.0         10.000         59.760         72.710        0.17000
         3109.5          9.990         57.990         71.620        0.17000
         3110.0          9.990         57.900         70.810        0.16000
         3110.5          9.990         58.060         70.420        0.16000
         3111.0          9.980         58.790         70.650        0.16000
         3111.5          9.980         60.660         70.960        0.17000
         3112.0          9.970         64.890         71.990        0.17000
         3112.5          9.970         85.940         73.990        0.19000
