###############################################
##         ENVERUS                           ##
##         ESS - Open Hole                   ##
##         PERMIAN / DELAWARE                ##
##         Nov 04 2023  V4.0                 ##
##         42-389-31270-00-00                ##
###############################################
## Copyright 2017-2023  ENVERUS.  All Rights Reserved. 
## Confidential - Property of ENVERUS, use governed by terms and 
## conditions found within the existing Information Services Subscription Agreement 
## (as may be amended, the “ISSA”) between Customer and ENVERUS. 
## 
~VERSION INFORMATION
# MNEM.UNIT                               DATA : DESCRIPTION OF MNEMONIC
#-----.-----     ----------------------------- : -----------------------------
VERS.                                     2.00 : CWLS LOG ASCII STANDARD - VERSION 2.00
WRAP.                                       NO : MULTIPLE LINES PER DEPTH STEP
VEND.                                  ENVERUS : VENDOR
TYPE.                          ESS - OPEN HOLE : ENVERUS ESSENTIAL CURVES – ACCESSIBLE THROUGH ENVERUS PRISM(TM)
DOC.                                  31950282 : ENVERUS HEADER RAW DOCUMENT ID
#___________________________________________________________________________________________________ 
~WELL INFORMATION 
# 0CODbT4LMl4UGLa7W4QP9cEC157HhgZEtdKI2U+cm8ET/zLKkJfEe4mvdgudHboWMGmWziBYTrzgVEWtCsCjWg== 
# MNEM.UNIT                                              DATA : DESCRIPTION OF MNEMONIC 
#-----.-----                    ----------------------------- : ----------------------------- 
CNTY.                                                  REEVES : COUNTY 
STATE.                                                  TEXAS : STATE 
CNTRY.                                                    USA : COUNTRY 
API.                                             42-389-31270 : API (10 Digit) 
API_14.                                    42-389-31270-00-00 : API (14 Digits) 
API_14_std.                                 42-389-31270-0000 : API (14 Digits Standard) 
UWI.                                           42389312700000 : UNIQUE WELL ID 
WELL.                                        FORTUNE UNIT  2R : WELL NAME
STRT.FT                                                3825.0 : START DEPTH
STOP.FT                                               13654.0 : STOP DEPTH
STEP.FT                                                   0.5 : STEP BETWEEN DEPTHS
NULL.                                                 -999.25 : NULL VALUE
COMP.                          SANDRIDGE EXPL. AND PROD.  LLC : COMPANY 
DATE.                                             19-AUG-2004 : LOG DATE
#___________________________________________________________________________________________________ 
~CURVE INFORMATION 
# MNEM.UNIT           : CURVE DESCRIPTION 
#-----.-----          : ----------------------------- 
 DEPT.FT               : MEASURED DEPTH 
 CALI__B.IN            : CALIPER (CAL - CAL) 
 GR__B.API             : GAMMA RAY (GR) 
 DT__B.US/FT           : SONIC DELTA TRANSIT TIME (DT) 
 #___________________________________________________________________________________________________ 
~A         DEPT        CALI__B          GR__B          DT__B
# ...
        12933.0          7.563         62.462         70.274
        12933.5          7.563         62.502         70.492
        12934.0          7.562         62.542         70.710
        12934.5          7.562         62.582         70.927
        12935.0          7.562         62.622         71.145
        12935.5          7.561         62.661         71.363
        12936.0          7.561         62.701         71.581
        12936.5          7.560         62.238         71.589
        12937.0          7.560         61.768         71.348
        12937.5          7.559         61.297         71.107
        12938.0          7.559         60.827         70.866
        12938.5          7.559         60.357         70.625
        12939.0          7.558         59.887         70.384
        12939.5          7.558         57.563         70.143
        12940.0          7.557         55.141         69.902
        12940.5          7.557         52.719         65.783
        12941.0          7.556         51.137         66.673
        12941.5          7.556         50.279         67.563
        12942.0          7.556         54.925         68.453
        12942.5          7.555         60.324         69.343
        12943.0          7.555         63.348         70.233
        12943.5          7.554         62.729         71.001
        12944.0          7.554         62.109         71.031
        12944.5          7.553         61.490         71.062
        12945.0          7.553         60.870         71.093
        12945.5          7.553         60.251         71.094
        12946.0          7.552         64.493         71.093
        12946.5          7.540         69.337         70.954
        12947.0          7.493         68.149         70.700
        12947.5          7.446         66.186         70.446
        12948.0          7.399         64.222         70.192
        12948.5          7.352         62.259         69.939
        12949.0          7.305         60.296         69.685
        12949.5          7.258         61.449         69.431
        12950.0          7.211         63.349         69.177
        12950.5          7.164         65.249         70.064
        12951.0          7.117         68.337         71.446
        12951.5          7.070         72.068         72.828
        12952.0          7.024         75.798         73.915
        12952.5          7.022         76.944         73.596
        12953.0          7.021         76.281         73.277
        12953.5          7.020         75.618         72.959
        12954.0          7.018         74.955         72.640
        12954.5          7.017         72.263         71.220
        12955.0          7.016         68.827         68.636
        12955.5          7.015         65.391         66.053
        12956.0          7.013         63.317         63.727
        12956.5          7.012         65.386         65.417
        12957.0          7.011         67.455         67.106
        12957.5          7.009         67.619         68.795
        12958.0          7.008         66.635         70.485
        12958.5          7.007         65.652         70.726
        12959.0          7.007         64.668         69.956
        12959.5          7.008         63.685         69.185
        12960.0          7.010         62.702         68.414
        12960.5          7.011         61.718         67.644
        12961.0          7.013         61.912         66.873
        12961.5          7.014         62.140         66.103
        12962.0          7.016         62.369         67.171
        12962.5          7.017         62.597         68.869
        12963.0          7.019         62.825         70.459
        12963.5          7.020         63.053         70.075
        12964.0          7.022         63.282         69.692
        12964.5          7.024         61.403         68.423
        12965.0          7.025         56.092         66.801
        12965.5          7.027         50.782         65.179
        12966.0          7.028         51.242         63.556
        12966.5          7.030         51.907         62.451
        12967.0          7.031         52.572         62.262
        12967.5          7.033         53.238         62.073
        12968.0          7.034         55.866         62.036
        12968.5          7.036         57.754         62.609
        12969.0          7.037         58.662         63.183
        12969.5          7.039         59.570         63.757
        12970.0          7.040         60.478         64.330
        12970.5          7.042         61.386         64.904
        12971.0          7.043         60.485         65.478
        12971.5          7.045         55.034         66.052
        12972.0          7.047         49.583         65.310
        12972.5          7.048         44.132         64.138
        12973.0          7.050         38.893         62.966
        12973.5          7.051         37.617         61.717
        12974.0          7.053         36.342         56.273
        12974.5          7.054         35.066         54.872
        12975.0          7.056         35.725         54.768
        12975.5          7.057         37.186         54.663
        12976.0          7.059         38.646         54.558
        12976.5          7.060         40.106         54.453
        12977.0          7.062         58.805         54.349
        12977.5          7.063         60.664         54.244
        12978.0          7.065         62.523         54.139
        12978.5          7.067         64.383         54.034
        12979.0          7.068         64.822         64.028
        12979.5          7.070         64.102         65.534
        12980.0          7.071         63.382         67.040
        12980.5          7.073         62.264         68.546
        12981.0          7.074         61.039         69.870
        12981.5          7.076         59.816         69.944
        12982.0          7.077         58.721         70.017
        12982.5          7.079         57.625         70.091
        12983.0          7.080         56.530         70.067
        12983.5          7.082         55.524         69.243
        12984.0          7.083         55.230         68.418
        12984.5          7.083         54.935         67.594
        12985.0          7.074         54.641         66.769
        12985.5          7.066         54.513         65.944
        12986.0          7.058         54.817         67.129
        12986.5          7.050         55.121         68.822
        12987.0          7.042         55.425         70.374
        12987.5          7.034         55.927         70.618
        12988.0          7.026         56.637         70.861
        12988.5          7.018         57.347         71.105
        12989.0          7.010         58.441         71.349
        12989.5          7.002         60.623         71.244
        12990.0          6.994         60.659         69.857
        12990.5          6.986         59.737         68.470
        12991.0          6.978         58.814         67.083
        12991.5          6.970         57.892         66.923
        12992.0          6.962         56.970         67.745
        12992.5          6.953         57.018         68.567
        12993.0          6.945         62.602         69.389
        12993.5          6.937         68.185         69.774
        12994.0          6.929         73.769         69.247
        12994.5          6.921         79.353         68.721
        12995.0          6.913         78.625         68.194
        12995.5          6.905         75.275         67.668
        12996.0          6.897         71.924         67.141
        12996.5          6.889         69.762         66.615
        12997.0          6.881         71.753         66.088
        12997.5          6.883         73.745         65.562
        12998.0          6.887         75.268         65.874
        12998.5          6.890         70.499         66.379
