###############################################
##         ENVERUS                           ##
##         ESS - Open Hole                   ##
##         PERMIAN / DELAWARE                ##
##         Nov 04 2023  V4.0                 ##
##         42-389-30259-00-00                ##
###############################################
## Copyright 2017-2023  ENVERUS.  All Rights Reserved. 
## Confidential - Property of ENVERUS, use governed by terms and 
## conditions found within the existing Information Services Subscription Agreement 
## (as may be amended, the “ISSA”) between Customer and ENVERUS. 
## 
~VERSION INFORMATION
# MNEM.UNIT                               DATA : DESCRIPTION OF MNEMONIC
#-----.-----     ----------------------------- : -----------------------------
VERS.                                     2.00 : CWLS LOG ASCII STANDARD - VERSION 2.00
WRAP.                                       NO : MULTIPLE LINES PER DEPTH STEP
VEND.                                  ENVERUS : VENDOR
TYPE.                          ESS - OPEN HOLE : ENVERUS ESSENTIAL CURVES – ACCESSIBLE THROUGH ENVERUS PRISM(TM)
DOC.                                  32063127 : ENVERUS HEADER RAW DOCUMENT ID
#___________________________________________________________________________________________________ 
~WELL INFORMATION 
# gPsidqVjAScFWwbHY3NvrhVb9Q0dnpAvxUas8qP1mSjKWoj7hBgJ2nw/4lW9Nf69eTG+8mlPQw3CFq6Jh/Hagw== 
# MNEM.UNIT                                              DATA : DESCRIPTION OF MNEMONIC 
#-----.-----                    ----------------------------- : ----------------------------- 
CNTY.                                                  REEVES : COUNTY 
STATE.                                                  TEXAS : STATE 
CNTRY.                                                    USA : COUNTRY 
API.                                             42-389-30259 : API (10 Digit) 
API_14.                                    42-389-30259-00-00 : API (14 Digits) 
API_14_std.                                 42-389-30259-0000 : API (14 Digits Standard) 
UWI.                                           42389302590000 : UNIQUE WELL ID 
WELL.                                         FORTUNE UNIT  1 : WELL NAME
STRT.FT                                                     0 : START DEPTH
STOP.FT                                               15675.0 : STOP DEPTH
STEP.FT                                                   0.5 : STEP BETWEEN DEPTHS
NULL.                                                 -999.25 : NULL VALUE
COMP.                          SANDRIDGE EXPL. AND PROD.  LLC : COMPANY 
DATE.                                             19-FEB-2007 : LOG DATE
#___________________________________________________________________________________________________ 
~CURVE INFORMATION 
# MNEM.UNIT           : CURVE DESCRIPTION 
#-----.-----          : ----------------------------- 
 DEPT.FT               : MEASURED DEPTH 
 CALI__B.IN            : CALIPER (CAL - CAL) 
 GR__B.API             : GAMMA RAY (GR) 
 DT__B.US/FT           : SONIC DELTA TRANSIT TIME (DT) 
 #___________________________________________________________________________________________________ 
~A         DEPT        CALI__B          GR__B          DT__B
# ...
         9372.0         12.892         55.065         70.328
         9372.5         12.892         56.141         73.382
         9373.0         12.893         55.196         74.199
         9373.5         12.893         51.023         74.521
         9374.0         12.894         46.056         72.955
         9374.5         12.895         43.999         70.873
         9375.0         12.895         44.145         69.245
         9375.5         12.896         49.133         68.800
         9376.0         12.896         52.712         70.090
         9376.5         12.897         54.031         72.520
         9377.0         12.897         55.200         73.954
         9377.5         12.898         54.543         73.591
         9378.0         12.899         50.661         72.225
         9378.5         12.899         42.554         69.083
         9379.0         12.900         39.137         66.585
         9379.5         12.900         45.693         64.778
         9380.0         12.901         55.032         65.407
         9380.5         12.901         56.702         68.957
         9381.0         12.902         56.554         72.507
         9381.5         12.903         52.658         73.122
         9382.0         12.903         50.996         73.294
         9382.5         12.904         50.086         73.554
         9383.0         12.904         49.939         73.833
         9383.5         12.905         49.997         73.731
         9384.0         12.905         49.418         73.368
         9384.5         12.906         46.617         72.623
         9385.0         12.906         44.040         71.878
         9385.5         12.907         44.879         71.447
         9386.0         12.908         50.841         71.769
         9386.5         12.908         53.647         72.235
         9387.0         12.909         50.814         72.958
         9387.5         12.909         47.281         72.644
         9388.0         12.910         43.749         69.639
         9388.5         12.910         41.335         66.310
         9389.0         12.911         39.080         65.350
         9389.5         12.912         37.301         65.230
         9390.0         12.912         40.307         67.943
         9390.5         12.913         40.268         70.830
         9391.0         12.913         37.938         70.474
         9391.5         12.914         35.608         69.296
         9392.0         12.914         38.970         68.119
         9392.5         12.915         44.145         67.604
         9393.0         12.915         51.300         68.764
         9393.5         12.916         56.996         72.298
         9394.0         12.917         58.970         75.504
         9394.5         12.917         56.778         74.566
         9395.0         12.918         51.561         75.206
         9395.5         12.918         46.794         75.017
         9396.0         12.919         42.026         72.679
         9396.5         12.919         37.259         73.853
         9397.0         12.920         38.593         68.917
         9397.5         12.921         43.175         67.248
         9398.0         12.921         47.757         69.780
         9398.5         12.922         49.908         70.693
         9399.0         12.922         48.618         69.697
         9399.5         12.923         45.649         69.604
         9400.0         12.923         46.592         69.024
         9400.5         12.923         50.178         68.521
         9401.0         12.923         53.763         70.500
         9401.5         12.922         55.615         70.994
         9402.0         12.921         53.989         72.107
         9402.5         12.920         53.767         73.574
         9403.0         12.919         55.635         74.074
         9403.5         12.919         57.503         74.573
         9404.0         12.918         56.922         74.814
         9404.5         12.917         55.742         74.946
         9405.0         12.916         57.711         75.077
         9405.5         12.915         58.311         74.700
         9406.0         12.915         55.496         74.200
         9406.5         12.914         51.401         73.664
         9407.0         12.913         47.097         72.119
         9407.5         12.912         43.205         70.573
         9408.0         12.911         39.379         69.007
         9408.5         12.911         38.095         67.442
         9409.0         12.910         40.944         68.212
         9409.5         12.909         43.792         69.260
         9410.0         12.908         42.836         68.869
         9410.5         12.907         40.728         67.921
         9411.0         12.907         41.472         66.973
         9411.5         12.906         51.263         67.484
         9412.0         12.905         54.872         70.354
         9412.5         12.904         55.319         73.205
         9413.0         12.903         51.130         74.578
         9413.5         12.903         46.027         73.257
         9414.0         12.902         43.372         71.729
         9414.5         12.901         42.488         70.201
         9415.0         12.900         46.368         69.534
         9415.5         12.899         52.885         69.668
         9416.0         12.899         52.121         71.710
         9416.5         12.898         47.808         73.078
         9417.0         12.897         46.027         71.943
         9417.5         12.896         46.067         70.018
         9418.0         12.895         49.100         69.376
         9418.5         12.895         52.134         70.253
         9419.0         12.894         54.066         72.066
         9419.5         12.893         54.211         73.586
         9420.0         12.892         52.382         74.265
         9420.5         12.891         51.921         73.991
         9421.0         12.891         53.408         73.876
         9421.5         12.890         50.677         73.231
         9422.0         12.889         45.986         70.726
         9422.5         12.889         45.103         68.314
         9423.0         12.889         48.985         67.150
         9423.5         12.890         53.047         67.714
         9424.0         12.890         56.069         69.228
         9424.5         12.891         57.987         74.747
         9425.0         12.891         59.786         76.354
         9425.5         12.892         60.282         76.800
         9426.0         12.892         59.333         77.030
         9426.5         12.893         49.606         76.319
         9427.0         12.893         39.601         74.302
         9427.5         12.893         35.852         71.740
         9428.0         12.894         35.356         69.383
         9428.5         12.894         37.566         68.267
         9429.0         12.895         39.959         69.165
         9429.5         12.895         40.952         70.395
         9430.0         12.896         40.805         73.803
         9430.5         12.896         43.689         70.274
         9431.0         12.897         48.484         71.490
         9431.5         12.897         48.659         72.321
         9432.0         12.897         44.244         71.802
         9432.5         12.898         39.276         69.489
         9433.0         12.898         35.718         67.722
         9433.5         12.899         32.873         67.408
         9434.0         12.899         30.028         71.061
         9434.5         12.900         29.224         73.943
         9435.0         12.900         29.771         75.262
         9435.5         12.901         29.550         75.037
         9436.0         12.901         29.337         74.816
         9436.5         12.901         32.492         74.977
         9437.0         12.902         35.646         75.138
         9437.5         12.902         38.800         75.299
