###############################################
##         ENVERUS                           ##
##         ESS - Open Hole                   ##
##         PERMIAN / DELAWARE                ##
##         Nov 04 2023  V4.0                 ##
##         42-389-30297-00-00                ##
###############################################
## Copyright 2017-2023  ENVERUS.  All Rights Reserved. 
## Confidential - Property of ENVERUS, use governed by terms and 
## conditions found within the existing Information Services Subscription Agreement 
## (as may be amended, the “ISSA”) between Customer and ENVERUS. 
## 
~VERSION INFORMATION
# MNEM.UNIT                               DATA : DESCRIPTION OF MNEMONIC
#-----.-----     ----------------------------- : -----------------------------
VERS.                                     2.00 : CWLS LOG ASCII STANDARD - VERSION 2.00
WRAP.                                       NO : MULTIPLE LINES PER DEPTH STEP
VEND.                                  ENVERUS : VENDOR
TYPE.                          ESS - OPEN HOLE : ENVERUS ESSENTIAL CURVES – ACCESSIBLE THROUGH ENVERUS PRISM(TM)
DOC.                                  32306493 : ENVERUS HEADER RAW DOCUMENT ID
#___________________________________________________________________________________________________ 
~WELL INFORMATION 
# rQStLE5sYsP+YdYw4QOWpp6z6mWwFJBvCxgTqRv2Ioz+qyoYLl+79qTOna8BSHgUk5jTgp49hkgrAQ1kFKyHCg== 
# MNEM.UNIT                                              DATA : DESCRIPTION OF MNEMONIC 
#-----.-----                    ----------------------------- : ----------------------------- 
CNTY.                                                  REEVES : COUNTY 
STATE.                                                  TEXAS : STATE 
CNTRY.                                                    USA : COUNTRY 
API.                                             42-389-30297 : API (10 Digit) 
API_14.                                    42-389-30297-00-00 : API (14 Digits) 
API_14_std.                                 42-389-30297-0000 : API (14 Digits Standard) 
UWI.                                           42389302970000 : UNIQUE WELL ID 
WELL.                              R.S. BRENNAND, JR. ET AL 1 : WELL NAME
STRT.FT                                                   3.0 : START DEPTH
STOP.FT                                               13007.0 : STOP DEPTH
STEP.FT                                                   0.5 : STEP BETWEEN DEPTHS
NULL.                                                 -999.25 : NULL VALUE
#___________________________________________________________________________________________________ 
~CURVE INFORMATION 
# MNEM.UNIT           : CURVE DESCRIPTION 
#-----.-----          : ----------------------------- 
 DEPT.FT               : MEASURED DEPTH 
 CALI.IN               : CALIPER (CAL - CAL) 
 GR.API                : GAMMA RAY (GR) 
 DT.US/FT              : SONIC DELTA TRANSIT TIME (DT) 
 NPHI.V/V              : NEUTRON POROSITY (NPHI) 
 RHOB.G/CC             : BULK DENSITY (RHOB) 
 #___________________________________________________________________________________________________ 
~A         DEPT           CALI             GR             DT           NPHI           RHOB
# ...
        11531.0          9.893        107.655         80.629     -999.25000         1.5244
        11531.5         10.126        105.678         79.451     -999.25000         1.5473
        11532.0         10.359        103.702         78.431     -999.25000         1.6052
        11532.5         10.593        101.725         78.668     -999.25000         1.6631
        11533.0         10.826         99.749         80.813     -999.25000         1.7209
        11533.5         11.059         97.772         82.958     -999.25000         1.7788
        11534.0         11.244         95.795         85.104     -999.25000         1.8367
        11534.5         10.821         93.819         87.249     -999.25000         1.8416
        11535.0         10.398         91.842         89.394     -999.25000         1.7123
        11535.5          9.975         90.620         91.539     -999.25000         1.5830
        11536.0          9.552         91.741         93.684     -999.25000         1.4537
        11536.5          9.128         92.861         95.829     -999.25000         1.4656
        11537.0          9.462         93.982         97.974     -999.25000         1.4953
        11537.5          9.926         93.750        100.120     -999.25000         1.5250
        11538.0         10.389         90.450        102.265     -999.25000         1.5547
        11538.5         10.852         87.150        104.410     -999.25000         1.5844
        11539.0         11.315         83.850        106.555     -999.25000         1.6140
        11539.5         11.778         80.550        108.631     -999.25000         1.6437
        11540.0         12.241         88.021        109.382     -999.25000         1.6090
        11540.5         12.705         95.601        110.132     -999.25000         1.5530
        11541.0         12.764        103.180        110.883     -999.25000         1.4969
        11541.5         12.603        110.760        111.633     -999.25000         1.4523
        11542.0         12.443        110.934        112.384     -999.25000         1.5153
        11542.5         12.282         96.469        113.134     -999.25000         1.5784
        11543.0         12.122         87.374        113.884     -999.25000         1.6415
        11543.5         11.961         85.201        114.635     -999.25000         1.7046
        11544.0         11.801         83.028        115.385     -999.25000         1.7676
        11544.5         11.640         83.849        114.355     -999.25000         1.8307
        11545.0         11.607         86.442        111.863     -999.25000         1.8578
        11545.5         11.803         89.035        109.371     -999.25000         1.7969
        11546.0         11.998         91.629        106.880     -999.25000         1.7361
        11546.5         12.194         94.222        104.388     -999.25000         1.6753
        11547.0         12.390        103.486        101.897     -999.25000         1.6144
        11547.5         12.585        101.911        100.038     -999.25000         1.5536
        11548.0         12.781        100.335         98.372     -999.25000         1.4927
        11548.5         12.976         98.760         96.705     -999.25000         1.5464
        11549.0         13.172         97.185         95.039     -999.25000         1.6511
        11549.5         13.368         95.609         93.372     -999.25000         1.7559
        11550.0         13.037        100.214         91.719     -999.25000         1.8607
        11550.5         10.878        111.743         93.965     -999.25000         1.9655
        11551.0          8.718        119.300         96.210     -999.25000         2.0702
        11551.5          8.065        117.359         98.456     -999.25000         2.1750
        11552.0          8.217        115.418        100.701     -999.25000         2.2798
        11552.5          8.369        117.690        102.947     -999.25000         2.3775
        11553.0          8.520        124.165        105.193     -999.25000         2.3366
        11553.5          8.672        133.839        107.438     -999.25000         2.2958
        11554.0          8.262        128.241        109.684     -999.25000         2.3375
        11554.5          7.907        123.720        111.929     -999.25000         2.4112
        11555.0          7.933        119.625        112.408     -999.25000         2.3367
        11555.5          7.959        115.529        111.576     -999.25000         2.2622
        11556.0          7.986        111.434        110.743     -999.25000         2.1877
        11556.5          8.012        108.204        109.911     -999.25000         2.1132
        11557.0          8.038        106.734        109.078     -999.25000         1.9879
        11557.5          8.064        105.264        108.246     -999.25000         1.8743
        11558.0          8.090        103.794        107.413     -999.25000         1.8345
        11558.5          8.116        105.044        106.581     -999.25000         1.7502
        11559.0          8.142        106.697        105.749     -999.25000         1.6659
        11559.5          8.169        108.351        104.916     -999.25000         1.6506
        11560.0          8.195        110.004        104.084     -999.25000         1.7965
        11560.5          8.465        106.732        103.251     -999.25000         1.9423
        11561.0          8.745        103.322        102.419     -999.25000         1.9564
        11561.5          9.025        100.486        101.586     -999.25000         1.9524
        11562.0          9.305        103.470        100.959     -999.25000         1.9484
        11562.5          9.585        106.453         99.932     -999.25000         1.9444
        11563.0          9.865        109.437         95.681     -999.25000         1.9530
        11563.5          9.612        112.420         91.431     -999.25000         1.9660
        11564.0          9.235        130.721         87.181     -999.25000         1.9708
        11564.5          8.858        135.016         82.931     -999.25000         1.9400
        11565.0          8.482        137.956         78.680     -999.25000         1.9093
        11565.5          8.105        134.302         74.430     -999.25000         1.8785
        11566.0          7.728        129.032         70.180     -999.25000         1.8477
        11566.5          7.351        125.599         69.248     -999.25000         1.8169
        11567.0          7.986        123.657         72.046     -999.25000         1.7862
        11567.5          8.711        121.716         74.843     -999.25000         1.7664
        11568.0          9.383        119.775         77.640     -999.25000         1.8737
        11568.5          9.062        117.834         80.438     -999.25000         1.9810
        11569.0          8.741        114.003         83.235     -999.25000         2.1393
        11569.5          8.421        109.211         86.032     -999.25000         2.3087
        11570.0          8.100        104.419         88.829     -999.25000         2.4781
        11570.5          7.779        103.900         91.790     -999.25000         2.6475
        11571.0          7.485        105.285         92.158     -999.25000         2.6641
        11571.5          7.494        106.669         92.527     -999.25000         2.5997
        11572.0          7.503        108.054         92.895     -999.25000         2.5353
        11572.5          7.512        109.439         93.263     -999.25000         2.4709
        11573.0          7.521        110.824         93.632     -999.25000         2.4065
        11573.5          7.530        123.758         94.000     -999.25000         2.3421
        11574.0          7.539        129.565         94.706     -999.25000         2.2777
        11574.5          7.548        129.652         96.042     -999.25000         2.2133
