#--------------------------------------------------#
#-------------------ENVERUS, INC.------------------#
#------------------WWW.ENVERUS.COM-----------------#
#------------------COPYRIGHT 2020------------------#
#--------------------------------------------------#
#THIS FILE MAY BE USED ONLY IN ACCORDANCE WITH A CURRENT SUBSCRIPTION AGREEMENT BETWEEN
#THE USER AND ENVERUS, INC. NO PART OF THIS FILE MAY BE REPRODUCED, USED, COPIED,
#MODIFIED, PROPAGATED, OR DISTRIBUTED EXCEPT IN ACCORDANCE WITH THE SUBSCRIPTION
#AGREEMENT. UNAUTHORIZED USE OR DISTRIBUTION OF ALL OR ANY PART OF THIS FILE MAY VIOLATE
#COPYRIGHT, TRADEMARK, AND/OR OTHER LAWS AND IS SUBJECT TO CIVIL AS WELL AS CRIMINAL
#SANCTIONS.
#--------------------------------------------------#
#THIS FILE IS PROVIDED "AS-IS" AND ALL WARRANTIES ARE EXPRESSLY DISCLAIMED, WHETHER
#EXPRESS, ORAL, IMPLIED, STATUTORY OR OTHERWISE, INCLUDING ANY IMPLIED WARRANTY OF FITNESS
#FOR A PARTICULAR PURPOSE, MERCHANTABILITY, TITLE OR NON-INFRINGEMENT, AND ANY WARRANTIES
#ARISING BY VIRTUE OF CUSTOM OF TRADE OR COURSE OF DEALING.  FURTHER, ENVERUS, INC.
#AND ITS LICENSORS DO NOT REPRESENT OR WARRANT THAT THIS FILE WILL MEET USER'S
#REQUIREMENTS OR ARE SUITABLE FOR USER'S NEEDS OR THAT THE DATA OR RESULTS PROVIDED IN
#CONJUNCTION THEREWITH ARE CORRECT, ACCURATE, TIMELY OR RELIABLE. THESE DISCLAIMERS SHALL
#APPLY REGARDLESS OF ANY FAILURE OF ESSENTIAL PURPOSE OF ANY LIMITED REMEDY.  SOME
#JURISDICTIONS DO NOT ALLOW THE EXCLUSION OF CERTAIN WARRANTIES SO SOME OF THE ABOVE
#EXCLUSIONS MAY NOT APPLY. IN NO EVENT SHALL ENVERUS, INC. OR ANY OF ITS AFFILIATES
#BE LIABLE UNDER ANY LEGAL THEORY, WHETHER IN TORT (INCLUDING WITHOUT LIMITATION
#NEGLIGENCE), CONTRACT, STRICT LIABILITY, STATUTORY OR OTHERWISE, FOR ANY SPECIAL,
#INCIDENTAL, CONSEQUENTIAL, EXEMPLARY, PUNITIVE OR INDIRECT DAMAGE OF ANY KIND, INCLUDING
#WITHOUT LIMITATION LOSS OF REVENUE, PROFITS, GOODWILL, USE, AND/OR DATA OR THE COST OF
#PROCUREMENT OF SUBSTITUTE GOODS OR SERVICES, EVEN IF APPRISED OF THE POSSIBILITY OF SUCH
#DAMAGES IN ADVANCE.
#--------------------------------------------------#

~VERSION INFORMATION
VERS. 2.0 : CWLS LOG ASCII STANDARD - VERSION 2.0
WRAP.  NO : ONE LINE PER DEPTH STEP
~WELL INFORMATION
#MNEMONIC     .UNIT              VALUE :DESCRIPTION
STRT       .FT                0 :START DEPTH
STOP       .FT                15770 :STOP DEPTH
STEP       .FT                   0.500 :STEP
NULL       .                  -999.250 :NULL
UWI        .              42389309020000 :UNIQUE WELL ID
API        .              42389309020000 :API NUMBER
COMP       .         WALSH & WATTS  INC. :COMPANY
WELL       .        SABRE  1WS :WELL
DATE       .                28-JAN-1987 :LOG DATE
~CURVE INFORMATION
#MNEMONIC     .UNIT      API CODE :CURVE DESCRIPTION
DEPTH       .FT                      :MEASURED DEPTH
CAL.INCH        UNKNOWN   :CAL
DT.US/FT        UNKNOWN   :DT
GR.API        UNKNOWN   :GR
~A    DEPTH    CAL    DT    GR
# ...
 11521.5     8.447   77.474   74.599
 11522     8.445   78.863   73.948
 11522.5     8.443   80.357   74.649
 11523     8.441   83.158   77.534
 11523.5     8.439   84.372   80.42
 11524     8.437   84.835   82.558
 11524.5     8.434   85.183   84.684
 11525     8.432   84.573   83.054
 11525.5     8.43   82.931   79.208
 11526     8.428   78.954   75.256
 11526.5     8.426   75.032   71.303
 11527     8.424   71.11   64.389
 11527.5     8.422   67.535   59.953
 11528     8.42   69.731   64.083
 11528.5     8.418   73.111   71.431
 11529     8.416   79.008   78.778
 11529.5     8.414   82.101   80.633
 11530     8.412   82.567   79.515
 11530.5     8.41   82.071   78.397
 11531     8.408   80.741   77.278
 11531.5     8.405   78.669   74.444
 11532     8.403   76.598   67.908
 11532.5     8.401   74.526   61.372
 11533     8.4   72.454   56.924
 11533.5     8.413   72.059   57.014
 11534     8.426   75.876   64.367
 11534.5     8.439   79.693   71.72
 11535     8.453   83.51   79.072
 11535.5     8.466   85.804   83.563
 11536     8.475   87.519   83.791
 11536.5     8.47   86.529   84.019
 11537     8.466   85.539   84.247
 11537.5     8.462   84.55   84.476
 11538     8.458   83.56   84.704
 11538.5     8.454   82.57   81.859
 11539     8.45   81.58   80.784
 11539.5     8.446   81.057   80.958
 11540     8.442   81.174   80.914
 11540.5     8.438   81.291   79.898
 11541     8.434   82.997   78.881
 11541.5     8.43   84.865   78.658
 11542     8.426   85.634   79.619
 11542.5     8.422   85.367   79.964
 11543     8.418   81.332   78.66
 11543.5     8.414   75.624   71.955
 11544     8.414   74.482   61.802
 11544.5     8.419   73.34   59.467
 11545     8.423   72.626   61.538
 11545.5     8.428   75.43   63.61
 11546     8.432   78.235   65.681
 11546.5     8.436   78.353   67.753
 11547     8.441   77.948   68.292
 11547.5     8.445   77.544   68.221
 11548     8.45   77.139   76.213
 11548.5     8.454   80.261   84.204
 11549     8.459   83.169   86.705
 11549.5     8.463   84.449   82.735
 11550     8.468   83.562   78.766
 11550.5     8.472   82.48   75.202
 11551     8.476   81.398   72.615
 11551.5     8.481   80.66   71.518
 11552     8.485   80.412   72.527
 11552.5     8.49   80.163   73.535
 11553     8.494   79.914   75.444
 11553.5     8.477   79.665   77.368
 11554     8.453   79.416   77.469
 11554.5     8.429   79.167   77.287
 11555     8.405   74.983   72.165
 11555.5     8.395   71.785   65.092
 11556     8.413   72.197   60.951
 11556.5     8.432   72.61   66.813
 11557     8.45   74.869   72.676
 11557.5     8.468   80.431   76.644
 11558     8.487   82.88   78.669
 11558.5     8.497   85.082   80.695
 11559     8.476   86.009   82.72
 11559.5     8.456   81.581   74.609
 11560     8.435   76.348   65.016
 11560.5     8.43   71.115   55.424
 11561     8.431   65.881   45.831
 11561.5     8.431   64.188   46.474
 11562     8.431   69.559   55.236
 11562.5     8.431   74.987   63.999
 11563     8.431   80.414   70.094
 11563.5     8.431   80.691   72.255
 11564     8.432   77.19   66.041
 11564.5     8.432   73.69   61.986
 11565     8.432   71.52   61.919
 11565.5     8.432   73.419   64.954
 11566     8.432   75.317   65.998
 11566.5     8.432   77.216   67.043
 11567     8.433   79.112   70.842
 11567.5     8.433   79.724   78.44
 11568     8.433   80.337   79.409
 11568.5     8.433   80.285   78.599
 11569     8.433   79.265   75.83
 11569.5     8.433   78.245   74.655
 11570     8.434   77.717   78.059
 11570.5     8.434   79.449   81.462
 11571     8.434   81.181   82.641
 11571.5     8.434   82.912   83.48
 11572     8.434   84.644   84.32
 11572.5     8.435   83.265   85.159
 11573     8.435   81.838   85.999
 11573.5     8.435   80.411   86.806
 11574     8.435   79.177   85.272
 11574.5     8.435   78.261   81.113
 11575     8.435   77.345   76.955
 11575.5     8.436   76.429   74.414
 11576     8.436   76.29   71.983
 11576.5     8.436   77.698   71.9
 11577     8.436   79.956   74.841
 11577.5     8.436   82.215   77.783
 11578     8.436   82.66   80.725
 11578.5     8.437   82.18   78.596
 11579     8.437   79.583   76.381
 11579.5     8.437   78.29   76.553
 11580     8.437   78.818   76.725
 11580.5     8.437   79.17   73.522
 11581     8.437   78.602   69.578
 11581.5     8.438   78.074   65.635
 11582     8.438   78.308   61.691
 11582.5     8.438   76.493   64.202
 11583     8.438   74.109   65.607
 11583.5     8.438   72.327   63.656
 11584     8.438   71.509   61.705
 11584.5     8.439   73.722   62.42
 11585     8.439   76.499   66.857
 11585.5     8.439   79.277   71.294
 11586     8.439   81.672   75.731
 11586.5     8.439   78.895   80.168
 11587     8.439   75.236   80.195
 11587.5     8.44   73.212   72.946
 11588     8.44   73.231   65.697
 11588.5     8.44   73.249   59.895
 11589     8.44   73.267   63.649
 11589.5     8.44   75.589   67.403
 11590     8.44   78.392   71.157
 11590.5     8.441   81.196   74.911
 11591     8.441   82.196   78.665
 11591.5     8.441   81.667   81.748
 11592     8.441   80.113   81.606
 11592.5     8.441   79.026   81.464
 11593     8.441   78.282   80.559
 11593.5     8.442   78.909   78.55
 11594     8.442   80.28   76.541
 11594.5     8.442   81.652   74.531
 11595     8.442   83.023   75.163
 11595.5     8.442   84.132   75.835
 11596     8.443   84.327   76.507
 11596.5     8.443   84.522   77.179
 11597     8.443   82.716   77.85
 11597.5     8.443   80.916   78.522
 11598     8.443   80.699   79.194
 11598.5     8.443   80.481   79.757
 11599     8.444   78.708   78.454
 11599.5     8.444   78.153   77.15
 11600     8.444   78.222   76.894
 11600.5     8.444   78.291   77.411
 11601     8.444   80.196   77.928
 11601.5     8.444   81.576   78.445
 11602     8.445   80.558   77.728
 11602.5     8.445   79.539   76.207
 11603     8.445   78.52   76.82
 11603.5     8.445   78.881   78.165
 11604     8.445   79.416   79.51
 11604.5     8.445   79.547   79.698
 11605     8.446   79.677   78.208
 11605.5     8.446   81.548   77.209
 11606     8.446   80.742   77.784
 11606.5     8.446   79.936   78.104
 11607     8.446   79.13   76.154
 11607.5     8.446   78.324   74.204
 11608     8.447   79.559   72.254
 11608.5     8.447   80.946   72.763
 11609     8.447   81.792   73.3
 11609.5     8.447   80.539   73.838
 11610     8.447   79.287   68.346
 11610.5     8.447   78.034   62.512
 11611     8.447   77.292   62.079
 11611.5     8.447   79.561   64.603
 11612     8.447   80.308   81.966
 11612.5     8.447   80.397   84.667
 11613     8.447   79.971   83.92
 11613.5     8.447   79.032   83.187
 11614     8.447   78.093   82.46
 11614.5     8.447   74.741   81.734
 11615     8.447   72.009   77.72
 11615.5     8.447   71.514   73.25
 11616     8.447   71.02   72.439
 11616.5     8.447   73.465   78.764
 11617     8.447   75.965   85.09
 11617.5     8.447   76.417   86.752
 11618     8.447   76.869   86.464
 11618.5     8.447   77.343   86.177
 11619     8.447   78.001   84.476
 11619.5     8.447   78.909   82.686
 11620     8.447   80.821   81.926
 11620.5     8.447   82.607   82.407
 11621     8.447   83.831   82.887
 11621.5     8.447   84.479   83.368
 11622     8.447   84.492   83.315
 11622.5     8.447   83.395   80.781
 11623     8.447   81.109   78.248
 11623.5     8.447   78.382   75.714
 11624     8.447   75.541   73.18
 11624.5     8.447   73.111   70.646
 11625     8.447   73.017   68.112
 11625.5     8.447   73.157   67.779
 11626     8.447   77.031   72.465
 11626.5     8.447   80.904   77.151
 11627     8.447   82.451   81.837
 11627.5     8.447   80.699   80.835
 11628     8.447   78.054   77.924
 11628.5     8.447   76.148   75.768
 11629     8.447   74.437   75.964
 11629.5     8.447   70.375   74.928
 11630     8.447   65.763   62.874
 11630.5     8.447   61.152   50.82
 11631     8.447   64.509   46.385
 11631.5     8.447   69.492   53.019
 11632     8.447   73.707   59.653
 11632.5     8.447   77.354   66.287
 11633     8.447   79.669   72.922
 11633.5     8.447   78.579   79.556
