###############################################
##         ENVERUS                           ##
##         ESS - Open Hole                   ##
##         PERMIAN / DELAWARE                ##
##         Nov 04 2023  V4.0                 ##
##         42-389-30259-00-00                ##
###############################################
## Copyright 2017-2023  ENVERUS.  All Rights Reserved. 
## Confidential - Property of ENVERUS, use governed by terms and 
## conditions found within the existing Information Services Subscription Agreement 
## (as may be amended, the “ISSA”) between Customer and ENVERUS. 
## 
~VERSION INFORMATION
# MNEM.UNIT                               DATA : DESCRIPTION OF MNEMONIC
#-----.-----     ----------------------------- : -----------------------------
VERS.                                     2.00 : CWLS LOG ASCII STANDARD - VERSION 2.00
WRAP.                                       NO : MULTIPLE LINES PER DEPTH STEP
VEND.                                  ENVERUS : VENDOR
TYPE.                          ESS - OPEN HOLE : ENVERUS ESSENTIAL CURVES – ACCESSIBLE THROUGH ENVERUS PRISM(TM)
DOC.                                  32063127 : ENVERUS HEADER RAW DOCUMENT ID
#___________________________________________________________________________________________________ 
~WELL INFORMATION 
# gPsidqVjAScFWwbHY3NvrhVb9Q0dnpAvxUas8qP1mSjKWoj7hBgJ2nw/4lW9Nf69eTG+8mlPQw3CFq6Jh/Hagw== 
# MNEM.UNIT                                              DATA : DESCRIPTION OF MNEMONIC 
#-----.-----                    ----------------------------- : ----------------------------- 
CNTY.                                                  REEVES : COUNTY 
STATE.                                                  TEXAS : STATE 
CNTRY.                                                    USA : COUNTRY 
API.                                             42-389-30259 : API (10 Digit) 
API_14.                                    42-389-30259-00-00 : API (14 Digits) 
API_14_std.                                 42-389-30259-0000 : API (14 Digits Standard) 
UWI.                                           42389302590000 : UNIQUE WELL ID 
WELL.                                         FORTUNE UNIT  1 : WELL NAME
STRT.FT                                                     0 : START DEPTH
STOP.FT                                               15675.0 : STOP DEPTH
STEP.FT                                                   0.5 : STEP BETWEEN DEPTHS
NULL.                                                 -999.25 : NULL VALUE
COMP.                          SANDRIDGE EXPL. AND PROD.  LLC : COMPANY 
DATE.                                             19-FEB-2007 : LOG DATE
#___________________________________________________________________________________________________ 
~CURVE INFORMATION 
# MNEM.UNIT           : CURVE DESCRIPTION 
#-----.-----          : ----------------------------- 
 DEPT.FT               : MEASURED DEPTH 
 CALI__B.IN            : CALIPER (CAL - CAL) 
 GR__B.API             : GAMMA RAY (GR) 
 DT__B.US/FT           : SONIC DELTA TRANSIT TIME (DT) 
 #___________________________________________________________________________________________________ 
~A         DEPT        CALI__B          GR__B          DT__B
# ...
        14058.0         11.057         93.204         88.912
        14058.5         11.062         95.643         90.327
        14059.0         11.041         98.082         90.370
        14059.5         11.019         98.343         87.835
        14060.0         10.998         98.009         87.494
        14060.5         10.977         97.116         85.861
        14061.0         10.955         94.417         86.613
        14061.5         10.940         91.718         86.626
        14062.0         10.993         89.019         89.436
        14062.5         11.047         86.320         90.328
        14063.0         11.101         83.621         90.325
        14063.5         11.111         80.922         90.705
        14064.0         11.022         84.405         87.380
        14064.5         10.932         88.486         86.999
        14065.0         10.842         90.712         88.567
        14065.5         10.753         89.200         90.066
        14066.0         10.807         90.838         89.176
        14066.5         10.861         94.264         89.875
        14067.0         10.785         97.262         89.533
        14067.5         10.703         93.882         89.488
        14068.0         10.700         90.503         87.972
        14068.5         10.728         87.123         85.751
        14069.0         10.755         83.743         80.114
        14069.5         10.783         80.423         79.536
        14070.0         10.811         81.758         80.190
        14070.5         10.812         83.092         82.672
        14071.0         10.772         84.426         84.054
        14071.5         10.733         84.212         84.741
        14072.0         10.715         82.965         84.000
        14072.5         10.810         81.718         84.626
        14073.0         10.810         80.470         86.024
        14073.5         10.810         79.223         86.693
        14074.0         10.810         77.976         87.788
        14074.5         10.660         69.589         87.380
        14075.0         10.485         57.728         82.561
        14075.5         10.311         45.866         75.044
        14076.0         10.238         39.335         67.238
        14076.5         10.233         41.237         58.944
        14077.0         10.229         52.163         55.193
        14077.5         10.224         64.191         55.132
        14078.0         10.277         76.219         56.789
        14078.5         10.390         84.807         61.701
        14079.0         10.739         87.179         69.853
        14079.5         10.786         88.874         81.635
        14080.0         10.761         90.570         93.801
        14080.5         10.882         92.266         97.592
        14081.0         10.904         93.961         96.613
        14081.5         10.904         94.144         91.216
        14082.0         10.904         93.307         87.337
        14082.5         10.902         95.276         85.584
        14083.0         10.897         96.232         85.984
        14083.5         10.892         95.225         85.180
        14084.0         10.888         94.219         85.926
        14084.5         10.911         94.845         86.300
        14085.0         10.951         95.735         87.893
        14085.5         10.991         95.063         90.191
        14086.0         10.862         90.803         92.275
        14086.5         10.709         86.544         90.229
        14087.0         10.557         84.631         85.499
        14087.5         10.542         86.780         83.048
        14088.0         10.894         88.929         81.520
        14088.5         11.247         91.078         84.341
        14089.0         11.217         93.227         87.971
        14089.5         11.133         95.376         88.643
        14090.0         11.049         94.618         90.180
        14090.5         11.082         93.163         90.541
        14091.0         11.189         92.626         90.328
        14091.5         11.296         94.623         91.934
        14092.0         11.267         93.084         93.577
        14092.5         11.217         91.489         90.912
        14093.0         11.186         89.893         86.731
        14093.5         11.201         90.754         85.469
        14094.0         11.215         93.255         83.443
        14094.5         11.167         95.756         86.107
        14095.0         11.094         98.257         86.920
        14095.5         11.022         97.065         87.597
        14096.0         10.950         95.722         88.057
        14096.5         10.877         94.379         87.334
        14097.0         10.805         93.037         87.544
        14097.5         10.893         91.694         88.753
        14098.0         11.000         90.351         90.411
        14098.5         11.108         89.008         90.536
        14099.0         11.199         87.666         89.236
        14099.5         11.174         86.598         87.914
        14100.0         11.150         89.153         86.591
        14100.5         11.191         91.707         87.221
        14101.0         11.241         93.353         87.895
        14101.5         11.187         92.751         87.798
        14102.0         11.080         92.149         87.534
        14102.5         10.973         91.546         87.705
        14103.0         10.866         91.040         90.913
        14103.5         10.895         92.572         91.768
        14104.0         11.038         94.105         91.873
        14104.5         11.106         95.637         90.295
        14105.0         11.095         97.170         88.306
        14105.5         11.085         96.051         86.318
        14106.0         11.074         94.168         86.288
        14106.5         11.064         92.286         85.901
        14107.0         10.981         90.403         87.767
        14107.5         10.757         89.737         90.157
        14108.0         10.738         90.073         91.131
        14108.5         10.967         90.409         92.555
        14109.0         11.196         87.273         90.559
        14109.5         11.171         84.519         89.290
        14110.0         11.113         85.321         89.786
        14110.5         11.157         86.122         88.591
        14111.0         11.203         86.924         89.312
        14111.5         11.248         85.031         89.748
        14112.0         11.293         82.858         87.731
        14112.5         11.338         80.917         85.343
        14113.0         11.257         80.196         82.956
        14113.5         11.117         79.475         80.604
        14114.0         10.976         80.820         80.651
        14114.5         11.046         85.224         80.353
        14115.0         11.131         89.627         83.795
        14115.5         11.216         94.030         86.548
        14116.0         11.301         94.856         87.232
        14116.5         11.266         92.498         88.010
        14117.0         11.205         92.839         88.756
        14117.5         11.268         93.689         88.302
        14118.0         11.215         93.568         89.072
        14118.5         10.997         92.466         88.965
        14119.0         11.058         91.365         89.696
        14119.5         11.119         90.264         89.324
        14120.0         11.180         89.162         89.490
        14120.5         11.241         88.061         88.439
        14121.0         11.297         88.625         89.547
        14121.5         11.257         90.474         87.983
        14122.0         11.217         92.322         87.885
        14122.5         11.176         94.171         87.543
        14123.0         11.136         96.019         86.529
        14123.5         11.096         97.867         87.846
