#--------------------------------------------------#
#-------------------ENVERUS, INC.------------------#
#------------------WWW.ENVERUS.COM-----------------#
#------------------COPYRIGHT 2020------------------#
#--------------------------------------------------#
#THIS FILE MAY BE USED ONLY IN ACCORDANCE WITH A CURRENT SUBSCRIPTION AGREEMENT BETWEEN
#THE USER AND ENVERUS, INC. NO PART OF THIS FILE MAY BE REPRODUCED, USED, COPIED,
#MODIFIED, PROPAGATED, OR DISTRIBUTED EXCEPT IN ACCORDANCE WITH THE SUBSCRIPTION
#AGREEMENT. UNAUTHORIZED USE OR DISTRIBUTION OF ALL OR ANY PART OF THIS FILE MAY VIOLATE
#COPYRIGHT, TRADEMARK, AND/OR OTHER LAWS AND IS SUBJECT TO CIVIL AS WELL AS CRIMINAL
#SANCTIONS.
#--------------------------------------------------#
#THIS FILE IS PROVIDED "AS-IS" AND ALL WARRANTIES ARE EXPRESSLY DISCLAIMED, WHETHER
#EXPRESS, ORAL, IMPLIED, STATUTORY OR OTHERWISE, INCLUDING ANY IMPLIED WARRANTY OF FITNESS
#FOR A PARTICULAR PURPOSE, MERCHANTABILITY, TITLE OR NON-INFRINGEMENT, AND ANY WARRANTIES
#ARISING BY VIRTUE OF CUSTOM OF TRADE OR COURSE OF DEALING.  FURTHER, ENVERUS, INC.
#AND ITS LICENSORS DO NOT REPRESENT OR WARRANT THAT THIS FILE WILL MEET USER'S
#REQUIREMENTS OR ARE SUITABLE FOR USER'S NEEDS OR THAT THE DATA OR RESULTS PROVIDED IN
#CONJUNCTION THEREWITH ARE CORRECT, ACCURATE, TIMELY OR RELIABLE. THESE DISCLAIMERS SHALL
#APPLY REGARDLESS OF ANY FAILURE OF ESSENTIAL PURPOSE OF ANY LIMITED REMEDY.  SOME
#JURISDICTIONS DO NOT ALLOW THE EXCLUSION OF CERTAIN WARRANTIES SO SOME OF THE ABOVE
#EXCLUSIONS MAY NOT APPLY. IN NO EVENT SHALL ENVERUS, INC. OR ANY OF ITS AFFILIATES
#BE LIABLE UNDER ANY LEGAL THEORY, WHETHER IN TORT (INCLUDING WITHOUT LIMITATION
#NEGLIGENCE), CONTRACT, STRICT LIABILITY, STATUTORY OR OTHERWISE, FOR ANY SPECIAL,
#INCIDENTAL, CONSEQUENTIAL, EXEMPLARY, PUNITIVE OR INDIRECT DAMAGE OF ANY KIND, INCLUDING
#WITHOUT LIMITATION LOSS OF REVENUE, PROFITS, GOODWILL, USE, AND/OR DATA OR THE COST OF
#PROCUREMENT OF SUBSTITUTE GOODS OR SERVICES, EVEN IF APPRISED OF THE POSSIBILITY OF SUCH
#DAMAGES IN ADVANCE.
#--------------------------------------------------#

# EXPORTED FROM DI TRANSFORM
# DI TRANSFORM - A PRODUCT OF DRILLINGINFO, INC. - WWW.DRILLINGINFO.COM
#
~VERSION INFORMATION
 VERS.        2.0 : LAS ASCII STANDARD - VERSION 2.0
 WRAP.         NO : ONE LINE PER DEPTH STEP

~WELL INFORMATION
#MNEM.UNIT       DATA TYPE       INFORMATION
#---------       ---------       -----------
 STRT.FT                3800 : START DEPTH
 STOP.FT               10654 : STOP DEPTH
 STEP.FT                 0.5 : STEP LENGTH
 NULL.               -999.25 : NULL VALUE
 UWI.         42389340250000 : UNIQUE WELL ID
 API.         42389340250000 : WELL IDENTIFIER
 COMP.                       : COMPANY
 WELL.  42389340250000_API14 : WELL NAME
 FLD.                        : FIELD NAME
 LOC.                        : WELL LOCATION
 CNTY.                       : COUNTY
 STAT.                       : STATE OR PROVINCE
 CTRY.                       : COUNTRY
 SRVC.                       : SERVICE COMPANY
 DATE.                       : DATE

~CURVE INFORMATION
#MNEM.UNIT       API CODE       CURVE DESCRIPTION
#---------       --------       -----------------
 DEPT.FT        : <MEASURED DEPTH>
 CAL.IN         : CALIPER
 DT.US/FT       : SONIC
 GR.GAPI        : GAMMA RAY

~PARAMETER INFORMATION
#MNEM.UNIT       VALUE       DESCRIPTION
#---------       -----       -----------
 EKB.FT      3120.5 : ELEVATION ABOVE MSL

~A      DEPT         CAL          DT          GR
# ...
        8720      9.4331     69.5053    121.5318
      8720.5      9.4331     67.4579    106.3174
        8721      9.4331     66.3178      91.103
      8721.5      9.4331     65.3898     75.8886
        8722      9.4331     65.2758     60.6741
      8722.5      9.4331      65.374     45.4597
        8723      9.4331     65.8814     49.8855
      8723.5      9.4331     66.7086     61.9035
        8724      9.4331     68.2152     73.9216
      8724.5      9.4331     69.0503     85.9397
        8725      9.4331      70.719     97.9578
      8725.5      9.4331      71.996    113.5506
        8726      9.4176     71.9575     131.727
      8726.5      9.4132     71.0047    128.4061
        8727      9.4132     69.8397     93.5756
      8727.5      9.4132     67.9495     58.7451
        8728      9.4132      65.515     40.3025
      8728.5      9.4132     64.1379     42.7382
        8729      9.4132     62.6882     45.1739
      8729.5      9.4132      62.668     47.6096
        8730      9.4152      62.668     50.0454
      8730.5      9.4132     62.7683      52.481
        8731      9.4331     62.7683     54.9168
      8731.5      9.4331     63.5727     77.1873
        8732      9.4331     64.9904    101.3007
      8732.5      9.4331     66.2056    103.9748
        8733      9.4331     68.3816     92.5118
      8733.5      9.4331     70.1154     75.7245
        8734      9.4331     70.9236     58.9372
      8734.5      9.4331     71.0933     42.1499
        8735      9.4331     70.4216     25.3626
      8735.5      9.4331      68.738     25.1162
        8736      9.4331     67.1274     28.7886
      8736.5      9.4331     66.1199     32.4611
        8737      9.4331     63.5084     36.1335
      8737.5      9.4331     62.7971      39.806
        8738      9.4331     62.6404     43.0047
      8738.5      9.4331      63.052     40.3255
        8739      9.4331     64.2934     42.3928
      8739.5      9.4331     66.3624     55.7987
        8740      9.4331     68.3862     69.2047
      8740.5      9.4331     70.2969     82.6106
        8741      9.4331      71.406     96.0165
      8741.5      9.4331     71.7778    109.4224
        8742      9.4331      71.772    122.8283
      8742.5      9.4331     70.5169    128.6724
        8743      9.4331     68.9427    121.9072
      8743.5      9.4331     66.8399    115.1421
        8744      9.4331     65.5302    103.9027
      8744.5      9.4331     64.7219     86.2004
        8745      9.4331     64.4734      68.498
      8745.5      9.4331     64.4734     50.7957
        8746      9.4331     64.7438     40.4821
      8746.5      9.4331     65.7279     51.5341
        8747      9.4331     66.9052     62.5861
      8747.5      9.4331     67.8574     73.6381
        8748      9.4331     69.5447     84.6901
      8748.5      9.4331     70.9899     95.7421
        8749      9.4331     72.0002    107.5786
      8749.5      9.4331     72.7081    121.0419
        8750      9.4331     72.4975    126.6149
      8750.5      9.4331     71.9527    117.4148
        8751      9.4331     70.7829    108.2146
      8751.5      9.4331     68.1187     99.0145
        8752      9.4331     65.4374     89.8143
      8752.5      9.4331     64.3389     80.6142
        8753      9.4331     61.8609     71.4141
      8753.5      9.4132     61.0193     62.2139
        8754      9.4132     61.1635     53.0138
      8754.5      9.4132     61.5324     43.8136
        8755      9.4531     62.4882     42.0132
      8755.5      9.4531     63.7092     60.7972
        8756      9.4531     65.3314     79.5812
      8756.5      9.4531     66.0691     98.3652
        8757      9.4531      66.874    117.1492
      8757.5      9.4531     67.5827    114.7971
        8758      9.4531     67.3821    104.0968
      8758.5      9.4531     66.8525     93.3964
        8759      9.4531     65.2162     82.6961
      8759.5      9.4531     63.8459     71.9958
        8760      9.4531     63.3386     61.2954
      8760.5      9.4531     63.2698     50.5951
        8761      9.4369     63.6138     39.8948
      8761.5      9.4132     64.1699     40.6824
        8762      9.4132     65.1845     45.9363
      8762.5      9.4331     66.1992     52.2472
        8763      9.4331     67.3481     58.5582
      8763.5      9.4331     67.8837     64.8691
        8764      9.4331     67.8837     71.1801
      8764.5      9.4331     67.4991      77.491
        8765      9.4331     66.9918     86.4574
      8765.5      9.4331     66.4845     90.9841
        8766      9.4331     65.9772     84.8784
      8766.5      9.4331     65.8842     78.7728
        8767      9.4331     66.4918     72.6671
      8767.5      9.4331     66.9991     66.5615
        8768      9.4331     68.0079     68.2662
      8768.5      9.4331     68.7455      83.672
        8769      9.4331     69.6953     99.0778
      8769.5      9.4331     70.9163    114.4836
        8770      9.4331     71.9899    122.9711
      8770.5      9.4331     72.1966    105.5816
        8771      9.4331      71.837     88.1921
      8771.5      9.4331      70.864    100.9934
        8772      9.4331     69.7491    104.0921
      8772.5      9.4331     67.9286     92.9708
        8773      9.4331     65.8326     81.8495
      8773.5      9.4331     65.2758     70.7282
        8774      9.4331     64.9681      59.607
      8774.5      9.4331     65.2758     48.4857
        8775      9.4331     65.6818     43.1164
      8775.5      9.4331     65.9885     53.1909
        8776      9.4331     66.3791     68.7377
      8776.5      9.4331     66.6241     84.2845
        8777      9.4331     67.3821     99.8313
      8777.5      9.4331     67.2818     95.2445
        8778      9.4331     66.9414     90.1436
      8778.5      9.4331     66.4341      83.854
        8779      9.4531     65.6239     75.8162
      8779.5      9.4531     64.8177     67.7784
        8780      9.4331     64.9122     59.7406
      8780.5      9.4132     65.3444     51.7027
        8781      9.4132     66.1526     55.4949
      8781.5      9.4132     66.8403     73.0776
        8782      9.4132     67.9696     90.6603
      8782.5      9.4331     68.3852     108.243
        8783      9.4331     68.1873    108.4376
      8783.5      9.4331       67.68    102.7107
        8784      9.4331     66.6624     92.6428
      8784.5      9.4331     65.5475     78.7273
        8785      9.4331     64.9341     64.8118
      8785.5      9.4331     64.5999     50.8964
        8786      9.4331     64.9749     54.6768
      8786.5      9.4331     65.4517     71.4978
        8787      9.4132     66.8108     88.3189
      8787.5      9.4132     67.9824      105.14
        8788      9.4132      68.997     121.961
      8788.5      9.4132     70.6744    138.7821
        8789      9.4132     72.2299    138.1273
      8789.5      9.4132     73.0716       115.8
        8790      9.4331     73.8359    111.3786
      8790.5      9.4331     74.5035    114.6927
        8791      9.4331     73.8221    116.7021
      8791.5      9.4331     72.7117    118.7116
        8792      9.4331     70.7835     120.721
      8792.5      9.4331     69.4814    114.8003
        8793      9.4331     68.9741    101.7388
      8793.5      9.4331     68.5671     88.6774
        8794      9.4331     67.9595     77.4615
      8794.5      9.4331      67.121     67.6933
        8795      9.4331     66.8524     57.9251
      8795.5      9.4331     67.8252     48.1928
        8796      9.4731     68.5807     63.5242
      8796.5      9.4731     68.7329     78.8556
        8797      9.4731      68.645     94.1869
      8797.5       9.493     68.6861    109.5183
        8798       9.493     68.4855    124.8497
      8798.5      9.4957     68.4855    114.7435
        8799       9.513     68.7506     91.7066
      8799.5      9.5179     69.8534     68.6696
        8800       9.579     70.7735     54.4313
      8800.5      9.5456      71.494      67.753
        8801      9.4531     72.1016    106.4737
      8801.5      9.4331     72.5197    145.1943
