###############################################
##         ENVERUS                           ##
##         ESS - Open Hole                   ##
##         PERMIAN / DELAWARE                ##
##         Nov 04 2023  V4.0                 ##
##         42-389-30283-00-00                ##
###############################################
## Copyright 2017-2023  ENVERUS.  All Rights Reserved. 
## Confidential - Property of ENVERUS, use governed by terms and 
## conditions found within the existing Information Services Subscription Agreement 
## (as may be amended, the “ISSA”) between Customer and ENVERUS. 
## 
~VERSION INFORMATION
# MNEM.UNIT                               DATA : DESCRIPTION OF MNEMONIC
#-----.-----     ----------------------------- : -----------------------------
VERS.                                     2.00 : CWLS LOG ASCII STANDARD - VERSION 2.00
WRAP.                                       NO : MULTIPLE LINES PER DEPTH STEP
VEND.                                  ENVERUS : VENDOR
TYPE.                          ESS - OPEN HOLE : ENVERUS ESSENTIAL CURVES – ACCESSIBLE THROUGH ENVERUS PRISM(TM)
DOC.                                  32052778 : ENVERUS HEADER RAW DOCUMENT ID
#___________________________________________________________________________________________________ 
~WELL INFORMATION 
# CKTmoz7OsKELnwE/IP0i4B9qEmEewtam1JWnvb6ghWZsYWfxLv+2EOc67unJ6Yof0W+RqImtxqI23GomxkzDLA== 
# MNEM.UNIT                                              DATA : DESCRIPTION OF MNEMONIC 
#-----.-----                    ----------------------------- : ----------------------------- 
CNTY.                                                  REEVES : COUNTY 
STATE.                                                  TEXAS : STATE 
CNTRY.                                                    USA : COUNTRY 
API.                                             42-389-30283 : API (10 Digit) 
API_14.                                    42-389-30283-00-00 : API (14 Digits) 
API_14_std.                                 42-389-30283-0000 : API (14 Digits Standard) 
UWI.                                           42389302830000 : UNIQUE WELL ID 
WELL.                       RANDOLPH  A. T.  ET AL-STATE  1 L : WELL NAME
STRT.FT                                                 155.0 : START DEPTH
STOP.FT                                               15740.0 : STOP DEPTH
STEP.FT                                                   0.5 : STEP BETWEEN DEPTHS
NULL.                                                 -999.25 : NULL VALUE
COMP.                                     RIO PETROLEUM  INC. : COMPANY
#___________________________________________________________________________________________________ 
~CURVE INFORMATION 
# MNEM.UNIT           : CURVE DESCRIPTION 
#-----.-----          : ----------------------------- 
 DEPT.FT               : MEASURED DEPTH 
 CALI__A.IN            : CALIPER (CAL - CAL) 
 GR__A.API             : GAMMA RAY (GR) 
 SP__A.MV              : SPONTANEOUS POTENTIAL (SP) 
 DT__A.US/FT           : SONIC DELTA TRANSIT TIME (DT) 
 RESD__A.OHMM          : DEEP INDUCTION RESISTIVITY (ILD - ILD) 
 NPHI__A.V/V           : NEUTRON POROSITY (NPH - NPH) 
 #___________________________________________________________________________________________________ 
~A         DEPT        CALI__A          GR__A          SP__A          DT__A        RESD__A        NPHI__A
# ...
        14899.0         10.311         81.154       -100.267         96.816          9.442        0.18846
        14899.5         10.314         76.399       -100.265         95.956          9.848        0.21422
        14900.0         10.316         74.107       -100.262         95.096         10.254        0.23998
        14900.5         10.318         76.331       -100.260         94.322         10.660        0.24557
        14901.0         10.320         78.554       -100.257         94.322         11.066        0.22164
        14901.5         10.322         80.778       -100.255         94.234         11.473        0.20156
        14902.0         10.324         82.221       -100.253         93.331         11.879        0.20402
        14902.5         10.326         80.057       -100.250         92.427         12.559        0.20587
        14903.0         10.328         77.892       -100.248         91.924         13.300        0.20287
        14903.5         10.331         75.728       -100.245         92.148         14.042        0.20806
        14904.0         10.333         76.163       -100.243         92.372         14.784        0.19937
        14904.5         10.280         77.262       -100.241         92.894         15.291        0.18249
        14905.0         10.203         81.721       -100.238         93.468         15.240        0.18870
        14905.5         10.125         89.648       -100.236         94.855         15.189        0.20494
        14906.0         10.048         97.576       -100.233         97.785         15.138        0.20082
        14906.5          9.970        105.503       -100.231         98.400         14.783        0.17475
        14907.0          9.941        101.495       -100.229         97.288         13.653        0.18296
        14907.5          9.960         94.532       -100.226         96.177         12.523        0.17617
        14908.0          9.978         87.568       -100.224         95.065         11.553        0.19329
        14908.5          9.997         84.437       -100.221         96.448         10.869        0.20951
        14909.0         10.016         87.917       -100.219         98.321         10.185        0.22006
        14909.5         10.035         91.397       -100.217        100.153         10.078        0.23061
        14910.0         10.054         94.877        -99.784        101.379         10.176        0.23969
        14910.5         10.073         98.345        -99.343        101.352         10.274        0.21563
        14911.0         10.077         94.949        -98.901         99.683         10.286        0.18797
        14911.5         10.067         91.554        -98.459         98.985         10.287        0.20595
        14912.0         10.056         88.158        -98.018         98.287         10.287        0.22617
        14912.5         10.045         87.629        -97.752         98.133         10.288        0.22163
        14913.0         10.035         88.972        -97.982         98.101         10.288        0.23431
        14913.5         10.024         90.315        -98.213         98.205         10.289        0.24925
        14914.0         10.013         89.625        -98.443         98.393         10.337        0.26025
        14914.5         10.032         85.754        -98.673         98.119         10.421        0.27728
        14915.0         10.092         85.922        -98.903         98.610         10.505        0.26146
        14915.5         10.153         86.089        -99.134         99.456         10.665        0.22465
        14916.0         10.213         86.115        -99.364         99.775         11.254        0.20711
        14916.5         10.273         82.802        -99.594         99.880         11.843        0.24136
        14917.0         10.334         79.490        -99.824         99.762         12.432        0.21505
        14917.5         10.323         78.471       -100.055         99.214         13.021        0.21650
        14918.0         10.313         79.816       -100.285         98.046         13.609        0.21795
        14918.5         10.268         81.162       -100.515         96.878         14.198        0.22372
        14919.0         10.204         82.507       -100.745         96.274         14.787        0.25985
        14919.5         10.188         84.197       -100.614         96.880         15.740        0.23959
        14920.0         10.295         85.909        -99.922         97.485         16.792        0.22474
        14920.5         10.385         87.622        -99.230         97.212         17.843        0.22976
        14921.0         10.389         89.334        -98.538         96.731         18.894        0.20408
        14921.5         10.394         89.972        -98.079         95.401         19.257        0.21563
        14922.0         10.398         88.517        -98.383         93.874         19.075        0.22841
        14922.5         10.402         87.027        -98.687         93.183         18.894        0.20841
        14923.0         10.407         83.531        -98.991         92.513         17.638        0.20861
        14923.5         10.411         80.035        -99.295         91.727         15.892        0.22977
        14924.0         10.415         77.565        -99.513         90.940         13.339        0.24456
        14924.5         10.420         75.570        -99.663         90.755         10.901        0.21617
        14925.0         10.424         74.812        -99.813         90.691          9.809        0.18252
        14925.5         10.428         81.343        -99.962         91.039          9.102        0.17105
        14926.0         10.432         85.062       -100.112         92.220          9.103        0.16863
        14926.5         10.437         81.994       -100.262         93.401          9.127        0.20199
        14927.0         10.441         78.925       -100.411         94.583          9.511        0.20806
        14927.5         10.445         75.857       -100.561         93.930          9.895        0.20864
        14928.0         10.450         72.306       -100.711         92.784         10.279        0.20922
        14928.5         10.454         68.701       -100.860         90.218         11.535        0.22791
        14929.0         10.458         65.096       -101.010         84.663         12.845        0.21610
        14929.5         10.412         61.722       -101.160         75.947         14.156        0.23009
        14930.0         10.312         61.147       -100.896         72.444         15.168        0.20354
        14930.5         10.213         64.322       -100.506         72.842         16.136        0.17698
        14931.0         10.113         72.079       -100.115         79.417         17.104        0.15677
        14931.5         10.151         91.182        -99.725         89.385         17.404        0.17950
        14932.0         10.246         99.459        -99.334         93.698         16.999        0.20016
        14932.5         10.292         99.458        -99.030         93.579         16.594        0.19125
        14933.0         10.304         93.801        -99.027         93.911         16.718        0.18223
        14933.5         10.316         89.181        -99.025         94.526         17.184        0.20255
        14934.0         10.327         85.474        -99.023         93.822         17.058        0.19580
        14934.5         10.312         80.441        -99.020         90.766         16.560        0.18896
        14935.0         10.244         77.338        -99.018         87.925         15.773        0.17656
        14935.5         10.176         82.180        -99.015         86.685         14.336        0.14988
        14936.0         10.108         87.022        -99.013         87.894         12.898        0.12321
        14936.5         10.041         91.864        -99.117         90.823         11.724        0.12954
