#   WellGreen Tech Inc.   Digitizing Services
#   www.wellgreentech.com
#   email: sales@wellgreentech.com
#
~Version Information Block
 VERS.                2.00:     CWLS LOG ASCII STANDARD - VERSION 2.000000
 WRAP.                  NO:     One Line Per Depth Step
#
~Well Information Block
#MNEM.UNIT                     Data                         Information
#----------   ------------------------------------------   ----------------
 STRT.FT                                     4000.0000:     START DEPTH
 STOP.FT                                    15710.0000:     STOP DEPTH
 STEP.FT                                        0.5000:     STEP
 NULL.                                       -999.2500:     NULL VALUE
 COMP.                        THE SUPERIOR OIL COMPANY:     COMPANY
 WELL.                                FORTUNE STATE #1:     WELL
 FLD .                                    CHAPMAN DEEP:     FIELD
 LOC .                                                :     LOCATION
 CNTY.                                          REEVES:     COUNTY
 STAT.                                              TX:     STATE
 CTRY.                                             USA:     COUNTRY
 SRVC.                                    SCHLUMBERGER:     SERVICE COMPANY
 DATE.                                      11/10/1974:     DATE
 API .               42389302950000:    API NUMBER
 UWI .               42389302950000:    UWI NUMBER
 TVD .                                              NO:     TVD flag
 MATRIX .G/CC                  :    Matrix Density
#
~Curve Information Block
#MNEM.UNIT       API CODE      Curve Description
#----------    -------------   -------------------
 DEPT.FT                   :   Depth in Feet
 CALI.IN       70 280 01 01:   Caliper
 GR  .API      35 310 01 01:   Gamma Ray
 DT  .US/F     60 520 08 01:   Sonic transit time
#
~Parameter Information Block
#MNEM.UNIT            Value               Description
#----------    --------------------    -------------------
 RUN .                         ONE:    Run Number
 PDAT.                          GL:    Permanent Datum
 EPD .FT                  000.0000:    Elevation Of Perm. Datum
 LMF .               KELLY BUSHING:    Log Measured From
 EKB .FT                  3065.0:    Elevation Of Kelly Bushing
 DF .FT                    000.0:    Elevation Of Derrick Floor
 GL .FT                   3034.0:    Elevation Of Ground Level
 TD .FT                  15710.0000:    Total Depth
 BHT .DEGF               260.00 :  Bottom Hole Temperature
 BLI .FT               15710.0000:   Bottom Log Interval
 CSGSIZE.IN              9.6250:   Casing Size
 BITSIZE.IN               8.750 :  BitSize
 CSGD.FT                  4000.0:    Casing Bottom (Driller) 1
 CSGL.FT                  400.0:    Casing Bottom (Logger) 1
 MUD . BRINE                                :    Drilling Fluid Type
 MUDV .CP                  27.0:    Drilling Fluid Viscosity
 MUDD .LB/USG              9.25:    Drilling Fluid Density
 PH.                        6.2:    Drilling Fluid Ph
 FL .ML/30MIN              11.0:    Drilling Fluid Loss
 MUDS .FLOW LINE                        :    Mud Sample Source
 RM .OHMM                   0.09:    Resistivity Of Mud Sample
 RMT .DEGF                 60.00:    Mud Sample Temperature
 RMF .OHMM                  0.09:    Mud Filtrate Resistivity
 RMFT.DEGF                 60.00:    Mud Filtrate Sample Temperature
 RMC .OHMM                  0.00:    Mud Cake Resistivity
 RMCT.DEGF                 00.00:    Mud Cake Sample Temperature
 RMB .OHMM                 0.027:    Mud Resistivity At Bht
 TMAX .DEGF               260.00:    Bottom Hole Temperature
#
~Other Information Block
<DescLogPlotStart>   NEURALOG PLOT DEFINITION
PLOTDEFVERSION: 3
LASFILE: D:\nds\projects\G\DAVE\new work\RS Energy - Texas - May 17 - Folder 2\
DEPTHSCALE: 240.000000
RESOLUTION: 400
DEPTHLABELFREQ: 100.000000
HEAVYGRIDFREQ: 100.000000
MEDIUMGRIDFREQ: 50.000000
LIGHTGRIDFREQ: 10.000000
#
#   TRACK 1
#
STARTTRACK: 
 LEFTX: 0.500000 inch
 RIGHTX: 3.000000 inch
 SCALETYPE: Linear
 NUMCHARTDIVISIONS: 10
CURVE: CALI  6.000000   16.000000  (0,0,255)      Solid             2     N    
CURVE: GR    0.000000   125.000000 (0,131,131)    Dot               2     Y    
BACKUP: 125.000000 250.000000 (0,131,131)    Dot               2    
ENDTRACK: 
#
#   TRACK 2
#
STARTTRACK: 
 LEFTX: 3.500000 inch
 RIGHTX: 8.500000 inch
 SCALETYPE: Linear
 NUMCHARTDIVISIONS: 10
CURVE: DT    100.000000 40.000000  (255,0,255)    Solid             2     Y    
BACKUP: 160.000000 100.000000 (255,0,255)    Solid             2    
ENDTRACK: 
<DescLogPlotEnd>
~A DEPTH     CALI             GR               DT              
# ...
    6312.500 12.291           39.616           62.230          
    6313.000 12.291           37.648           61.989          
    6313.500 12.291           35.691           61.790          
    6314.000 12.292           35.946           61.133          
    6314.500 12.292           36.487           60.492          
    6315.000 12.292           36.628           60.124          
    6315.500 12.293           38.162           60.447          
    6316.000 12.293           38.775           61.189          
    6316.500 12.293           38.773           61.930          
    6317.000 12.294           39.541           62.672          
    6317.500 12.294           41.679           63.091          
    6318.000 12.294           45.151           63.602          
    6318.500 12.294           51.467           64.452          
    6319.000 12.295           61.765           64.452          
    6319.500 12.295           76.605           64.224          
    6320.000 12.295           86.676           63.371          
    6320.500 12.296           89.556           62.025          
    6321.000 12.296           84.829           60.852          
    6321.500 12.296           78.556           60.992          
    6322.000 12.296           75.133           61.873          
    6322.500 12.297           82.073           63.089          
    6323.000 12.297           86.393           64.541          
    6323.500 12.297           81.985           63.206          
    6324.000 12.298           72.985           62.210          
    6324.500 12.298           75.966           61.671          
    6325.000 12.298           84.177           63.205          
    6325.500 12.299           98.156           63.510          
    6326.000 12.299           112.178          63.878          
    6326.500 12.299           118.992          64.571          
    6327.000 12.299           120.471          63.166          
    6327.500 12.300           121.922          63.757          
    6328.000 12.300           119.278          64.252          
    6328.500 12.300           114.364          63.828          
    6329.000 12.301           111.703          63.913          
    6329.500 12.301           112.925          64.858          
    6330.000 12.301           115.991          64.778          
    6330.500 12.301           113.122          64.379          
    6331.000 12.302           105.930          63.717          
    6331.500 12.302           89.320           62.414          
    6332.000 12.302           69.468           60.712          
    6332.500 12.303           60.030           60.227          
    6333.000 12.303           55.324           60.694          
    6333.500 12.303           53.964           61.036          
    6334.000 12.304           52.852           60.366          
    6334.500 12.304           49.906           59.059          
    6335.000 12.304           42.643           56.914          
    6335.500 12.304           35.427           57.765          
    6336.000 12.305           33.199           59.615          
    6336.500 12.305           37.038           61.528          
    6337.000 12.305           41.458           62.931          
    6337.500 12.306           44.007           63.242          
    6338.000 12.306           48.019           63.812          
    6338.500 12.306           53.789           64.411          
    6339.000 12.306           61.378           64.492          
    6339.500 12.307           64.021           64.302          
    6340.000 12.307           62.176           63.672          
    6340.500 12.307           59.888           63.388          
    6341.000 12.308           57.445           63.481          
    6341.500 12.308           57.083           63.574          
    6342.000 12.308           57.749           63.589          
    6342.500 12.309           58.788           63.364          
    6343.000 12.309           60.351           63.140          
    6343.500 12.308           59.079           62.889          
    6344.000 12.308           59.360           62.765          
    6344.500 12.308           62.239           63.205          
    6345.000 12.308           65.709           62.543          
    6345.500 12.307           64.182           61.577          
    6346.000 12.307           58.137           60.791          
    6346.500 12.307           49.421           59.488          
    6347.000 12.306           44.858           58.536          
    6347.500 12.306           42.438           59.032          
    6348.000 12.306           42.896           59.527          
    6348.500 12.306           45.841           60.386          
    6349.000 12.305           49.859           61.435          
    6349.500 12.305           55.724           62.483          
    6350.000 12.305           64.226           63.371          
    6350.500 12.305           72.763           63.300          
    6351.000 12.304           72.033           63.450          
    6351.500 12.304           73.400           63.659          
    6352.000 12.304           69.295           63.868          
    6352.500 12.304           68.310           63.897          
    6353.000 12.303           63.149           63.171          
    6353.500 12.303           57.116           62.298          
    6354.000 12.303           51.095           61.637          
    6354.500 12.303           48.304           61.281          
    6355.000 12.302           45.832           61.561          
    6355.500 12.302           46.330           62.162          
    6356.000 12.302           46.821           62.354          
    6356.500 12.302           48.376           62.298          
    6357.000 12.301           49.831           61.955          
    6357.500 12.301           51.607           62.044          
    6358.000 12.301           58.457           62.539          
    6358.500 12.301           68.827           62.866          
    6359.000 12.300           79.193           63.513          
    6359.500 12.300           89.571           63.465          
    6360.000 12.300           95.340           62.717          
    6360.500 12.300           98.237           62.314          
    6361.000 12.299           101.717          62.419          
    6361.500 12.299           107.694          63.088          
    6362.000 12.299           113.558          63.994          
    6362.500 12.292           116.027          63.562          
    6363.000 12.295           110.569          62.841          
    6363.500 12.299           99.504           62.425          
    6364.000 12.302           87.480           61.578          
    6364.500 12.306           71.216           60.489          
    6365.000 12.310           73.905           61.001          
    6365.500 12.313           79.772           61.409          
    6366.000 12.317           85.229           61.276          
    6366.500 12.318           88.176           61.419          
    6367.000 12.317           92.125           61.595          
    6367.500 12.316           89.904           61.374          
    6368.000 12.314           86.155           62.178          
    6368.500 12.313           78.870           61.561          
    6369.000 12.312           65.746           60.474          
    6369.500 12.311           67.366           61.830          
    6370.000 12.309           69.834           63.062          
    6370.500 12.308           70.495           62.504          
    6371.000 12.307           68.752           62.102          
    6371.500 12.306           61.902           61.295          
    6372.000 12.304           52.883           60.204          
    6372.500 12.303           51.542           60.796          
    6373.000 12.302           47.305           59.604          
    6373.500 12.301           42.723           58.574          
    6374.000 12.299           44.510           58.995          
    6374.500 12.299           41.907           59.990          
