###############################################
##         ENVERUS                           ##
##         ESS - Open Hole                   ##
##         PERMIAN / DELAWARE                ##
##         Nov 04 2023  V4.0                 ##
##         42-389-32421-01-00                ##
###############################################
## Copyright 2017-2023  ENVERUS.  All Rights Reserved. 
## Confidential - Property of ENVERUS, use governed by terms and 
## conditions found within the existing Information Services Subscription Agreement 
## (as may be amended, the “ISSA”) between Customer and ENVERUS. 
## 
~VERSION INFORMATION
# MNEM.UNIT                               DATA : DESCRIPTION OF MNEMONIC
#-----.-----     ----------------------------- : -----------------------------
VERS.                                     2.00 : CWLS LOG ASCII STANDARD - VERSION 2.00
WRAP.                                       NO : MULTIPLE LINES PER DEPTH STEP
VEND.                                  ENVERUS : VENDOR
TYPE.                          ESS - OPEN HOLE : ENVERUS ESSENTIAL CURVES – ACCESSIBLE THROUGH ENVERUS PRISM(TM)
DOC.                                  51227099 : ENVERUS HEADER RAW DOCUMENT ID
#___________________________________________________________________________________________________ 
~WELL INFORMATION 
# zrraAS4ibxVPgm4F4FjILRFQbgMcjf5VKWH9QXz9oP+5l3DBeEvHFHP9dTNjNwXm2+WMaTXZz7qhRLDoyN0AVg== 
# MNEM.UNIT                                              DATA : DESCRIPTION OF MNEMONIC 
#-----.-----                    ----------------------------- : ----------------------------- 
CNTY.                                                  REEVES : COUNTY 
STATE.                                                  TEXAS : STATE 
CNTRY.                                                    USA : COUNTRY 
API.                                             42-389-32421 : API (10 Digit) 
API_14.                                    42-389-32421-01-00 : API (14 Digits) 
API_14_std.                                 42-389-32421-0100 : API (14 Digits Standard) 
UWI.                                           42389324210100 : UNIQUE WELL ID 
WELL.                                      ARMSTRONG STATE #1 : WELL NAME
STRT.FT                                                2000.0 : START DEPTH
STOP.FT                                               14700.0 : STOP DEPTH
STEP.FT                                                   0.5 : STEP BETWEEN DEPTHS
NULL.                                                 -999.25 : NULL VALUE
COMP.                                   BULLDOG OPERATING CO. : COMPANY 
FLD.                                                  WILDCAT : FIELD 
LOC.                                                3-59-2778 : LOCATION 
SRVC.                                            SCHLUMBERGER : SERVICE COMPANY 
DATE.                                              08/28/2006 : DATE 
PREV_APII.                                       423893242100 : API NUMBER 
PREV_UWI.                                        423893242100 : UWI NUMBER 
TVD.                                                       NO : TVD FLAG
#___________________________________________________________________________________________________ 
~PARAMETER INFORMATION 
# MNEM.UNIT                                              DATA : DESCRIPTION OF MNEMONIC 
#-----.-----                    ----------------------------- : ----------------------------- 
RUN.                                                      ONE : RUN NUMBER 
PDAT.                                                      GL : PERMANENT DATUM 
EPD.FT                                              3134.8000 : ELEVATION OF PERM. DATUM 
LMF.                                            KELLY BUSHING : LOG MEASURED FROM 
EKB.FT                                              3157.8000 : ELEVATION OF KELLY BUSHING 
DF.FT                                               3156.8000 : ELEVATION OF DERRICK FLOOR 
GL.FT                                               3134.8000 : ELEVATION OF GROUND LEVEL 
TD.FT                                              14700.0000 : TOTAL DEPTH 
BHT.DEGF                                               230.00 : BOTTOM HOLE TEMPERATURE 
BLI.FT                                             14700.0000 : BOTTOM LOG INTERVAL 
CSGSIZE.IN                                             9.6250 : CASING SIZE 
BITSIZE.IN                                              8.750 : BITSIZE 
CSGD.FT                                                  2014 : CASING BOTTOM (DRILLER) 1 
CSGL.FT                                                  2014 : CASING BOTTOM (LOGGER) 1 
MUD.                                                    BRINE : DRILLING FLUID TYPE 
MUDV.CP                                               31.0000 : DRILLING FLUID VISCOSITY 
MUDD.LB/USG                                            9.3000 : DRILLING FLUID DENSITY 
FL.ML/30MIN                                           13.0000 : DRILLING FLUID LOSS 
PH.                                                   10.0000 : DRILLING FLUID PH 
MUDS.                                        CIRCULATION TANK : MUD SAMPLE SOURCE 
RM.OHMM                                                0.0540 : RESISTIVITY OF MUD SAMPLE 
RMT.DEGF                                              90.0000 : MUD SAMPLE TEMPERATURE 
RMF.OHMM                                               0.0640 : MUD FILTRATE RESISTIVITY 
RMFT.DEGF                                             80.0000 : MUD FILTRATE SAMPLE TEMPERATURE
#___________________________________________________________________________________________________ 
~CURVE INFORMATION 
# MNEM.UNIT           : CURVE DESCRIPTION 
#-----.-----          : ----------------------------- 
 DEPT.FT               : MEASURED DEPTH 
 DT.US/FT              : SONIC DELTA TRANSIT TIME (DELTA T) 
 SPHI.V/V              : SONIC POROSITY (SONIC POROSITY) 
 #___________________________________________________________________________________________________ 
~A         DEPT             DT           SPHI
         2000.0         52.978        0.04000
         2000.5         52.777        0.04100
         2001.0         52.914        0.04200
         2001.5         52.831        0.03800
         2002.0         52.531        0.03500
         2002.5         52.615        0.04000
         2003.0         53.116        0.04300
         2003.5         53.456        0.04400
         2004.0         53.474        0.04400
         2004.5         53.286        0.04200
         2005.0         53.099        0.04000
         2005.5         53.112        0.04200
         2006.0         53.488        0.04400
         2006.5         53.469        0.04500
         2007.0         53.318        0.04300
         2007.5         53.168        0.04200
         2008.0         53.018        0.05400
         2008.5         54.635        0.06600
         2009.0         58.410        0.08100
         2009.5         57.735        0.07900
         2010.0         55.660        0.06000
         2010.5         52.575        0.03700
         2011.0         54.198        0.06100
         2011.5         57.354        0.08700
         2012.0         60.511        0.11300
         2012.5         65.252        0.13000
         2013.0         63.505        0.11000
         2013.5         59.998        0.07200
         2014.0         56.491        0.04800
         2014.5         53.698        0.04100
         2015.0         52.696        0.03300
         2015.5         51.694        0.02600
         2016.0         50.692        0.02100
         2016.5         49.557        0.01900
         2017.0         49.449        0.01700
         2017.5         49.323        0.01400
         2018.0         49.198        0.01300
         2018.5         49.242        0.01400
         2019.0         49.376        0.01500
         2019.5         49.510        0.01700
         2020.0         49.643        0.01800
         2020.5         49.777        0.02000
         2021.0         49.910        0.02000
         2021.5         49.911        0.01900
         2022.0         49.834        0.01800
         2022.5         49.757        0.01800
         2023.0         49.679        0.01700
         2023.5         49.602        0.01700
         2024.0         49.590        0.01800
         2024.5         49.675        0.01900
         2025.0         49.759        0.01900
         2025.5         49.844        0.02000
         2026.0         49.928        0.01900
         2026.5         49.882        0.01900
         2027.0         49.745        0.01700
         2027.5         49.608        0.01600
         2028.0         49.470        0.01500
         2028.5         49.333        0.01300
         2029.0         49.196        0.01200
         2029.5         49.059        0.01200
         2030.0         48.922        0.01100
         2030.5         48.785        0.01100
         2031.0         48.885        0.01200
         2031.5         49.062        0.01300
         2032.0         49.239        0.01500
         2032.5         49.415        0.01700
         2033.0         49.592        0.01800
         2033.5         49.768        0.01900
         2034.0         49.958        0.01900
         2034.5         49.958        0.02000
         2035.0         49.960        0.02000
         2035.5         49.960        0.02000
         2036.0         49.960        0.02100
         2036.5         49.960        0.02100
         2037.0         49.960        0.02100
         2037.5         49.960        0.02100
         2038.0         49.960        0.02000
         2038.5         49.960        0.02000
         2039.0         49.960        0.02000
         2039.5         49.961        0.02000
         2040.0         49.961        0.02000
         2040.5         49.961        0.02000
         2041.0         49.961        0.02000
         2041.5         49.961        0.01900
         2042.0         49.838        0.01800
         2042.5         49.377        0.01500
         2043.0         48.916        0.01200
         2043.5         48.455        0.00900
         2044.0         47.995        0.00600
         2044.5         47.741        0.00500
         2045.0         47.742        0.00400
         2045.5         47.974        0.00500
         2046.0         48.249        0.00700
         2046.5         48.525        0.00900
         2047.0         48.799        0.01000
         2047.5         48.939        0.01000
         2048.0         48.893        0.01000
         2048.5         48.847        0.01000
         2049.0         48.801        0.01000
         2049.5         48.755        0.01000
         2050.0         48.889        0.01200
         2050.5         49.021        0.01300
         2051.0         49.155        0.01400
         2051.5         49.289        0.01500
         2052.0         49.423        0.01600
         2052.5         49.557        0.01700
         2053.0         49.512        0.01800
         2053.5         49.466        0.01700
         2054.0         49.420        0.01700
         2054.5         49.374        0.01600
         2055.0         49.329        0.01500
         2055.5         49.283        0.01500
         2056.0         49.238        0.01400
         2056.5         49.192        0.01400
         2057.0         49.155        0.01500
         2057.5         49.206        0.01500
         2058.0         49.248        0.01500
         2058.5         49.289        0.01500
         2059.0         49.331        0.01500
         2059.5         49.372        0.01500
         2060.0         49.413        0.01400
         2060.5         49.455        0.01500
         2061.0         49.496        0.01600
         2061.5         49.537        0.01700
         2062.0         49.722        0.01800
         2062.5         49.996        0.02100
         2063.0         50.271        0.02200
         2063.5         50.545        0.02400
         2064.0         50.765        0.02500
         2064.5         50.101        0.02100
         2065.0         49.547        0.01800
         2065.5         48.994        0.01500
         2066.0         48.551        0.01200
         2066.5         48.896        0.01300
         2067.0         49.184        0.01300
         2067.5         49.331        0.01400
         2068.0         49.268        0.01500
         2068.5         49.205        0.01500
         2069.0         49.142        0.01400
         2069.5         49.079        0.01400
         2070.0         49.017        0.01300
         2070.5         48.954        0.01200
         2071.0         49.205        0.01400
         2071.5         49.457        0.01600
         2072.0         49.708        0.01700
         2072.5         49.960        0.02000
         2073.0         50.211        0.02100
         2073.5         50.273        0.02100
         2074.0         50.049        0.02100
         2074.5         49.826        0.01900
         2075.0         49.602        0.01700
         2075.5         49.378        0.01600
         2076.0         49.155        0.01400
         2076.5         48.931        0.01300
         2077.0         48.753        0.01200
         2077.5         48.925        0.01200
         2078.0         49.069        0.01300
         2078.5         49.212        0.01500
         2079.0         49.356        0.01700
         2079.5         49.500        0.01700
         2080.0         49.517        0.01600
         2080.5         49.450        0.01500
         2081.0         49.383        0.01400
         2081.5         49.316        0.01400
         2082.0         49.249        0.01400
         2082.5         49.182        0.01400
         2083.0         49.155        0.01400
         2083.5         49.155        0.01400
         2084.0         49.155        0.01500
         2084.5         49.155        0.01500
         2085.0         49.155        0.01500
         2085.5         49.155        0.01400
         2086.0         49.155        0.01300
         2086.5         49.155        0.01300
