###############################################
##         ENVERUS                           ##
##         ESS - Open Hole                   ##
##         PERMIAN / DELAWARE                ##
##         Nov 04 2023  V4.0                 ##
##         42-389-32245-00-00                ##
###############################################
## Copyright 2017-2023  ENVERUS.  All Rights Reserved. 
## Confidential - Property of ENVERUS, use governed by terms and 
## conditions found within the existing Information Services Subscription Agreement 
## (as may be amended, the “ISSA”) between Customer and ENVERUS. 
## 
~VERSION INFORMATION
# MNEM.UNIT                               DATA : DESCRIPTION OF MNEMONIC
#-----.-----     ----------------------------- : -----------------------------
VERS.                                     2.00 : CWLS LOG ASCII STANDARD - VERSION 2.00
WRAP.                                       NO : MULTIPLE LINES PER DEPTH STEP
VEND.                                  ENVERUS : VENDOR
TYPE.                          ESS - OPEN HOLE : ENVERUS ESSENTIAL CURVES – ACCESSIBLE THROUGH ENVERUS PRISM(TM)
DOC.                                  24742630 : ENVERUS HEADER RAW DOCUMENT ID
#___________________________________________________________________________________________________ 
~WELL INFORMATION 
# u9Wg0OWXiPz858M7Kubpm0lpDPxjGuyhH3tqBPDGtvBYDDDqGrwiIchrhDPbdkpmsDZNCKsM7+2eKUVstoQO7Q== 
# MNEM.UNIT                                              DATA : DESCRIPTION OF MNEMONIC 
#-----.-----                    ----------------------------- : ----------------------------- 
CNTY.                                                  REEVES : COUNTY 
STATE.                                                  TEXAS : STATE 
CNTRY.                                                    USA : COUNTRY 
API.                                             42-389-32245 : API (10 Digit) 
API_14.                                    42-389-32245-00-00 : API (14 Digits) 
API_14_std.                                 42-389-32245-0000 : API (14 Digits Standard) 
UWI.                                           42389322450000 : UNIQUE WELL ID 
WELL.                          TEXAS PACIFIC LAND TRUST #25-1 : WELL NAME
STRT.FT                                                2530.0 : START DEPTH
STOP.FT                                               10610.0 : STOP DEPTH
STEP.FT                                                   0.5 : STEP BETWEEN DEPTHS
NULL.                                                 -999.25 : NULL VALUE
COMP.                                             CONOCO INC. : COMPANY 
FLD.                                            FORD WOLFCAMP : FIELD 
LOC.                                                 25-2S-58 : LOCATION 
SRVC.                                            SCHLUMBERGER : SERVICE COMPANY 
DATE.                                              03/21/2002 : DATE 
TVD.                                                       NO : TVD FLAG
#___________________________________________________________________________________________________ 
~PARAMETER INFORMATION 
# MNEM.UNIT                                              DATA : DESCRIPTION OF MNEMONIC 
#-----.-----                    ----------------------------- : ----------------------------- 
RUN.                                                      ONE : RUN NUMBER 
PDAT.                                                      GL : PERMANENT DATUM 
EPD.FT                                              2993.0000 : ELEVATION OF PERM. DATUM 
LMF.                                            KELLY BUSHING : LOG MEASURED FROM 
EKB.FT                                              3021.0000 : ELEVATION OF KELLY BUSHING 
DF.FT                                               3020.0000 : ELEVATION OF DERRICK FLOOR 
GL.FT                                               2993.0000 : ELEVATION OF GROUND LEVEL 
TD.FT                                              10610.0000 : TOTAL DEPTH 
BHT.DEGF                                               130.00 : BOTTOM HOLE TEMPERATURE 
BLI.FT                                             10610.0000 : BOTTOM LOG INTERVAL 
CSGSIZE.IN                                             9.6250 : CASING SIZE 
BITSIZE.IN                                              8.750 : BITSIZE 
CSGD.FT                                                  2642 : CASING BOTTOM (DRILLER) 1 
CSGL.FT                                                  2538 : CASING BOTTOM (LOGGER) 1 
MUD.                                                CUT BRINE : DRILLING FLUID TYPE 
MUDV.CP                                               28.0000 : DRILLING FLUID VISCOSITY 
MUDD.LB/USG                                           10.0000 : DRILLING FLUID DENSITY 
PH.                                                    8.5000 : DRILLING FLUID PH 
MUDS.                                        CIRCULATION TANK : MUD SAMPLE SOURCE 
RM.OHMM                                                0.0610 : RESISTIVITY OF MUD SAMPLE 
RMT.DEGF                                              75.0000 : MUD SAMPLE TEMPERATURE 
RMF.OHMM                                               0.0610 : MUD FILTRATE RESISTIVITY 
RMFT.DEGF                                             75.0000 : MUD FILTRATE SAMPLE TEMPERATURE
#___________________________________________________________________________________________________ 
~CURVE INFORMATION 
# MNEM.UNIT           : CURVE DESCRIPTION 
#-----.-----          : ----------------------------- 
 DEPT.FT               : MEASURED DEPTH 
 CALI.IN               : CALIPER (CALIPER) 
 GR.API                : GAMMA RAY (GAMMA RAY) 
 DT.US/FT              : SONIC DELTA TRANSIT TIME (DELTA T) 
 SPHI.V/V              : SONIC POROSITY (SONIC POROSITY) 
 #___________________________________________________________________________________________________ 
~A         DEPT           CALI             GR             DT           SPHI
# ...
         7353.0          8.900         91.640         65.540        0.13000
         7353.5          8.880        104.040         67.700        0.15000
         7354.0          8.880        112.880         68.860        0.15000
         7354.5          8.890        114.390         68.160        0.14000
         7355.0          8.890         98.880         66.530        0.13000
         7355.5          8.900         87.490         64.970        0.12000
         7356.0          8.910         80.580         64.160        0.12000
         7356.5          8.910         79.130         63.750        0.11000
         7357.0          8.920         78.300         63.350        0.11000
         7357.5          8.930         74.740         62.960        0.11000
         7358.0          8.940         68.910         62.390        0.10000
         7358.5          8.940         63.070         61.280        0.09000
         7359.0          8.950         57.210         60.450        0.09000
         7359.5          8.960         53.700         61.470        0.10000
         7360.0          8.970         56.050         63.510        0.12000
         7360.5          8.990         63.540         65.550        0.13000
         7361.0          9.010         71.780         66.850        0.14000
         7361.5          9.030         82.070         67.750        0.14000
         7362.0          9.050         84.360         68.130        0.14000
         7362.5          9.070         85.040         68.100        0.15000
         7363.0          9.090         85.770         68.290        0.15000
         7363.5          9.110         83.640         69.170        0.16000
         7364.0          9.140         74.790         70.670        0.17000
         7364.5          9.160         63.520         72.160        0.18000
         7365.0          9.180         52.090         73.310        0.18000
         7365.5          9.210         48.470         73.810        0.19000
         7366.0          9.260         47.710         74.080        0.19000
         7366.5          9.300         48.280         74.140        0.19000
         7367.0          9.340         50.130         73.650        0.18000
         7367.5          9.380         55.880         72.100        0.17000
         7368.0          9.370         61.610         69.640        0.15000
         7368.5          9.350         67.760         66.920        0.13000
         7369.0          9.340         64.440         65.550        0.12000
         7369.5          9.360         58.980         65.470        0.12000
         7370.0          9.390         53.490         67.410        0.14000
         7370.5          9.430         51.400         69.980        0.16000
         7371.0          9.460         52.120         72.600        0.18000
         7371.5          9.500         55.930         73.680        0.18000
         7372.0          9.510         60.860         72.590        0.17000
         7372.5          9.530         65.770         71.270        0.16000
         7373.0          9.550         66.510         68.580        0.15000
         7373.5          9.570         62.500         66.070        0.13000
         7374.0          9.590         53.420         63.320        0.11000
         7374.5          9.610         44.000         62.470        0.10000
         7375.0          9.630         40.530         61.890        0.10000
         7375.5          9.640         37.910         61.340        0.09000
         7376.0          9.660         37.710         60.970        0.09000
         7376.5          9.670         38.490         62.080        0.11000
         7377.0          9.690         41.790         64.220        0.13000
         7377.5          9.700         45.110         67.170        0.14000
         7378.0          9.720         48.450         68.090        0.14000
         7378.5          9.730         51.830         66.740        0.13000
         7379.0          9.720         52.840         65.800        0.13000
         7379.5          9.710         52.580         66.140        0.13000
         7380.0          9.700         53.070         66.710        0.14000
         7380.5          9.680         54.760         68.550        0.15000
         7381.0          9.670         56.500         70.060        0.16000
         7381.5          9.660         57.340         71.180        0.17000
         7382.0          9.650         55.630         71.780        0.17000
         7382.5          9.640         54.620         72.150        0.18000
         7383.0          9.620         56.680         72.520        0.18000
         7383.5          9.640         58.930         72.830        0.18000
         7384.0          9.650         59.390         73.020        0.18000
         7384.5          9.670         55.290         73.100        0.18000
         7385.0          9.680         52.030         73.080        0.18000
         7385.5          9.700         52.010         72.760        0.18000
         7386.0          9.720         56.800         71.830        0.17000
         7386.5          9.730         65.880         70.690        0.16000
         7387.0          9.750         75.030         69.800        0.15000
         7387.5          9.760         86.300         69.130        0.15000
         7388.0          9.770         84.150         68.530        0.15000
         7388.5          9.790         72.870         68.190        0.15000
         7389.0          9.800         61.600         67.880        0.14000
         7389.5          9.810         50.820         68.260        0.15000
         7390.0          9.820         44.940         68.960        0.15000
         7390.5          9.830         40.810         70.200        0.16000
         7391.0          9.850         40.610         71.430        0.17000
         7391.5          9.860         46.080         72.280        0.18000
         7392.0          9.870         50.480         72.630        0.18000
         7392.5          9.880         55.000         72.910        0.18000
         7393.0          9.890         57.840         73.190        0.18000
         7393.5          9.910         58.810         73.410        0.18000
         7394.0          9.910         59.480         73.430        0.18000
         7394.5          9.910         58.970         73.290        0.18000
         7395.0          9.910         58.080         72.900        0.18000
         7395.5          9.910         57.680         72.550        0.18000
         7396.0          9.910         59.230         72.300        0.17000
         7396.5          9.910         62.030         72.240        0.17000
         7397.0          9.910         64.540         72.180        0.17000
         7397.5          9.910         65.770         71.810        0.17000
         7398.0          9.910         68.520         71.440        0.17000
         7398.5          9.900         71.440         71.070        0.16000
         7399.0          9.880         73.970         70.710        0.16000
         7399.5          9.850         67.440         70.870        0.17000
         7400.0          9.820         60.610         71.940        0.18000
         7400.5          9.790         55.360         73.190        0.19000
         7401.0          9.760         56.090         74.450        0.20000
         7401.5          9.730         58.150         75.710        0.20000
         7402.0          9.700         63.530         75.640        0.19000
         7402.5          9.670         69.280         74.430        0.18000
         7403.0          9.620         75.040         72.470        0.17000
         7403.5          9.570         80.620         70.500        0.16000
         7404.0          9.510         83.430         69.100        0.15000
         7404.5          9.460         83.800         68.390        0.15000
         7405.0          9.400         83.630         67.880        0.14000
         7405.5          9.350         82.910         68.010        0.15000
