###############################################
##         ENVERUS                           ##
##         ESS - Open Hole                   ##
##         PERMIAN / DELAWARE                ##
##         Nov 04 2023  V4.0                 ##
##         42-389-32398-00-00                ##
###############################################
## Copyright 2017-2023  ENVERUS.  All Rights Reserved. 
## Confidential - Property of ENVERUS, use governed by terms and 
## conditions found within the existing Information Services Subscription Agreement 
## (as may be amended, the “ISSA”) between Customer and ENVERUS. 
## 
~VERSION INFORMATION
# MNEM.UNIT                               DATA : DESCRIPTION OF MNEMONIC
#-----.-----     ----------------------------- : -----------------------------
VERS.                                     2.00 : CWLS LOG ASCII STANDARD - VERSION 2.00
WRAP.                                       NO : MULTIPLE LINES PER DEPTH STEP
VEND.                                  ENVERUS : VENDOR
TYPE.                          ESS - OPEN HOLE : ENVERUS ESSENTIAL CURVES – ACCESSIBLE THROUGH ENVERUS PRISM(TM)
DOC.                                  31812117 : ENVERUS HEADER RAW DOCUMENT ID
#___________________________________________________________________________________________________ 
~WELL INFORMATION 
# uAwnbjLw6pKN5CeTb7gwROLhNOHLu74gercCwdGpUdKCBCGOTLsJuzWIBCYkU6KzQxtC+uHRBloynRtd0Ulspg== 
# MNEM.UNIT                                              DATA : DESCRIPTION OF MNEMONIC 
#-----.-----                    ----------------------------- : ----------------------------- 
CNTY.                                                  REEVES : COUNTY 
STATE.                                                  TEXAS : STATE 
CNTRY.                                                    USA : COUNTRY 
API.                                             42-389-32398 : API (10 Digit) 
API_14.                                    42-389-32398-00-00 : API (14 Digits) 
API_14_std.                                 42-389-32398-0000 : API (14 Digits Standard) 
UWI.                                           42389323980000 : UNIQUE WELL ID 
WELL.                                    BLOCK 58 STATE 32  1 : WELL NAME
STRT.FT                                                8311.0 : START DEPTH
STOP.FT                                               12834.0 : STOP DEPTH
STEP.FT                                                   0.5 : STEP BETWEEN DEPTHS
NULL.                                                 -999.25 : NULL VALUE
COMP.                                       SHELL WESTERN E&P : COMPANY 
DATE.                                             08-FEB-2006 : LOG DATE
#___________________________________________________________________________________________________ 
~CURVE INFORMATION 
# MNEM.UNIT           : CURVE DESCRIPTION 
#-----.-----          : ----------------------------- 
 DEPT.FT               : MEASURED DEPTH 
 CALI__B.IN            : CALIPER (CAL - CAL) 
 GR__B.API             : GAMMA RAY (GR) 
 DT__B.US/FT           : SONIC DELTA TRANSIT TIME (DT) 
 RESS__B.OHMM          : SHALLOW INDUCTION RESISTIVITY (ILS - ILS) 
 RESD__B.OHMM          : DEEP INDUCTION RESISTIVITY (ILD - ILD) 
 #___________________________________________________________________________________________________ 
~A         DEPT        CALI__B          GR__B          DT__B        RESS__B        RESD__B
# ...
        11963.0          8.311        150.083         84.723         44.113         54.162
        11963.5          8.310        158.191         84.602         47.473         55.650
        11964.0          8.309        164.485         84.297         50.833         61.580
        11964.5          8.307        157.740         83.773         50.519         67.137
        11965.0          8.306        150.995         83.070         49.822         65.124
        11965.5          8.304        142.265         80.605         49.773         63.112
        11966.0          8.303        138.979         74.498         49.898         61.100
        11966.5          8.301        135.693         66.622         50.023         60.182
        11967.0          8.300        117.135         60.855         51.729         60.329
        11967.5          8.299         90.821         60.178         55.702         62.753
        11968.0          8.297         73.330         58.475         64.580         85.926
        11968.5          8.296         56.651         58.810         80.391        109.099
        11969.0          8.294         45.906         60.657         95.958        132.272
        11969.5          8.293         47.419         64.969        110.769        145.570
        11970.0          8.291         59.926         71.972        101.418        127.197
        11970.5          8.291         84.345         78.375         92.153        108.824
        11971.0          8.290        108.763         81.337         57.815         95.150
        11971.5          8.289        133.181         84.135         54.193         86.622
        11972.0          8.288        157.009         85.316         53.975         78.093
        11972.5          8.287        179.118         85.278         52.877         69.564
        11973.0          8.286        181.546         84.707         50.079         61.035
        11973.5          8.285        180.610         84.137         47.013         57.029
        11974.0          8.284        164.246         84.067         46.231         58.594
        11974.5          8.283        162.877         83.887         47.526         59.951
        11975.0          8.282        161.507         83.649         47.085         55.777
        11975.5          8.281        160.137         83.374         40.774         51.603
        11976.0          8.280        159.139         83.489         38.067         47.429
        11976.5          8.279        158.293         83.631         35.487         43.255
        11977.0          8.278        157.448         83.582         35.429         42.833
        11977.5          8.277        156.603         83.514         35.372         44.655
        11978.0          8.276        155.758         83.446         36.058         46.477
        11978.5          8.275        154.913         83.378         36.963         48.299
        11979.0          8.274        154.655         83.504         38.004         50.121
        11979.5          8.273        154.655         83.707         39.147         51.943
        11980.0          8.273        156.631         83.791         39.723         53.711
        11980.5          8.274        160.433         83.823         39.929         52.891
        11981.0          8.275        164.236         83.903         40.859         52.071
        11981.5          8.276        168.038         84.644         42.562         52.778
        11982.0          8.277        166.730         86.055         43.937         54.016
        11982.5          8.278        165.309         87.072         38.418         49.904
        11983.0          8.279        164.828         87.349         32.887         39.487
        11983.5          8.280        165.387         87.553         26.965         29.071
        11984.0          8.281        165.946         88.597         20.984         21.046
        11984.5          8.282        166.236         89.641         15.072         17.444
        11985.0          8.283        165.874         90.685         13.780         13.841
        11985.5          8.284        165.512         91.191         13.823         14.243
        11986.0          8.285        165.150         91.248         14.473         14.744
        11986.5          8.286        166.384         91.438         13.543         14.430
        11987.0          8.287        168.064         91.518         12.344         13.061
        11987.5          8.288        169.745         90.913         12.655         13.007
        11988.0          8.289        169.511         90.339         14.058         14.041
        11988.5          8.290        168.549         89.861         15.425         15.074
        11989.0          8.291        167.244         89.762         14.301         15.336
        11989.5          8.292        165.939         89.887         12.018         13.415
        11990.0          8.293        165.396         89.928         10.033         11.494
        11990.5          8.294        164.921         90.016          8.499          9.573
        11991.0          8.295        165.248         90.523          8.609          8.794
        11991.5          8.296        168.064         90.325         10.753         11.895
        11992.0          8.297        170.881         90.038         13.639         14.997
        11992.5          8.298        171.597         89.843         15.968         18.099
        11993.0          8.299        171.488         89.771         18.653         21.201
        11993.5          8.299        172.211         88.640         19.210         23.238
        11994.0          8.300        174.310         85.469         18.911         23.273
        11994.5          8.301        176.410         83.992         18.111         21.656
        11995.0          8.302        177.238         83.474         17.642         20.039
        11995.5          8.303        164.189         83.173         18.130         19.274
        11996.0          8.304        145.861         84.967         19.805         20.473
        11996.5          8.305        127.666         87.135         21.176         21.672
        11997.0          8.306        132.815         89.636         20.373         22.284
        11997.5          8.307        144.567         91.571         19.782         21.131
        11998.0          8.308        161.265         91.655         18.996         19.979
        11998.5          8.309        178.318         91.072         18.209         18.827
        11999.0          8.312        175.263         88.698         17.423         17.674
        11999.5          8.317        172.209         81.070         16.739         16.662
        12000.0          8.321        157.039         72.655         18.020         17.375
        12000.5          8.326        129.279         69.727         21.951         24.384
        12001.0          8.330         96.018         72.214         28.604         32.924
        12001.5          8.334         70.248         75.344         37.326         41.088
        12002.0          8.339         79.923         79.176         37.851         45.371
        12002.5          8.343        105.078         83.815         36.093         49.655
        12003.0          8.346        130.233         90.959         34.809         53.938
        12003.5          8.344        153.257         92.121         39.904         72.468
        12004.0          8.341        165.923         92.524         42.262         92.523
        12004.5          8.339        178.590         92.551         44.562        112.578
        12005.0          8.336        191.257         91.926         50.386        117.981
        12005.5          8.334        203.923         91.201         53.158        103.216
        12006.0          8.331        216.409         90.475         51.872         84.219
        12006.5          8.329        218.010         89.741         50.430         65.223
