###############################################
##         ENVERUS                           ##
##         ESS - Open Hole                   ##
##         PERMIAN / DELAWARE                ##
##         Nov 04 2023  V4.0                 ##
##         42-389-32421-01-00                ##
###############################################
## Copyright 2017-2023  ENVERUS.  All Rights Reserved. 
## Confidential - Property of ENVERUS, use governed by terms and 
## conditions found within the existing Information Services Subscription Agreement 
## (as may be amended, the “ISSA”) between Customer and ENVERUS. 
## 
~VERSION INFORMATION
# MNEM.UNIT                               DATA : DESCRIPTION OF MNEMONIC
#-----.-----     ----------------------------- : -----------------------------
VERS.                                     2.00 : CWLS LOG ASCII STANDARD - VERSION 2.00
WRAP.                                       NO : MULTIPLE LINES PER DEPTH STEP
VEND.                                  ENVERUS : VENDOR
TYPE.                          ESS - OPEN HOLE : ENVERUS ESSENTIAL CURVES – ACCESSIBLE THROUGH ENVERUS PRISM(TM)
DOC.                                  51227099 : ENVERUS HEADER RAW DOCUMENT ID
#___________________________________________________________________________________________________ 
~WELL INFORMATION 
# zrraAS4ibxVPgm4F4FjILRFQbgMcjf5VKWH9QXz9oP+5l3DBeEvHFHP9dTNjNwXm2+WMaTXZz7qhRLDoyN0AVg== 
# MNEM.UNIT                                              DATA : DESCRIPTION OF MNEMONIC 
#-----.-----                    ----------------------------- : ----------------------------- 
CNTY.                                                  REEVES : COUNTY 
STATE.                                                  TEXAS : STATE 
CNTRY.                                                    USA : COUNTRY 
API.                                             42-389-32421 : API (10 Digit) 
API_14.                                    42-389-32421-01-00 : API (14 Digits) 
API_14_std.                                 42-389-32421-0100 : API (14 Digits Standard) 
UWI.                                           42389324210100 : UNIQUE WELL ID 
WELL.                                      ARMSTRONG STATE #1 : WELL NAME
STRT.FT                                                2000.0 : START DEPTH
STOP.FT                                               14700.0 : STOP DEPTH
STEP.FT                                                   0.5 : STEP BETWEEN DEPTHS
NULL.                                                 -999.25 : NULL VALUE
COMP.                                   BULLDOG OPERATING CO. : COMPANY 
FLD.                                                  WILDCAT : FIELD 
LOC.                                                3-59-2778 : LOCATION 
SRVC.                                            SCHLUMBERGER : SERVICE COMPANY 
DATE.                                              08/28/2006 : DATE 
PREV_APII.                                       423893242100 : API NUMBER 
PREV_UWI.                                        423893242100 : UWI NUMBER 
TVD.                                                       NO : TVD FLAG
#___________________________________________________________________________________________________ 
~PARAMETER INFORMATION 
# MNEM.UNIT                                              DATA : DESCRIPTION OF MNEMONIC 
#-----.-----                    ----------------------------- : ----------------------------- 
RUN.                                                      ONE : RUN NUMBER 
PDAT.                                                      GL : PERMANENT DATUM 
EPD.FT                                              3134.8000 : ELEVATION OF PERM. DATUM 
LMF.                                            KELLY BUSHING : LOG MEASURED FROM 
EKB.FT                                              3157.8000 : ELEVATION OF KELLY BUSHING 
DF.FT                                               3156.8000 : ELEVATION OF DERRICK FLOOR 
GL.FT                                               3134.8000 : ELEVATION OF GROUND LEVEL 
TD.FT                                              14700.0000 : TOTAL DEPTH 
BHT.DEGF                                               230.00 : BOTTOM HOLE TEMPERATURE 
BLI.FT                                             14700.0000 : BOTTOM LOG INTERVAL 
CSGSIZE.IN                                             9.6250 : CASING SIZE 
BITSIZE.IN                                              8.750 : BITSIZE 
CSGD.FT                                                  2014 : CASING BOTTOM (DRILLER) 1 
CSGL.FT                                                  2014 : CASING BOTTOM (LOGGER) 1 
MUD.                                                    BRINE : DRILLING FLUID TYPE 
MUDV.CP                                               31.0000 : DRILLING FLUID VISCOSITY 
MUDD.LB/USG                                            9.3000 : DRILLING FLUID DENSITY 
FL.ML/30MIN                                           13.0000 : DRILLING FLUID LOSS 
PH.                                                   10.0000 : DRILLING FLUID PH 
MUDS.                                        CIRCULATION TANK : MUD SAMPLE SOURCE 
RM.OHMM                                                0.0540 : RESISTIVITY OF MUD SAMPLE 
RMT.DEGF                                              90.0000 : MUD SAMPLE TEMPERATURE 
RMF.OHMM                                               0.0640 : MUD FILTRATE RESISTIVITY 
RMFT.DEGF                                             80.0000 : MUD FILTRATE SAMPLE TEMPERATURE
#___________________________________________________________________________________________________ 
~CURVE INFORMATION 
# MNEM.UNIT           : CURVE DESCRIPTION 
#-----.-----          : ----------------------------- 
 DEPT.FT               : MEASURED DEPTH 
 DT.US/FT              : SONIC DELTA TRANSIT TIME (DELTA T) 
 SPHI.V/V              : SONIC POROSITY (SONIC POROSITY) 
 #___________________________________________________________________________________________________ 
~A         DEPT             DT           SPHI
# ...
         4523.0         78.682        0.22600
         4523.5         78.431        0.22500
         4524.0         78.179        0.22400
         4524.5         77.928        0.22200
         4525.0         77.676        0.22100
         4525.5         77.615        0.21900
         4526.0         77.838        0.22100
         4526.5         78.056        0.22300
         4527.0         78.326        0.22500
         4527.5         78.387        0.22600
         4528.0         78.462        0.22700
         4528.5         78.537        0.22900
         4529.0         79.043        0.23200
         4529.5         79.548        0.23500
         4530.0         79.598        0.23300
         4530.5         79.336        0.23200
         4531.0         79.135        0.23100
         4531.5         79.210        0.23100
         4532.0         79.273        0.23200
         4532.5         79.336        0.23200
         4533.0         77.899        0.22600
         4533.5         76.462        0.21500
         4534.0         75.312        0.20200
         4534.5         75.115        0.20300
         4535.0         76.051        0.20800
         4535.5         76.984        0.21500
         4536.0         77.729        0.22100
         4536.5         77.727        0.22100
         4537.0         77.727        0.22100
         4537.5         77.728        0.22000
         4538.0         77.726        0.22000
         4538.5         77.575        0.22000
         4539.0         77.387        0.21900
         4539.5         77.198        0.21800
         4540.0         76.620        0.21600
         4540.5         75.781        0.21000
         4541.0         74.943        0.20300
         4541.5         74.105        0.19500
         4542.0         74.719        0.19600
         4542.5         75.334        0.20500
         4543.0         75.949        0.20900
         4543.5         76.452        0.21100
         4544.0         76.787        0.21300
         4544.5         77.123        0.21700
         4545.0         77.458        0.22000
         4545.5         77.793        0.22300
         4546.0         77.525        0.22200
         4546.5         76.801        0.21800
         4547.0         75.895        0.21000
         4547.5         74.990        0.20200
         4548.0         73.903        0.19300
         4548.5         73.702        0.19100
         4549.0         73.451        0.19000
         4549.5         73.208        0.18700
         4550.0         72.862        0.18400
         4550.5         72.458        0.18200
         4551.0         72.057        0.17900
         4551.5         71.660        0.17600
         4552.0         71.406        0.17300
         4552.5         71.245        0.17400
         4553.0         71.114        0.18100
         4553.5         73.139        0.19200
         4554.0         74.849        0.20300
         4554.5         76.559        0.21400
         4555.0         77.928        0.22200
         4555.5         78.229        0.22600
         4556.0         77.689        0.21800
         4556.5         76.620        0.21100
         4557.0         75.551        0.19900
         4557.5         75.197        0.20100
         4558.0         75.915        0.20600
         4558.5         76.634        0.21200
         4559.0         76.922        0.21500
         4559.5         77.180        0.21700
         4560.0         77.396        0.22000
         4560.5         77.659        0.22300
         4561.0         77.995        0.22500
         4561.5         78.330        0.22400
         4562.0         78.246        0.22400
         4562.5         78.162        0.22300
         4563.0         78.078        0.22200
         4563.5         77.995        0.22200
         4564.0         77.928        0.21900
         4564.5         77.173        0.21500
         4565.0         76.528        0.21100
         4565.5         75.899        0.20700
         4566.0         75.269        0.20400
         4566.5         75.144        0.20500
         4567.0         75.774        0.20800
         4567.5         76.405        0.21100
         4568.0         76.912        0.21400
         4568.5         76.494        0.21300
         4569.0         76.147        0.20900
         4569.5         75.799        0.20600
         4570.0         75.520        0.20600
         4570.5         76.200        0.21000
         4571.0         76.765        0.21400
         4571.5         77.329        0.21800
         4572.0         77.831        0.22200
         4572.5         78.333        0.22600
         4573.0         78.617        0.22700
         4573.5         78.761        0.22900
         4574.0         78.934        0.22800
         4574.5         78.451        0.22600
         4575.0         77.726        0.22200
         4575.5         76.271        0.21700
         4576.0         74.453        0.20000
         4576.5         72.634        0.18300
         4577.0         70.816        0.16500
         4577.5         68.997        0.15400
         4578.0         68.068        0.15000
         4578.5         68.135        0.15200
         4579.0         68.672        0.15600
         4579.5         69.544        0.16000
         4580.0         70.271        0.16700
         4580.5         70.981        0.17600
         4581.0         72.227        0.18600
         4581.5         73.824        0.19500
         4582.0         75.106        0.20200
         4582.5         74.884        0.20000
         4583.0         74.604        0.19800
         4583.5         74.322        0.19700
         4584.0         75.333        0.20300
         4584.5         76.318        0.21200
         4585.0         76.486        0.21000
         4585.5         76.094        0.20700
         4586.0         75.703        0.20400
         4586.5         75.312        0.20800
         4587.0         76.402        0.21400
         4587.5         77.492        0.21900
         4588.0         77.928        0.22200
         4588.5         77.928        0.22200
         4589.0         77.928        0.22300
         4589.5         78.003        0.22400
         4590.0         78.192        0.22400
         4590.5         78.380        0.22500
         4591.0         78.531        0.22600
         4591.5         78.380        0.22500
         4592.0         77.764        0.22400
         4592.5         76.821        0.21500
         4593.0         75.878        0.20600
         4593.5         75.312        0.20400
         4594.0         75.312        0.20700
         4594.5         76.692        0.21400
         4595.0         77.841        0.22200
         4595.5         78.531        0.22600
         4596.0         78.531        0.22600
         4596.5         77.190        0.21700
         4597.0         75.513        0.20700
         4597.5         74.507        0.19600
         4598.0         74.507        0.20300
         4598.5         76.922        0.21400
         4599.0         78.531        0.22300
         4599.5         78.531        0.22600
         4600.0         77.754        0.22200
         4600.5         76.976        0.21500
         4601.0         76.199        0.20800
         4601.5         75.422        0.20100
         4602.0         75.312        0.19800
         4602.5         74.759        0.19500
         4603.0         74.067        0.19200
         4603.5         73.375        0.19000
         4604.0         73.745        0.19000
         4604.5         74.823        0.19900
         4605.0         76.117        0.20800
         4605.5         76.016        0.20700
         4606.0         75.915        0.20300
         4606.5         74.784        0.19700
         4607.0         73.841        0.19100
         4607.5         72.897        0.18700
         4608.0         73.580        0.18900
         4608.5         74.263        0.19500
         4609.0         74.945        0.20000
         4609.5         75.628        0.20500
