###############################################
##         ENVERUS                           ##
##         ESS - Open Hole                   ##
##         PERMIAN / DELAWARE                ##
##         Nov 04 2023  V4.0                 ##
##         42-389-30414-00-00                ##
###############################################
## Copyright 2017-2023  ENVERUS.  All Rights Reserved. 
## Confidential - Property of ENVERUS, use governed by terms and 
## conditions found within the existing Information Services Subscription Agreement 
## (as may be amended, the “ISSA”) between Customer and ENVERUS. 
## 
~VERSION INFORMATION
# MNEM.UNIT                               DATA : DESCRIPTION OF MNEMONIC
#-----.-----     ----------------------------- : -----------------------------
VERS.                                     2.00 : CWLS LOG ASCII STANDARD - VERSION 2.00
WRAP.                                       NO : MULTIPLE LINES PER DEPTH STEP
VEND.                                  ENVERUS : VENDOR
TYPE.                          ESS - OPEN HOLE : ENVERUS ESSENTIAL CURVES – ACCESSIBLE THROUGH ENVERUS PRISM(TM)
DOC.                                  31965441 : ENVERUS HEADER RAW DOCUMENT ID
#___________________________________________________________________________________________________ 
~WELL INFORMATION 
# 4Nagw4FJNzCtYOfTAudVsymR6uv0ccMrNFKiy1Vrqa1gQVNLoB6NNR/Tzdk8H0Jxf2Akv2rjPRKaT9zVNBkTiw== 
# MNEM.UNIT                                              DATA : DESCRIPTION OF MNEMONIC 
#-----.-----                    ----------------------------- : ----------------------------- 
CNTY.                                                  REEVES : COUNTY 
STATE.                                                  TEXAS : STATE 
CNTRY.                                                    USA : COUNTRY 
API.                                             42-389-30414 : API (10 Digit) 
API_14.                                    42-389-30414-00-00 : API (14 Digits) 
API_14_std.                                 42-389-30414-0000 : API (14 Digits Standard) 
UWI.                                           42389304140000 : UNIQUE WELL ID 
WELL.                                            TXL 17-39  2 : WELL NAME
STRT.FT                                                 237.0 : START DEPTH
STOP.FT                                               13872.0 : STOP DEPTH
STEP.FT                                                   0.5 : STEP BETWEEN DEPTHS
NULL.                                                 -999.25 : NULL VALUE
COMP.                          ENDEAVOR ENERGY RESOURCES L.P. : COMPANY
#___________________________________________________________________________________________________ 
~CURVE INFORMATION 
# MNEM.UNIT           : CURVE DESCRIPTION 
#-----.-----          : ----------------------------- 
 DEPT.FT               : MEASURED DEPTH 
 CALI.IN               : CALIPER (CAL - CAL) 
 GR.API                : GAMMA RAY (GR) 
 DT.US/FT              : SONIC DELTA TRANSIT TIME (DT) 
 RESS.OHMM             : SHALLOW INDUCTION RESISTIVITY (ILS - ILS) 
 RESD.OHMM             : DEEP INDUCTION RESISTIVITY (ILD - ILD) 
 #___________________________________________________________________________________________________ 
~A         DEPT           CALI             GR             DT           RESS           RESD
# ...
         8333.0          9.895         75.341         70.906         90.308        104.778
         8333.5          9.896         74.196         70.291         94.329         97.195
         8334.0          9.897         73.050         69.677         96.248         87.226
         8334.5          9.898         71.904         69.063         81.277         77.257
         8335.0          9.898         69.778         68.449         72.233         67.288
         8335.5          9.899         67.448         69.297         64.745         66.786
         8336.0          9.900         65.118         68.130         57.257         69.430
         8336.5          9.901         62.788         66.056         58.413         72.073
         8337.0          9.902         62.183         63.982         59.990         74.716
         8337.5          9.903         62.303         64.917         61.566         77.360
         8338.0          9.904         62.424         66.525         62.549         80.003
         8338.5          9.905         62.545         68.133         56.350         79.038
         8339.0          9.906         62.666         69.740         50.150         71.152
         8339.5          9.907         62.787         65.082         45.590         63.266
         8340.0          9.908         53.479         58.614         46.312         55.381
         8340.5          9.909         42.427         55.153         58.270         73.596
         8341.0          9.910         38.273         55.507         70.898        207.048
         8341.5          9.911         42.899         55.861         83.526        354.745
         8342.0          9.912         47.526         58.115        129.475        502.441
         8342.5          9.913         52.152         60.813        202.482        505.242
         8343.0          9.914         56.779         63.511        275.490        421.066
         8343.5          9.915         61.406         66.209        259.964        336.891
         8344.0          9.916         66.032         69.029        196.173        252.715
         8344.5          9.917         70.659         70.842        132.382        168.540
         8345.0          9.918         73.590         70.184         72.448         84.365
         8345.5          9.919         72.867         69.525         82.763         91.977
         8346.0          9.920         72.144         69.326         93.079        112.359
         8346.5          9.921         71.422         70.261        103.395        132.741
         8347.0          9.922         69.308         71.197        108.204        123.529
         8347.5          9.923         61.880         72.132        105.467        110.331
         8348.0          9.924         54.452         69.469        102.730         97.133
         8348.5          9.925         47.024         65.557         99.993        107.489
         8349.0          9.926         39.597         61.644        111.678        146.463
         8349.5          9.927         32.169         57.731        136.411        185.438
         8350.0          9.928         35.264         56.941        161.145        198.343
         8350.5          9.929         40.352         57.625        185.878        189.779
         8351.0          9.930         45.440         58.308        173.772        181.214
         8351.5          9.931         50.528         58.992        158.262        172.650
         8352.0          9.932         60.358         59.676        142.832        164.085
         8352.5          9.934         71.486         68.206        128.293        128.035
         8353.0          9.937         82.615         76.093        113.753         91.474
         8353.5          9.941         93.744         75.453         91.256         54.913
         8354.0          9.944        101.937         74.813         43.919         34.076
         8354.5          9.948         99.317         74.172         33.026         29.968
         8355.0          9.951         96.697         73.532         28.848         25.859
         8355.5          9.955         94.077         72.911         24.670         25.127
         8356.0          9.958         91.457         72.668         21.770         24.793
         8356.5          9.962         88.837         72.424         21.364         24.459
         8357.0          9.965         86.217         72.181         20.958         24.125
         8357.5          9.969         80.991         71.938         20.551         23.791
         8358.0          9.972         74.781         71.126         20.145         22.857
         8358.5          9.976         68.570         70.081         18.149         18.917
         8359.0          9.979         62.851         69.035         15.001         14.976
         8359.5          9.983         59.723         67.955         12.509         13.703
         8360.0          9.986         56.594         66.791         13.554         15.461
         8360.5          9.990         53.466         65.628         14.599         17.219
         8361.0          9.993         50.338         64.464         15.645         18.978
         8361.5          9.997         49.485         64.895         16.707         20.736
         8362.0         10.000         51.587         65.548         17.959         22.494
         8362.5         10.004         53.689         65.562         19.210         24.252
         8363.0         10.007         55.792         63.479         20.461         26.010
         8363.5         10.010         58.121         61.891         21.460         27.768
         8364.0         10.014         60.466         63.467         21.561         29.526
         8364.5         10.017         62.811         64.877         21.551         29.847
         8365.0         10.021         65.156         66.241         19.869         26.237
         8365.5         10.024         66.109         66.918         18.186         22.628
         8366.0         10.028         66.825         67.040         16.503         19.018
         8366.5         10.026         67.541         66.899         14.820         15.409
         8367.0         10.023         68.256         66.311         13.138         13.698
         8367.5         10.019         65.400         65.723         13.467         14.452
         8368.0         10.016         61.407         65.135         14.221         15.207
         8368.5         10.012         57.413         64.547         14.974         15.961
         8369.0         10.009         61.194         64.150         15.511         16.716
         8369.5         10.005         66.928         64.520         15.021         17.470
         8370.0         10.002         69.805         64.891         14.530         17.395
         8370.5          9.998         69.660         65.261         14.040         16.346
         8371.0          9.995         69.515         65.714         13.529         15.297
         8371.5          9.991         69.370         66.416         12.997         14.248
         8372.0          9.988         69.226         67.117         12.466         13.200
         8372.5          9.984         69.373         67.819         11.960         12.889
         8373.0          9.981         70.631         68.665         12.618         13.565
         8373.5          9.977         71.890         69.888         13.276         14.241
         8374.0          9.974         72.844         71.111         13.934         14.917
         8374.5          9.970         73.049         72.334         17.272         19.073
         8375.0          9.967         73.253         72.683         21.288         27.584
         8375.5          9.963         73.457         70.598         25.304         34.568
         8376.0          9.960         64.067         68.512         29.320         38.542
         8376.5          9.956         59.062         66.427         32.977         42.517
