~Version Information
 VERS.                  2.0:   CWLS log ASCII Standard -VERSION 2.0
 WRAP.                   NO:   One line per depth step
~Well Information Block
#MNEM.UNIT     VALUE/NAME     DESCRIPTION
#---------     -----------    ---------------------------
 STRT.F              8800.0000: START DEPTH
 STOP.F             14300.0000: STOP DEPTH
 STEP.F                 0.5000: STEP DEPTH
 NULL.                 -999.25: NULL VALUE
 LOC .     336'' FSL & 729' FWL:  LOCATION
 FL6 .        API 42-389-36322:  LOCATIONLINE6
 FL4 .           ABSTRACT 3622:  LOCATIONLINE4
 FL3 .        T&P RR CO SURVEY:  LOCATIONLINE3
 FL2 .     SECTION 36, BLOCK 58 T2:  LOCATIONLINE2
 FL1 .     336'' FSL & 729' FWL:  LOCATIONLINE1
 DMF .                      KB:  DRILL MEAS FROM
 PDAT.                      GL:  PERMANENT DATUM
 CNTY.                  REEVES:  COUNTY NAME
 FLD .     FORD, WEST (WOLFCAMP):  FIELD NAME
 WELL.        AVA STATE 36 #2H:  WELL NAME
 COMP.     CAPITAN ENERGY INC.:  COMPANY
 DATE.             01-Nov-2017:  DATE
 SVCO.             Halliburton:  SERVICECONAME
 PROV.                   TEXAS:  PROVINCE
 STAT.                   TEXAS:  STATE NAME
 CTRY.           UNITED STATES:  COUNTRY NAME
 HIDE.                        :  WELLNAMEOPERAT
 BASI.                 PERMIAN:  BASIN
 UWI .            42-389-36322LAT:  UNIQUE WELL IDENTIFIER
 API .            42-389-36322LAT:  API NUMBER
 RANG.                     N/A:  RANGE
 TOWN.                     N/A:  TOWNSHIP
 SECT.                     N/A:  SECTION
 SON .               904399722:  JOB NUMBER
 SRVC.             Halliburton:  SERVICE COMPANY
 LMF .                      KB:  LOG MEASURED FROM
 EGL .ft             3011.0000:  GROUND ELEVATION
 BAP .ft                0.0000:  GL ELEV ONSHORE
 GVFD.g                 1.0000:  GRAVITY FIELD
 EKB .ft             3037.0000:  KB ELEVATION
 EDF .ft             3036.0000:  DF ELEVATION
~Curve Information Block
#MNEM.UNIT                 API CODE     Curve Description
#---------               -----------    ---------------------------
 DEPT.F                 00 000 000 000:  Depth
 CCL .V                 00 000 000 000:  Casing Collar Locator
 NPHI_OH.pu             00 000 000 000:  NPHI_OH
 NPHI_CHI.pu            00 000 000 000:  NPHI_CHI
 GR_CHI.api             00 000 000 000:  GR_CHI
 GR_OH.api              00 000 000 000:  GR_OH
 RHOB_OH.g/cc           00 000 000 000:  RHOB_OH
 RHOB_CHI.g/cc          00 000 000 000:  RHOB_CHI
 PE_CHI.b/e             00 000 000 000:  PE_CHI
 PE_OH.b/e              00 000 000 000:  PE_OH
 DTC_OH.uspf            00 000 000 000:  DTC_OH
 DTC_CHI.uspf           00 000 000 000:  DTC_CHI
 SPHI_CHI.pu            00 000 000 000:  Acou Porosity CHI
 RT10_OH.ohmm           00 000 000 000:  RT10_OH
 RT10_CHI.ohmm          00 000 000 000:  RT10_CHI
 RT30_OH.ohmm           00 000 000 000:  RT30_OH
 RT30_CHI.ohmm          00 000 000 000:  RT30_CHI
 RT90_OH.ohmm           00 000 000 000:  RT90_OH
 RT90_CHI.ohmm          00 000 000 000:  RT90_CHI
 SGF .cu                00 000 000 000:  Formation Sigma
 CRNF.NONE              00 000 000 000:  CM GrsCaptRatio
 RIN .NONE              00 000 000 000:  CM GrsInelRatio
#Other Information
#
#WARRANTY: Halliburton will use its best efforts to furnish customers with 
#accurate information and interpretations that are part of, and incident to, the services 
#provided.  However, Halliburton cannot and does not warrant the accuracy 
#or correctness of such information and interpretations.  Under no circumstances should any 
#such information or interpretation be relied upon as the sole basis for any drilling, 
#completion, production, or financial decision or any procedure involving any risk to the 
#safety of any drilling venture, drilling rig or its crew or any other third party.  The 
#Customer has full responsibility for all drilling, completion and production operation.  
#Halliburton makes no representations or warranties, either expressed or 
#implied, including, but not limited to, the implied warranties of merchantability or fitness 
#for a particular purpose, with respect to the services rendered.  In no event will 
#Halliburton be liable for failure to obtain any particular results or for 
#any damages, including, but not limited to, indirect, special or consequential damages, 
#resulting from the use of any information or interpretation provided by Halliburton.
#
~A    DEPT      CCL   NPHI_OH NPHI_CHI   GR_CHI   GR_OH   RHOB_OH RHOB_CHI  PE_CHI   PE_OH  DTC_OH  DTC_CHI SPHI_CHI RT10_OH  RT10_CHI RT30_OH  RT30_CHI RT90_OH  RT90_CHI   SGF    CRNF   RIN   
# ...
    9157.0000  0.0000 15.7200   13.7547 103.4289 117.3239  2.5616    2.5352  2.8058  2.9108 77.2785 75.2237  19.5400   7.3397   6.6139   6.4390   6.1690   6.4847   6.1768 25.9953 1.1234 1.2155
    9157.5000  0.0000 14.5500   13.6631 113.1040 104.4276  2.5505    2.5375  2.8175  2.8206 77.0446 75.4467  19.6900   7.8040   6.9672   6.7941   6.5409   6.8620   6.5146 23.1083 1.0577 1.2003
    9158.0000  0.0000 13.5500   12.7143  98.8657  96.0575  2.5490    2.5451  2.8210  2.7430 75.7549 74.3328  18.9100   8.7130   6.6412   7.4933   6.2079   7.6014   6.0632 20.6568 1.0117 1.1858
    9158.5000  0.0000 11.3400   11.5911  74.6121  83.1949  2.5726    2.5511  2.7773  2.7997 72.6659 72.7014  17.7500   9.8955   6.5288   8.3663   6.0717   8.5337   5.8127 19.3020 1.0052 1.1756
    9159.0000  0.0000  8.6800   10.7791  63.1913  63.0282  2.6251    2.5543  2.7144  3.0267 67.0290 71.0360  16.5700  11.8447   7.7918   9.8393   7.2763  10.1123   6.9403 18.8075 1.0201 1.1719
    9159.5000  0.0000  6.2200    9.8937  66.8390  50.3931  2.6687    2.5625  2.7827  3.2476 62.0706 69.4565  15.4600  17.2579  10.3109  13.9698   9.7206  14.5852   9.3650 19.6015 1.0603 1.1795
    9160.0000  0.0000  5.6200    9.3742  67.9668  50.5664  2.6309    2.5703  2.9133  3.1974 63.0289 68.9041  15.0700  26.2361  12.7229  20.6298  12.0672  22.0416  11.7210 21.5630 1.1029 1.1959
    9160.5000  0.0000  6.8900    9.3241  73.3478  59.1550  2.5501    2.5750  3.0029  2.9119 87.2030 69.2695  15.3200  24.4702  13.2689  19.5289  12.5435  20.7656  12.2515 24.4512 1.1282 1.2105
    9161.0000  0.0000  8.8100   10.1816 101.6384  77.1031  2.5281    2.5725  3.0030  2.7296 73.9763 71.1253  16.6400  16.7668  11.6786  13.8910  10.8581  14.4658  10.7202 27.4422 1.1329 1.2185
    9161.5000  0.0000  8.8100   11.7041 126.0902  77.1031  2.5281    2.5601  2.8713  2.7296 70.8707 73.1917  18.1000  16.7668   9.0851  13.8910   8.3712  14.4658   8.2956 28.1592 1.1294 1.2152
    9162.0000  0.0000 11.0500   12.4564 126.9194 101.0068  2.5523    2.5514  2.7548  2.7567 72.5893 73.8806  18.5900  11.3753   7.0855   9.9432   6.4988  10.1998   6.4136 27.8153 1.1482 1.2078
    9162.5000  0.0000 13.2900   12.3750 116.8840 111.3997  2.5709    2.5508  2.7379  2.7665 75.0155 73.6247  18.4100   8.5144   6.4354   7.9877   5.8938   8.1229   5.7828 27.2842 1.1823 1.2039
    9163.0000  0.0000 13.5200   11.9346 101.5426 103.8186  2.5756    2.5542  2.7709  2.6857 74.8301 72.9887  17.9600   7.0191   6.3049   6.8792   5.7813   6.9540   5.6262 27.6885 1.2120 1.2057
    9163.5000  0.0000 12.4900   12.1795 105.2991  97.9125  2.5779    2.5527  2.8064  2.6744 74.5392 73.4862  18.3100   6.8295   6.8678   6.8002   6.3280   6.8484   6.1862 28.3433 1.2144 1.2104
    9164.0000  0.0000 13.1900   12.7569 108.3644 104.1698  2.5800    2.5471  2.8094  2.7665 74.0059 74.2636  18.8600   7.1810   6.9062   7.2026   6.4006   7.2312   6.2887 27.6293 1.1444 1.2084
    9164.5000  0.0000 14.3000   13.3661 113.2307 109.9465  2.5799    2.5404  2.7943  2.8321 74.0820 75.0666  19.4200   7.1982   6.7342   7.2253   6.2864   7.2343   6.2214 24.7138 1.0550 1.1961
    9165.0000  0.0000 13.7100   13.5736 116.6793 107.1077  2.5757    2.5378  2.7880  2.8421 73.0841 75.4506  19.7000   7.2327   6.7008   7.2576   6.2927   7.2547   6.2426 21.7123 0.9825 1.1806
    9165.5000  0.0000 12.2100   12.4222 102.1706  98.2434  2.5664    2.5458  2.7462  2.7970 73.0412 73.9427  18.6300   7.1133   6.2521   7.1367   5.8105   7.1306   5.6480 19.2784 0.9488 1.1683
    9166.0000  0.0000 10.8700   11.1172  85.0916  90.3843  2.5679    2.5526  2.6599  2.7237 72.2641 71.4701  16.8800   7.2160   6.9995   7.2403   6.4877   7.2369   6.2315 17.7913 0.9388 1.1624
    9166.5000  0.0000 10.2500    9.7674  67.0782  93.8343  2.5767    2.5597  2.6806  2.7431 72.3831 68.5777  14.8400   8.2377   9.5619   8.2693   9.0466   8.2724   8.6797 17.1556 0.9423 1.1629
    9167.0000  0.0000 10.8100    8.6327  57.2060  97.2990  2.5631    2.5677  2.8009  2.7570 71.7867 66.9334  13.6700   8.7048  11.9457   8.7341  11.5169   8.7438  11.0575 17.1103 0.9572 1.1642
    9167.5000  0.0000 11.0100    8.3855  63.1120  85.0184  2.5384    2.5707  2.8408  2.6250 69.8238 66.3883  13.2900   8.1529  13.3036   8.1561  12.8623   8.1655  12.4233 17.5219 0.9854 1.1669
    9168.0000  0.0000  9.1000    8.2918  60.8374  73.1228  2.5363    2.5727  2.8857  2.5076 68.8805 66.4143  13.3100   8.3675  13.9663   8.3637  13.5284   8.3654  13.0767 18.5653 1.0330 1.1734
    9168.5000  0.0000  8.2300    8.5515  63.2709  75.7253  2.5627    2.5732  2.9081  2.5766 68.9035 66.9446  13.6800   9.1261  14.2676   9.1493  13.7591   9.1238  13.3444 20.4287 1.0873 1.1838
    9169.0000  0.0000 10.0700    9.0374  71.6646  83.2422  2.5911    2.5735  2.9325  2.7718 68.8228 68.0731  14.4800   8.4696  13.8101   8.4757  13.1647   8.4111  12.8378 23.1796 1.1371 1.1964
    9169.5000  0.0000 11.4800   10.0085 106.8728  90.7760  2.5833    2.5723  2.9597  2.8434 68.8628 70.4698  16.1700   7.4289  12.3932   7.4106  11.5392   7.3158  11.4326 27.2675 1.1758 1.2072
    9170.0000  0.0000 12.0500   10.9266 106.7561  96.2072  2.5523    2.5653  2.9248  2.7131 69.3012 72.1799  17.3800   6.7085   9.5012   6.2790   8.7920   6.1722   8.6418 29.5156 1.1927 1.2120
    9170.5000  0.0000 12.6200   11.9119 102.3505  93.5372  2.5405    2.5554  2.8144  2.6205 70.6035 73.1036  18.0400   5.9821   6.9215   5.3137   6.3674   5.2095   6.2130 30.3166 1.2053 1.2140
    9171.0000  0.0000 12.3900   12.5991 100.4116  90.5565  2.5488    2.5478  2.7580  2.6500 71.9969 73.7001  18.4600   5.6126   6.1307   4.9210   5.6283   4.8117   5.5051 30.2383 1.2074 1.2134
    9171.5000  0.0000 12.4900   12.7457  94.5566  89.4624  2.5644    2.5456  2.7505  2.7216 73.0477 73.7336  18.4800   5.5089   5.8724   4.8101   5.3903   4.6925   5.2708 30.1898 1.2023 1.2137
    9172.0000  0.0000 12.5100   12.7433  88.5641  85.9291  2.5832    2.5453  2.7744  2.8299 72.5766 73.7022  18.4600   5.6486   5.9386   4.9264   5.4679   4.7967   5.3397 30.1859 1.1934 1.2158
    9172.5000  0.0000 11.9400   12.8061  93.2277  88.1882  2.5920    2.5453  2.7818  2.8988 71.9926 73.8558  18.5700   6.3922   6.2042   5.5305   5.7169   5.3678   5.5994 30.1945 1.1896 1.2203
    9173.0000  0.0000 12.0000   12.5929  88.1281  93.1139  2.5857    2.5476  2.7915  2.8510 71.4099 73.5138  18.3300   6.5751   6.2451   5.7334   5.7447   5.5665   5.6087 30.2512 1.1943 1.2274
    9173.5000  0.0000 12.0500   12.4630  88.9211  95.0129  2.5756    2.5493  2.7901  2.7608 72.0789 73.3412  18.2000   6.1133   6.3388   5.4340   5.8188   5.2959   5.6789 30.4909 1.1942 1.2324
    9174.0000  0.0000 12.0500   12.6149  99.6475  95.0129  2.5756    2.5487  2.7766  2.7608 72.3510 73.6383  18.4100   6.1133   6.5806   5.4340   6.0344   5.2959   5.9207 31.1692 1.1792 1.2347
    9174.5000  0.0000 11.5400   12.8419 106.6538 101.8387  2.5688    2.5467  2.7633  2.7298 73.2530 73.9818  18.6600   6.1485   6.6571   5.6639   6.1039   5.5306   6.0142 31.4597 1.1620 1.2345
    9175.0000  0.0000 13.0800   13.0828 114.2787 110.1874  2.5604    2.5444  2.7269  2.7331 73.8311 74.2840  18.8700   6.1772   6.5084   6.0000   5.9499   5.8699   5.8871 30.8397 1.1409 1.2324
    9175.5000  0.0000 13.3000   12.7061 103.3732 111.4402  2.5531    2.5473  2.7126  2.7317 74.1598 73.5783  18.3700   5.8377   6.0733   5.7487   5.5271   5.6462   5.4301 29.5580 1.1445 1.2319
    9176.0000  0.0000 12.6400   12.4866 107.1057 108.0701  2.5649    2.5503  2.7237  2.8045 73.0642 73.3911  18.2400   5.8563   6.3633   5.7942   5.7906   5.7062   5.6891 28.6706 1.1611 1.2350
    9176.5000  0.0000 12.1800   12.1141 110.2479  94.8598  2.5937    2.5551  2.7650  2.9209 71.8009 73.0895  18.0300   6.0884   6.9713   6.0352   6.3601   5.9550   6.2505 28.1997 1.1709 1.2375
    9177.0000  0.0000 11.0400   11.5677  87.7564  82.2775  2.6014    2.5595  2.8435  2.9079 71.1562 72.3918  17.5300   6.7815   7.0583   6.7246   6.4759   6.6387   6.2981 28.1767 1.1623 1.2398
    9177.5000  0.0000  9.9100   11.5342  74.4790  88.7229  2.5833    2.5589  2.8822  2.7950 71.2368 72.3540  17.5100   7.5194   6.9523   7.4470   6.4062   7.3484   6.1912 27.6102 1.1224 1.2382
