###############################################
##         ENVERUS                           ##
##         ESS - Open Hole                   ##
##         PERMIAN / DELAWARE                ##
##         Nov 04 2023  V4.0                 ##
##         42-389-30422-00-00                ##
###############################################
## Copyright 2017-2023  ENVERUS.  All Rights Reserved. 
## Confidential - Property of ENVERUS, use governed by terms and 
## conditions found within the existing Information Services Subscription Agreement 
## (as may be amended, the “ISSA”) between Customer and ENVERUS. 
## 
~VERSION INFORMATION
# MNEM.UNIT                               DATA : DESCRIPTION OF MNEMONIC
#-----.-----     ----------------------------- : -----------------------------
VERS.                                     2.00 : CWLS LOG ASCII STANDARD - VERSION 2.00
WRAP.                                       NO : MULTIPLE LINES PER DEPTH STEP
VEND.                                  ENVERUS : VENDOR
TYPE.                          ESS - OPEN HOLE : ENVERUS ESSENTIAL CURVES – ACCESSIBLE THROUGH ENVERUS PRISM(TM)
DOC.                                  31749874 : ENVERUS HEADER RAW DOCUMENT ID
#___________________________________________________________________________________________________ 
~WELL INFORMATION 
# u82sU1u0B8de5w9HEAjaYOtqLlVzfD+KUeD2ZoqivGgiUzwSeb1LYInaR9MNeJxDUIxxjb7EPbXz9g+KH10l6Q== 
# MNEM.UNIT                                              DATA : DESCRIPTION OF MNEMONIC 
#-----.-----                    ----------------------------- : ----------------------------- 
CNTY.                                                  REEVES : COUNTY 
STATE.                                                  TEXAS : STATE 
CNTRY.                                                    USA : COUNTRY 
API.                                             42-389-30422 : API (10 Digit) 
API_14.                                    42-389-30422-00-00 : API (14 Digits) 
API_14_std.                                 42-389-30422-0000 : API (14 Digits Standard) 
UWI.                                           42389304220000 : UNIQUE WELL ID 
WELL.                                    BECKHAM  AGNES 26  1 : WELL NAME
STRT.FT                                                  89.0 : START DEPTH
STOP.FT                                               15719.0 : STOP DEPTH
STEP.FT                                                   0.5 : STEP BETWEEN DEPTHS
NULL.                                                 -999.25 : NULL VALUE
COMP.                                     WALSH & WATTS  INC. : COMPANY
#___________________________________________________________________________________________________ 
~CURVE INFORMATION 
# MNEM.UNIT           : CURVE DESCRIPTION 
#-----.-----          : ----------------------------- 
 DEPT.FT               : MEASURED DEPTH 
 CALI.IN               : CALIPER (CAL - CAL) 
 GR.API                : GAMMA RAY (GR) 
 DT.US/FT              : SONIC DELTA TRANSIT TIME (DT) 
 #___________________________________________________________________________________________________ 
~A         DEPT           CALI             GR             DT
# ...
         5039.0         13.689         50.637         69.838
         5039.5         13.652         49.518         69.821
         5040.0         13.615         45.955         70.095
         5040.5         13.578         43.950         70.369
         5041.0         13.542         44.147         70.642
         5041.5         13.505         44.345         70.916
         5042.0         13.468         44.543         71.141
         5042.5         13.431         44.741         70.645
         5043.0         13.395         44.938         70.149
         5043.5         13.358         45.346         69.653
         5044.0         13.333         46.805         69.157
         5044.5         13.330         48.264         69.316
         5045.0         13.326         49.724         69.694
         5045.5         13.322         51.183         70.072
         5046.0         13.319         52.642         70.451
         5046.5         13.315         54.101         70.829
         5047.0         13.312         55.561         71.207
         5047.5         13.308         58.586         70.493
         5048.0         13.304         65.513         69.652
         5048.5         13.301         72.439         68.811
         5049.0         13.297         79.365         67.970
         5049.5         13.293         86.291         67.130
         5050.0         13.290         93.217         66.289
         5050.5         13.166         97.045         65.448
         5051.0         13.003         98.219         64.607
         5051.5         12.839         99.394         64.112
         5052.0         12.768        100.568         67.410
         5052.5         12.721        101.743         70.707
         5053.0         12.673         88.367         74.005
         5053.5         12.625         81.783         77.303
         5054.0         12.621         75.199         78.119
         5054.5         12.631         68.615         77.041
         5055.0         12.641         62.031         75.962
         5055.5         12.650         55.447         74.883
         5056.0         12.660         48.862         73.163
         5056.5         12.670         42.278         66.071
         5057.0         12.680         35.694         62.524
         5057.5         12.690         36.305         58.977
         5058.0         12.700         37.408         55.437
         5058.5         12.710         38.512         55.711
         5059.0         12.720         43.024         55.984
         5059.5         12.730         52.660         56.258
         5060.0         12.740         62.296         56.531
         5060.5         12.750         71.364         56.805
         5061.0         12.760         70.770         68.574
         5061.5         12.779         70.176         67.933
         5062.0         12.801         69.582         67.292
         5062.5         12.822         63.717         66.651
         5063.0         12.843         57.571         66.010
         5063.5         12.865         51.425         65.369
         5064.0         12.886         46.638         65.333
         5064.5         12.907         46.962         65.658
         5065.0         12.929         47.286         67.045
         5065.5         12.950         47.609         69.872
         5066.0         12.971         47.933         69.897
         5066.5         12.982         48.332         69.922
         5067.0         12.986         49.236         69.948
         5067.5         12.990         50.139         69.973
         5068.0         12.993         51.043         69.998
         5068.5         12.997         51.947         69.735
         5069.0         13.001         61.530         68.921
         5069.5         13.004         73.129         68.108
         5070.0         12.988        127.910         67.294
         5070.5         12.964        139.458         66.481
         5071.0         12.939        134.264         65.668
         5071.5         12.915        129.071         65.059
         5072.0         12.891        123.826         68.116
         5072.5         12.866        117.648         71.132
         5073.0         12.842        111.470         72.816
         5073.5         12.833        105.292         72.290
         5074.0         12.827         99.115         71.624
         5074.5         12.821         92.937         70.958
         5075.0         12.815         86.759         70.292
         5075.5         12.809         80.581         68.821
         5076.0         12.803         74.403         66.766
         5076.5         12.798         68.225         64.711
         5077.0         12.792         67.280         63.049
         5077.5         12.793         68.370         63.441
         5078.0         12.797         69.461         63.833
         5078.5         12.800         70.551         64.224
         5079.0         12.804         71.642         64.616
         5079.5         12.808         72.732         65.140
         5080.0         12.812         73.823         65.803
         5080.5         12.815         74.913         66.467
         5081.0         13.067         76.004         67.130
         5081.5         13.052         73.274         67.794
         5082.0         13.036         68.753         67.322
         5082.5         13.021         64.806         66.699
         5083.0         13.006         61.678         66.076
         5083.5         12.990         58.551         65.453
         5084.0         12.975         55.424         64.830
         5084.5         12.960         53.204         64.207
         5085.0         12.944         54.361         63.584
         5085.5         12.929         55.517         62.961
         5086.0         12.914         56.674         63.309
         5086.5         12.896         57.831         63.914
         5087.0         12.878         58.987         64.519
         5087.5         12.860         62.568         65.124
         5088.0         12.842         69.299         66.504
         5088.5         12.824         75.769         68.141
         5089.0         12.807         75.049         69.778
         5089.5         12.789         74.328         70.270
         5090.0         12.771         73.608         69.553
         5090.5         12.770         72.887         68.837
         5091.0         12.770         72.167         68.120
         5091.5         12.771         71.446         67.403
         5092.0         12.771         70.726         66.830
         5092.5         12.771         70.006         66.416
         5093.0         12.771         71.401         66.001
         5093.5         12.771         73.646         65.587
         5094.0         12.771         75.891         66.137
         5094.5         12.771         78.136         66.940
         5095.0         12.772         80.380         67.742
         5095.5         12.772         78.117         68.203
         5096.0         12.772         75.657         68.076
         5096.5         12.772         73.197         67.949
         5097.0         12.772         71.151         67.822
         5097.5         12.772         72.093         67.696
         5098.0         12.772         73.034         67.569
         5098.5         12.773         73.975         67.442
         5099.0         12.773         74.917         67.024
         5099.5         12.773         75.858         66.499
         5100.0         12.773         76.390         65.975
         5100.5         12.773         75.568         65.451
         5101.0         12.762         74.745         64.926
         5101.5         12.748         73.923         65.043
         5102.0         12.733         73.711         65.340
         5102.5         12.718         73.711         65.637
         5103.0         12.704         73.712         65.934
         5103.5         12.689         73.712         65.624
         5104.0         12.674         73.713         65.010
         5104.5         12.660         73.492         64.396
