###############################################
##         ENVERUS                           ##
##         ESS - Open Hole                   ##
##         PERMIAN / DELAWARE                ##
##         Nov 04 2023  V4.0                 ##
##         42-389-31391-00-00                ##
###############################################
## Copyright 2017-2023  ENVERUS.  All Rights Reserved. 
## Confidential - Property of ENVERUS, use governed by terms and 
## conditions found within the existing Information Services Subscription Agreement 
## (as may be amended, the “ISSA”) between Customer and ENVERUS. 
## 
~VERSION INFORMATION
# MNEM.UNIT                               DATA : DESCRIPTION OF MNEMONIC
#-----.-----     ----------------------------- : -----------------------------
VERS.                                     2.00 : CWLS LOG ASCII STANDARD - VERSION 2.00
WRAP.                                       NO : MULTIPLE LINES PER DEPTH STEP
VEND.                                  ENVERUS : VENDOR
TYPE.                          ESS - OPEN HOLE : ENVERUS ESSENTIAL CURVES – ACCESSIBLE THROUGH ENVERUS PRISM(TM)
DOC.                                  23866972 : ENVERUS HEADER RAW DOCUMENT ID
#___________________________________________________________________________________________________ 
~WELL INFORMATION 
# fYFWm3OWRd9IdMsmH1sgiJ8+yI47SyIf11h8n9fSv2EtxvNnkQHcFoeZabdKB/2nhpfFDZXLrBDJ+4Q2ZBaHeQ== 
# MNEM.UNIT                                              DATA : DESCRIPTION OF MNEMONIC 
#-----.-----                    ----------------------------- : ----------------------------- 
CNTY.                                                  REEVES : COUNTY 
STATE.                                                  TEXAS : STATE 
CNTRY.                                                    USA : COUNTRY 
API.                                             42-389-31391 : API (10 Digit) 
API_14.                                    42-389-31391-00-00 : API (14 Digits) 
API_14_std.                                 42-389-31391-0000 : API (14 Digits Standard) 
UWI.                                           42389313910000 : UNIQUE WELL ID 
WELL.                                       DIXIELAND # 3 - 1 : WELL NAME
STRT.FT                                                4000.0 : START DEPTH
STOP.FT                                               12000.0 : STOP DEPTH
STEP.FT                                                   0.5 : STEP BETWEEN DEPTHS
NULL.                                                 -999.25 : NULL VALUE
COMP.                             R. K. PETROLEUM CORPORATION : COMPANY 
FLD.                                                  WILDCAT : FIELD 
DATE.                                              08/13/2015 : DATE 
TVD.                                                       NO : TVD FLAG 
WSTA.                                                     LOC : WELL STATUS
#___________________________________________________________________________________________________ 
~PARAMETER INFORMATION 
# MNEM.UNIT                                              DATA : DESCRIPTION OF MNEMONIC 
#-----.-----                    ----------------------------- : ----------------------------- 
RUN.                                                      ONE : RUN NUMBER 
PDAT.                                                      GL : PERMANENT DATUM 
LMF.                                            KELLY BUSHING : LOG MEASURED FROM
#___________________________________________________________________________________________________ 
~CURVE INFORMATION 
# MNEM.UNIT           : CURVE DESCRIPTION 
#-----.-----          : ----------------------------- 
 DEPT.FT               : MEASURED DEPTH 
 CALI.IN               : CALIPER (CALIPER) 
 GR.API                : GAMMA RAY (GAMMA RAY) 
 DT.US/FT              : SONIC DELTA TRANSIT TIME (DELTA-T) 
 RESD.OHMM             : DEEP INDUCTION RESISTIVITY (ILD - DEEP INDUCTION STANDARD PROCESSED RESISTIVITY) 
 RESD_LL.OHMM          : DEEP LATEROLOG (LLD - LATERO-LOG DEEP (RESISTIVITY)) 
 NPHI.V/V              : NEUTRON POROSITY (NEUTRON POROSITY) 
 #___________________________________________________________________________________________________ 
~A         DEPT           CALI             GR             DT           RESD        RESD_LL           NPHI
# ...
         9852.0         13.822         43.276         57.263       -999.250       228.3687     -999.25000
         9852.5         13.819         39.449         56.944       -999.250       296.7766     -999.25000
         9853.0         13.813         35.776         56.631       -999.250       412.5073     -999.25000
         9853.5         13.778         32.388         56.264       -999.250       428.2120     -999.25000
         9854.0         13.773         30.585         55.316       -999.250       299.2283     -999.25000
         9854.5         13.721         37.155         54.949       -999.250       218.3397     -999.25000
         9855.0         13.656         43.388         56.825       -999.250       159.3172     -999.25000
         9855.5         13.623         50.609         58.863       -999.250       116.2499     -999.25000
         9856.0         13.576         53.976         59.230       -999.250        85.8796     -999.25000
         9856.5         13.571         56.106         73.181       -999.250        93.2664     -999.25000
         9857.0         13.545         58.132         75.031       -999.250       100.9736     -999.25000
         9857.5         13.518         53.163         73.927       -999.250       123.8414     -999.25000
         9858.0         13.492         46.349         71.099       -999.250       200.6081     -999.25000
         9858.5         13.466         38.592         68.289       -999.250       324.9610     -999.25000
         9859.0         13.439         40.777         65.483       -999.250       577.3993     -999.25000
         9859.5         13.413         41.730         61.343       -999.250       505.4369     -999.25000
         9860.0         13.387         38.891         62.425       -999.250       353.5855     -999.25000
         9860.5         13.361         44.794         64.504       -999.250       249.0948     -999.25000
         9861.0         13.334         50.940         66.667       -999.250       235.5179     -999.25000
         9861.5         13.308         55.813         70.240       -999.250       214.5142     -999.25000
         9862.0         13.282         49.360         71.202       -999.250       278.3296     -999.25000
         9862.5         13.256         41.192         72.525       -999.250       411.3529     -999.25000
         9863.0         13.229         32.305         67.922       -999.250       722.5025     -999.25000
         9863.5         13.203         24.744         58.577       -999.250       808.2038     -999.25000
         9864.0         13.177         23.188         56.774       -999.250       581.5327     -999.25000
         9864.5         13.149         21.078         56.826       -999.250       373.8735     -999.25000
         9865.0         13.125         26.120         56.870       -999.250       240.3671     -999.25000
         9865.5         13.102         31.382         58.363       -999.250       154.5345     -999.25000
         9866.0         13.137         38.876         61.591       -999.250       113.6033     -999.25000
         9866.5         13.174         51.511         64.818       -999.250        97.8780     -999.25000
         9867.0         13.193         63.973         68.046       -999.250        99.1237     -999.25000
         9867.5         13.317         76.468         71.273       -999.250       100.5874     -999.25000
         9868.0         13.366         88.609         74.501       -999.250       102.0727     -999.25000
         9868.5         13.446         93.719         79.499       -999.250       103.5799     -999.25000
         9869.0         13.515         85.463         78.871       -999.250       105.1094     -999.25000
         9869.5         13.543         80.198         75.411       -999.250       110.3608     -999.25000
         9870.0         13.567         77.138         74.561       -999.250       118.5358     -999.25000
         9870.5         13.596         74.139         74.781       -999.250       127.1380     -999.25000
         9871.0         13.621         71.597         75.002       -999.250       171.4324     -999.25000
         9871.5         13.646         60.597         74.208       -999.250       195.1751     -999.25000
         9872.0         13.681         52.763         71.804       -999.250       229.8055     -999.25000
         9872.5         13.717         51.166         69.839       -999.250       270.5804     -999.25000
         9873.0         13.736         46.809         67.234       -999.250       335.8784     -999.25000
         9873.5         13.719         40.772         66.874       -999.250       461.7612     -999.25000
         9874.0         13.703         35.209         65.563       -999.250       652.2550     -999.25000
         9874.5         13.686         29.241         62.570       -999.250       921.3347     -999.25000
         9875.0         13.669         26.209         59.576       -999.250      1110.3296     -999.25000
         9875.5         13.653         29.575         58.245       -999.250       984.6262     -999.25000
         9876.0         13.636         41.285         60.363       -999.250       615.1217     -999.25000
         9876.5         13.620         57.227         64.335       -999.250       384.2826     -999.25000
         9877.0         13.602         73.292         68.307       -999.250       249.0948     -999.25000
         9877.5         13.586         89.332         72.286       -999.250       188.9886     -999.25000
         9878.0         13.571         99.418         76.267       -999.250       146.2948     -999.25000
         9878.5         13.549        104.687         80.247       -999.250       111.5528     -999.25000
         9879.0         13.573        109.868         84.910       -999.250        92.5432     -999.25000
         9879.5         13.579        104.362         87.194       -999.250       100.1105     -999.25000
         9880.0         13.568         91.863         86.098       -999.250       123.6246     -999.25000
         9880.5         13.553         79.266         81.631       -999.250       152.6619     -999.25000
         9881.0         13.538         65.903         77.165       -999.250       174.6652     -999.25000
         9881.5         13.456         58.023         72.733       -999.250       199.6889     -999.25000
         9882.0         13.427         51.284         68.236       -999.250       216.1274     -999.25000
         9882.5         13.443         48.213         67.150       -999.250       224.9678     -999.25000
         9883.0         13.456         45.011         66.053       -999.250       231.2358     -999.25000
         9883.5         13.460         44.125         65.000       -999.250       231.2835     -999.25000
         9884.0         13.460         54.326         64.287       -999.250       211.4916     -999.25000
         9884.5         13.460         71.104         69.458       -999.250       184.5147     -999.25000
         9885.0         13.460         85.769         74.151       -999.250       184.9437     -999.25000
         9885.5         13.461         88.807         78.795       -999.250       198.7816     -999.25000
         9886.0         13.460         90.449         82.588       -999.250       213.9995     -999.25000
         9886.5         13.457         90.972         82.986       -999.250       230.6349     -999.25000
         9887.0         13.404         91.463         83.383       -999.250       249.0948     -999.25000
         9887.5         13.364         82.921         81.122       -999.250       249.0948     -999.25000
         9888.0         13.332         64.793         76.796       -999.250       246.6866     -999.25000
         9888.5         13.302         45.980         72.470       -999.250       239.9593     -999.25000
         9889.0         13.270         41.737         68.143       -999.250       244.4844     -999.25000
         9889.5         13.230         44.275         64.589       -999.250       253.7922     -999.25000
