#--------------------------------------------------#
#-------------------ENVERUS, INC.------------------#
#------------------WWW.ENVERUS.COM-----------------#
#------------------COPYRIGHT 2020------------------#
#--------------------------------------------------#
#THIS FILE MAY BE USED ONLY IN ACCORDANCE WITH A CURRENT SUBSCRIPTION AGREEMENT BETWEEN
#THE USER AND ENVERUS, INC. NO PART OF THIS FILE MAY BE REPRODUCED, USED, COPIED,
#MODIFIED, PROPAGATED, OR DISTRIBUTED EXCEPT IN ACCORDANCE WITH THE SUBSCRIPTION
#AGREEMENT. UNAUTHORIZED USE OR DISTRIBUTION OF ALL OR ANY PART OF THIS FILE MAY VIOLATE
#COPYRIGHT, TRADEMARK, AND/OR OTHER LAWS AND IS SUBJECT TO CIVIL AS WELL AS CRIMINAL
#SANCTIONS.
#--------------------------------------------------#
#THIS FILE IS PROVIDED "AS-IS" AND ALL WARRANTIES ARE EXPRESSLY DISCLAIMED, WHETHER
#EXPRESS, ORAL, IMPLIED, STATUTORY OR OTHERWISE, INCLUDING ANY IMPLIED WARRANTY OF FITNESS
#FOR A PARTICULAR PURPOSE, MERCHANTABILITY, TITLE OR NON-INFRINGEMENT, AND ANY WARRANTIES
#ARISING BY VIRTUE OF CUSTOM OF TRADE OR COURSE OF DEALING.  FURTHER, ENVERUS, INC.
#AND ITS LICENSORS DO NOT REPRESENT OR WARRANT THAT THIS FILE WILL MEET USER'S
#REQUIREMENTS OR ARE SUITABLE FOR USER'S NEEDS OR THAT THE DATA OR RESULTS PROVIDED IN
#CONJUNCTION THEREWITH ARE CORRECT, ACCURATE, TIMELY OR RELIABLE. THESE DISCLAIMERS SHALL
#APPLY REGARDLESS OF ANY FAILURE OF ESSENTIAL PURPOSE OF ANY LIMITED REMEDY.  SOME
#JURISDICTIONS DO NOT ALLOW THE EXCLUSION OF CERTAIN WARRANTIES SO SOME OF THE ABOVE
#EXCLUSIONS MAY NOT APPLY. IN NO EVENT SHALL ENVERUS, INC. OR ANY OF ITS AFFILIATES
#BE LIABLE UNDER ANY LEGAL THEORY, WHETHER IN TORT (INCLUDING WITHOUT LIMITATION
#NEGLIGENCE), CONTRACT, STRICT LIABILITY, STATUTORY OR OTHERWISE, FOR ANY SPECIAL,
#INCIDENTAL, CONSEQUENTIAL, EXEMPLARY, PUNITIVE OR INDIRECT DAMAGE OF ANY KIND, INCLUDING
#WITHOUT LIMITATION LOSS OF REVENUE, PROFITS, GOODWILL, USE, AND/OR DATA OR THE COST OF
#PROCUREMENT OF SUBSTITUTE GOODS OR SERVICES, EVEN IF APPRISED OF THE POSSIBILITY OF SUCH
#DAMAGES IN ADVANCE.
#--------------------------------------------------#

# EXPORTED FROM DI TRANSFORM
# DI TRANSFORM - A PRODUCT OF DRILLINGINFO, INC. - WWW.DRILLINGINFO.COM
#
~VERSION INFORMATION
 VERS.        2.0 : LAS ASCII STANDARD - VERSION 2.0
 WRAP.         NO : ONE LINE PER DEPTH STEP

~WELL INFORMATION
#MNEM.UNIT       DATA TYPE       INFORMATION
#---------       ---------       -----------
 STRT.FT                3800 : START DEPTH
 STOP.FT               10654 : STOP DEPTH
 STEP.FT                 0.5 : STEP LENGTH
 NULL.               -999.25 : NULL VALUE
 UWI.         42389340250000 : UNIQUE WELL ID
 API.         42389340250000 : WELL IDENTIFIER
 COMP.                       : COMPANY
 WELL.  42389340250000_API14 : WELL NAME
 FLD.                        : FIELD NAME
 LOC.                        : WELL LOCATION
 CNTY.                       : COUNTY
 STAT.                       : STATE OR PROVINCE
 CTRY.                       : COUNTRY
 SRVC.                       : SERVICE COMPANY
 DATE.                       : DATE

~CURVE INFORMATION
#MNEM.UNIT       API CODE       CURVE DESCRIPTION
#---------       --------       -----------------
 DEPT.FT        : <MEASURED DEPTH>
 CAL.IN         : CALIPER
 DT.US/FT       : SONIC
 GR.GAPI        : GAMMA RAY

~PARAMETER INFORMATION
#MNEM.UNIT       VALUE       DESCRIPTION
#---------       -----       -----------
 EKB.FT      3120.5 : ELEVATION ABOVE MSL

~A      DEPT         CAL          DT          GR
# ...
       10114      9.4331     67.2274     86.8267
     10114.5      9.4331     68.4484     93.2456
       10115      9.4331     69.6629     96.3726
     10115.5      9.4531     70.8919     88.3452
       10116      9.4531     71.5998     80.3177
     10116.5      9.4531     71.8957     73.5799
       10117      9.4531     72.2132     85.5969
     10117.5      9.4531     72.3193      97.614
       10118      9.4531     72.1966    109.6311
     10118.5      9.4531     72.1966    107.0275
       10119      9.4331     72.1966     94.0246
     10119.5      9.4331     72.0507     81.0217
       10120      9.4331     71.3428     83.4862
     10120.5      9.4331     70.1764     79.8904
       10121      9.4331     69.1618     76.2945
     10121.5      9.4331     67.4136     72.6987
       10122      9.4331     66.1553     75.2017
     10122.5      9.4331     64.3524     70.5009
       10123      9.4132     62.5238     62.8148
     10123.5      9.4132     59.8845     55.1286
       10124      9.4132     58.8591     47.4424
     10124.5      9.4132     58.9602     39.7563
       10125      9.4132     59.4675     35.9228
     10125.5      9.4132       60.09     37.9106
       10126      9.4132     62.6298     53.8512
     10126.5      9.4132     64.8803     69.7918
       10127      9.4331     66.8772     85.7324
     10127.5      9.4531     68.1223     98.8686
       10128      9.4531     68.6296     90.9224
     10128.5      9.4531     69.0366     86.1018
       10129      9.4531      68.987     82.4177
     10129.5      9.4331     68.5245     78.7335
       10130      9.4331     68.5858     61.0336
     10130.5      9.4132     68.7864     62.8156
       10131      9.4132     68.9653      78.997
     10131.5      9.4132     69.5729     95.1784
       10132      9.4298     69.7793     95.1659
     10132.5      9.4331     69.8897      92.454
       10133      9.4731      70.294      93.971
     10133.5      9.4731     71.2009      95.488
       10134      9.4731     71.4073      97.005
     10134.5      9.4531     71.4945     95.5081
       10135      9.4531     71.5948     90.6762
     10135.5      9.4531     71.5948     85.8442
       10136      9.4531     71.7314     81.0123
     10136.5      9.4531     71.8957      86.023
       10137      9.4531      71.996     91.9394
     10137.5      9.4531      71.842     97.8557
       10138      9.4531     71.5353     103.772
     10138.5      9.4531     71.2939     94.0539
       10139      9.4531     70.8216     83.7072
     10139.5      9.4392     70.6152     79.3829
       10140      9.4331     70.3912     68.6609
     10140.5      9.4331     70.0018     54.5653
       10141      9.4331     69.4945     73.9251
     10141.5      9.4331     69.0875      93.285
       10142      9.4331     69.0873    104.2966
     10142.5      9.4331     69.3882     90.2976
       10143      9.4331     69.3882     76.2986
     10143.5      9.4331     69.2879     62.2996
       10144      9.4331     68.9294     58.6517
     10144.5      9.4331     68.4855     65.6246
       10145      9.4331     68.1846     72.5975
     10145.5      9.4331     67.0812     79.5704
       10146      9.4331     67.0812     73.3643
     10146.5      9.4331     67.3396     62.4525
       10147      9.4219      67.683     51.5407
     10147.5      9.4132      67.953     40.6289
       10148      9.4132     68.8112     55.1534
     10148.5      9.4531     69.6503     70.1915
       10149      9.4731      70.665     85.2296
     10149.5      9.4731     71.0933    100.2678
       10150      9.4731     71.1936    103.7418
     10150.5      9.4731     71.0933     92.0507
       10151      9.4731     70.9834     80.3597
     10151.5      9.4714     69.8742     68.6686
       10152      9.4531     69.2666     56.9776
     10152.5      9.4531     68.8596     54.7706
       10153      9.4531     68.5858     62.4493
     10153.5      9.4531     68.7864      70.128
       10154      9.4531      69.232     77.8066
     10154.5      9.4531      69.639     85.4853
       10155      9.4531      70.046      92.003
     10155.5      9.4731     70.6536     98.1175
       10156      9.4731     71.0606     94.0533
     10156.5      9.4731     71.5679     86.2997
       10157      9.4731     72.0752     78.5462
     10157.5      9.4731     72.6828     74.7378
       10158      9.4731     73.1901     85.9348
     10158.5      9.4731     73.2033     97.1317
       10159      9.4919     73.0993    101.1118
     10159.5      9.7027     73.0914     98.5268
       10160      9.6696     73.1996    103.4747
     10160.5      9.5529     73.1996    102.3959
       10161      9.5329     73.0993    101.3172
     10161.5      9.5283     72.8676    100.2384
       10162      9.4531     71.5374     99.1596
     10162.5      9.4531     70.4488     98.0809
       10163      9.4531     70.1421     88.7856
     10163.5      9.4531     69.8897     78.8408
       10164      9.4331     69.2681      68.896
     10164.5      9.4331     68.5199     64.7659
       10165      9.4331     67.7977     70.6317
     10165.5      9.4331     65.8917     81.8694
       10166      9.4331     65.0923     89.4732
     10166.5      9.4331     64.8746     79.2002
       10167      9.4331     64.7688     68.9271
     10167.5      9.4331      65.678     58.6541
       10168      9.4331     66.7865     60.1004
     10168.5      9.4331     67.2818     67.9888
       10169      9.4331     67.6005     75.8773
     10169.5      9.4331     68.4087     83.7657
       10170      9.4331     69.0749     91.6541
     10170.5      9.4331     70.1605     94.3435
       10171      9.4331     70.9336      94.829
     10171.5      9.4331     71.1936     95.3144
       10172      9.4331     70.7399     95.7999
     10172.5      9.4331     70.4915     96.2853
       10173      9.4331     70.4915    100.7535
     10173.5      9.4331     70.4915     95.4748
       10174      9.4132     70.7924     81.9903
     10174.5      9.4132     70.9741     72.9023
       10175      9.4132     71.2808     81.3656
     10175.5      9.4531     71.5948     89.8289
       10176      9.4531     71.7954     98.2922
     10176.5      9.4531     71.6907    103.5912
       10177      9.4531      71.073    104.9219
     10177.5      9.4531     69.9946    106.2526
       10178      9.4531     68.2196    107.5834
     10178.5      9.4531     67.1265    106.1651
       10179      9.4531     66.5797    103.4942
     10179.5      9.4531     66.5797    100.8232
       10180      9.4531     66.4794     98.1522
     10180.5      9.4531     66.7815     95.4813
       10181      9.4531     67.8964     92.8103
     10181.5      9.4531     68.8107     90.1393
       10182      9.4531     69.6247     87.4684
     10182.5      9.4531     70.0903    100.3857
       10183      9.4531     70.3706    113.6887
     10183.5      9.4531     70.5918    116.8556
       10184      9.4531     70.3912     105.162
     10184.5      9.4531     70.2909     93.4684
       10185      9.4531     70.6921     81.9431
     10185.5      9.4531     70.8927     70.9448
       10186      9.4531     71.0933     75.8878
     10186.5      9.4531     71.2136     89.0352
       10187      9.4531     71.4429     99.9206
     10187.5      9.4531     71.0617     105.202
       10188      9.4531      70.279    101.6827
     10188.5      9.4531     69.6891      89.643
       10189      9.4531     69.2389     77.6033
     10189.5      9.4531     68.6861     65.5636
       10190      9.4331     68.2849     62.8696
     10190.5      9.4331     68.1846     77.0845
       10191      9.4331     68.1564     91.2994
     10191.5      9.4331     68.2625    105.5143
       10192      9.4331     68.4689      98.874
     10192.5      9.4492     68.4962     86.9218
       10193      9.4531     67.7933     86.8088
     10193.5      9.4531     67.5827     93.8881
       10194      9.4331      67.683     96.2445
     10194.5      9.4331     67.8837     84.3894
       10195      9.4331     67.7651     72.5343
     10195.5      9.4132     67.7593     60.6792
