~Version Information
 VERS.                  2.0:   CWLS log ASCII Standard -VERSION 2.0
 WRAP.                   NO:   One line per depth step
~Well Information Block
#MNEM.UNIT     VALUE/NAME     DESCRIPTION
#---------     -----------    ---------------------------
 STRT.F              8800.0000: START DEPTH
 STOP.F             14300.0000: STOP DEPTH
 STEP.F                 0.5000: STEP DEPTH
 NULL.                 -999.25: NULL VALUE
 LOC .     336'' FSL & 729' FWL:  LOCATION
 FL6 .        API 42-389-36322:  LOCATIONLINE6
 FL4 .           ABSTRACT 3622:  LOCATIONLINE4
 FL3 .        T&P RR CO SURVEY:  LOCATIONLINE3
 FL2 .     SECTION 36, BLOCK 58 T2:  LOCATIONLINE2
 FL1 .     336'' FSL & 729' FWL:  LOCATIONLINE1
 DMF .                      KB:  DRILL MEAS FROM
 PDAT.                      GL:  PERMANENT DATUM
 CNTY.                  REEVES:  COUNTY NAME
 FLD .     FORD, WEST (WOLFCAMP):  FIELD NAME
 WELL.        AVA STATE 36 #2H:  WELL NAME
 COMP.     CAPITAN ENERGY INC.:  COMPANY
 DATE.             01-Nov-2017:  DATE
 SVCO.             Halliburton:  SERVICECONAME
 PROV.                   TEXAS:  PROVINCE
 STAT.                   TEXAS:  STATE NAME
 CTRY.           UNITED STATES:  COUNTRY NAME
 HIDE.                        :  WELLNAMEOPERAT
 BASI.                 PERMIAN:  BASIN
 UWI .            42-389-36322LAT:  UNIQUE WELL IDENTIFIER
 API .            42-389-36322LAT:  API NUMBER
 RANG.                     N/A:  RANGE
 TOWN.                     N/A:  TOWNSHIP
 SECT.                     N/A:  SECTION
 SON .               904399722:  JOB NUMBER
 SRVC.             Halliburton:  SERVICE COMPANY
 LMF .                      KB:  LOG MEASURED FROM
 EGL .ft             3011.0000:  GROUND ELEVATION
 BAP .ft                0.0000:  GL ELEV ONSHORE
 GVFD.g                 1.0000:  GRAVITY FIELD
 EKB .ft             3037.0000:  KB ELEVATION
 EDF .ft             3036.0000:  DF ELEVATION
~Curve Information Block
#MNEM.UNIT                 API CODE     Curve Description
#---------               -----------    ---------------------------
 DEPT.F                 00 000 000 000:  Depth
 CCL .V                 00 000 000 000:  Casing Collar Locator
 NPHI_OH.pu             00 000 000 000:  NPHI_OH
 NPHI_CHI.pu            00 000 000 000:  NPHI_CHI
 GR_CHI.api             00 000 000 000:  GR_CHI
 GR_OH.api              00 000 000 000:  GR_OH
 RHOB_OH.g/cc           00 000 000 000:  RHOB_OH
 RHOB_CHI.g/cc          00 000 000 000:  RHOB_CHI
 PE_CHI.b/e             00 000 000 000:  PE_CHI
 PE_OH.b/e              00 000 000 000:  PE_OH
 DTC_OH.uspf            00 000 000 000:  DTC_OH
 DTC_CHI.uspf           00 000 000 000:  DTC_CHI
 SPHI_CHI.pu            00 000 000 000:  Acou Porosity CHI
 RT10_OH.ohmm           00 000 000 000:  RT10_OH
 RT10_CHI.ohmm          00 000 000 000:  RT10_CHI
 RT30_OH.ohmm           00 000 000 000:  RT30_OH
 RT30_CHI.ohmm          00 000 000 000:  RT30_CHI
 RT90_OH.ohmm           00 000 000 000:  RT90_OH
 RT90_CHI.ohmm          00 000 000 000:  RT90_CHI
 SGF .cu                00 000 000 000:  Formation Sigma
 CRNF.NONE              00 000 000 000:  CM GrsCaptRatio
 RIN .NONE              00 000 000 000:  CM GrsInelRatio
#Other Information
#
#WARRANTY: Halliburton will use its best efforts to furnish customers with 
#accurate information and interpretations that are part of, and incident to, the services 
#provided.  However, Halliburton cannot and does not warrant the accuracy 
#or correctness of such information and interpretations.  Under no circumstances should any 
#such information or interpretation be relied upon as the sole basis for any drilling, 
#completion, production, or financial decision or any procedure involving any risk to the 
#safety of any drilling venture, drilling rig or its crew or any other third party.  The 
#Customer has full responsibility for all drilling, completion and production operation.  
#Halliburton makes no representations or warranties, either expressed or 
#implied, including, but not limited to, the implied warranties of merchantability or fitness 
#for a particular purpose, with respect to the services rendered.  In no event will 
#Halliburton be liable for failure to obtain any particular results or for 
#any damages, including, but not limited to, indirect, special or consequential damages, 
#resulting from the use of any information or interpretation provided by Halliburton.
#
~A    DEPT      CCL   NPHI_OH NPHI_CHI   GR_CHI   GR_OH   RHOB_OH RHOB_CHI  PE_CHI   PE_OH  DTC_OH  DTC_CHI SPHI_CHI RT10_OH  RT10_CHI RT30_OH  RT30_CHI RT90_OH  RT90_CHI   SGF    CRNF   RIN   
# ...
   14281.0000  0.0000 -999.25   11.9361 119.2022  -999.25 -999.25    2.5630  4.0093 -999.25 -999.25 68.6491  14.8900  -999.25  39.0929  -999.25  38.4421  -999.25  41.1183 25.9969 1.0518 1.0660
   14281.5000  0.0000 -999.25   12.1726 121.1293  -999.25 -999.25    2.5610  3.9936 -999.25 -999.25 69.3234  15.3600  -999.25  38.7936  -999.25  38.0175  -999.25  40.6023 26.2360 1.0517 1.0651
   14282.0000  0.0000 -999.25   12.3637 127.8246  -999.25 -999.25    2.5596  3.9567 -999.25 -999.25 69.6155  15.5700  -999.25  39.0237  -999.25  38.4738  -999.25  41.1134 26.3249 1.0539 1.0629
   14282.5000  0.0000 -999.25   12.4995 128.2029  -999.25 -999.25    2.5579  3.9291 -999.25 -999.25 69.8934  15.7700  -999.25  39.0337  -999.25  38.4672  -999.25  41.1066 26.2502 1.0528 1.0600
   14283.0000  0.0000 -999.25   12.6174 130.5384  -999.25 -999.25    2.5565  3.8999 -999.25 -999.25 70.0350  15.8700  -999.25  39.2264  -999.25  38.8071  -999.25  41.5030 26.3434 1.0475 1.0571
   14283.5000  0.0000 -999.25   12.6233 127.7749  -999.25 -999.25    2.5559  3.8980 -999.25 -999.25 70.0673  15.8900  -999.25  39.1631  -999.25  38.6679  -999.25  41.3528 26.2581 1.0412 1.0559
   14284.0000  0.0000 -999.25   12.8174 136.1755  -999.25 -999.25    2.5548  3.8710 -999.25 -999.25 70.3300  16.0700  -999.25  39.4439  -999.25  39.2856  -999.25  42.0455 26.3087 1.0407 1.0549
   14284.5000  0.0000 -999.25   12.7025 134.9930  -999.25 -999.25    2.5557  3.8751 -999.25 -999.25 70.0282  15.8600  -999.25  39.5865  -999.25  39.4692  -999.25  42.2711 26.4607 1.0448 1.0550
   14285.0000  0.0000 -999.25   12.4367 130.7395  -999.25 -999.25    2.5581  3.9029 -999.25 -999.25 69.5184  15.5000  -999.25  39.5224  -999.25  39.2251  -999.25  42.0011 26.9345 1.0528 1.0577
   14285.5000  0.0000 -999.25   12.3272 130.4213  -999.25 -999.25    2.5599  3.9288 -999.25 -999.25 69.4082  15.4200  -999.25  39.3162  -999.25  38.8671  -999.25  41.5725 27.3002 1.0603 1.0613
   14286.0000  0.0000 -999.25   12.1705 127.2282  -999.25 -999.25    2.5623  3.9701 -999.25 -999.25 69.4031  15.4200  -999.25  38.7499  -999.25  37.8545  -999.25  40.3800 27.6347 1.0687 1.0668
   14286.5000  0.0000 -999.25   12.1642 124.2792  -999.25 -999.25    2.5628  3.9898 -999.25 -999.25 69.6509  15.5900  -999.25  38.2559  -999.25  37.0075  -999.25  39.3875 27.6743 1.0769 1.0693
   14287.0000  0.0000 -999.25   12.6681 138.5938  -999.25 -999.25    2.5601  3.9503 -999.25 -999.25 70.5098  16.2000  -999.25  38.3389  -999.25  37.4404  -999.25  39.8298 27.8147 1.0779 1.0690
   14287.5000  0.0000 -999.25   12.8908 139.0646  -999.25 -999.25    2.5578  3.9310 -999.25 -999.25 70.9640  16.5200  -999.25  38.2104  -999.25  37.2841  -999.25  39.6436 28.0049 1.0724 1.0668
   14288.0000  0.0000 -999.25   12.6849 122.5998  -999.25 -999.25    2.5569  3.9322 -999.25 -999.25 70.8196  16.4200  -999.25  37.6987  -999.25  36.1915  -999.25  38.4399 28.1527 1.0606 1.0625
   14288.5000  0.0000 -999.25   12.7802 123.0962  -999.25 -999.25    2.5554  3.9022 -999.25 -999.25 70.9515  16.5100  -999.25  37.7380  -999.25  36.2770  -999.25  38.5471 28.1478 1.0457 1.0592
   14289.0000  0.0000 -999.25   12.7877 125.3162  -999.25 -999.25    2.5550  3.8747 -999.25 -999.25 70.8598  16.4500  -999.25  37.9822  -999.25  36.6860  -999.25  39.0288 27.8390 1.0421 1.0566
   14289.5000  0.0000 -999.25   12.7010 129.1840  -999.25 -999.25    2.5558  3.8570 -999.25 -999.25 70.5029  16.2000  -999.25  38.4711  -999.25  37.4690  -999.25  39.9417 27.4863 1.0538 1.0554
   14290.0000  0.0000 -999.25   12.4035 127.8714  -999.25 -999.25    2.5583  3.8706 -999.25 -999.25 69.7330  15.6500  -999.25  38.9367  -999.25  38.1070  -999.25  40.7036 27.0192 1.0834 1.0563
   14290.5000  0.0000 -999.25   12.2390 124.0998  -999.25 -999.25    2.5595  3.8955 -999.25 -999.25 69.3938  15.4100  -999.25  38.9923  -999.25  38.1154  -999.25  40.7271 26.7211 1.1093 1.0578
   14291.0000  0.0000 -999.25   12.3652 122.2130  -999.25 -999.25    2.5586  3.9256 -999.25 -999.25 69.8233  15.7200  -999.25  38.6563  -999.25  37.6435  -999.25  40.1641 26.7260 1.1238 1.0599
   14291.5000  0.0000 -999.25   13.0432 129.3237  -999.25 -999.25    2.5538  3.9270 -999.25 -999.25 71.3201  16.7800  -999.25  38.0048  -999.25  36.9720  -999.25  39.3225 26.9784 1.1262 1.0609
   14292.0000  0.0000 -999.25   13.6159 130.6902  -999.25 -999.25    2.5488  3.9087 -999.25 -999.25 72.3789  17.5200  -999.25  37.3823  -999.25  36.1669  -999.25  38.3626 27.3558 1.1192 1.0592
   14292.5000  0.0000 -999.25   13.6070 119.4965  -999.25 -999.25    2.5476  3.9185 -999.25 -999.25 72.4185  17.5500  -999.25  36.7247  -999.25  34.9736  -999.25  37.0103 27.6850 1.1212 1.0578
   14293.0000  0.0000 -999.25   13.7962 122.3371  -999.25 -999.25    2.5457  3.8795 -999.25 -999.25 72.6833  17.7400  -999.25  36.7598  -999.25  35.0697  -999.25  37.1182 27.8890 1.1215 1.0546
   14293.5000  0.0000 -999.25   13.6398 120.9438  -999.25 -999.25    2.5466  3.8659 -999.25 -999.25 72.4516  17.5800  -999.25  36.8513  -999.25  35.1467  -999.25  37.2241 27.9397 1.1221 1.0531
   14294.0000  0.0000 -999.25   13.7663 123.0429  -999.25 -999.25    2.5455  3.8455 -999.25 -999.25 72.6349  17.7100  -999.25  36.8336  -999.25  35.1698  -999.25  37.2466 27.7579 1.1170 1.0516
   14294.5000  0.0000 -999.25   13.5701 116.4075  -999.25 -999.25    2.5465  3.8623 -999.25 -999.25 72.3680  17.5200  -999.25  36.5857  -999.25  34.6929  -999.25  36.7188 27.4592 1.1154 1.0519
   14295.0000  0.0000 -999.25   13.4252 110.7662  -999.25 -999.25    2.5472  3.8805 -999.25 -999.25 72.1450  17.3600  -999.25  36.4494  -999.25  34.4094  -999.25  36.4098 27.2356 1.1152 1.0522
   14295.5000  0.0000 -999.25   13.5161 117.8808  -999.25 -999.25    2.5472  3.8776 -999.25 -999.25 72.2483  17.4300  -999.25  36.8905  -999.25  35.1591  -999.25  37.2516 27.1580 1.1198 1.0531
   14296.0000  0.0000 -999.25   13.7536 127.2035  -999.25 -999.25    2.5462  3.8610 -999.25 -999.25 72.5694  17.6600  -999.25  37.2673  -999.25  35.9032  -999.25  38.0798 27.2127 1.1243 1.0532
   14296.5000  0.0000 -999.25   14.2229 141.7315  -999.25 -999.25    2.5434  3.8154 -999.25 -999.25 73.1974  18.1000  -999.25  37.7336  -999.25  36.9226  -999.25  39.2115 27.3401 1.1279 1.0519
   14297.0000  0.0000 -999.25   14.4546 144.8264  -999.25 -999.25    2.5414  3.7932 -999.25 -999.25 73.5158  18.3300  -999.25  37.7361  -999.25  37.0108  -999.25  39.3020 27.4367 1.1346 1.0504
   14297.5000  0.0000 -999.25   14.0036 127.5354  -999.25 -999.25    2.5434  3.8330 -999.25 -999.25 72.9259  17.9100  -999.25  37.1149  -999.25  35.7311  -999.25  37.8808 27.4678 1.1348 1.0500
   14298.0000  0.0000 -999.25   13.8189 120.2384  -999.25 -999.25    2.5447  3.8627 -999.25 -999.25 72.6945  17.7500  -999.25  36.7159  -999.25  34.9921  -999.25  37.0431 27.2658 1.1339 1.0519
   14298.5000  0.0000 -999.25   13.9980 122.8339  -999.25 -999.25    2.5439  3.8677 -999.25 -999.25 72.9694  17.9400  -999.25  36.5503  -999.25  34.7952  -999.25  36.7940 27.0580 1.1245 1.0537
   14299.0000 -999.25 -999.25   13.8305 118.8562  -999.25 -999.25    2.5455  3.9020 -999.25 -999.25 72.7484  17.7900  -999.25  36.3996  -999.25  34.4978  -999.25  36.4565 26.9066 1.1152 1.0564
   14299.5000 -999.25 -999.25   13.8147  -999.25  -999.25 -999.25    2.5455  3.9065 -999.25 -999.25 72.7130  17.7600  -999.25  36.4737  -999.25  34.6255  -999.25  36.6049 26.8877 1.1117 1.0568
   14300.0000 -999.25 -999.25 -996.7500  -999.25  -999.25 -999.25 -999.2850 -999.25 -999.25 -999.25 -999.25  -999.25  -999.25  -999.25  -999.25  -999.25  -999.25  -999.25 26.9374 1.1178 1.0577
