#--------------------------------------------------#
#-------------------ENVERUS, INC.------------------#
#------------------WWW.ENVERUS.COM-----------------#
#------------------COPYRIGHT 2020------------------#
#--------------------------------------------------#
#THIS FILE MAY BE USED ONLY IN ACCORDANCE WITH A CURRENT SUBSCRIPTION AGREEMENT BETWEEN
#THE USER AND ENVERUS, INC. NO PART OF THIS FILE MAY BE REPRODUCED, USED, COPIED,
#MODIFIED, PROPAGATED, OR DISTRIBUTED EXCEPT IN ACCORDANCE WITH THE SUBSCRIPTION
#AGREEMENT. UNAUTHORIZED USE OR DISTRIBUTION OF ALL OR ANY PART OF THIS FILE MAY VIOLATE
#COPYRIGHT, TRADEMARK, AND/OR OTHER LAWS AND IS SUBJECT TO CIVIL AS WELL AS CRIMINAL
#SANCTIONS.
#--------------------------------------------------#
#THIS FILE IS PROVIDED "AS-IS" AND ALL WARRANTIES ARE EXPRESSLY DISCLAIMED, WHETHER
#EXPRESS, ORAL, IMPLIED, STATUTORY OR OTHERWISE, INCLUDING ANY IMPLIED WARRANTY OF FITNESS
#FOR A PARTICULAR PURPOSE, MERCHANTABILITY, TITLE OR NON-INFRINGEMENT, AND ANY WARRANTIES
#ARISING BY VIRTUE OF CUSTOM OF TRADE OR COURSE OF DEALING.  FURTHER, ENVERUS, INC.
#AND ITS LICENSORS DO NOT REPRESENT OR WARRANT THAT THIS FILE WILL MEET USER'S
#REQUIREMENTS OR ARE SUITABLE FOR USER'S NEEDS OR THAT THE DATA OR RESULTS PROVIDED IN
#CONJUNCTION THEREWITH ARE CORRECT, ACCURATE, TIMELY OR RELIABLE. THESE DISCLAIMERS SHALL
#APPLY REGARDLESS OF ANY FAILURE OF ESSENTIAL PURPOSE OF ANY LIMITED REMEDY.  SOME
#JURISDICTIONS DO NOT ALLOW THE EXCLUSION OF CERTAIN WARRANTIES SO SOME OF THE ABOVE
#EXCLUSIONS MAY NOT APPLY. IN NO EVENT SHALL ENVERUS, INC. OR ANY OF ITS AFFILIATES
#BE LIABLE UNDER ANY LEGAL THEORY, WHETHER IN TORT (INCLUDING WITHOUT LIMITATION
#NEGLIGENCE), CONTRACT, STRICT LIABILITY, STATUTORY OR OTHERWISE, FOR ANY SPECIAL,
#INCIDENTAL, CONSEQUENTIAL, EXEMPLARY, PUNITIVE OR INDIRECT DAMAGE OF ANY KIND, INCLUDING
#WITHOUT LIMITATION LOSS OF REVENUE, PROFITS, GOODWILL, USE, AND/OR DATA OR THE COST OF
#PROCUREMENT OF SUBSTITUTE GOODS OR SERVICES, EVEN IF APPRISED OF THE POSSIBILITY OF SUCH
#DAMAGES IN ADVANCE.
#--------------------------------------------------#

~VERSION INFORMATION
VERS. 2.0 : CWLS LOG ASCII STANDARD - VERSION 2.0
WRAP.  NO : ONE LINE PER DEPTH STEP
~WELL INFORMATION
#MNEMONIC     .UNIT              VALUE :DESCRIPTION
STRT       .FT                145 :START DEPTH
STOP       .FT                15608 :STOP DEPTH
STEP       .FT                   0.500 :STEP
NULL       .                  -999.250 :NULL
UWI        .              42389304120000 :UNIQUE WELL ID
API        .              42389304120000 :API NUMBER
COMP       .         BTA OIL PRODUCERS :COMPANY
WELL       .        7607 JV-P ORLA  1 :WELL
DATE       .                            :LOG DATE
~CURVE INFORMATION
#MNEMONIC     .UNIT      API CODE :CURVE DESCRIPTION
DEPTH       .FT                      :MEASURED DEPTH
DT.US/FT        UNKNOWN   :DT
CAL.INCH        UNKNOWN   :CAL
GR.API        UNKNOWN   :GR
~A    DEPTH    DT    CAL    GR
# ...
 5456     65.827   13.595   40.104
 5456.5     66.398   13.578   47.314
 5457     66.712   13.56   54.523
 5457.5     66.292   13.542   61.733
 5458     66.881   13.524   74.234
 5458.5     67.489   13.507   88.204
 5459     67.337   13.489   102.175
 5459.5     67.172   13.471   112.974
 5460     67.007   13.453   121.528
 5460.5     65.913   13.436   120.396
 5461     64.503   13.418   110.417
 5461.5     62.99   13.4   100.437
 5462     61.478   13.383   90.458
 5462.5     61.929   13.365   80.478
 5463     63.336   13.368   77.023
 5463.5     62.809   13.388   77.771
 5464     63.026   13.407   78.52
 5464.5     62.936   13.426   79.269
 5465     62.494   13.445   80.018
 5465.5     62.908   13.465   89.607
 5466     64.949   13.484   99.839
 5466.5     65.961   13.503   110.07
 5467     66.889   13.522   120.301
 5467.5     65.563   13.542   126.284
 5468     65.398   13.561   129.385
 5468.5     65.233   13.58   129.214
 5469     65.068   13.599   125.952
 5469.5     63.728   13.619   120.488
 5470     62.526   13.638   115.024
 5470.5     62.388   13.657   114.213
 5471     63.126   13.676   113.724
 5471.5     65.932   13.696   110.535
 5472     68.443   13.715   108.66
 5472.5     67.945   13.734   108.914
 5473     67.053   13.753   109.167
 5473.5     65.905   13.773   98.689
 5474     64.756   13.792   84.829
 5474.5     64.189   13.811   70.968
 5475     64.903   13.83   63.21
 5475.5     66.585   13.847   60.219
 5476     68.268   13.843   56.988
 5476.5     66.5   13.84   53.101
 5477     64.176   13.836   49.215
 5477.5     63.428   13.832   45.822
 5478     63.633   13.828   42.674
 5478.5     64.99   13.825   42.417
 5479     65.292   13.821   42.318
 5479.5     63.549   13.817   42.22
 5480     61.805   13.814   42.241
 5480.5     60.062   13.81   44.694
 5481     61.434   13.806   47.147
 5481.5     63.121   13.802   49.6
 5482     64.65   13.799   51.938
 5482.5     64.936   13.795   53.909
 5483     65.221   13.791   55.881
 5483.5     65.363   13.787   57.852
 5484     65.11   13.784   59.824
 5484.5     64.856   13.78   61.11
 5485     64.602   13.776   60.932
 5485.5     65.551   13.766   60.753
 5486     67.547   13.752   60.574
 5486.5     69.543   13.738   60.2
 5487     70.818   13.724   58.602
 5487.5     70.584   13.71   57.004
 5488     69.055   13.696   55.406
 5488.5     66.689   13.683   56.609
 5489     64.323   13.669   58.773
 5489.5     62.794   13.655   60.938
 5490     62.816   13.647   63.103
 5490.5     64.433   13.658   65.776
 5491     64.806   13.669   68.49
 5491.5     64.835   13.68   71.203
 5492     65.043   13.691   73.917
 5492.5     65.452   13.702   76.63
 5493     65.897   13.713   77.266
 5493.5     66.185   13.724   75.801
 5494     66.125   13.735   72.802
 5494.5     65.563   13.746   68.403
 5495     62.17   13.757   64.004
 5495.5     59.99   13.768   59.605
 5496     59.317   13.779   55.206
 5496.5     60.76   13.79   50.806
 5497     63.939   13.766   46.407
 5497.5     66.959   13.716   44.712
 5498     66.744   13.665   45.206
 5498.5     66.205   13.615   45.7
 5499     65.921   13.565   46.194
 5499.5     66.283   13.514   47.374
 5500     66.645   13.464   48.589
 5500.5     67.007   13.414   49.805
 5501     66.51   13.364   51.02
 5501.5     65.299   13.324   55.899
 5502     64.088   13.382   61.575
 5502.5     64.458   13.44   67.25
 5503     65.106   13.498   72.926
 5503.5     65.262   13.556   77.987
 5504     65.418   13.614   74.439
 5504.5     65.15   13.672   70.6
 5505     64.836   13.731   66.192
 5505.5     64.523   13.789   61.783
 5506     64.191   13.847   57.375
 5506.5     63.554   13.905   52.967
 5507     62.918   13.963   48.558
 5507.5     62.924   14.021   46.026
 5508     63.156   14.079   45.164
 5508.5     63.478   14.137   44.303
 5509     64.506   14.16   43.441
 5509.5     65.533   14.159   42.579
 5510     66.56   14.159   41.718
 5510.5     67.587   14.158   40.856
 5511     67.595   14.158   43.326
 5511.5     66.884   14.157   46.655
 5512     66.173   14.157   49.983
 5512.5     65.462   14.156   53.311
 5513     64.751   14.156   56.64
 5513.5     65.148   14.155   59.005
 5514     65.59   14.155   59.897
 5514.5     66.033   14.154   60.788
 5515     66.475   14.144   61.68
 5515.5     66.281   14.132   62.571
 5516     66.081   14.119   65.303
 5516.5     65.882   14.106   68.073
 5517     65.95   14.093   70.844
 5517.5     66.024   14.081   68.952
 5518     66.016   14.068   67.041
 5518.5     65.579   14.055   60.451
 5519     65.143   14.042   52.095
 5519.5     65.001   14.03   43.092
 5520     65.309   14.017   40.735
 5520.5     65.617   14.004   38.397
 5521     65.887   13.991   37.962
 5521.5     65.785   13.979   37.526
 5522     64.086   13.966   37.091
 5522.5     62.766   13.953   36.656
 5523     62.908   13.94   36.747
 5523.5     63.05   13.928   36.958
 5524     65.104   13.915   37.169
 5524.5     67.322   13.902   38.337
 5525     67.363   13.889   40.531
 5525.5     67.119   13.877   42.726
 5526     66.409   13.864   44.92
 5526.5     65.908   13.851   47.114
 5527     65.627   13.838   49.308
 5527.5     64.995   13.826   51.503
 5528     63.709   13.813   53.697
 5528.5     62.422   13.8   55.516
 5529     61.382   13.787   56.46
 5529.5     61.015   13.775   57.405
 5530     61.821   13.762   58.563
 5530.5     62.64   13.749   60.309
 5531     63.154   13.736   62.056
 5531.5     63.387   13.724   63.802
 5532     63.334   13.711   65.548
 5532.5     63.197   13.698   65.856
 5533     63.353   13.685   63.325
 5533.5     63.568   13.673   60.793
 5534     63.782   13.66   60.507
 5534.5     63.809   13.647   60.891
 5535     63.834   13.634   61.275
 5535.5     63.859   13.622   63.909
 5536     63.884   13.609   66.552
 5536.5     63.909   13.596   69.196
 5537     63.934   13.583   71.839
 5537.5     63.959   13.571   74.483
 5538     63.984   13.558   76.803
 5538.5     64.076   13.545   78.87
 5539     64.312   13.533   80.936
 5539.5     64.548   13.52   83.003
 5540     64.784   13.507   84.646
 5540.5     65.02   13.494   86.139
 5541     65.345   13.482   87.632
 5541.5     65.703   13.469   89.125
 5542     66.085   13.456   94.252
 5542.5     66.711   13.443   99.802
 5543     67.338   13.431   105.352
 5543.5     67.964   13.418   109.37
 5544     67.981   13.405   112.793
 5544.5     66.063   13.418   110.026
 5545     65.817   13.441   105.998
 5545.5     65.18   13.464   101.97
 5546     64.544   13.486   98.029
 5546.5     64.715   13.509   95.225
 5547     65.207   13.532   92.421
 5547.5     65.7   13.554   89.937
 5548     63.552   13.577   87.778
 5548.5     60.894   13.6   85.618
 5549     58.236   13.622   79.541
 5549.5     56.259   13.645   71.406
 5550     56.2   13.668   63.272
 5550.5     57.689   13.691   55.137
 5551     59.179   13.713   48.447
 5551.5     60.668   13.736   50.751
 5552     61.922   13.759   53.056
 5552.5     62.954   13.781   55.36
 5553     63.788   13.804   57.665
 5553.5     64.38   13.827   58.095
 5554     64.013   13.849   57.986
 5554.5     63.647   13.872   57.877
 5555     63.506   13.895   57.768
 5555.5     63.489   13.917   57.659
 5556     63.472   13.94   57.55
 5556.5     63.456   13.963   57.442
 5557     63.439   13.986   58.795
 5557.5     63.422   14.008   60.489
 5558     63.406   14.031   62.183
 5558.5     63.512   14.047   63.877
 5559     63.927   14.043   65.276
 5559.5     64.343   14.039   65.035
 5560     64.586   14.035   64.794
 5560.5     64.128   14.031   64.881
 5561     63.67   14.027   68.501
 5561.5     63.213   14.023   71.401
 5562     62.755   14.019   71.395
 5562.5     63.677   14.015   71.389
 5563     64.1   14.011   71.122
 5563.5     64.132   14.007   69.213
 5564     64.26   14.002   67.305
 5564.5     64.518   13.998   68.439
 5565     64.775   13.994   70.036
 5565.5     64.61   13.99   71.41
 5566     64.332   13.986   72.449
 5566.5     63.998   13.982   73.488
 5567     63.665   13.978   72.709
 5567.5     63.332   13.974   70.925
