#--------------------------------------------------#
#-------------------ENVERUS, INC.------------------#
#------------------WWW.ENVERUS.COM-----------------#
#------------------COPYRIGHT 2020------------------#
#--------------------------------------------------#
#THIS FILE MAY BE USED ONLY IN ACCORDANCE WITH A CURRENT SUBSCRIPTION AGREEMENT BETWEEN
#THE USER AND ENVERUS, INC. NO PART OF THIS FILE MAY BE REPRODUCED, USED, COPIED,
#MODIFIED, PROPAGATED, OR DISTRIBUTED EXCEPT IN ACCORDANCE WITH THE SUBSCRIPTION
#AGREEMENT. UNAUTHORIZED USE OR DISTRIBUTION OF ALL OR ANY PART OF THIS FILE MAY VIOLATE
#COPYRIGHT, TRADEMARK, AND/OR OTHER LAWS AND IS SUBJECT TO CIVIL AS WELL AS CRIMINAL
#SANCTIONS.
#--------------------------------------------------#
#THIS FILE IS PROVIDED "AS-IS" AND ALL WARRANTIES ARE EXPRESSLY DISCLAIMED, WHETHER
#EXPRESS, ORAL, IMPLIED, STATUTORY OR OTHERWISE, INCLUDING ANY IMPLIED WARRANTY OF FITNESS
#FOR A PARTICULAR PURPOSE, MERCHANTABILITY, TITLE OR NON-INFRINGEMENT, AND ANY WARRANTIES
#ARISING BY VIRTUE OF CUSTOM OF TRADE OR COURSE OF DEALING.  FURTHER, ENVERUS, INC.
#AND ITS LICENSORS DO NOT REPRESENT OR WARRANT THAT THIS FILE WILL MEET USER'S
#REQUIREMENTS OR ARE SUITABLE FOR USER'S NEEDS OR THAT THE DATA OR RESULTS PROVIDED IN
#CONJUNCTION THEREWITH ARE CORRECT, ACCURATE, TIMELY OR RELIABLE. THESE DISCLAIMERS SHALL
#APPLY REGARDLESS OF ANY FAILURE OF ESSENTIAL PURPOSE OF ANY LIMITED REMEDY.  SOME
#JURISDICTIONS DO NOT ALLOW THE EXCLUSION OF CERTAIN WARRANTIES SO SOME OF THE ABOVE
#EXCLUSIONS MAY NOT APPLY. IN NO EVENT SHALL ENVERUS, INC. OR ANY OF ITS AFFILIATES
#BE LIABLE UNDER ANY LEGAL THEORY, WHETHER IN TORT (INCLUDING WITHOUT LIMITATION
#NEGLIGENCE), CONTRACT, STRICT LIABILITY, STATUTORY OR OTHERWISE, FOR ANY SPECIAL,
#INCIDENTAL, CONSEQUENTIAL, EXEMPLARY, PUNITIVE OR INDIRECT DAMAGE OF ANY KIND, INCLUDING
#WITHOUT LIMITATION LOSS OF REVENUE, PROFITS, GOODWILL, USE, AND/OR DATA OR THE COST OF
#PROCUREMENT OF SUBSTITUTE GOODS OR SERVICES, EVEN IF APPRISED OF THE POSSIBILITY OF SUCH
#DAMAGES IN ADVANCE.
#--------------------------------------------------#

~VERSION INFORMATION
VERS. 2.0 : CWLS LOG ASCII STANDARD - VERSION 2.0
WRAP.  NO : ONE LINE PER DEPTH STEP
~WELL INFORMATION
#MNEMONIC     .UNIT              VALUE :DESCRIPTION
STRT       .FT                145 :START DEPTH
STOP       .FT                15608 :STOP DEPTH
STEP       .FT                   0.500 :STEP
NULL       .                  -999.250 :NULL
UWI        .              42389304120000 :UNIQUE WELL ID
API        .              42389304120000 :API NUMBER
COMP       .         BTA OIL PRODUCERS :COMPANY
WELL       .        7607 JV-P ORLA  1 :WELL
DATE       .                            :LOG DATE
~CURVE INFORMATION
#MNEMONIC     .UNIT      API CODE :CURVE DESCRIPTION
DEPTH       .FT                      :MEASURED DEPTH
DT.US/FT        UNKNOWN   :DT
CAL.INCH        UNKNOWN   :CAL
GR.API        UNKNOWN   :GR
~A    DEPTH    DT    CAL    GR
# ...
 7925     58.001   13.302   31.987
 7925.5     61.816   13.292   30.868
 7926     65.631   13.283   32.736
 7926.5     68.181   13.274   34.604
 7927     67.815   13.264   36.472
 7927.5     62.993   13.255   37.096
 7928     57.429   13.245   36.573
 7928.5     54.147   13.236   29.278
 7929     52.91   13.226   24.585
 7929.5     52.065   13.217   21.441
 7930     56.902   13.208   23.419
 7930.5     62.879   13.198   25.833
 7931     63.895   13.189   28.248
 7931.5     63.991   13.179   30.663
 7932     61.969   13.17   33.078
 7932.5     59.946   13.16   35.492
 7933     58.146   13.151   34.279
 7933.5     56.968   13.142   31.334
 7934     56.084   13.132   31.779
 7934.5     55.308   13.123   32.305
 7935     56.439   13.113   32.83
 7935.5     57.571   13.104   33.356
 7936     59.938   13.094   37.643
 7936.5     64.579   13.085   42.64
 7937     66.37   13.076   47.636
 7937.5     67.211   13.066   52.633
 7938     66.811   13.057   56.312
 7938.5     68.302   13.047   57.185
 7939     68.463   13.038   58.058
 7939.5     67.923   13.028   56.938
 7940     67.315   13.019   55.067
 7940.5     64.831   13.01   51.219
 7941     63.384   13   47.372
 7941.5     62.474   12.991   43.525
 7942     62.005   12.981   40.051
 7942.5     61.566   12.972   38.46
 7943     61.593   12.965   36.87
 7943.5     62.087   13   37.386
 7944     62.581   13.034   38.086
 7944.5     61.451   13.068   38.785
 7945     60.169   13.103   39.485
 7945.5     58.887   13.137   38.463
 7946     57.605   13.171   36.992
 7946.5     57.253   13.206   35.521
 7947     57.314   13.24   34.649
 7947.5     57.146   13.274   37.131
 7948     59.033   13.309   39.613
 7948.5     60.921   13.343   50.351
 7949     62.808   13.377   54.014
 7949.5     64.161   13.412   57.389
 7950     63.767   13.446   60.763
 7950.5     60.034   13.449   64.137
 7951     56.301   13.385   60.418
 7951.5     54.093   13.321   56.094
 7952     52.856   13.256   51.771
 7952.5     52.654   13.192   47.448
 7953     52.929   13.128   45.8
 7953.5     53.728   13.063   45.805
 7954     54.528   12.999   45.81
 7954.5     55.86   12.941   46.368
 7955     57.425   12.941   47.6
 7955.5     57.297   12.94   51.156
 7956     56.143   12.94   54.712
 7956.5     54.35   12.94   58.268
 7957     52.556   12.939   61.824
 7957.5     52.148   12.939   63.824
 7958     52.772   12.939   63.011
 7958.5     53.766   12.938   62.197
 7959     54.636   12.938   61.128
 7959.5     54.772   12.937   59.43
 7960     54.864   12.937   57.733
 7960.5     54.425   12.937   56.036
 7961     53.986   12.936   52.809
 7961.5     53.546   12.936   49.455
 7962     53.107   12.935   46.1
 7962.5     52.786   12.935   42.746
 7963     52.92   12.935   40.26
 7963.5     53.054   12.934   38.228
 7964     53.189   12.934   36.195
 7964.5     53.323   12.934   35.159
 7965     53.457   12.933   34.307
 7965.5     53.592   12.933   33.42
 7966     53.726   12.932   32.461
 7966.5     54.26   12.932   31.502
 7967     54.746   12.932   30.543
 7967.5     54.775   12.931   30.857
 7968     54.805   12.931   31.186
 7968.5     54.481   12.93   31.514
 7969     54.127   12.93   32.581
 7969.5     53.773   12.93   34.004
 7970     53.418   12.929   35.427
 7970.5     55.137   12.929   36.183
 7971     54.96   12.929   35.901
 7971.5     54.845   12.928   35.619
 7972     55.335   12.928   35.336
 7972.5     55.674   12.927   35.054
 7973     55.442   12.927   34.791
 7973.5     55.21   12.927   34.556
 7974     55.66   12.926   34.321
 7974.5     56.347   12.926   34.086
 7975     56.659   12.93   33.851
 7975.5     56.309   12.943   33.617
 7976     55.959   12.957   33.382
 7976.5     56.231   12.97   33.147
 7977     56.564   12.984   33.5
 7977.5     57.121   12.997   33.911
 7978     58.088   13.011   34.321
 7978.5     59.054   13.024   34.732
 7979     58.828   13.038   35.047
 7979.5     59.033   13.051   35.268
 7980     59.36   13.065   35.488
 7980.5     59.687   13.078   35.708
 7981     59.331   13.092   35.929
 7981.5     58.436   13.105   37.663
 7982     57.54   13.119   40.764
 7982.5     56.645   13.132   43.843
 7983     56.761   13.146   46.717
 7983.5     58.864   13.159   49.591
 7984     63.93   13.173   52.465
 7984.5     69.258   13.186   59.222
 7985     70.904   13.2   66.611
 7985.5     71.889   13.213   71.321
 7986     72.055   13.212   73.685
 7986.5     68.391   13.21   72.833
 7987     64.727   13.207   64.473
 7987.5     61.849   13.204   52.753
 7988     59.512   13.202   41.033
 7988.5     57.559   13.199   29.312
 7989     56.998   13.196   26.382
 7989.5     56.438   13.194   27.043
 7990     56.805   13.191   29.5
 7990.5     59.212   13.189   33.461
 7991     61.936   13.186   38.953
 7991.5     65.067   13.183   44.445
 7992     68.894   13.181   49.937
 7992.5     72.721   13.178   54.206
 7993     74.092   13.175   54.861
 7993.5     71.062   13.173   54.123
 7994     68.033   13.17   52.468
 7994.5     65.415   13.167   50.812
 7995     65.95   13.165   51.129
 7995.5     66.486   13.162   51.948
 7996     69.46   13.16   55.764
 7996.5     68.802   13.157   61.592
 7997     67.02   13.154   67.42
 7997.5     67.852   13.152   68.763
 7998     69.431   13.149   69.863
 7998.5     70.017   13.146   70.3
 7999     70.407   13.144   70.736
 7999.5     71.828   13.141   70.533
 8000     68.359   13.139   69.814
 8000.5     67.244   13.136   69.094
 8001     67.367   13.133   68.374
 8001.5     66.592   13.131   67.647
 8002     65.816   13.128   66.847
 8002.5     68.684   13.125   66.047
 8003     69.446   13.123   65.248
 8003.5     71.115   13.12   64.448
 8004     73.666   13.117   64.374
 8004.5     75.204   13.115   64.702
 8005     74.949   13.112   65.03
 8005.5     74.628   13.11   64.472
 8006     73.823   13.107   62.132
 8006.5     73.3   13.104   59.791
 8007     74.122   13.104   57.45
 8007.5     74.915   13.105   56.886
 8008     73.179   13.106   57.213
 8008.5     71.442   13.107   57.139
 8009     69.822   13.108   56.592
 8009.5     68.419   13.109   53.869
 8010     66.318   13.11   49.069
 8010.5     63.419   13.11   44.885
 8011     60.52   13.111   41.325
 8011.5     57.621   13.112   37.764
 8012     54.876   13.113   34.599
 8012.5     55.241   13.114   35.909
 8013     57.509   13.115   37.219
 8013.5     62.269   13.116   43.181
 8014     69.025   13.117   49.729
 8014.5     70.796   13.118   55.462
 8015     71.221   13.119   58.883
 8015.5     67.247   13.12   60.233
 8016     63.273   13.121   58.113
 8016.5     61.712   13.122   54.201
 8017     63.36   13.123   51.348
 8017.5     66.226   13.124   54.176
 8018     69.092   13.125   57.003
 8018.5     70.439   13.126   59.83
 8019     71.154   13.127   62.234
 8019.5     70.869   13.127   62.815
 8020     68.477   13.128   63.397
 8020.5     66.085   13.129   61.767
 8021     63.693   13.13   58.24
 8021.5     61.302   13.131   53.992
 8022     63.157   13.132   49.745
 8022.5     65.115   13.133   50.483
 8023     67.073   13.134   53.205
 8023.5     69.031   13.135   55.927
 8024     70.861   13.136   58.649
 8024.5     69.201   13.137   61.371
 8025     67.541   13.138   61.401
 8025.5     65.881   13.139   60.921
 8026     58.716   13.14   53.475
 8026.5     59.81   13.141   45.307
 8027     62.693   13.142   42.527
 8027.5     65.577   13.143   46.121
 8028     66.326   13.144   49.827
 8028.5     65.372   13.144   51.736
 8029     65.329   13.145   52.192
 8029.5     65.776   13.146   52.357
 8030     67.262   13.147   52.523
 8030.5     68.748   13.148   53.607
 8031     70.234   13.149   55.036
 8031.5     70.338   13.15   54.921
 8032     67.026   13.151   54.807
 8032.5     66.921   13.152   54.673
 8033     66.375   13.153   53.078
 8033.5     66.316   13.154   51.482
 8034     69.643   13.155   51.945
 8034.5     68.162   13.156   53.017
 8035     68.586   13.157   54.089
 8035.5     69.394   13.158   53.867
 8036     69.504   13.159   53.226
 8036.5     66.706   13.16   52.585
 8037     63.907   13.161   51.009
