#--------------------------------------------------#
#-------------------ENVERUS, INC.------------------#
#------------------WWW.ENVERUS.COM-----------------#
#------------------COPYRIGHT 2020------------------#
#--------------------------------------------------#
#THIS FILE MAY BE USED ONLY IN ACCORDANCE WITH A CURRENT SUBSCRIPTION AGREEMENT BETWEEN
#THE USER AND ENVERUS, INC. NO PART OF THIS FILE MAY BE REPRODUCED, USED, COPIED,
#MODIFIED, PROPAGATED, OR DISTRIBUTED EXCEPT IN ACCORDANCE WITH THE SUBSCRIPTION
#AGREEMENT. UNAUTHORIZED USE OR DISTRIBUTION OF ALL OR ANY PART OF THIS FILE MAY VIOLATE
#COPYRIGHT, TRADEMARK, AND/OR OTHER LAWS AND IS SUBJECT TO CIVIL AS WELL AS CRIMINAL
#SANCTIONS.
#--------------------------------------------------#
#THIS FILE IS PROVIDED "AS-IS" AND ALL WARRANTIES ARE EXPRESSLY DISCLAIMED, WHETHER
#EXPRESS, ORAL, IMPLIED, STATUTORY OR OTHERWISE, INCLUDING ANY IMPLIED WARRANTY OF FITNESS
#FOR A PARTICULAR PURPOSE, MERCHANTABILITY, TITLE OR NON-INFRINGEMENT, AND ANY WARRANTIES
#ARISING BY VIRTUE OF CUSTOM OF TRADE OR COURSE OF DEALING.  FURTHER, ENVERUS, INC.
#AND ITS LICENSORS DO NOT REPRESENT OR WARRANT THAT THIS FILE WILL MEET USER'S
#REQUIREMENTS OR ARE SUITABLE FOR USER'S NEEDS OR THAT THE DATA OR RESULTS PROVIDED IN
#CONJUNCTION THEREWITH ARE CORRECT, ACCURATE, TIMELY OR RELIABLE. THESE DISCLAIMERS SHALL
#APPLY REGARDLESS OF ANY FAILURE OF ESSENTIAL PURPOSE OF ANY LIMITED REMEDY.  SOME
#JURISDICTIONS DO NOT ALLOW THE EXCLUSION OF CERTAIN WARRANTIES SO SOME OF THE ABOVE
#EXCLUSIONS MAY NOT APPLY. IN NO EVENT SHALL ENVERUS, INC. OR ANY OF ITS AFFILIATES
#BE LIABLE UNDER ANY LEGAL THEORY, WHETHER IN TORT (INCLUDING WITHOUT LIMITATION
#NEGLIGENCE), CONTRACT, STRICT LIABILITY, STATUTORY OR OTHERWISE, FOR ANY SPECIAL,
#INCIDENTAL, CONSEQUENTIAL, EXEMPLARY, PUNITIVE OR INDIRECT DAMAGE OF ANY KIND, INCLUDING
#WITHOUT LIMITATION LOSS OF REVENUE, PROFITS, GOODWILL, USE, AND/OR DATA OR THE COST OF
#PROCUREMENT OF SUBSTITUTE GOODS OR SERVICES, EVEN IF APPRISED OF THE POSSIBILITY OF SUCH
#DAMAGES IN ADVANCE.
#--------------------------------------------------#

~VERSION INFORMATION
VERS. 2.0 : CWLS LOG ASCII STANDARD - VERSION 2.0
WRAP.  NO : ONE LINE PER DEPTH STEP
~WELL INFORMATION
#MNEMONIC     .UNIT              VALUE :DESCRIPTION
STRT       .FT                25 :START DEPTH
STOP       .FT                17136 :STOP DEPTH
STEP       .FT                   0.500 :STEP
NULL       .                  -999.250 :NULL
UWI        .              42389302310000 :UNIQUE WELL ID
API        .              42389302310000 :API NUMBER
COMP       .         EDISTO RESOURCES CORPORATION :COMPANY
WELL       .        WIGGINS  ORLA  1 :WELL
DATE       .                            :LOG DATE
~CURVE INFORMATION
#MNEMONIC     .UNIT      API CODE :CURVE DESCRIPTION
DEPTH       .FT                      :MEASURED DEPTH
CAL.INCH        UNKNOWN   :CAL
ILS.OHM        UNKNOWN   :ILS
SP.MV        UNKNOWN   :SP
DT.US/FT        UNKNOWN   :DT
GR.API        UNKNOWN   :GR
ILD.OHM        UNKNOWN   :ILD
~A    DEPTH    CAL    ILS    SP    DT    GR    ILD
# ...
 5910     13.823   10.453   -23.99   65.573   45.925   20.157
 5910.5     13.821   10.727   -23.948   63.914   44.501   18.821
 5911     13.82   10.831   -23.906   64.239   43.155   17.022
 5911.5     13.819   10.934   -23.864   65.701   43.5   16.083
 5912     13.817   11.038   -23.822   66.695   43.844   15.689
 5912.5     13.816   11.142   -23.78   66.524   45.672   16.454
 5913     13.815   11.245   -23.738   66.353   48.745   16.273
 5913.5     13.807   11.349   -23.696   66.181   49.387   15.442
 5914     13.792   11.401   -23.654   66.01   48.316   14.909
 5914.5     13.778   11.371   -23.612   66.349   47.627   14.528
 5915     13.763   11.34   -23.57   66.718   49.87   15.01
 5915.5     13.749   11.31   -23.528   67.05   51.146   16.227
 5916     13.734   11.28   -23.486   66.314   51.285   16.839
 5916.5     13.72   11.249   -23.444   65.579   51.424   16.668
 5917     13.674   11.219   -23.402   65.215   52.642   16.498
 5917.5     13.564   11.796   -23.36   64.879   54.017   17.627
 5918     13.454   12.437   -23.318   64.544   59.619   19.222
 5918.5     13.344   13.077   -23.276   65.014   70.251   24.3
 5919     13.234   14.296   -23.234   65.555   82.315   33.744
 5919.5     13.208   16.787   -23.192   66.096   91.477   49.007
 5920     13.229   19.278   -23.15   66.533   100.566   57.924
 5920.5     13.251   20.495   -23.108   65.646   102.4   61.966
 5921     13.273   20.087   -23.066   64.76   95.412   62.007
 5921.5     13.294   19.678   -23.024   63.873   84.404   53.986
 5922     13.316   19.269   -22.982   62.987   73.724   45.965
 5922.5     13.331   18.86   -22.948   62.197   63.052   38.005
 5923     13.327   18.451   -22.966   62.83   58.751   33.739
 5923.5     13.322   18.042   -22.985   63.05   59.444   29.472
 5924     13.317   18.07   -23.004   62.81   60.137   30.84
 5924.5     13.313   19.446   -23.022   62.57   60.618   32.993
 5925     13.308   20.822   -23.041   63.692   60.877   35.146
 5925.5     13.303   22.198   -23.06   64.158   61.136   36.577
 5926     13.299   23.574   -23.079   62.907   62.258   37.064
 5926.5     13.294   21.906   -23.097   62.841   63.686   37.55
 5927     13.289   20.009   -23.116   64.588   63.997   38.036
 5927.5     13.285   18.112   -23.135   64.241   62.511   34.736
 5928     13.28   16.215   -23.153   64.471   61.026   31.416
 5928.5     13.275   14.668   -23.172   65.617   57.694   26.74
 5929     13.28   13.348   -23.191   65.424   52.761   18.04
 5929.5     13.287   12.028   -23.209   64.896   47.828   11.185
 5930     13.293   10.707   -23.228   64.698   46.745   9.553
 5930.5     13.299   9.387   -23.247   65.503   49.771   8.748
 5931     13.306   9.015   -23.265   65.931   52.88   9.706
 5931.5     13.312   8.721   -23.284   65.821   52.501   11.014
 5932     13.319   8.427   -23.174   65.712   50.63   12.321
 5932.5     13.312   8.133   -22.972   65.602   48.76   11.802
 5933     13.288   7.84   -22.77   64.265   46.889   9.449
 5933.5     13.265   8.206   -22.568   63.168   47.821   7.627
 5934     13.242   9.164   -22.365   63.65   50.065   8.59
 5934.5     13.218   10.122   -22.163   64.131   50.822   9.681
 5935     13.222   10.955   -21.961   64.613   49.622   12.277
 5935.5     13.228   11.722   -21.759   65.094   53.919   15.14
 5936     13.233   12.488   -21.557   65.576   58.216   15.258
 5936.5     13.239   13.255   -21.354   65.511   66.494   15.364
 5937     13.245   14.41   -21.152   64.814   66.285   18.853
 5937.5     13.25   15.735   -20.95   64.196   65.015   22.341
 5938     13.256   17.06   -20.748   64.04   63.745   25.83
 5938.5     13.261   18.386   -20.545   63.01   60.555   29.747
 5939     13.27   19.711   -20.343   61.172   56.611   34.261
 5939.5     13.286   21.037   -20.141   60.59   52.667   38.775
 5940     13.302   22.362   -19.939   60.008   48.723   39.748
 5940.5     13.318   23.688   -19.737   58.003   45.708   43.453
 5941     13.334   24.159   -19.534   58.11   42.958   47.228
 5941.5     13.349   23.481   -19.332   59.518   40.209   51.004
 5942     13.365   21.524   -19.13   62.163   37.798   45.591
 5942.5     13.377   18.809   -18.928   63.147   37.893   37.832
 5943     13.383   16.095   -18.868   62.805   38.558   28.877
 5943.5     13.39   14.239   -18.819   62.75   41.209   22.593
 5944     13.396   13.753   -18.769   63.896   43.457   20.498
 5944.5     13.403   13.267   -18.719   63.997   41.493   18.404
 5945     13.41   12.853   -18.669   63.696   39.964   17.51
 5945.5     13.416   12.51   -18.723   64.477   41.959   16.799
 5946     13.423   12.167   -18.823   63.68   43.954   16.088
 5946.5     13.43   11.825   -18.923   62.738   44.112   15.377
 5947     13.436   11.482   -19.023   63.332   42.027   14.666
 5947.5     13.478   11.058   -19.122   64.83   39.942   12.731
 5948     13.521   9.944   -19.222   65.269   37.858   10.67
 5948.5     13.565   8.83   -19.322   64.542   37.033   10.027
 5949     13.608   8.369   -19.422   64.098   39.094   10.367
 5949.5     13.651   8.368   -19.522   65.139   41.156   10.707
 5950     13.694   8.368   -19.622   65.093   40.455   10.807
 5950.5     13.737   8.137   -19.722   64.51   39.13   10.147
 5951     13.741   7.477   -19.821   63.929   38.532   9.342
 5951.5     13.739   7.103   -19.921   64.939   41.929   8.435
 5952     13.737   7.987   -20.021   64.465   45.238   9.635
 5952.5     13.735   8.871   -20.121   64.119   48.508   11.915
 5953     13.733   9.755   -20.221   64.518   47.853   14.874
 5953.5     13.731   10.433   -20.321   64.917   45.891   17.931
 5954     13.73   10.433   -20.421   64.943   44.061   18.665
 5954.5     13.728   9.942   -20.52   64.523   44.511   17.56
 5955     13.726   9.323   -20.62   65.091   42.547   16.346
 5955.5     13.724   8.704   -20.72   64.864   40.879   13.531
 5956     13.722   8.085   -20.82   64.731   39.636   11.128
 5956.5     13.72   7.466   -20.92   65.412   38.393   9.663
 5957     13.719   6.847   -21.02   66.092   38.804   8.417
 5957.5     13.717   6.228   -21.119   66.598   40.44   7.564
 5958     13.657   5.818   -21.219   66.06   44.604   7.124
 5958.5     13.557   6.101   -21.319   65.537   49.677   7.502
 5959     13.532   6.582   -21.419   65.956   53.988   8.228
 5959.5     13.554   7.319   -21.55   65.38   55.463   10.604
 5960     13.576   8.056   -22.138   65.346   52.885   12.923
 5960.5     13.596   8.559   -22.726   65.473   49.614   12.901
 5961     13.594   8.116   -23.315   65.059   49.111   11.506
 5961.5     13.592   7.673   -23.903   64.645   48.607   10.257
 5962     13.59   7.231   -24.492   64.23   46.212   9.666
 5962.5     13.588   7.641   -25.08   63.621   43.253   11.547
 5963     13.586   8.631   -25.668   62.347   41.099   14.31
 5963.5     13.585   9.622   -26.256   61.073   40.24   17.073
 5964     13.583   10.613   -26.422   60.181   39.381   18.059
 5964.5     13.581   10.754   -26.588   61.223   39.162   16.774
 5965     13.579   10.42   -26.754   62.265   43.851   15.813
 5965.5     13.577   11.062   -26.92   63.307   49.188   18.716
 5966     13.575   12.767   -27.086   64.348   53.879   24.921
 5966.5     13.573   14.472   -27.252   63.389   56.435   29.217
 5967     13.571   15.247   -27.418   62.568   55.811   30.315
 5967.5     13.57   15.415   -27.584   63.248   54.394   28.417
 5968     13.495   15.584   -27.53   63.929   52.977   24.044
 5968.5     13.415   15.753   -27.283   64.446   57.08   19.694
 5969     13.404   15.922   -27.036   64.052   63.256   18.684
 5969.5     13.427   17.288   -26.789   63.659   69.432   22.188
 5970     13.45   18.582   -26.542   64.164   70.424   29.152
 5970.5     13.473   18.707   -26.295   64.209   61.788   34.323
 5971     13.497   18.832   -26.049   62.688   53.151   35.494
 5971.5     13.52   18.084   -25.802   63.184   43.261   31.299
 5972     13.543   16.772   -25.444   63.681   38.546   21.477
 5972.5     13.555   15.46   -25.045   64.178   39.007   14.978
 5973     13.55   15.332   -24.647   64.674   42.487   13.697
 5973.5     13.545   17.237   -24.249   63.777   46.112   14.57
