#--------------------------------------------------#
#-------------------ENVERUS, INC.------------------#
#------------------WWW.ENVERUS.COM-----------------#
#------------------COPYRIGHT 2020------------------#
#--------------------------------------------------#
#THIS FILE MAY BE USED ONLY IN ACCORDANCE WITH A CURRENT SUBSCRIPTION AGREEMENT BETWEEN
#THE USER AND ENVERUS, INC. NO PART OF THIS FILE MAY BE REPRODUCED, USED, COPIED,
#MODIFIED, PROPAGATED, OR DISTRIBUTED EXCEPT IN ACCORDANCE WITH THE SUBSCRIPTION
#AGREEMENT. UNAUTHORIZED USE OR DISTRIBUTION OF ALL OR ANY PART OF THIS FILE MAY VIOLATE
#COPYRIGHT, TRADEMARK, AND/OR OTHER LAWS AND IS SUBJECT TO CIVIL AS WELL AS CRIMINAL
#SANCTIONS.
#--------------------------------------------------#
#THIS FILE IS PROVIDED "AS-IS" AND ALL WARRANTIES ARE EXPRESSLY DISCLAIMED, WHETHER
#EXPRESS, ORAL, IMPLIED, STATUTORY OR OTHERWISE, INCLUDING ANY IMPLIED WARRANTY OF FITNESS
#FOR A PARTICULAR PURPOSE, MERCHANTABILITY, TITLE OR NON-INFRINGEMENT, AND ANY WARRANTIES
#ARISING BY VIRTUE OF CUSTOM OF TRADE OR COURSE OF DEALING.  FURTHER, ENVERUS, INC.
#AND ITS LICENSORS DO NOT REPRESENT OR WARRANT THAT THIS FILE WILL MEET USER'S
#REQUIREMENTS OR ARE SUITABLE FOR USER'S NEEDS OR THAT THE DATA OR RESULTS PROVIDED IN
#CONJUNCTION THEREWITH ARE CORRECT, ACCURATE, TIMELY OR RELIABLE. THESE DISCLAIMERS SHALL
#APPLY REGARDLESS OF ANY FAILURE OF ESSENTIAL PURPOSE OF ANY LIMITED REMEDY.  SOME
#JURISDICTIONS DO NOT ALLOW THE EXCLUSION OF CERTAIN WARRANTIES SO SOME OF THE ABOVE
#EXCLUSIONS MAY NOT APPLY. IN NO EVENT SHALL ENVERUS, INC. OR ANY OF ITS AFFILIATES
#BE LIABLE UNDER ANY LEGAL THEORY, WHETHER IN TORT (INCLUDING WITHOUT LIMITATION
#NEGLIGENCE), CONTRACT, STRICT LIABILITY, STATUTORY OR OTHERWISE, FOR ANY SPECIAL,
#INCIDENTAL, CONSEQUENTIAL, EXEMPLARY, PUNITIVE OR INDIRECT DAMAGE OF ANY KIND, INCLUDING
#WITHOUT LIMITATION LOSS OF REVENUE, PROFITS, GOODWILL, USE, AND/OR DATA OR THE COST OF
#PROCUREMENT OF SUBSTITUTE GOODS OR SERVICES, EVEN IF APPRISED OF THE POSSIBILITY OF SUCH
#DAMAGES IN ADVANCE.
#--------------------------------------------------#

~VERSION INFORMATION
VERS. 2.0 : CWLS LOG ASCII STANDARD - VERSION 2.0
WRAP.  NO : ONE LINE PER DEPTH STEP
~WELL INFORMATION
#MNEMONIC     .UNIT              VALUE :DESCRIPTION
STRT       .FT                0 :START DEPTH
STOP       .FT                15761 :STOP DEPTH
STEP       .FT                   0.500 :STEP
NULL       .                  -999.250 :NULL
UWI        .              42389302550000 :UNIQUE WELL ID
API        .              42389302550000 :API NUMBER
COMP       .         COASTAL STATES GAS PROD. CO. :COMPANY
WELL       .        CHAPMAN  MCGUIRE & WYNNE  3B :WELL
DATE       .                            :LOG DATE
~CURVE INFORMATION
#MNEMONIC     .UNIT      API CODE :CURVE DESCRIPTION
DEPTH       .FT                      :MEASURED DEPTH
GR.API        UNKNOWN   :GR
DT.US/FT        UNKNOWN   :DT
CAL.INCH        UNKNOWN   :CAL
~A    DEPTH    GR    DT    CAL
# ...
 5517     111.399   67.531   13.457
 5517.5     115.262   65.671   13.359
 5518     109.121   66.203   13.307
 5518.5     100.844   66.459   13.282
 5519     92.897   65.867   13.256
 5519.5     93.565   66.474   13.23
 5520     91.314   66.166   13.204
 5520.5     88.921   66.001   13.187
 5521     87.703   67.599   13.193
 5521.5     90.391   69.184   13.199
 5522     94.639   70.643   13.205
 5522.5     99.091   71.02   13.21
 5523     102.498   70.854   13.216
 5523.5     101.735   70.205   13.211
 5524     99.897   66.112   13.187
 5524.5     95.545   61.522   13.164
 5525     88.582   59.078   13.141
 5525.5     77.482   58.955   13.117
 5526     70.221   61.512   13.101
 5526.5     81.848   65.85   13.115
 5527     100.244   68.176   13.13
 5527.5     123.528   67.747   13.144
 5528     131.096   67.396   13.158
 5528.5     123.724   67.759   13.173
 5529     116.352   68.122   13.187
 5529.5     110.446   67.09   13.202
 5530     104.997   66.085   13.216
 5530.5     96.053   63.922   13.23
 5531     84.476   59.457   13.245
 5531.5     61.674   59.366   13.258
 5532     48.552   60.965   13.267
 5532.5     55.67   62.584   13.276
 5533     63.505   64.536   13.285
 5533.5     71.34   65.377   13.294
 5534     76.383   65.252   13.303
 5534.5     78.262   65.127   13.313
 5535     80.141   65.702   13.322
 5535.5     80.131   66.108   13.318
 5536     79.559   65.966   13.306
 5536.5     82.816   65.825   13.295
 5537     87.622   66.667   13.283
 5537.5     95.257   67.586   13.271
 5538     103.623   68.504   13.259
 5538.5     117.086   68.297   13.247
 5539     121.299   67.996   13.235
 5539.5     120.493   67.349   13.223
 5540     118.532   66.289   13.212
 5540.5     116.389   66.455   13.2
 5541     112.415   67.341   13.188
 5541.5     108.441   65.573   13.195
 5542     108.332   66.183   13.204
 5542.5     111.407   67.161   13.214
 5543     112.616   68.351   13.232
 5543.5     112.883   69.634   13.271
 5544     113.15   70.918   13.31
 5544.5     117.675   71.746   13.35
 5545     122.398   71.104   13.389
 5545.5     109.03   70.162   13.428
 5546     97.929   69.16   13.468
 5546.5     87.046   68.261   13.507
 5547     76.164   67.662   13.536
 5547.5     70.553   66.906   13.54
 5548     67.896   65.072   13.544
 5548.5     62.154   65.432   13.547
 5549     52.816   65.794   13.551
 5549.5     46.58   66.969   13.555
 5550     49.557   68.922   13.559
 5550.5     52.533   71.018   13.562
 5551     55.51   72.515   13.566
 5551.5     55.547   73.316   13.57
 5552     52.419   73.039   13.582
 5552.5     49.291   72.104   13.596
 5553     46.163   71.15   13.611
 5553.5     46.383   71.706   13.625
 5554     48.3   72.942   13.639
 5554.5     46.817   73.704   13.653
 5555     44.349   73.345   13.667
 5555.5     41.881   70.948   13.682
 5556     39.413   68.228   13.696
 5556.5     39.42   68.398   13.71
 5557     39.523   68.959   13.724
 5557.5     39.625   70.712   13.739
 5558     40.329   72.42   13.753
 5558.5     41.792   71.917   13.767
 5559     43.255   69.985   13.781
 5559.5     46.786   68.62   13.795
 5560     52.643   67.737   13.779
 5560.5     59.686   67.017   13.759
 5561     65.818   66.564   13.738
 5561.5     67.914   66.111   13.717
 5562     65.919   65.658   13.696
 5562.5     63.923   65.319   13.675
 5563     61.928   65.273   13.654
 5563.5     59.932   65.226   13.64
 5564     60.269   65.916   13.638
 5564.5     63.651   66.628   13.637
 5565     69.813   67.339   13.635
 5565.5     75.772   68.04   13.633
 5566     79.141   68.206   13.632
 5566.5     75.188   67.775   13.63
 5567     71.217   67.429   13.628
 5567.5     74.289   67.167   13.626
 5568     79.013   66.906   13.625
 5568.5     83.155   66.711   13.615
 5569     83.321   67.544   13.593
 5569.5     83.488   67.469   13.571
 5570     85.215   67.308   13.549
 5570.5     87.005   66.002   13.527
 5571     85.255   64.693   13.505
 5571.5     80.406   63.384   13.483
 5572     75.557   63.883   13.461
 5572.5     72.438   64.408   13.44
 5573     74.548   63.994   13.418
 5573.5     75.096   63.1   13.396
 5574     72.881   62.331   13.374
 5574.5     70.666   63.978   13.352
 5575     81.347   66.138   13.345
 5575.5     90.71   67.664   13.345
 5576     100.073   66.171   13.345
 5576.5     105.513   64.737   13.345
 5577     102.669   63.302   13.345
 5577.5     95.428   63.503   13.345
 5578     88.187   64.505   13.345
 5578.5     90.886   65.691   13.345
 5579     94.654   66.712   13.345
 5579.5     97.055   66.959   13.345
 5580     93.774   66.665   13.345
 5580.5     86.124   64.619   13.345
 5581     78.473   64.498   13.345
 5581.5     71.507   64.377   13.345
 5582     70.951   64.256   13.359
 5582.5     70.395   64.24   13.38
 5583     69.838   64.667   13.401
 5583.5     63.303   64.554   13.422
 5584     56.693   64.21   13.443
 5584.5     54.637   64.243   13.464
 5585     52.58   65.472   13.485
 5585.5     51.658   66.147   13.506
 5586     55.33   66.823   13.527
 5586.5     59.001   67.206   13.547
 5587     60.997   66.612   13.568
 5587.5     56.438   66.36   13.589
 5588     51.326   67.058   13.61
 5588.5     46.213   67.757   13.631
 5589     41.101   68.455   13.652
 5589.5     39.185   69.154   13.673
 5590     39.519   68.662   13.694
 5590.5     39.853   67.793   13.715
 5591     40.188   66.476   13.736
 5591.5     40.802   66.446   13.756
 5592     42.232   66.724   13.758
 5592.5     43.662   68.083   13.749
 5593     45.092   69.228   13.739
 5593.5     47.16   69.124   13.729
 5594     51.745   68.37   13.72
 5594.5     57.562   67.859   13.71
 5595     63.577   67.85   13.7
 5595.5     71.82   68.223   13.691
 5596     74.676   68.41   13.681
 5596.5     73.286   66.719   13.671
 5597     69.803   65.841   13.662
 5597.5     66.32   65.156   13.65
 5598     63.412   64.688   13.639
 5598.5     60.611   65.841   13.628
 5599     58.959   66.618   13.616
 5599.5     59.092   66.613   13.605
 5600     59.226   66.215   13.593
 5600.5     61.723   66.187   13.582
 5601     65.311   65.295   13.571
 5601.5     67.655   64.457   13.559
 5602     66.512   63.66   13.548
 5602.5     64.873   62.862   13.536
 5603     62.365   62.598   13.525
 5603.5     59.856   63.64   13.513
 5604     61.031   64.682   13.503
 5604.5     62.599   64.431   13.501
 5605     65.737   64.409   13.499
 5605.5     67.479   64.846   13.496
 5606     67.182   65.542   13.494
 5606.5     66.884   66.239   13.492
 5607     67.245   66.364   13.489
 5607.5     67.565   66.17   13.487
 5608     67.065   65.945   13.484
 5608.5     66.565   65.721   13.482
 5609     68.484   65.496   13.48
 5609.5     70.665   65.369   13.477
 5610     72.846   65.601   13.475
 5610.5     75.027   65.832   13.472
 5611     77.209   65.997   13.47
 5611.5     79.39   65.943   13.468
 5612     80.252   65.889   13.465
 5612.5     79.363   65.835   13.463
 5613     78.475   65.892   13.461
 5613.5     78.46   66.239   13.458
 5614     82.656   66.585   13.456
 5614.5     86.852   66.932   13.453
 5615     89.68   67.065   13.447
 5615.5     92.067   66.692   13.437
 5616     95.445   66.341   13.426
 5616.5     100.848   66.099   13.416
 5617     106.251   67.026   13.405
 5617.5     110.096   68.176   13.395
 5618     111.244   69.369   13.384
 5618.5     111.914   70.561   13.374
 5619     121.446   69.417   13.363
 5619.5     123.582   68.568   13.353
 5620     120.7   67.056   13.358
 5620.5     107.913   65.661   13.376
 5621     98.145   65.763   13.395
 5621.5     90.44   66.248   13.413
 5622     86.599   66.519   13.432
 5622.5     84.678   66.79   13.426
 5623     81.305   66.184   13.414
 5623.5     72.764   64.768   13.402
 5624     64.162   63.33   13.39
 5624.5     56.707   61.76   13.378
 5625     54.489   61.534   13.367
 5625.5     54.74   63.23   13.399
 5626     56.976   66.312   13.434
 5626.5     61.38   67.634   13.47
 5627     65.931   67.722   13.506
 5627.5     66.893   66.942   13.54
 5628     66.894   66.133   13.537
 5628.5     59.48   64.46   13.534
