#--------------------------------------------------#
#-------------------ENVERUS, INC.------------------#
#------------------WWW.ENVERUS.COM-----------------#
#------------------COPYRIGHT 2020------------------#
#--------------------------------------------------#
#THIS FILE MAY BE USED ONLY IN ACCORDANCE WITH A CURRENT SUBSCRIPTION AGREEMENT BETWEEN
#THE USER AND ENVERUS, INC. NO PART OF THIS FILE MAY BE REPRODUCED, USED, COPIED,
#MODIFIED, PROPAGATED, OR DISTRIBUTED EXCEPT IN ACCORDANCE WITH THE SUBSCRIPTION
#AGREEMENT. UNAUTHORIZED USE OR DISTRIBUTION OF ALL OR ANY PART OF THIS FILE MAY VIOLATE
#COPYRIGHT, TRADEMARK, AND/OR OTHER LAWS AND IS SUBJECT TO CIVIL AS WELL AS CRIMINAL
#SANCTIONS.
#--------------------------------------------------#
#THIS FILE IS PROVIDED "AS-IS" AND ALL WARRANTIES ARE EXPRESSLY DISCLAIMED, WHETHER
#EXPRESS, ORAL, IMPLIED, STATUTORY OR OTHERWISE, INCLUDING ANY IMPLIED WARRANTY OF FITNESS
#FOR A PARTICULAR PURPOSE, MERCHANTABILITY, TITLE OR NON-INFRINGEMENT, AND ANY WARRANTIES
#ARISING BY VIRTUE OF CUSTOM OF TRADE OR COURSE OF DEALING.  FURTHER, ENVERUS, INC.
#AND ITS LICENSORS DO NOT REPRESENT OR WARRANT THAT THIS FILE WILL MEET USER'S
#REQUIREMENTS OR ARE SUITABLE FOR USER'S NEEDS OR THAT THE DATA OR RESULTS PROVIDED IN
#CONJUNCTION THEREWITH ARE CORRECT, ACCURATE, TIMELY OR RELIABLE. THESE DISCLAIMERS SHALL
#APPLY REGARDLESS OF ANY FAILURE OF ESSENTIAL PURPOSE OF ANY LIMITED REMEDY.  SOME
#JURISDICTIONS DO NOT ALLOW THE EXCLUSION OF CERTAIN WARRANTIES SO SOME OF THE ABOVE
#EXCLUSIONS MAY NOT APPLY. IN NO EVENT SHALL ENVERUS, INC. OR ANY OF ITS AFFILIATES
#BE LIABLE UNDER ANY LEGAL THEORY, WHETHER IN TORT (INCLUDING WITHOUT LIMITATION
#NEGLIGENCE), CONTRACT, STRICT LIABILITY, STATUTORY OR OTHERWISE, FOR ANY SPECIAL,
#INCIDENTAL, CONSEQUENTIAL, EXEMPLARY, PUNITIVE OR INDIRECT DAMAGE OF ANY KIND, INCLUDING
#WITHOUT LIMITATION LOSS OF REVENUE, PROFITS, GOODWILL, USE, AND/OR DATA OR THE COST OF
#PROCUREMENT OF SUBSTITUTE GOODS OR SERVICES, EVEN IF APPRISED OF THE POSSIBILITY OF SUCH
#DAMAGES IN ADVANCE.
#--------------------------------------------------#

# EXPORTED FROM DI TRANSFORM
# DI TRANSFORM - A PRODUCT OF DRILLINGINFO, INC. - WWW.DRILLINGINFO.COM
#
~VERSION INFORMATION
 VERS.        2.0 : LAS ASCII STANDARD - VERSION 2.0
 WRAP.         NO : ONE LINE PER DEPTH STEP

~WELL INFORMATION
#MNEM.UNIT       DATA TYPE       INFORMATION
#---------       ---------       -----------
 STRT.FT          3310 : START DEPTH
 STOP.FT         11910 : STOP DEPTH
 STEP.FT           0.5 : STEP LENGTH
 NULL.         -999.25 : NULL VALUE
 UWI.   42389328760000 : UNIQUE WELL ID
 API.   42389328760000 : WELL IDENTIFIER
 COMP.                 : COMPANY
 WELL.          DRD_55 : WELL NAME
 FLD.                  : FIELD NAME
 LOC.                  : WELL LOCATION
 CNTY.                 : COUNTY
 STAT.                 : STATE OR PROVINCE
 CTRY.                 : COUNTRY
 SRVC.                 : SERVICE COMPANY
 DATE.                 : DATE

~CURVE INFORMATION
#MNEM.UNIT       API CODE       CURVE DESCRIPTION
#---------       --------       -----------------
 DEPT.FT        : <MEASURED DEPTH>
 CAL.IN         : CALIPER
 DT.US/FT       : SONIC
 GR.GAPI        : GAMMA RAY
 ILD.OHMM       : DEEP RESISTIVITY
 ILS.OHMM       : SHALLOW RESISTIVITY

~PARAMETER INFORMATION
#MNEM.UNIT       VALUE       DESCRIPTION
#---------       -----       -----------
 EKB.FT      3168.5 : ELEVATION ABOVE MSL

~A       DEPT         CAL          DT          GR         ILD         ILS
# ...
         5599      8.4701     64.5738     95.1751    157.2209    149.0282
       5599.5      8.4701     66.4496     98.1848    176.4355    176.0745
         5600      8.4303     67.6471    102.9036    217.8991    200.4328
       5600.5      8.4303     68.2118     104.424    250.6469    195.2451
         5601      8.4303     67.5037    106.0282    263.9542    216.9293
       5601.5      8.4303     67.0824    107.5697    313.0503    264.7021
         5602      8.4303     65.9529    103.4018    551.4801    370.1786
       5602.5      8.4303     65.9529    100.4506    786.7403    694.8174
         5603      8.4303     65.9529     99.2548    620.1054    520.2648
       5603.5      8.4303     64.8124     90.8316    456.7995    425.2436
         5604      8.4303      63.507     79.5103    396.9256    353.5092
       5604.5      8.4303      62.313      75.491    345.7786    280.0249
         5605      8.4303     60.9553     72.4502    329.9253    252.5678
       5605.5      8.4303     60.8706      68.407    336.0182    274.0308
         5606      8.4303     60.8706     63.7626    383.6886    315.0845
       5606.5      8.4303     60.8706     64.6586    472.8997    370.6581
         5607      8.4303     60.8706     77.1501     540.624    452.2806
       5607.5      8.4303     60.8706     91.2092    566.3955    519.2509
         5608      8.4303     60.9107     97.5263    531.5425    464.0652
       5608.5      8.4303     62.4089     97.7437    404.4665    359.0075
         5609      8.4303     63.6072     96.2233     327.943    283.5098
       5609.5      8.4303     64.7429     96.4958    263.4171    232.4664
         5610      8.4303     64.7429     94.6098    227.4245    202.1961
       5610.5      8.4303     65.6571     90.6949    194.2294    178.4467
         5611      8.4303     65.6571     90.3363    170.2447    158.9968
       5611.5      8.4303     65.6571     91.0118    146.5324    143.3805
         5612      8.4004        65.2     86.5022    134.4904    125.5833
       5612.5      8.4303        65.2     80.9295    128.3204    122.0045
         5613      8.4303     65.6571     78.4896    122.4352    119.6714
       5613.5      8.4303     65.6571     82.4901    120.9464    116.9876
         5614      8.4303     65.7669      95.412    123.1996    116.5714
       5614.5      8.4303     66.1143    101.9503    125.4295    120.3332
         5615      8.4303     66.1143     93.3779    133.3238    127.1945
       5615.5      8.4303     66.1143     78.9508    142.9622    139.4268
         5616      8.4461     65.6571     71.5889    164.6196    157.2597
       5616.5      8.4303     65.6571     73.6496    199.7801    193.6302
         5617      8.4303     65.6571     84.4923    222.3935    227.1442
       5617.5      8.4303     65.6571     99.8895    217.3828    228.5098
         5618      8.4303     64.7429      98.868    207.4105    209.7219
       5618.5      8.4303     64.2857     91.7724     184.971    165.1222
         5619      8.4303     60.6286     81.1089    181.8522     158.834
       5619.5      8.4303     60.6286     79.0269    194.3132    175.5169
         5620      8.4303     61.8781     86.5118    256.8019    230.2914
       5620.5      8.4303     60.3324     97.1501    434.6258    316.3706
         5621      8.4303     60.1714     88.9917     587.856    508.8752
       5621.5      8.4303     59.7143     66.7455    867.5506    824.2955
         5622      8.4303     59.7143     57.0516   1155.2822   1293.2176
       5622.5      8.4303     60.0317     71.6933   1363.0786   1299.9826
         5623      8.4303     60.1714    124.8173   1087.0263   1047.7396
       5623.5      8.4303     62.4706    179.9479    699.6667    682.3513
         5624      8.4303     67.9205    203.5983    867.8084    670.7893
       5624.5      8.4303     69.3412    192.6985    971.0548    885.6106
         5625      8.4303     69.3412    194.3337   1019.0519   1116.9535
       5625.5      8.4303     68.7765    190.4205   1973.7023   1934.6197
         5626      8.4303     67.8466     163.859   1294.4613    837.2047
       5626.5      8.4303     66.6053    146.8388    324.1599    302.5928
         5627      8.4303     65.6907    128.8027    331.1945    320.3638
       5627.5      8.4303     64.2857    103.0205    365.5737     351.186
         5628      8.4303     61.2523     70.1661    452.4559    385.0378
       5628.5      8.4303     60.1714     55.4065   1404.5796   1948.1524
         5629      8.4303     60.1714     69.0345    1918.742        2000
       5629.5      8.4303     60.5793     93.4688   1892.2648   1998.1616
         5630      8.4303      61.553     107.648    1863.218   1993.7731
       5630.5      8.4303     60.6286    106.7429   1723.2099   1903.7103
         5631      8.4303        65.2    105.2226   1634.7038   1590.9969
       5631.5      8.4303     66.1143    106.7974   1553.0704   1551.1497
         5632      8.4303     66.1143    109.0827   1407.1968   1346.4576
       5632.5      8.4303      67.214    111.9561   1294.7648   1172.6254
         5633      8.4303     67.9429    114.0623   1260.7506   1152.4367
       5633.5      8.4303        68.4    122.3941   1260.7506   1156.9501
         5634      8.4303        68.4    141.4842   1208.6774   1258.1138
       5634.5      8.4303      67.601    166.0544   1126.4879    1119.843
         5635      8.4303     67.4857     177.832   1011.0267    994.4587
       5635.5      8.4303     67.4857    175.2044    901.9583    866.2692
         5636      8.4303     67.4857    167.4853    849.8718    719.9146
       5636.5      8.4303     67.4446    150.9879    706.8071    644.8934
         5637      8.4303     66.4912    135.2908    595.5954    579.8966
       5637.5      8.4303     65.6571    126.3875    534.4042    499.8417
         5638      8.4303     64.2857    111.6994    495.6408    437.7247
       5638.5      8.4303     64.8235     99.6939    431.5078    479.7022
         5639      8.4303     63.8757    101.2057    391.0752    493.2793
       5639.5      8.4303     62.6543    112.6703    277.4382    358.3797
         5640      8.4303     62.5647    110.7915     221.935    252.9883
       5640.5      8.4303     62.5647     97.6936    161.5263    164.6833
         5641      8.4303     62.6861     86.6802    145.5624    141.6574
       5641.5      8.4303     63.1294     83.4537    139.4488    142.8182
         5642      8.4303     63.1294     83.0069    128.4052    148.9472
       5642.5      8.4303     63.9435     83.2688    126.7983    154.3272
         5643      8.4303     62.1967     79.2115    117.7036    155.0528
       5643.5      8.4303      60.507     74.3292    101.3042    122.6108
         5644      8.4303     59.4061     69.7417     74.4492     93.9151
       5644.5      8.4303     59.1765     63.3613     62.5311     72.0738
         5645      8.4303     59.4696     57.3771     54.5265     65.2365
       5645.5      8.4303     60.7004     55.4027     54.6102     61.2786
         5646      8.4303     61.9312      62.459     61.1314     66.4324
       5646.5      8.4303     63.0845     86.1224     88.8242     120.132
         5647      8.4303     63.6813    134.2158     123.889     215.006
       5647.5      8.4303     65.7542    166.6493    465.0433    382.7495
         5648      8.4303     66.5176    149.4978   1293.7572   1455.1702
       5648.5      8.4303     66.5176    122.1986        2000   1972.2199
         5649      8.4303     65.6491    104.9393        2000        2000
       5649.5      8.4303     65.3527     88.8823        2000        2000
         5650      8.4303     64.8235     83.9019        2000        2000
       5650.5      8.4701      64.204     82.9791        2000        2000
         5651      8.4701     63.3716     80.3323        2000        2000
       5651.5      8.5005     61.5322      74.301        2000        2000
         5652      8.4701      59.322     75.2699        2000        2000
       5652.5        8.51     59.1765     76.8975        2000        2000
         5653        8.51     59.7412     72.6241        2000        2000
