#--------------------------------------------------#
#-------------------ENVERUS, INC.------------------#
#------------------WWW.ENVERUS.COM-----------------#
#------------------COPYRIGHT 2020------------------#
#--------------------------------------------------#
#THIS FILE MAY BE USED ONLY IN ACCORDANCE WITH A CURRENT SUBSCRIPTION AGREEMENT BETWEEN
#THE USER AND ENVERUS, INC. NO PART OF THIS FILE MAY BE REPRODUCED, USED, COPIED,
#MODIFIED, PROPAGATED, OR DISTRIBUTED EXCEPT IN ACCORDANCE WITH THE SUBSCRIPTION
#AGREEMENT. UNAUTHORIZED USE OR DISTRIBUTION OF ALL OR ANY PART OF THIS FILE MAY VIOLATE
#COPYRIGHT, TRADEMARK, AND/OR OTHER LAWS AND IS SUBJECT TO CIVIL AS WELL AS CRIMINAL
#SANCTIONS.
#--------------------------------------------------#
#THIS FILE IS PROVIDED "AS-IS" AND ALL WARRANTIES ARE EXPRESSLY DISCLAIMED, WHETHER
#EXPRESS, ORAL, IMPLIED, STATUTORY OR OTHERWISE, INCLUDING ANY IMPLIED WARRANTY OF FITNESS
#FOR A PARTICULAR PURPOSE, MERCHANTABILITY, TITLE OR NON-INFRINGEMENT, AND ANY WARRANTIES
#ARISING BY VIRTUE OF CUSTOM OF TRADE OR COURSE OF DEALING.  FURTHER, ENVERUS, INC.
#AND ITS LICENSORS DO NOT REPRESENT OR WARRANT THAT THIS FILE WILL MEET USER'S
#REQUIREMENTS OR ARE SUITABLE FOR USER'S NEEDS OR THAT THE DATA OR RESULTS PROVIDED IN
#CONJUNCTION THEREWITH ARE CORRECT, ACCURATE, TIMELY OR RELIABLE. THESE DISCLAIMERS SHALL
#APPLY REGARDLESS OF ANY FAILURE OF ESSENTIAL PURPOSE OF ANY LIMITED REMEDY.  SOME
#JURISDICTIONS DO NOT ALLOW THE EXCLUSION OF CERTAIN WARRANTIES SO SOME OF THE ABOVE
#EXCLUSIONS MAY NOT APPLY. IN NO EVENT SHALL ENVERUS, INC. OR ANY OF ITS AFFILIATES
#BE LIABLE UNDER ANY LEGAL THEORY, WHETHER IN TORT (INCLUDING WITHOUT LIMITATION
#NEGLIGENCE), CONTRACT, STRICT LIABILITY, STATUTORY OR OTHERWISE, FOR ANY SPECIAL,
#INCIDENTAL, CONSEQUENTIAL, EXEMPLARY, PUNITIVE OR INDIRECT DAMAGE OF ANY KIND, INCLUDING
#WITHOUT LIMITATION LOSS OF REVENUE, PROFITS, GOODWILL, USE, AND/OR DATA OR THE COST OF
#PROCUREMENT OF SUBSTITUTE GOODS OR SERVICES, EVEN IF APPRISED OF THE POSSIBILITY OF SUCH
#DAMAGES IN ADVANCE.
#--------------------------------------------------#

~VERSION INFORMATION
VERS. 2.0 : CWLS LOG ASCII STANDARD - VERSION 2.0
WRAP.  NO : ONE LINE PER DEPTH STEP
~WELL INFORMATION
#MNEMONIC     .UNIT              VALUE :DESCRIPTION
STRT       .FT                0 :START DEPTH
STOP       .FT                3396 :STOP DEPTH
STEP       .FT                   0.500 :STEP
NULL       .                  -999.250 :NULL
UWI        .              42389305140000 :UNIQUE WELL ID
API        .              42389305140000 :API NUMBER
COMP       .         SLEDGE BROS. OIL CO. :COMPANY
WELL       .        BOLLINGER  5 :WELL
DATE       .                            :LOG DATE
~CURVE INFORMATION
#MNEMONIC     .UNIT      API CODE :CURVE DESCRIPTION
DEPTH       .FT                      :MEASURED DEPTH
ILS.OHM        UNKNOWN   :ILS
GR.API        UNKNOWN   :GR
DT.US/FT        UNKNOWN   :DT
CAL.INCH        UNKNOWN   :CAL
ILD.OHM        UNKNOWN   :ILD
~A    DEPTH    ILS    GR    DT    CAL    ILD
# ...
 2919     -999.250   2.962   68.143   12.85   -999.250
 2919.5     -999.250   2.785   67.834   12.791   -999.250
 2920     -999.250   3.217   67.174   12.733   -999.250
 2920.5     -999.250   2.682   66.402   12.674   -999.250
 2921     -999.250   2.144   66.544   12.615   -999.250
 2921.5     -999.250   2.432   67.269   12.578   -999.250
 2922     -999.250   2.719   67.85   12.634   -999.250
 2922.5     -999.250   2.95   67.907   12.689   -999.250
 2923     -999.250   2.977   67.673   12.744   -999.250
 2923.5     -999.250   3.004   67.652   12.8   -999.250
 2924     -999.250   3.031   67.791   12.809   -999.250
 2924.5     -999.250   3.058   67.794   12.8   -999.250
 2925     -999.250   3.32   67.025   12.79   -999.250
 2925.5     -999.250   3.774   66.793   12.753   -999.250
 2926     -999.250   3.818   66.561   12.675   -999.250
 2926.5     -999.250   3.419   67.4   12.597   -999.250
 2927     -999.250   3.02   67.272   12.637   -999.250
 2927.5     -999.250   2.621   67.286   12.678   -999.250
 2928     -999.250   3.326   67.512   12.722   -999.250
 2928.5     -999.250   4.411   67.721   12.633   -999.250
 2929     -999.250   4.628   67.727   12.544   -999.250
 2929.5     -999.250   4.731   67.166   12.455   -999.250
 2930     -999.250   4.833   67.528   12.568   -999.250
 2930.5     -999.250   4.935   67.671   12.671   -999.250
 2931     -999.250   5.037   67.555   12.63   -999.250
 2931.5     -999.250   4.88   67.106   12.589   -999.250
 2932     -999.250   4.611   66.772   12.574   -999.250
 2932.5     -999.250   4.343   67.216   12.605   -999.250
 2933     -999.250   4.074   66.834   12.635   -999.250
 2933.5     -999.250   3.805   66.177   12.666   -999.250
 2934     -999.250   3.537   66.357   12.696   -999.250
 2934.5     -999.250   3.268   66.75   12.706   -999.250
 2935     -999.250   3   66.943   12.661   -999.250
 2935.5     -999.250   3.129   67.373   12.615   -999.250
 2936     -999.250   3.514   67.367   12.57   -999.250
 2936.5     -999.250   3.899   67.27   12.525   -999.250
 2937     -999.250   4.284   67.172   12.479   -999.250
 2937.5     -999.250   4.28   67.285   12.434   -999.250
 2938     -999.250   4.163   67.638   12.392   -999.250
 2938.5     -999.250   4.046   67.614   12.355   -999.250
 2939     -999.250   3.929   67.143   12.319   -999.250
 2939.5     -999.250   3.813   67.555   12.334   -999.250
 2940     -999.250   3.696   67.628   12.438   -999.250
 2940.5     -999.250   3.579   67.386   12.542   -999.250
 2941     -999.250   3.714   66.521   12.628   -999.250
 2941.5     -999.250   3.944   66.543   12.506   -999.250
 2942     -999.250   4.175   67.214   12.384   -999.250
 2942.5     -999.250   3.958   67.956   12.325   -999.250
 2943     -999.250   3.644   67.485   12.322   -999.250
 2943.5     -999.250   3.538   67.421   12.151   -999.250
 2944     -999.250   4.137   67.624   12.054   -999.250
 2944.5     -999.250   4.736   67.039   12.171   -999.250
 2945     -999.250   4.735   67.128   12.288   -999.250
 2945.5     -999.250   4.213   67.129   12.273   -999.250
 2946     -999.250   3.692   67.197   12.229   -999.250
 2946.5     -999.250   3.17   67.596   12.185   -999.250
 2947     -999.250   3.841   67.486   12.234   -999.250
 2947.5     -999.250   3.898   67.266   12.286   -999.250
 2948     -999.250   3.365   67.134   12.182   -999.250
 2948.5     -999.250   3.163   67.001   12.055   -999.250
 2949     -999.250   3.843   67.087   12.162   -999.250
 2949.5     -999.250   4.404   67.497   12.191   -999.250
 2950     -999.250   3.882   67.294   12.242   -999.250
 2950.5     -999.250   3.361   67.271   12.432   -999.250
 2951     -999.250   3.117   68.032   12.622   -999.250
 2951.5     -999.250   3.146   67.77   12.637   -999.250
 2952     -999.250   3.175   67.316   12.556   -999.250
 2952.5     -999.250   3.204   66.941   12.401   -999.250
 2953     -999.250   3.177   66.787   12.329   -999.250
 2953.5     -999.250   2.836   66.767   12.259   -999.250
 2954     -999.250   2.495   66.938   12.188   -999.250
 2954.5     -999.250   2.155   67.251   12.192   -999.250
 2955     -999.250   1.814   67.564   12.439   -999.250
 2955.5     -999.250   1.883   67.278   12.686   -999.250
 2956     -999.250   2.631   66.989   12.933   -999.250
 2956.5     -999.250   3.379   66.829   12.695   -999.250
 2957     -999.250   4.127   66.702   12.46   -999.250
 2957.5     -999.250   4.037   66.739   12.356   -999.250
 2958     -999.250   3.913   66.958   12.312   -999.250
 2958.5     -999.250   3.789   67.177   12.283   -999.250
 2959     -999.250   4.001   67.243   12.254   -999.250
 2959.5     -999.250   4.399   67.259   12.225   -999.250
 2960     -999.250   4.797   67.305   12.246   -999.250
 2960.5     -999.250   4.713   68.27   12.329   -999.250
 2961     -999.250   3.958   67.51   12.411   -999.250
 2961.5     -999.250   2.931   66.772   12.493   -999.250
 2962     -999.250   2.386   66.942   12.521   -999.250
 2962.5     -999.250   3.268   67.238   12.54   -999.250
 2963     -999.250   4.15   67.259   12.559   -999.250
 2963.5     -999.250   4.834   66.963   12.578   -999.250
 2964     -999.250   3.839   67.346   12.436   -999.250
 2964.5     -999.250   3.292   67.205   12.277   -999.250
 2965     -999.250   3.615   67.301   12.225   -999.250
 2965.5     -999.250   3.938   67.614   12.173   -999.250
 2966     -999.250   4.261   66.962   11.936   -999.250
 2966.5     -999.250   4.113   66.772   11.639   -999.250
 2967     -999.250   3.661   67.603   11.461   -999.250
 2967.5     -999.250   3.21   67.082   11.513   -999.250
 2968     -999.250   3.13   67.949   11.519   -999.250
 2968.5     -999.250   3.088   68.323   11.497   -999.250
 2969     -999.250   3.045   67.94   11.671   -999.250
 2969.5     -999.250   3.002   67.558   11.837   -999.250
 2970     -999.250   2.96   67.409   11.979   -999.250
 2970.5     -999.250   2.917   67.481   12.122   -999.250
 2971     -999.250   3.044   67.46   12.219   -999.250
 2971.5     -999.250   3.62   67.407   12.252   -999.250
 2972     -999.250   4.196   67.353   12.285   -999.250
 2972.5     -999.250   4.238   67.401   12.318   -999.250
 2973     -999.250   3.695   67.517   12.281   -999.250
 2973.5     -999.250   3.152   67.631   12.209   -999.250
 2974     -999.250   3.399   67.694   12.177   -999.250
 2974.5     -999.250   3.657   67.151   12.252   -999.250
 2975     -999.250   3.589   67.229   12.327   -999.250
 2975.5     -999.250   3.023   67.289   12.329   -999.250
 2976     -999.250   2.466   67.263   12.277   -999.250
 2976.5     -999.250   3.233   67.337   12.246   -999.250
 2977     -999.250   4   67.494   12.238   -999.250
 2977.5     -999.250   3.955   67.508   12.229   -999.250
 2978     -999.250   3.609   67.442   12.221   -999.250
 2978.5     -999.250   3.263   67.652   12.203   -999.250
 2979     -999.250   3.072   67.965   12.179   -999.250
 2979.5     -999.250   3.493   67.459   12.155   -999.250
 2980     -999.250   3.915   68.237   12.175   -999.250
 2980.5     -999.250   4.336   68.097   12.195   -999.250
 2981     -999.250   4.758   67.717   12.214   -999.250
 2981.5     -999.250   4.747   67.274   12.23   -999.250
 2982     -999.250   4.588   67.276   12.245   -999.250
 2982.5     -999.250   4.393   67.72   12.261   -999.250
 2983     -999.250   3.991   67.949   12.237   -999.250
 2983.5     -999.250   3.59   68.039   12.209   -999.250
 2984     -999.250   3.188   67.51   12.18   -999.250
 2984.5     -999.250   2.884   67.503   12.152   -999.250
 2985     -999.250   3.402   67.406   12.123   -999.250
 2985.5     -999.250   3.92   67.348   12.063   -999.250
 2986     -999.250   3.809   67.43   12.001   -999.250
 2986.5     -999.250   3.108   67.664   11.938   -999.250
 2987     -999.250   2.407   67.835   12.019   -999.250
 2987.5     -999.250   2.695   67.616   12.111   -999.250
 2988     -999.250   3.205   67.377   12.202   -999.250
 2988.5     -999.250   3.715   67.662   12.265   -999.250
 2989     -999.250   3.991   67.421   12.21   -999.250
 2989.5     -999.250   3.91   66.784   12.154   -999.250
