###############################################
##         ENVERUS                           ##
##         ESS - Open Hole                   ##
##         PERMIAN / DELAWARE                ##
##         Nov 04 2023  V4.0                 ##
##         42-389-30297-00-00                ##
###############################################
## Copyright 2017-2023  ENVERUS.  All Rights Reserved. 
## Confidential - Property of ENVERUS, use governed by terms and 
## conditions found within the existing Information Services Subscription Agreement 
## (as may be amended, the “ISSA”) between Customer and ENVERUS. 
## 
~VERSION INFORMATION
# MNEM.UNIT                               DATA : DESCRIPTION OF MNEMONIC
#-----.-----     ----------------------------- : -----------------------------
VERS.                                     2.00 : CWLS LOG ASCII STANDARD - VERSION 2.00
WRAP.                                       NO : MULTIPLE LINES PER DEPTH STEP
VEND.                                  ENVERUS : VENDOR
TYPE.                          ESS - OPEN HOLE : ENVERUS ESSENTIAL CURVES – ACCESSIBLE THROUGH ENVERUS PRISM(TM)
DOC.                                  32306493 : ENVERUS HEADER RAW DOCUMENT ID
#___________________________________________________________________________________________________ 
~WELL INFORMATION 
# rQStLE5sYsP+YdYw4QOWpp6z6mWwFJBvCxgTqRv2Ioz+qyoYLl+79qTOna8BSHgUk5jTgp49hkgrAQ1kFKyHCg== 
# MNEM.UNIT                                              DATA : DESCRIPTION OF MNEMONIC 
#-----.-----                    ----------------------------- : ----------------------------- 
CNTY.                                                  REEVES : COUNTY 
STATE.                                                  TEXAS : STATE 
CNTRY.                                                    USA : COUNTRY 
API.                                             42-389-30297 : API (10 Digit) 
API_14.                                    42-389-30297-00-00 : API (14 Digits) 
API_14_std.                                 42-389-30297-0000 : API (14 Digits Standard) 
UWI.                                           42389302970000 : UNIQUE WELL ID 
WELL.                              R.S. BRENNAND, JR. ET AL 1 : WELL NAME
STRT.FT                                                   3.0 : START DEPTH
STOP.FT                                               13007.0 : STOP DEPTH
STEP.FT                                                   0.5 : STEP BETWEEN DEPTHS
NULL.                                                 -999.25 : NULL VALUE
#___________________________________________________________________________________________________ 
~CURVE INFORMATION 
# MNEM.UNIT           : CURVE DESCRIPTION 
#-----.-----          : ----------------------------- 
 DEPT.FT               : MEASURED DEPTH 
 CALI.IN               : CALIPER (CAL - CAL) 
 GR.API                : GAMMA RAY (GR) 
 DT.US/FT              : SONIC DELTA TRANSIT TIME (DT) 
 NPHI.V/V              : NEUTRON POROSITY (NPHI) 
 RHOB.G/CC             : BULK DENSITY (RHOB) 
 #___________________________________________________________________________________________________ 
~A         DEPT           CALI             GR             DT           NPHI           RHOB
# ...
         7131.0          9.987         73.727         59.251     -999.25000         2.5489
         7131.5          9.988         80.201         57.935     -999.25000         2.5543
         7132.0          9.988         75.618         56.619     -999.25000         2.5597
         7132.5          9.988         71.036         55.303     -999.25000         2.5651
         7133.0          9.988         66.454         53.987     -999.25000         2.5706
         7133.5          9.989         61.872         53.471     -999.25000         2.5760
         7134.0          9.989         57.290         58.437     -999.25000         2.5814
         7134.5          9.989         52.707         63.403     -999.25000         2.5992
         7135.0          9.989         48.125         68.369     -999.25000         2.6373
         7135.5          9.990         43.543         73.335     -999.25000         2.6516
         7136.0          9.990         38.961         78.022     -999.25000         2.6448
         7136.5          9.990         34.379         79.636     -999.25000         2.6380
         7137.0          9.990         33.488         81.250     -999.25000         2.6290
         7137.5          9.990         41.540         81.951     -999.25000         2.5974
         7138.0          9.991         49.592         81.332     -999.25000         2.5657
         7138.5          9.991         85.219         80.713     -999.25000         2.5341
         7139.0          9.991         99.095         80.094     -999.25000         2.5025
         7139.5          9.991        103.506         80.162     -999.25000         2.4709
         7140.0          9.992        107.917         80.825     -999.25000         2.5235
         7140.5          9.992        109.499         81.488     -999.25000         2.5823
         7141.0          9.992        105.764         81.422     -999.25000         2.5651
         7141.5          9.992        102.029         80.507     -999.25000         2.5490
         7142.0          9.993         98.294         79.592     -999.25000         2.5511
         7142.5          9.993         94.559         78.677     -999.25000         2.5531
         7143.0          9.993         90.824         77.763     -999.25000         2.5420
         7143.5          9.993         87.270         74.847     -999.25000         2.5102
         7144.0          9.994         93.634         75.382     -999.25000         2.5218
         7144.5          9.994         99.997         75.917     -999.25000         2.5376
         7145.0          9.994        106.361         76.452     -999.25000         2.5534
         7145.5          9.994        106.416         76.988     -999.25000         2.5692
         7146.0          9.995        103.894         77.141     -999.25000         2.5774
         7146.5          9.995        101.372         75.871     -999.25000         2.5722
         7147.0          9.995         98.850         74.600     -999.25000         2.5670
         7147.5          9.995         96.328         73.329     -999.25000         2.5618
         7148.0          9.995         93.806         72.058     -999.25000         2.5566
         7148.5          9.996         91.284         72.277     -999.25000         2.5614
         7149.0          9.996         92.474         74.017     -999.25000         2.5738
         7149.5          9.996         94.055         75.757     -999.25000         2.5862
         7150.0          9.996         95.637         73.656     -999.25000         2.5985
         7150.5          9.997         95.712         70.642     -999.25000         2.6109
         7151.0          9.997         90.421         68.491     -999.25000         2.6135
         7151.5          9.997         85.130         70.764     -999.25000         2.5952
         7152.0          9.997         79.839         73.036     -999.25000         2.5770
         7152.5          9.998         74.548         75.309     -999.25000         2.5587
         7153.0          9.998         89.477         77.581     -999.25000         2.5405
         7153.5          9.998         86.174         79.075     -999.25000         2.5222
         7154.0          9.998         81.746         78.628     -999.25000         2.5253
         7154.5          9.999         77.317         78.182     -999.25000         2.5401
         7155.0          9.999         92.865         77.735     -999.25000         2.5550
         7155.5          9.999         87.737         77.289     -999.25000         2.5698
         7156.0          9.999         82.609         77.132     -999.25000         2.5847
         7156.5         10.000         77.481         77.555     -999.25000         2.5808
         7157.0         10.000         72.353         77.978     -999.25000         2.5524
         7157.5         10.000         69.708         78.401     -999.25000         2.5240
         7158.0         10.000         90.007         78.823     -999.25000         2.5077
         7158.5         10.000        110.306         79.246     -999.25000         2.5028
         7159.0         10.001        117.517         79.669     -999.25000         2.4979
         7159.5         10.001        113.793         79.513     -999.25000         2.4930
         7160.0         10.001        110.069         77.556     -999.25000         2.4881
         7160.5         10.001        106.345         75.598     -999.25000         2.4987
         7161.0         10.002        102.622         73.640     -999.25000         2.5154
         7161.5         10.002         98.898         71.682     -999.25000         2.5321
         7162.0         10.002         95.174         69.724     -999.25000         2.5488
         7162.5         10.002         91.450         71.085     -999.25000         2.5012
         7163.0         10.003         87.726         73.312     -999.25000         2.4542
         7163.5         10.003         88.117         69.798     -999.25000         2.4570
         7164.0         10.003         94.360         66.284     -999.25000         2.4599
         7164.5         10.003        100.603         62.936     -999.25000         2.4627
         7165.0         10.004        105.327         67.259     -999.25000         2.4655
         7165.5         10.004         95.145         71.582     -999.25000         2.4684
         7166.0         10.004         84.963         75.905     -999.25000         2.4863
         7166.5         10.004         74.780         75.477     -999.25000         2.5069
         7167.0         10.005         75.069         74.972     -999.25000         2.5274
         7167.5         10.005         80.086         74.467     -999.25000         2.5480
         7168.0         10.005         85.102         73.963     -999.25000         2.5520
         7168.5         10.005         78.784         74.260     -999.25000         2.5253
         7169.0         10.005         70.434         77.153     -999.25000         2.4987
         7169.5         10.006         62.084         75.140     -999.25000         2.4952
         7170.0         10.006         53.734         73.339     -999.25000         2.5202
         7170.5         10.006         45.384         72.915     -999.25000         2.5452
         7171.0         10.006         46.084         72.492     -999.25000         2.5702
         7171.5         10.007         78.178         72.068     -999.25000         2.5952
         7172.0         10.007        106.930         71.644     -999.25000         2.5860
         7172.5         10.007         99.380         71.221     -999.25000         2.5171
         7173.0         10.007         91.831         72.624     -999.25000         2.5054
         7173.5         10.008         84.281         74.467     -999.25000         2.5159
         7174.0         10.008         90.082         75.327     -999.25000         2.5060
         7174.5         10.008         96.550         76.186     -999.25000         2.4892
