#--------------------------------------------------#
#-------------------ENVERUS, INC.------------------#
#------------------WWW.ENVERUS.COM-----------------#
#------------------COPYRIGHT 2020------------------#
#--------------------------------------------------#
#THIS FILE MAY BE USED ONLY IN ACCORDANCE WITH A CURRENT SUBSCRIPTION AGREEMENT BETWEEN
#THE USER AND ENVERUS, INC. NO PART OF THIS FILE MAY BE REPRODUCED, USED, COPIED,
#MODIFIED, PROPAGATED, OR DISTRIBUTED EXCEPT IN ACCORDANCE WITH THE SUBSCRIPTION
#AGREEMENT. UNAUTHORIZED USE OR DISTRIBUTION OF ALL OR ANY PART OF THIS FILE MAY VIOLATE
#COPYRIGHT, TRADEMARK, AND/OR OTHER LAWS AND IS SUBJECT TO CIVIL AS WELL AS CRIMINAL
#SANCTIONS.
#--------------------------------------------------#
#THIS FILE IS PROVIDED "AS-IS" AND ALL WARRANTIES ARE EXPRESSLY DISCLAIMED, WHETHER
#EXPRESS, ORAL, IMPLIED, STATUTORY OR OTHERWISE, INCLUDING ANY IMPLIED WARRANTY OF FITNESS
#FOR A PARTICULAR PURPOSE, MERCHANTABILITY, TITLE OR NON-INFRINGEMENT, AND ANY WARRANTIES
#ARISING BY VIRTUE OF CUSTOM OF TRADE OR COURSE OF DEALING.  FURTHER, ENVERUS, INC.
#AND ITS LICENSORS DO NOT REPRESENT OR WARRANT THAT THIS FILE WILL MEET USER'S
#REQUIREMENTS OR ARE SUITABLE FOR USER'S NEEDS OR THAT THE DATA OR RESULTS PROVIDED IN
#CONJUNCTION THEREWITH ARE CORRECT, ACCURATE, TIMELY OR RELIABLE. THESE DISCLAIMERS SHALL
#APPLY REGARDLESS OF ANY FAILURE OF ESSENTIAL PURPOSE OF ANY LIMITED REMEDY.  SOME
#JURISDICTIONS DO NOT ALLOW THE EXCLUSION OF CERTAIN WARRANTIES SO SOME OF THE ABOVE
#EXCLUSIONS MAY NOT APPLY. IN NO EVENT SHALL ENVERUS, INC. OR ANY OF ITS AFFILIATES
#BE LIABLE UNDER ANY LEGAL THEORY, WHETHER IN TORT (INCLUDING WITHOUT LIMITATION
#NEGLIGENCE), CONTRACT, STRICT LIABILITY, STATUTORY OR OTHERWISE, FOR ANY SPECIAL,
#INCIDENTAL, CONSEQUENTIAL, EXEMPLARY, PUNITIVE OR INDIRECT DAMAGE OF ANY KIND, INCLUDING
#WITHOUT LIMITATION LOSS OF REVENUE, PROFITS, GOODWILL, USE, AND/OR DATA OR THE COST OF
#PROCUREMENT OF SUBSTITUTE GOODS OR SERVICES, EVEN IF APPRISED OF THE POSSIBILITY OF SUCH
#DAMAGES IN ADVANCE.
#--------------------------------------------------#

~VERSION INFORMATION
VERS. 2.0 : CWLS LOG ASCII STANDARD - VERSION 2.0
WRAP.  NO : ONE LINE PER DEPTH STEP
~WELL INFORMATION
#MNEMONIC     .UNIT              VALUE :DESCRIPTION
STRT       .FT                25 :START DEPTH
STOP       .FT                17136 :STOP DEPTH
STEP       .FT                   0.500 :STEP
NULL       .                  -999.250 :NULL
UWI        .              42389302310000 :UNIQUE WELL ID
API        .              42389302310000 :API NUMBER
COMP       .         EDISTO RESOURCES CORPORATION :COMPANY
WELL       .        WIGGINS  ORLA  1 :WELL
DATE       .                            :LOG DATE
~CURVE INFORMATION
#MNEMONIC     .UNIT      API CODE :CURVE DESCRIPTION
DEPTH       .FT                      :MEASURED DEPTH
CAL.INCH        UNKNOWN   :CAL
ILS.OHM        UNKNOWN   :ILS
SP.MV        UNKNOWN   :SP
DT.US/FT        UNKNOWN   :DT
GR.API        UNKNOWN   :GR
ILD.OHM        UNKNOWN   :ILD
~A    DEPTH    CAL    ILS    SP    DT    GR    ILD
# ...
 3009     12.844   -999.250   -999.250   79.668   42.102   -999.250
 3009.5     12.843   -999.250   -999.250   77.636   42.394   -999.250
 3010     12.842   -999.250   -999.250   77.233   42.942   -999.250
 3010.5     12.842   -999.250   -999.250   77.046   44.075   -999.250
 3011     12.841   -999.250   -999.250   76.858   45.207   -999.250
 3011.5     12.84   -999.250   -999.250   76.671   45.208   -999.250
 3012     12.839   -999.250   -999.250   76.387   45.056   -999.250
 3012.5     12.839   -999.250   -999.250   76.081   44.964   -999.250
 3013     12.838   -999.250   -999.250   75.875   46.121   -999.250
 3013.5     12.837   -999.250   -999.250   75.896   47.19   -999.250
 3014     12.837   -999.250   -999.250   75.917   48.259   -999.250
 3014.5     12.836   -999.250   -999.250   75.938   50.065   -999.250
 3015     12.835   -999.250   -999.250   75.959   52.684   -999.250
 3015.5     12.834   -999.250   -999.250   76.088   51.817   -999.250
 3016     12.834   -999.250   -999.250   76.487   50.667   -999.250
 3016.5     12.833   -999.250   -999.250   76.887   48.884   -999.250
 3017     12.832   -999.250   -999.250   77.324   47.185   -999.250
 3017.5     12.832   -999.250   -999.250   77.999   46.025   -999.250
 3018     12.831   -999.250   -999.250   78.673   44.661   -999.250
 3018.5     12.83   -999.250   -999.250   79.347   41.517   -999.250
 3019     12.83   -999.250   -999.250   81.742   34.012   -999.250
 3019.5     12.829   -999.250   -999.250   81.066   32.565   -999.250
 3020     12.828   -999.250   -999.250   80.39   31.721   -999.250
 3020.5     12.827   -999.250   -999.250   79.714   31.715   -999.250
 3021     12.827   -999.250   -999.250   82.105   31.417   -999.250
 3021.5     12.826   -999.250   -999.250   84.813   30.856   -999.250
 3022     12.825   -999.250   -999.250   86.43   30.294   -999.250
 3022.5     12.825   -999.250   -999.250   85.978   31.093   -999.250
 3023     12.824   -999.250   -999.250   85.527   33.876   -999.250
 3023.5     12.823   -999.250   -999.250   85.075   37.612   -999.250
 3024     12.822   -999.250   -999.250   84.623   37.885   -999.250
 3024.5     12.822   -999.250   -999.250   84.171   37.576   -999.250
 3025     12.821   -999.250   -999.250   84.126   36.722   -999.250
 3025.5     12.82   -999.250   -999.250   84.687   35.925   -999.250
 3026     12.82   -999.250   -999.250   85.248   35.324   -999.250
 3026.5     12.819   -999.250   -999.250   85.809   35.975   -999.250
 3027     12.818   -999.250   -999.250   85.994   36.39   -999.250
 3027.5     12.817   -999.250   -999.250   85.945   36.067   -999.250
 3028     12.817   -999.250   -999.250   85.895   35.725   -999.250
 3028.5     12.818   -999.250   -999.250   85.846   35.153   -999.250
 3029     12.818   -999.250   -999.250   85.796   34.581   -999.250
 3029.5     12.818   -999.250   -999.250   85.747   34.009   -999.250
 3030     12.818   -999.250   -999.250   86.043   33.437   -999.250
 3030.5     12.818   -999.250   -999.250   86.35   32.958   -999.250
 3031     12.819   -999.250   -999.250   86.137   32.843   -999.250
 3031.5     12.819   -999.250   -999.250   85.763   32.727   -999.250
 3032     12.819   -999.250   -999.250   85.389   32.612   -999.250
 3032.5     12.819   -999.250   -999.250   85.371   33.299   -999.250
 3033     12.82   -999.250   -999.250   85.372   34.794   -999.250
 3033.5     12.82   -999.250   -999.250   85.143   35.044   -999.250
 3034     12.82   -999.250   -999.250   84.613   34.857   -999.250
 3034.5     12.82   -999.250   -999.250   84.082   34.362   -999.250
 3035     12.821   -999.250   -999.250   83.552   33.867   -999.250
 3035.5     12.821   -999.250   -999.250   84.49   33.849   -999.250
 3036     12.821   -999.250   -999.250   85.434   35.709   -999.250
 3036.5     12.821   -999.250   -999.250   86.378   37.423   -999.250
 3037     12.821   -999.250   -999.250   86.474   38.106   -999.250
 3037.5     12.822   -999.250   -999.250   86.394   38.258   -999.250
 3038     12.822   -999.250   -999.250   86.314   37.85   -999.250
 3038.5     12.822   -999.250   -999.250   86.234   37.144   -999.250
 3039     12.822   -999.250   -999.250   86.188   34.9   -999.250
 3039.5     12.823   -999.250   -999.250   86.394   32.657   -999.250
 3040     12.823   -999.250   -999.250   86.599   31.351   -999.250
 3040.5     12.823   -999.250   -999.250   86.805   30.836   -999.250
 3041     12.823   -999.250   -999.250   87.44   30.321   -999.250
 3041.5     12.824   -999.250   -999.250   88.89   30.81   -999.250
 3042     12.824   -999.250   -999.250   89.189   32.086   -999.250
 3042.5     12.824   -999.250   -999.250   89.103   33.368   -999.250
 3043     12.824   -999.250   -999.250   88.366   34.66   -999.250
 3043.5     12.824   -999.250   -999.250   87.101   34.629   -999.250
 3044     12.825   -999.250   -999.250   85.837   32.537   -999.250
 3044.5     12.825   -999.250   -999.250   84.573   30.784   -999.250
 3045     12.825   -999.250   -999.250   84.673   29.683   -999.250
 3045.5     12.825   -999.250   -999.250   86.02   29.429   -999.250
 3046     12.826   -999.250   -999.250   87.367   29.791   -999.250
 3046.5     12.826   -999.250   -999.250   88.695   30.152   -999.250
 3047     12.826   -999.250   -999.250   88.85   31.154   -999.250
 3047.5     12.826   -999.250   -999.250   89.004   33.77   -999.250
 3048     12.827   -999.250   -999.250   89.159   33.867   -999.250
 3048.5     12.827   -999.250   -999.250   88.805   33.963   -999.250
 3049     12.827   -999.250   -999.250   88.176   33.682   -999.250
 3049.5     12.827   -999.250   -999.250   87.093   32.684   -999.250
 3050     12.827   -999.250   -999.250   86.01   30.878   -999.250
 3050.5     12.828   -999.250   -999.250   84.927   29.072   -999.250
 3051     12.828   -999.250   -999.250   85.33   29.866   -999.250
 3051.5     12.828   -999.250   -999.250   86.811   30.498   -999.250
 3052     12.828   -999.250   -999.250   88.292   29.898   -999.250
 3052.5     12.829   -999.250   -999.250   89.683   29.298   -999.250
 3053     12.829   -999.250   -999.250   89.8   28.731   -999.250
 3053.5     12.829   -999.250   -999.250   89.916   29.462   -999.250
 3054     12.829   -999.250   -999.250   89.7   30.193   -999.250
 3054.5     12.83   -999.250   -999.250   89.208   30.565   -999.250
 3055     12.83   -999.250   -999.250   88.717   30.692   -999.250
 3055.5     12.83   -999.250   -999.250   87.75   30.819   -999.250
 3056     12.83   -999.250   -999.250   86.139   31.195   -999.250
 3056.5     12.83   -999.250   -999.250   84.529   31.835   -999.250
 3057     12.83   -999.250   -999.250   82.919   32.475   -999.250
 3057.5     12.829   -999.250   -999.250   82.839   32.467   -999.250
 3058     12.828   -999.250   -999.250   83.348   32.405   -999.250
 3058.5     12.827   -999.250   -999.250   85.085   33.588   -999.250
 3059     12.827   -999.250   -999.250   87.083   35.698   -999.250
 3059.5     12.826   -999.250   -999.250   86.18   36.777   -999.250
 3060     12.825   -999.250   -999.250   84.938   37.07   -999.250
 3060.5     12.824   -999.250   -999.250   83.631   36.932   -999.250
 3061     12.823   -999.250   -999.250   82.298   34.835   -999.250
 3061.5     12.822   -999.250   -999.250   82.265   33.253   -999.250
 3062     12.821   -999.250   -999.250   83.243   32.936   -999.250
 3062.5     12.82   -999.250   -999.250   84.221   32.448   -999.250
 3063     12.82   -999.250   -999.250   83.972   31.961   -999.250
 3063.5     12.819   -999.250   -999.250   83.2   36.999   -999.250
 3064     12.818   -999.250   -999.250   82.429   41.818   -999.250
 3064.5     12.817   -999.250   -999.250   80.965   45.023   -999.250
 3065     12.816   -999.250   -999.250   79.015   45.38   -999.250
 3065.5     12.815   -999.250   -999.250   77.064   45.219   -999.250
 3066     12.814   -999.250   -999.250   76.906   42.793   -999.250
 3066.5     12.814   -999.250   -999.250   77.126   38.301   -999.250
 3067     12.813   -999.250   -999.250   77.096   33.808   -999.250
