###############################################
##         ENVERUS                           ##
##         ESS - Open Hole                   ##
##         PERMIAN / DELAWARE                ##
##         Nov 04 2023  V4.0                 ##
##         42-389-32353-00-00                ##
###############################################
## Copyright 2017-2023  ENVERUS.  All Rights Reserved. 
## Confidential - Property of ENVERUS, use governed by terms and 
## conditions found within the existing Information Services Subscription Agreement 
## (as may be amended, the “ISSA”) between Customer and ENVERUS. 
## 
~VERSION INFORMATION
# MNEM.UNIT                               DATA : DESCRIPTION OF MNEMONIC
#-----.-----     ----------------------------- : -----------------------------
VERS.                                     2.00 : CWLS LOG ASCII STANDARD - VERSION 2.00
WRAP.                                       NO : MULTIPLE LINES PER DEPTH STEP
VEND.                                  ENVERUS : VENDOR
TYPE.                          ESS - OPEN HOLE : ENVERUS ESSENTIAL CURVES – ACCESSIBLE THROUGH ENVERUS PRISM(TM)
DOC.                                  31816014 : ENVERUS HEADER RAW DOCUMENT ID
#___________________________________________________________________________________________________ 
~WELL INFORMATION 
# N6wmpYeOPIEODBGNmaSz+o1WStwpnSM+Mr70h4S2k9wmNhpeTZrfoFyYX6I24xyp8IiB7B51j2C/wpla6NseZQ== 
# MNEM.UNIT                                              DATA : DESCRIPTION OF MNEMONIC 
#-----.-----                    ----------------------------- : ----------------------------- 
CNTY.                                                  REEVES : COUNTY 
STATE.                                                  TEXAS : STATE 
CNTRY.                                                    USA : COUNTRY 
API.                                             42-389-32353 : API (10 Digit) 
API_14.                                    42-389-32353-00-00 : API (14 Digits) 
API_14_std.                                 42-389-32353-0000 : API (14 Digits Standard) 
UWI.                                           42389323530000 : UNIQUE WELL ID 
WELL.                                             DORNFIELD 1 : WELL NAME
STRT.FT                                                 210.0 : START DEPTH
STOP.FT                                               13522.0 : STOP DEPTH
STEP.FT                                                   0.5 : STEP BETWEEN DEPTHS
NULL.                                                 -999.25 : NULL VALUE
LOC.                                                      UNK : LOCATION 
SRVC.                                                     UNK : SERVICE COMPANY
#___________________________________________________________________________________________________ 
~CURVE INFORMATION 
# MNEM.UNIT           : CURVE DESCRIPTION 
#-----.-----          : ----------------------------- 
 DEPT.FT               : MEASURED DEPTH 
 CALI.IN               : CALIPER (CAL - CAL) 
 GR.API                : GAMMA RAY (GR) 
 DT.US/FT              : SONIC DELTA TRANSIT TIME (DT) 
 RESS.OHMM             : SHALLOW INDUCTION RESISTIVITY (ILS - ILS) 
 RESD.OHMM             : DEEP INDUCTION RESISTIVITY (ILD - ILD) 
 DPHI.V/V              : DENSITY POROSITY (DPHI) 
 NPHI.V/V              : NEUTRON POROSITY (NPHI) 
 RHOB.G/CC             : BULK DENSITY (RHOB) 
 #___________________________________________________________________________________________________ 
~A         DEPT           CALI             GR             DT           RESS           RESD           DPHI           NPHI           RHOB
# ...
        10240.0          9.502         84.251         73.352         69.633         74.109        0.01812        0.15978         2.6142
        10240.5          9.510         86.353         76.165         56.301         59.797        0.02261        0.16220         2.5875
        10241.0          9.518         93.083         78.977         42.970         45.485        0.03344        0.17484         2.5607
        10241.5          9.526        102.182         81.896         36.680         37.777        0.05784        0.20027         2.5402
        10242.0          9.535        111.281         85.542         39.476         40.329        0.07466        0.22570         2.5492
        10242.5          9.543        120.772         87.005         42.271         42.881        0.07043        0.24703         2.5583
        10243.0          9.551        131.024         88.137         45.066         45.433        0.05816        0.26453         2.5673
        10243.5          9.559        131.532         88.330         47.861         47.985        0.05299        0.26501         2.5751
        10244.0          9.568        131.007         87.464         52.317         51.859        0.06662        0.26285         2.5612
        10244.5          9.576        129.667         84.490         53.107         56.696        0.05147        0.26006         2.5735
        10245.0          9.596        123.410         81.657         54.105         57.749        0.02728        0.25728         2.6082
        10245.5          9.715        109.650         80.311         58.526         59.213        0.02252        0.23278         2.6163
        10246.0          9.832        100.716         79.175         53.962         53.103        0.03347        0.20248         2.6074
        10246.5          9.702         95.989         78.243         42.718         36.363        0.03828        0.18619         2.6028
        10247.0          9.571        100.008         77.594         31.474         23.165        0.03752        0.18046         2.5981
        10247.5          9.516        107.335         79.297         20.229         19.787        0.05721        0.18158         2.5917
        10248.0          9.523        110.201         80.819         20.972         20.991        0.10039        0.21314         2.5171
        10248.5          9.531        103.285         81.280         18.719         22.681        0.15116        0.21963         2.4425
        10249.0          9.539         96.368         82.688         16.559         17.446        0.20004        0.22611         2.3679
        10249.5          9.547         89.452         86.030         23.459         19.166        0.22723        0.23215         2.2933
        10250.0          9.547         92.944         88.772         19.523         15.311        0.24142        0.24847         2.3315
        10250.5          9.629        101.985         87.467         15.586         16.599        0.23834        0.27232         2.4233
        10251.0          9.834        109.949         84.803         14.581         14.449        0.16264        0.28526         2.5150
        10251.5          9.940        113.825         82.139         17.441         19.278        0.08909        0.28936         2.6042
        10252.0          9.815        109.369         80.099         26.367         25.198        0.04272        0.28734         2.5705
        10252.5          9.656        104.913         80.201         29.032         31.118        0.03570        0.27982         2.5368
        10253.0          9.540        102.370         80.304         21.082         22.041        0.07955        0.25595         2.5031
        10253.5          9.522        103.679         79.912         30.075         42.013        0.10547        0.23314         2.5135
        10254.0          9.503        104.166         71.621         62.498         90.188        0.06828        0.22681         2.5749
        10254.5          9.485         94.245         65.871         94.920        138.362        0.02103        0.22067         2.6363
        10255.0          9.466         77.116         61.898        127.343        186.537       -0.01615        0.21795         2.6760
        10255.5          9.447         59.461         57.925        168.076        234.712       -0.01783        0.19189         2.6894
        10256.0          9.429         42.260         53.952        187.378        348.021       -0.02543        0.12217         2.7066
        10256.5          9.410         30.075         52.249        164.162        278.110       -0.03619        0.07815         2.7237
        10257.0          9.391         24.643         52.334        191.003        296.643       -0.05599        0.06313         2.7409
        10257.5          9.373         24.267         55.126        122.697        326.051       -0.05811        0.04625         2.7265
        10258.0          9.354         34.596         57.919         54.391        135.100       -0.03097        0.04882         2.6897
        10258.5          9.336         47.935         60.711         24.094         26.470       -0.00382        0.07120         2.6530
        10259.0          9.326         61.274         63.504         18.868         18.982        0.01936        0.10038         2.6162
        10259.5          9.319         71.119         68.891         22.568         23.505        0.02943        0.12957         2.6046
        10260.0          9.312         75.974         74.057         23.189         31.350        0.03175        0.15157         2.5969
        10260.5          9.305         79.912         73.651         23.958         28.991        0.03089        0.15480         2.5893
        10261.0          9.298         84.996         73.919         25.285         29.537        0.03477        0.15803         2.5816
        10261.5          9.291         94.379         75.488         26.050         27.530        0.04217        0.17026         2.5761
        10262.0          9.284        103.283         77.058         24.868         24.594        0.04636        0.18331         2.5785
        10262.5          9.277        106.515         78.497         24.293         24.049        0.04600        0.19635         2.5809
        10263.0          9.271        109.748         79.304         24.293         24.049        0.04366        0.20947         2.5833
        10263.5          9.264        110.101         80.019         23.939         24.048        0.04132        0.22275         2.5857
        10264.0          9.261        110.100         80.386         23.495         24.048        0.03898        0.23591         2.5881
        10264.5          9.278        110.099         80.895         23.472         23.914        0.03664        0.23360         2.5905
        10265.0          9.295        109.096         81.407         25.772         24.174        0.03696        0.23128         2.5929
        10265.5          9.312        107.721         81.887         26.610         27.014        0.04505        0.23207         2.5888
        10266.0          9.329        107.639         81.396         24.972         27.022        0.06218        0.23481         2.5539
        10266.5          9.346        109.996         80.098         23.333         27.021        0.07931        0.23755         2.5210
        10267.0          9.363        111.955         77.583         22.974         27.021        0.08571        0.23823         2.5350
        10267.5          9.380        111.554         73.435         24.225         27.020        0.08254        0.23524         2.5489
        10268.0          9.397         95.388         69.288         42.521         48.713        0.06116        0.21432         2.5628
        10268.5          9.372         74.520         64.212         65.994        145.631        0.03176        0.17826         2.5767
        10269.0          9.336         56.949         62.921         85.392        242.548       -0.00195        0.14221         2.6170
