#--------------------------------------------------#
#-------------------ENVERUS, INC.------------------#
#------------------WWW.ENVERUS.COM-----------------#
#------------------COPYRIGHT 2020------------------#
#--------------------------------------------------#
#THIS FILE MAY BE USED ONLY IN ACCORDANCE WITH A CURRENT SUBSCRIPTION AGREEMENT BETWEEN
#THE USER AND ENVERUS, INC. NO PART OF THIS FILE MAY BE REPRODUCED, USED, COPIED,
#MODIFIED, PROPAGATED, OR DISTRIBUTED EXCEPT IN ACCORDANCE WITH THE SUBSCRIPTION
#AGREEMENT. UNAUTHORIZED USE OR DISTRIBUTION OF ALL OR ANY PART OF THIS FILE MAY VIOLATE
#COPYRIGHT, TRADEMARK, AND/OR OTHER LAWS AND IS SUBJECT TO CIVIL AS WELL AS CRIMINAL
#SANCTIONS.
#--------------------------------------------------#
#THIS FILE IS PROVIDED "AS-IS" AND ALL WARRANTIES ARE EXPRESSLY DISCLAIMED, WHETHER
#EXPRESS, ORAL, IMPLIED, STATUTORY OR OTHERWISE, INCLUDING ANY IMPLIED WARRANTY OF FITNESS
#FOR A PARTICULAR PURPOSE, MERCHANTABILITY, TITLE OR NON-INFRINGEMENT, AND ANY WARRANTIES
#ARISING BY VIRTUE OF CUSTOM OF TRADE OR COURSE OF DEALING.  FURTHER, ENVERUS, INC.
#AND ITS LICENSORS DO NOT REPRESENT OR WARRANT THAT THIS FILE WILL MEET USER'S
#REQUIREMENTS OR ARE SUITABLE FOR USER'S NEEDS OR THAT THE DATA OR RESULTS PROVIDED IN
#CONJUNCTION THEREWITH ARE CORRECT, ACCURATE, TIMELY OR RELIABLE. THESE DISCLAIMERS SHALL
#APPLY REGARDLESS OF ANY FAILURE OF ESSENTIAL PURPOSE OF ANY LIMITED REMEDY.  SOME
#JURISDICTIONS DO NOT ALLOW THE EXCLUSION OF CERTAIN WARRANTIES SO SOME OF THE ABOVE
#EXCLUSIONS MAY NOT APPLY. IN NO EVENT SHALL ENVERUS, INC. OR ANY OF ITS AFFILIATES
#BE LIABLE UNDER ANY LEGAL THEORY, WHETHER IN TORT (INCLUDING WITHOUT LIMITATION
#NEGLIGENCE), CONTRACT, STRICT LIABILITY, STATUTORY OR OTHERWISE, FOR ANY SPECIAL,
#INCIDENTAL, CONSEQUENTIAL, EXEMPLARY, PUNITIVE OR INDIRECT DAMAGE OF ANY KIND, INCLUDING
#WITHOUT LIMITATION LOSS OF REVENUE, PROFITS, GOODWILL, USE, AND/OR DATA OR THE COST OF
#PROCUREMENT OF SUBSTITUTE GOODS OR SERVICES, EVEN IF APPRISED OF THE POSSIBILITY OF SUCH
#DAMAGES IN ADVANCE.
#--------------------------------------------------#

~VERSION INFORMATION
VERS. 2.0 : CWLS LOG ASCII STANDARD - VERSION 2.0
WRAP. NO : ONE LINE PER DEPTH STEP
~WELL INFORMATION
#MNEMONIC     .UNIT              VALUE :DESCRIPTION
STRT       .FT                2834.00000 :START DEPTH
STOP       .FT                7010.00000 :STOP DEPTH
STEP       .FT                0.50000 :STEP
NULL       .                -999.25000 :NULL VALUE
UWI       .                42389304120000 :UNIQUE WELL ID
API       .                42389304120000 :API NUMBER
COMP       .                 :COMPANY
WELL       .                 :WELL
FLD       .                 :FIELD
LOC       .                 :LOCATION
CNTY       .                 :COUNTY
STAT       .                 :STATE
CTRY       .                 :COUNTRY
SRVC       .                 :SERVICE COMPANY
DATE       .                 :DATE
~CURVE INFORMATION
#MNEMONIC     .UNIT      API CODE :CURVE DESCRIPTION
DEPTH       .FT                      :MEASURED DEPTH
CAL       .IN        UNKNOWN   :CAL
DT       .US/FT        UNKNOWN   :DT
GR       .GAPI        UNKNOWN   :GR
~A    DEPTH    CAL    DT    GR
# ...
3730.00000    13.52188    -999.25000    46.26879
3730.50000    13.50789    -999.25000    46.19808
3731.00000    13.49391    -999.25000    46.81200
3731.50000    13.47992    -999.25000    47.42592
3732.00000    13.46593    -999.25000    48.03424
3732.50000    13.45195    -999.25000    48.21646
3733.00000    13.43796    -999.25000    48.39867
3733.50000    13.42397    -999.25000    48.58088
3734.00000    13.40999    -999.25000    48.76309
3734.50000    13.41986    -999.25000    59.31362
3735.00000    13.46859    -999.25000    58.46706
3735.50000    13.51731    -999.25000    57.62049
3736.00000    13.56603    -999.25000    57.12254
3736.50000    13.61476    -999.25000    60.30956
3737.00000    13.66348    -999.25000    62.75918
3737.50000    13.71221    -999.25000    63.74054
3738.00000    13.75903    -999.25000    64.72189
3738.50000    13.79974    -999.25000    65.70325
3739.00000    13.84045    -999.25000    65.70694
3739.50000    13.88115    -999.25000    62.06513
3740.00000    13.92186    -999.25000    58.42332
3740.50000    13.96256    -999.25000    54.78151
3741.00000    14.00327    -999.25000    55.00308
3741.50000    14.04397    -999.25000    56.57428
3742.00000    14.08468    -999.25000    58.14548
3742.50000    14.12538    -999.25000    59.77998
3743.00000    14.15387    -999.25000    61.54550
3743.50000    14.16936    -999.25000    63.31101
3744.00000    14.18484    -999.25000    65.07652
3744.50000    14.20033    -999.25000    66.84203
3745.00000    14.21581    -999.25000    68.60755
3745.50000    14.23130    -999.25000    69.07982
3746.00000    14.24679    -999.25000    68.59125
3746.50000    14.26227    -999.25000    63.94860
3747.00000    14.27776    -999.25000    59.30596
3747.50000    14.29324    -999.25000    54.66331
3748.00000    14.30873    -999.25000    50.02067
3748.50000    14.32421    -999.25000    38.61411
3749.00000    14.33970    -999.25000    36.11784
3749.50000    14.35518    -999.25000    33.62157
3750.00000    14.37067    -999.25000    31.12530
3750.50000    14.38615    -999.25000    29.29383
3751.00000    14.40164    -999.25000    28.07280
3751.50000    14.41712    -999.25000    26.85178
3752.00000    14.43261    -999.25000    26.74900
3752.50000    14.44534    -999.25000    27.41692
3753.00000    14.44073    -999.25000    28.56433
3753.50000    14.43612    -999.25000    29.71175
3754.00000    14.43151    -999.25000    31.26528
3754.50000    14.42690    -999.25000    33.20566
3755.00000    14.42228    -999.25000    34.09628
3755.50000    14.41767    -999.25000    34.64474
3756.00000    14.41306    -999.25000    34.83870
3756.50000    14.40845    -999.25000    34.89349
3757.00000    14.40384    -999.25000    34.94828
3757.50000    14.39923    -999.25000    34.93577
3758.00000    14.39461    -999.25000    34.90127
3758.50000    14.39000    -999.25000    34.86676
3759.00000    14.38539    -999.25000    34.83226
3759.50000    14.38078    -999.25000    34.79776
3760.00000    14.37617    -999.25000    34.76325
3760.50000    14.37156    -999.25000    34.72875
3761.00000    14.36694    -999.25000    34.69424
3761.50000    14.36233    -999.25000    34.65974
3762.00000    14.35772    -999.25000    34.62524
3762.50000    14.35311    -999.25000    34.59073
3763.00000    14.34850    -999.25000    34.55623
3763.50000    14.34389    -999.25000    34.52173
3764.00000    14.33928    -999.25000    34.48722
3764.50000    14.33466    -999.25000    34.45272
3765.00000    14.33005    -999.25000    34.41822
3765.50000    14.32544    -999.25000    34.38371
3766.00000    14.32083    -999.25000    34.34921
3766.50000    14.31622    -999.25000    34.31471
3767.00000    14.31161    -999.25000    34.28020
3767.50000    14.28778    -999.25000    34.24570
3768.00000    14.26280    -999.25000    34.21120
3768.50000    14.23781    -999.25000    34.17669
3769.00000    14.21283    -999.25000    34.14219
3769.50000    14.18784    -999.25000    34.10769
3770.00000    14.16286    -999.25000    34.07318
3770.50000    14.13787    -999.25000    34.03868
3771.00000    14.11289    -999.25000    34.00418
3771.50000    14.08791    -999.25000    33.96967
3772.00000    14.06292    -999.25000    33.93517
3772.50000    14.03794    -999.25000    33.90067
3773.00000    14.01343    -999.25000    33.86616
3773.50000    13.97798    -999.25000    33.83166
3774.00000    13.95410    -999.25000    33.79716
3774.50000    13.92864    -999.25000    33.76265
3775.00000    13.92660    -999.25000    33.72815
3775.50000    13.92456    -999.25000    33.69365
3776.00000    13.92253    -999.25000    33.65914
3776.50000    13.92049    -999.25000    33.62464
3777.00000    13.91845    -999.25000    33.59013
3777.50000    13.91581    -999.25000    33.55563
3778.00000    13.88092    -999.25000    33.52113
3778.50000    13.84604    -999.25000    33.48662
3779.00000    13.81115    -999.25000    33.45212
3779.50000    13.77627    -999.25000    33.41762
3780.00000    13.74139    -999.25000    33.38311
3780.50000    13.70650    -999.25000    33.34861
3781.00000    13.67162    -999.25000    33.31411
3781.50000    13.63674    -999.25000    33.27960
3782.00000    13.60185    -999.25000    33.24510
3782.50000    13.56697    -999.25000    33.21060
3783.00000    13.53209    -999.25000    33.17609
3783.50000    13.49720    -999.25000    33.14159
3784.00000    13.46232    -999.25000    33.10709
3784.50000    13.43781    -999.25000    33.47661
3785.00000    13.42647    -999.25000    34.67061
3785.50000    13.41512    -999.25000    35.86462
3786.00000    13.40377    -999.25000    37.05863
3786.50000    13.39242    -999.25000    38.25263
3787.00000    13.38108    -999.25000    39.44664
3787.50000    13.36973    -999.25000    40.64065
3788.00000    13.35838    -999.25000    41.83466
3788.50000    13.34703    -999.25000    43.02866
3789.00000    13.33569    -999.25000    44.22267
3789.50000    13.32434    -999.25000    45.41668
3790.00000    13.31299    -999.25000    46.61069
3790.50000    13.30164    -999.25000    45.74713
3791.00000    13.29030    -999.25000    44.40872
3791.50000    13.27895    -999.25000    43.07032
3792.00000    13.26760    -999.25000    41.73192
3792.50000    13.25625    -999.25000    40.37206
3793.00000    13.24491    -999.25000    38.66254
3793.50000    13.23356    -999.25000    36.95303
3794.00000    13.22221    -999.25000    35.24352
3794.50000    13.21087    -999.25000    33.53400
3795.00000    13.19952    -999.25000    35.16603
3795.50000    13.18817    -999.25000    37.19963
3796.00000    13.17682    -999.25000    39.23323
3796.50000    13.16548    -999.25000    41.26683
3797.00000    13.15869    -999.25000    43.30043
3797.50000    13.15244    -999.25000    45.33403
3798.00000    13.14619    -999.25000    47.36763
3798.50000    13.13994    -999.25000    45.96226
3799.00000    13.13369    -999.25000    43.66390
3799.50000    13.12744    -999.25000    41.36555
3800.00000    13.12119    -999.25000    39.06720
3800.50000    13.11494    -999.25000    36.76885
3801.00000    13.10869    -999.25000    34.47050
3801.50000    13.10244    -999.25000    32.17215
3802.00000    13.09619    -999.25000    30.70173
3802.50000    13.08994    -999.25000    30.05689
3803.00000    13.08369    -999.25000    31.22853
3803.50000    13.07744    -999.25000    32.40017
3804.00000    13.07119    -999.25000    33.56171
3804.50000    13.06494    -999.25000    34.64292
3805.00000    13.05869    -999.25000    35.72413
3805.50000    13.06797    -999.25000    36.80534
3806.00000    13.10610    -999.25000    37.88655
3806.50000    13.14422    -999.25000    38.96776
3807.00000    13.18235    -999.25000    40.04897
3807.50000    13.22047    -999.25000    42.00990
3808.00000    13.25860    -999.25000    44.16490
3808.50000    13.29673    -999.25000    45.72740
3809.00000    13.33485    -999.25000    46.31852
3809.50000    13.37298    -999.25000    46.90964
3810.00000    13.41110    -999.25000    47.24043
3810.50000    13.43794    -999.25000    47.34910
3811.00000    13.45621    -999.25000    47.45778
3811.50000    13.47448    -999.25000    47.56645
