###############################################
##         ENVERUS                           ##
##         ESS - Open Hole                   ##
##         PERMIAN / DELAWARE                ##
##         Nov 04 2023  V4.0                 ##
##         42-389-32245-00-00                ##
###############################################
## Copyright 2017-2023  ENVERUS.  All Rights Reserved. 
## Confidential - Property of ENVERUS, use governed by terms and 
## conditions found within the existing Information Services Subscription Agreement 
## (as may be amended, the “ISSA”) between Customer and ENVERUS. 
## 
~VERSION INFORMATION
# MNEM.UNIT                               DATA : DESCRIPTION OF MNEMONIC
#-----.-----     ----------------------------- : -----------------------------
VERS.                                     2.00 : CWLS LOG ASCII STANDARD - VERSION 2.00
WRAP.                                       NO : MULTIPLE LINES PER DEPTH STEP
VEND.                                  ENVERUS : VENDOR
TYPE.                          ESS - OPEN HOLE : ENVERUS ESSENTIAL CURVES – ACCESSIBLE THROUGH ENVERUS PRISM(TM)
DOC.                                  24742630 : ENVERUS HEADER RAW DOCUMENT ID
#___________________________________________________________________________________________________ 
~WELL INFORMATION 
# u9Wg0OWXiPz858M7Kubpm0lpDPxjGuyhH3tqBPDGtvBYDDDqGrwiIchrhDPbdkpmsDZNCKsM7+2eKUVstoQO7Q== 
# MNEM.UNIT                                              DATA : DESCRIPTION OF MNEMONIC 
#-----.-----                    ----------------------------- : ----------------------------- 
CNTY.                                                  REEVES : COUNTY 
STATE.                                                  TEXAS : STATE 
CNTRY.                                                    USA : COUNTRY 
API.                                             42-389-32245 : API (10 Digit) 
API_14.                                    42-389-32245-00-00 : API (14 Digits) 
API_14_std.                                 42-389-32245-0000 : API (14 Digits Standard) 
UWI.                                           42389322450000 : UNIQUE WELL ID 
WELL.                          TEXAS PACIFIC LAND TRUST #25-1 : WELL NAME
STRT.FT                                                2530.0 : START DEPTH
STOP.FT                                               10610.0 : STOP DEPTH
STEP.FT                                                   0.5 : STEP BETWEEN DEPTHS
NULL.                                                 -999.25 : NULL VALUE
COMP.                                             CONOCO INC. : COMPANY 
FLD.                                            FORD WOLFCAMP : FIELD 
LOC.                                                 25-2S-58 : LOCATION 
SRVC.                                            SCHLUMBERGER : SERVICE COMPANY 
DATE.                                              03/21/2002 : DATE 
TVD.                                                       NO : TVD FLAG
#___________________________________________________________________________________________________ 
~PARAMETER INFORMATION 
# MNEM.UNIT                                              DATA : DESCRIPTION OF MNEMONIC 
#-----.-----                    ----------------------------- : ----------------------------- 
RUN.                                                      ONE : RUN NUMBER 
PDAT.                                                      GL : PERMANENT DATUM 
EPD.FT                                              2993.0000 : ELEVATION OF PERM. DATUM 
LMF.                                            KELLY BUSHING : LOG MEASURED FROM 
EKB.FT                                              3021.0000 : ELEVATION OF KELLY BUSHING 
DF.FT                                               3020.0000 : ELEVATION OF DERRICK FLOOR 
GL.FT                                               2993.0000 : ELEVATION OF GROUND LEVEL 
TD.FT                                              10610.0000 : TOTAL DEPTH 
BHT.DEGF                                               130.00 : BOTTOM HOLE TEMPERATURE 
BLI.FT                                             10610.0000 : BOTTOM LOG INTERVAL 
CSGSIZE.IN                                             9.6250 : CASING SIZE 
BITSIZE.IN                                              8.750 : BITSIZE 
CSGD.FT                                                  2642 : CASING BOTTOM (DRILLER) 1 
CSGL.FT                                                  2538 : CASING BOTTOM (LOGGER) 1 
MUD.                                                CUT BRINE : DRILLING FLUID TYPE 
MUDV.CP                                               28.0000 : DRILLING FLUID VISCOSITY 
MUDD.LB/USG                                           10.0000 : DRILLING FLUID DENSITY 
PH.                                                    8.5000 : DRILLING FLUID PH 
MUDS.                                        CIRCULATION TANK : MUD SAMPLE SOURCE 
RM.OHMM                                                0.0610 : RESISTIVITY OF MUD SAMPLE 
RMT.DEGF                                              75.0000 : MUD SAMPLE TEMPERATURE 
RMF.OHMM                                               0.0610 : MUD FILTRATE RESISTIVITY 
RMFT.DEGF                                             75.0000 : MUD FILTRATE SAMPLE TEMPERATURE
#___________________________________________________________________________________________________ 
~CURVE INFORMATION 
# MNEM.UNIT           : CURVE DESCRIPTION 
#-----.-----          : ----------------------------- 
 DEPT.FT               : MEASURED DEPTH 
 CALI.IN               : CALIPER (CALIPER) 
 GR.API                : GAMMA RAY (GAMMA RAY) 
 DT.US/FT              : SONIC DELTA TRANSIT TIME (DELTA T) 
 SPHI.V/V              : SONIC POROSITY (SONIC POROSITY) 
 #___________________________________________________________________________________________________ 
~A         DEPT           CALI             GR             DT           SPHI
# ...
         8413.0          8.930         73.630         75.850        0.20000
         8413.5          8.950         65.040         75.550        0.20000
         8414.0          8.970         56.390         75.670        0.20000
         8414.5          8.980         47.680         75.710        0.20000
         8415.0          9.000         46.350         74.580        0.18000
         8415.5          9.010         47.680         72.100        0.17000
         8416.0          9.010         49.060         69.610        0.15000
         8416.5          9.010         50.360         67.130        0.13000
         8417.0          9.010         49.320         65.340        0.13000
         8417.5          9.010         48.300         65.400        0.13000
         8418.0          9.000         49.020         67.410        0.15000
         8418.5          9.000         52.760         69.960        0.17000
         8419.0          9.000         55.040         72.380        0.18000
         8419.5          9.000         54.900         72.480        0.18000
         8420.0          9.000         55.500         72.320        0.18000
         8420.5          9.000         59.270         72.860        0.18000
         8421.0          9.000         62.140         73.420        0.18000
         8421.5          9.000         61.010         73.170        0.18000
         8422.0          9.000         58.110         72.530        0.17000
         8422.5          9.000         55.270         71.890        0.17000
         8423.0          9.000         53.000         71.360        0.17000
         8423.5          9.000         54.280         71.370        0.17000
         8424.0          9.000         56.250         71.660        0.17000
         8424.5          9.000         58.050         71.600        0.17000
         8425.0          8.990         57.970         71.270        0.17000
         8425.5          8.990         56.170         70.960        0.17000
         8426.0          8.990         53.980         70.790        0.16000
         8426.5          8.990         53.540         71.030        0.17000
         8427.0          8.990         57.290         71.640        0.17000
         8427.5          8.990         62.990         72.430        0.18000
         8428.0          8.990         68.700         73.530        0.19000
         8428.5          8.990         74.470         74.640        0.19000
         8429.0          8.990         80.230         75.740        0.20000
         8429.5          8.990         85.990         76.950        0.21000
         8430.0          8.990         91.680         76.880        0.21000
         8430.5          8.970         95.530         74.890        0.19000
         8431.0          8.960         91.680         72.080        0.16000
         8431.5          8.940         79.610         70.150        0.16000
         8432.0          8.930         68.020         69.580        0.15000
         8432.5          8.910         63.300         69.480        0.15000
         8433.0          8.900         64.950         69.390        0.15000
         8433.5          8.880         67.180         69.280        0.15000
         8434.0          8.860         69.430         69.190        0.16000
         8434.5          8.850         72.880         70.670        0.17000
         8435.0          8.830         80.340         72.050        0.17000
         8435.5          8.830         87.660         71.510        0.17000
         8436.0          8.820         94.110         68.460        0.12000
         8436.5          8.820         83.410         62.910        0.08000
         8437.0          8.820         62.970         56.790        0.06000
         8437.5          8.810         42.540         55.490        0.06000
         8438.0          8.810         32.490         56.010        0.10000
         8438.5          8.800         36.790         61.270        0.13000
         8439.0          8.800         50.100         66.560        0.16000
         8439.5          8.790         65.970         71.840        0.18000
         8440.0          8.790         78.320         72.770        0.17000
         8440.5          8.780         87.000         72.020        0.17000
         8441.0          8.780         83.410         70.890        0.16000
         8441.5          8.780         73.440         69.770        0.15000
         8442.0          8.770         68.490         69.100        0.15000
         8442.5          8.770         66.060         68.920        0.15000
         8443.0          8.760         65.200         69.110        0.15000
         8443.5          8.760         64.340         69.180        0.15000
         8444.0          8.750         62.750         68.260        0.14000
         8444.5          8.750         60.790         67.330        0.13000
         8445.0          8.750         58.820         66.410        0.13000
         8445.5          8.750         56.850         66.100        0.13000
         8446.0          8.750         54.830         66.320        0.13000
         8446.5          8.750         54.600         65.790        0.12000
         8447.0          8.750         54.730         64.050        0.11000
         8447.5          8.760         49.380         61.700        0.09000
         8448.0          8.760         42.520         59.140        0.07000
         8448.5          8.760         35.330         58.030        0.08000
         8449.0          8.760         32.990         59.630        0.09000
         8449.5          8.760         40.160         62.040        0.11000
         8450.0          8.760         49.280         65.080        0.13000
         8450.5          8.770         63.140         68.130        0.16000
         8451.0          8.770         76.990         71.180        0.18000
         8451.5          8.770         92.690         73.920        0.20000
         8452.0          8.770        100.550         75.150        0.20000
         8452.5          8.770        104.270         75.380        0.19000
         8453.0          8.770        102.590         74.430        0.19000
         8453.5          8.780        100.340         73.530        0.18000
         8454.0          8.780         90.460         72.320        0.17000
         8454.5          8.780         83.480         71.000        0.16000
         8455.0          8.780         76.630         69.680        0.15000
         8455.5          8.780         69.560         68.360        0.14000
         8456.0          8.780         71.030         67.630        0.14000
         8456.5          8.790         74.140         68.030        0.15000
         8457.0          8.790         77.130         68.340        0.14000
         8457.5          8.790         78.210         66.910        0.13000
         8458.0          8.790         76.270         65.130        0.12000
         8458.5          8.790         69.940         63.340        0.11000
         8459.0          8.790         63.050         61.550        0.10000
         8459.5          8.790         56.880         63.030        0.12000
         8460.0          8.790         62.390         67.030        0.15000
         8460.5          8.790         72.010         71.040        0.18000
         8461.0          8.790         81.430         74.270        0.19000
         8461.5          8.790         89.630         74.290        0.18000
         8462.0          8.790         87.310         70.990        0.16000
         8462.5          8.790         80.000         68.140        0.13000
         8463.0          8.790         72.890         65.300        0.11000
         8463.5          8.790         65.800         62.460        0.09000
         8464.0          8.790         59.260         60.510        0.09000
         8464.5          8.790         54.460         61.820        0.11000
         8465.0          8.790         53.500         64.580        0.13000
         8465.5          8.790         61.290         67.340        0.16000
