###############################################
##         ENVERUS                           ##
##         ESS - Open Hole                   ##
##         PERMIAN / DELAWARE                ##
##         Nov 04 2023  V4.0                 ##
##         42-389-32421-01-00                ##
###############################################
## Copyright 2017-2023  ENVERUS.  All Rights Reserved. 
## Confidential - Property of ENVERUS, use governed by terms and 
## conditions found within the existing Information Services Subscription Agreement 
## (as may be amended, the “ISSA”) between Customer and ENVERUS. 
## 
~VERSION INFORMATION
# MNEM.UNIT                               DATA : DESCRIPTION OF MNEMONIC
#-----.-----     ----------------------------- : -----------------------------
VERS.                                     2.00 : CWLS LOG ASCII STANDARD - VERSION 2.00
WRAP.                                       NO : MULTIPLE LINES PER DEPTH STEP
VEND.                                  ENVERUS : VENDOR
TYPE.                          ESS - OPEN HOLE : ENVERUS ESSENTIAL CURVES – ACCESSIBLE THROUGH ENVERUS PRISM(TM)
DOC.                                  51227099 : ENVERUS HEADER RAW DOCUMENT ID
#___________________________________________________________________________________________________ 
~WELL INFORMATION 
# zrraAS4ibxVPgm4F4FjILRFQbgMcjf5VKWH9QXz9oP+5l3DBeEvHFHP9dTNjNwXm2+WMaTXZz7qhRLDoyN0AVg== 
# MNEM.UNIT                                              DATA : DESCRIPTION OF MNEMONIC 
#-----.-----                    ----------------------------- : ----------------------------- 
CNTY.                                                  REEVES : COUNTY 
STATE.                                                  TEXAS : STATE 
CNTRY.                                                    USA : COUNTRY 
API.                                             42-389-32421 : API (10 Digit) 
API_14.                                    42-389-32421-01-00 : API (14 Digits) 
API_14_std.                                 42-389-32421-0100 : API (14 Digits Standard) 
UWI.                                           42389324210100 : UNIQUE WELL ID 
WELL.                                      ARMSTRONG STATE #1 : WELL NAME
STRT.FT                                                2000.0 : START DEPTH
STOP.FT                                               14700.0 : STOP DEPTH
STEP.FT                                                   0.5 : STEP BETWEEN DEPTHS
NULL.                                                 -999.25 : NULL VALUE
COMP.                                   BULLDOG OPERATING CO. : COMPANY 
FLD.                                                  WILDCAT : FIELD 
LOC.                                                3-59-2778 : LOCATION 
SRVC.                                            SCHLUMBERGER : SERVICE COMPANY 
DATE.                                              08/28/2006 : DATE 
PREV_APII.                                       423893242100 : API NUMBER 
PREV_UWI.                                        423893242100 : UWI NUMBER 
TVD.                                                       NO : TVD FLAG
#___________________________________________________________________________________________________ 
~PARAMETER INFORMATION 
# MNEM.UNIT                                              DATA : DESCRIPTION OF MNEMONIC 
#-----.-----                    ----------------------------- : ----------------------------- 
RUN.                                                      ONE : RUN NUMBER 
PDAT.                                                      GL : PERMANENT DATUM 
EPD.FT                                              3134.8000 : ELEVATION OF PERM. DATUM 
LMF.                                            KELLY BUSHING : LOG MEASURED FROM 
EKB.FT                                              3157.8000 : ELEVATION OF KELLY BUSHING 
DF.FT                                               3156.8000 : ELEVATION OF DERRICK FLOOR 
GL.FT                                               3134.8000 : ELEVATION OF GROUND LEVEL 
TD.FT                                              14700.0000 : TOTAL DEPTH 
BHT.DEGF                                               230.00 : BOTTOM HOLE TEMPERATURE 
BLI.FT                                             14700.0000 : BOTTOM LOG INTERVAL 
CSGSIZE.IN                                             9.6250 : CASING SIZE 
BITSIZE.IN                                              8.750 : BITSIZE 
CSGD.FT                                                  2014 : CASING BOTTOM (DRILLER) 1 
CSGL.FT                                                  2014 : CASING BOTTOM (LOGGER) 1 
MUD.                                                    BRINE : DRILLING FLUID TYPE 
MUDV.CP                                               31.0000 : DRILLING FLUID VISCOSITY 
MUDD.LB/USG                                            9.3000 : DRILLING FLUID DENSITY 
FL.ML/30MIN                                           13.0000 : DRILLING FLUID LOSS 
PH.                                                   10.0000 : DRILLING FLUID PH 
MUDS.                                        CIRCULATION TANK : MUD SAMPLE SOURCE 
RM.OHMM                                                0.0540 : RESISTIVITY OF MUD SAMPLE 
RMT.DEGF                                              90.0000 : MUD SAMPLE TEMPERATURE 
RMF.OHMM                                               0.0640 : MUD FILTRATE RESISTIVITY 
RMFT.DEGF                                             80.0000 : MUD FILTRATE SAMPLE TEMPERATURE
#___________________________________________________________________________________________________ 
~CURVE INFORMATION 
# MNEM.UNIT           : CURVE DESCRIPTION 
#-----.-----          : ----------------------------- 
 DEPT.FT               : MEASURED DEPTH 
 DT.US/FT              : SONIC DELTA TRANSIT TIME (DELTA T) 
 SPHI.V/V              : SONIC POROSITY (SONIC POROSITY) 
 #___________________________________________________________________________________________________ 
~A         DEPT             DT           SPHI
# ...
        13745.0         72.696        0.19200
        13745.5         74.950        0.20400
        13746.0         78.330        0.21700
        13746.5         78.028        0.22300
        13747.0         77.726        0.22200
        13747.5         77.123        0.20800
        13748.0         71.446        0.17600
        13748.5         65.769        0.14400
        13749.0         61.227        0.10600
        13749.5         65.211        0.12800
        13750.0         68.531        0.15600
        13750.5         71.851        0.18400
        13751.0         74.507        0.21800
        13751.5         77.163        0.22300
        13752.0         78.934        0.23200
        13752.5         78.732        0.22600
        13753.0         74.536        0.18300
        13753.5         67.206        0.14000
        13754.0         58.410        0.10600
        13754.5         58.410        0.08200
        13755.0         58.410        0.08100
        13755.5         62.133        0.11900
        13756.0         67.414        0.15000
        13756.5         72.696        0.18200
        13757.0         74.582        0.20200
        13757.5         75.983        0.21200
        13758.0         76.653        0.21400
        13758.5         77.324        0.21700
        13759.0         76.004        0.20900
        13759.5         74.683        0.20100
        13760.0         73.099        0.18800
        13760.5         73.501        0.19400
        13761.0         76.016        0.21000
        13761.5         78.531        0.22700
        13762.0         81.046        0.24300
        13762.5         82.455        0.25400
        13763.0         82.153        0.25800
        13763.5         80.026        0.24100
        13764.0         77.367        0.22100
        13764.5         74.743        0.20000
        13765.0         74.454        0.19800
        13765.5         74.166        0.19700
        13766.0         73.936        0.19500
        13766.5         74.388        0.19900
        13767.0         73.934        0.19500
        13767.5         72.926        0.18600
        13768.0         73.176        0.18800
        13768.5         73.428        0.19000
        13769.0         73.679        0.19200
        13769.5         73.932        0.19400
        13770.0         75.316        0.20300
        13770.5         76.259        0.21400
        13771.0         76.541        0.21500
        13771.5         76.821        0.21400
        13772.0         76.620        0.21200
        13772.5         76.385        0.21000
        13773.0         76.553        0.21200
        13773.5         76.720        0.21300
        13774.0         75.589        0.20600
        13774.5         74.457        0.19900
        13775.0         73.325        0.19200
        13775.5         72.193        0.18500
        13776.0         71.288        0.17700
        13776.5         71.288        0.17800
        13777.0         72.538        0.18000
        13777.5         74.622        0.19900
        13778.0         77.123        0.21800
        13778.5         77.056        0.21700
        13779.0         76.972        0.21500
        13779.5         76.234        0.20600
        13780.0         74.515        0.19400
        13780.5         72.797        0.18300
        13781.0         71.078        0.17100
        13781.5         69.359        0.15500
        13782.0         69.029        0.15700
        13782.5         69.623        0.16200
        13783.0         70.218        0.16600
        13783.5         70.812        0.17100
        13784.0         71.288        0.17400
        13784.5         71.288        0.17500
        13785.0         70.624        0.17500
        13785.5         69.517        0.16700
        13786.0         66.781        0.14500
        13786.5         62.958        0.11300
        13787.0         58.531        0.08100
        13787.5         53.702        0.05000
        13788.0         51.242        0.02400
        13788.5         50.362        0.02600
        13789.0         56.587        0.06000
        13789.5         62.812        0.09400
        13790.0         70.282        0.12800
        13790.5         70.885        0.16200
        13791.0         71.489        0.17400
        13791.5         70.981        0.17100
        13792.0         70.622        0.16900
        13792.5         70.258        0.16700
        13793.0         69.883        0.16500
        13793.5         69.502        0.16200
        13794.0         70.902        0.17200
        13794.5         72.302        0.18200
        13795.0         73.698        0.19200
        13795.5         74.277        0.19600
        13796.0         73.702        0.19300
        13796.5         73.127        0.18900
        13797.0         73.032        0.18800
        13797.5         73.255        0.19100
        13798.0         73.479        0.19300
        13798.5         73.702        0.19200
        13799.0         72.696        0.18500
        13799.5         71.690        0.17500
        13800.0         71.489        0.17700
        13800.5         71.958        0.18100
        13801.0         72.629        0.18700
        13801.5         73.300        0.19000
        13802.0         73.384        0.19000
        13802.5         73.467        0.19000
        13803.0         73.841        0.19400
        13803.5         74.406        0.19800
        13804.0         74.972        0.20300
        13804.5         75.070        0.20200
        13805.0         74.467        0.19700
        13805.5         73.863        0.19300
        13806.0         73.260        0.18800
        13806.5         72.897        0.18600
        13807.0         72.897        0.18400
        13807.5         73.501        0.18800
        13808.0         73.903        0.19200
        13808.5         73.671        0.19300
        13809.0         73.478        0.19100
        13809.5         73.284        0.18900
        13810.0         73.091        0.18600
        13810.5         72.897        0.18600
        13811.0         73.350        0.19000
        13811.5         73.803        0.19400
        13812.0         74.256        0.19800
        13812.5         74.708        0.19600
        13813.0         74.038        0.19100
        13813.5         73.367        0.18700
        13814.0         72.696        0.18300
        13814.5         72.025        0.17800
        13815.0         71.458        0.17600
        13815.5         71.328        0.17500
        13816.0         71.245        0.17300
        13816.5         67.769        0.15400
        13817.0         64.882        0.13000
        13817.5         61.999        0.10500
        13818.0         59.111        0.08100
        13818.5         56.197        0.06600
        13819.0         57.392        0.07400
        13819.5         58.587        0.08300
        13820.0         60.020        0.09300
        13820.5         60.322        0.09500
        13821.0         60.624        0.09700
        13821.5         60.423        0.09600
        13822.0         60.255        0.09500
        13822.5         60.087        0.09400
        13823.0         60.221        0.09300
        13823.5         60.557        0.09700
        13824.0         60.892        0.10000
        13824.5         61.227        0.11200
        13825.0         63.491        0.12600
        13825.5         66.660        0.14100
        13826.0         66.056        0.14000
        13826.5         65.058        0.12700
        13827.0         64.240        0.11600
        13827.5         62.238        0.10600
        13828.0         60.574        0.09500
        13828.5         58.914        0.08500
        13829.0         57.587        0.06700
        13829.5         56.724        0.06400
        13830.0         56.003        0.06000
        13830.5         55.306        0.05600
        13831.0         54.588        0.05200
        13831.5         53.869        0.04900
