###############################################
##         ENVERUS                           ##
##         ESS - Open Hole                   ##
##         PERMIAN / DELAWARE                ##
##         Nov 04 2023  V4.0                 ##
##         42-389-32245-00-00                ##
###############################################
## Copyright 2017-2023  ENVERUS.  All Rights Reserved. 
## Confidential - Property of ENVERUS, use governed by terms and 
## conditions found within the existing Information Services Subscription Agreement 
## (as may be amended, the “ISSA”) between Customer and ENVERUS. 
## 
~VERSION INFORMATION
# MNEM.UNIT                               DATA : DESCRIPTION OF MNEMONIC
#-----.-----     ----------------------------- : -----------------------------
VERS.                                     2.00 : CWLS LOG ASCII STANDARD - VERSION 2.00
WRAP.                                       NO : MULTIPLE LINES PER DEPTH STEP
VEND.                                  ENVERUS : VENDOR
TYPE.                          ESS - OPEN HOLE : ENVERUS ESSENTIAL CURVES – ACCESSIBLE THROUGH ENVERUS PRISM(TM)
DOC.                                  24742630 : ENVERUS HEADER RAW DOCUMENT ID
#___________________________________________________________________________________________________ 
~WELL INFORMATION 
# u9Wg0OWXiPz858M7Kubpm0lpDPxjGuyhH3tqBPDGtvBYDDDqGrwiIchrhDPbdkpmsDZNCKsM7+2eKUVstoQO7Q== 
# MNEM.UNIT                                              DATA : DESCRIPTION OF MNEMONIC 
#-----.-----                    ----------------------------- : ----------------------------- 
CNTY.                                                  REEVES : COUNTY 
STATE.                                                  TEXAS : STATE 
CNTRY.                                                    USA : COUNTRY 
API.                                             42-389-32245 : API (10 Digit) 
API_14.                                    42-389-32245-00-00 : API (14 Digits) 
API_14_std.                                 42-389-32245-0000 : API (14 Digits Standard) 
UWI.                                           42389322450000 : UNIQUE WELL ID 
WELL.                          TEXAS PACIFIC LAND TRUST #25-1 : WELL NAME
STRT.FT                                                2530.0 : START DEPTH
STOP.FT                                               10610.0 : STOP DEPTH
STEP.FT                                                   0.5 : STEP BETWEEN DEPTHS
NULL.                                                 -999.25 : NULL VALUE
COMP.                                             CONOCO INC. : COMPANY 
FLD.                                            FORD WOLFCAMP : FIELD 
LOC.                                                 25-2S-58 : LOCATION 
SRVC.                                            SCHLUMBERGER : SERVICE COMPANY 
DATE.                                              03/21/2002 : DATE 
TVD.                                                       NO : TVD FLAG
#___________________________________________________________________________________________________ 
~PARAMETER INFORMATION 
# MNEM.UNIT                                              DATA : DESCRIPTION OF MNEMONIC 
#-----.-----                    ----------------------------- : ----------------------------- 
RUN.                                                      ONE : RUN NUMBER 
PDAT.                                                      GL : PERMANENT DATUM 
EPD.FT                                              2993.0000 : ELEVATION OF PERM. DATUM 
LMF.                                            KELLY BUSHING : LOG MEASURED FROM 
EKB.FT                                              3021.0000 : ELEVATION OF KELLY BUSHING 
DF.FT                                               3020.0000 : ELEVATION OF DERRICK FLOOR 
GL.FT                                               2993.0000 : ELEVATION OF GROUND LEVEL 
TD.FT                                              10610.0000 : TOTAL DEPTH 
BHT.DEGF                                               130.00 : BOTTOM HOLE TEMPERATURE 
BLI.FT                                             10610.0000 : BOTTOM LOG INTERVAL 
CSGSIZE.IN                                             9.6250 : CASING SIZE 
BITSIZE.IN                                              8.750 : BITSIZE 
CSGD.FT                                                  2642 : CASING BOTTOM (DRILLER) 1 
CSGL.FT                                                  2538 : CASING BOTTOM (LOGGER) 1 
MUD.                                                CUT BRINE : DRILLING FLUID TYPE 
MUDV.CP                                               28.0000 : DRILLING FLUID VISCOSITY 
MUDD.LB/USG                                           10.0000 : DRILLING FLUID DENSITY 
PH.                                                    8.5000 : DRILLING FLUID PH 
MUDS.                                        CIRCULATION TANK : MUD SAMPLE SOURCE 
RM.OHMM                                                0.0610 : RESISTIVITY OF MUD SAMPLE 
RMT.DEGF                                              75.0000 : MUD SAMPLE TEMPERATURE 
RMF.OHMM                                               0.0610 : MUD FILTRATE RESISTIVITY 
RMFT.DEGF                                             75.0000 : MUD FILTRATE SAMPLE TEMPERATURE
#___________________________________________________________________________________________________ 
~CURVE INFORMATION 
# MNEM.UNIT           : CURVE DESCRIPTION 
#-----.-----          : ----------------------------- 
 DEPT.FT               : MEASURED DEPTH 
 CALI.IN               : CALIPER (CALIPER) 
 GR.API                : GAMMA RAY (GAMMA RAY) 
 DT.US/FT              : SONIC DELTA TRANSIT TIME (DELTA T) 
 SPHI.V/V              : SONIC POROSITY (SONIC POROSITY) 
 #___________________________________________________________________________________________________ 
~A         DEPT           CALI             GR             DT           SPHI
# ...
         4120.0         10.770         68.260         73.490        0.18000
         4120.5         10.750         70.660         73.560        0.18000
         4121.0         10.720         70.760         73.680        0.18000
         4121.5         10.700         70.970         73.490        0.18000
         4122.0         10.670         77.230         73.230        0.18000
         4122.5         10.650         83.860         72.970        0.18000
         4123.0         10.590         91.810         72.640        0.18000
         4123.5         10.540         88.750         72.060        0.17000
         4124.0         10.480         80.800         71.420        0.17000
         4124.5         10.460         73.040         70.790        0.16000
         4125.0         10.440         66.710         70.170        0.16000
         4125.5         10.420         64.000         69.590        0.15000
         4126.0         10.410         62.960         69.180        0.15000
         4126.5         10.400         63.420         69.010        0.15000
         4127.0         10.390         65.480         68.950        0.15000
         4127.5         10.380         67.560         69.020        0.15000
         4128.0         10.370         68.760         69.320        0.16000
         4128.5         10.370         69.120         70.010        0.16000
         4129.0         10.380         69.290         71.120        0.17000
         4129.5         10.380         70.960         71.990        0.17000
         4130.0         10.390         72.420         71.860        0.17000
         4130.5         10.400         69.590         70.390        0.16000
         4131.0         10.400         63.130         69.220        0.15000
         4131.5         10.410         56.730         68.010        0.14000
         4132.0         10.350         52.400         67.750        0.15000
         4132.5         10.280         50.560         68.890        0.15000
         4133.0         10.220         51.340         69.560        0.16000
         4133.5         10.200         54.380         68.990        0.15000
         4134.0         10.190         56.030         66.710        0.13000
         4134.5         10.170         55.890         64.420        0.11000
         4135.0         10.160         51.870         63.010        0.11000
         4135.5         10.150         47.760         64.090        0.11000
         4136.0         10.140         46.800         66.020        0.13000
         4136.5         10.120         46.910         67.970        0.14000
         4137.0         10.110         45.680         69.320        0.15000
         4137.5         10.110         44.780         69.710        0.16000
         4138.0         10.110         44.650         70.140        0.16000
         4138.5         10.120         44.940         70.570        0.16000
         4139.0         10.130         45.160         70.950        0.16000
         4139.5         10.140         44.700         70.890        0.16000
         4140.0         10.150         44.500         70.630        0.16000
         4140.5         10.150         45.850         70.130        0.16000
         4141.0         10.160         48.870         68.680        0.15000
         4141.5         10.160         50.790         66.410        0.13000
         4142.0         10.130         50.360         64.140        0.11000
         4142.5         10.100         46.500         62.140        0.10000
         4143.0         10.080         45.760         63.210        0.11000
         4143.5         10.090         47.010         65.290        0.13000
         4144.0         10.130         47.860         67.380        0.14000
         4144.5         10.160         46.100         68.010        0.14000
         4145.0         10.190         43.850         68.010        0.14000
         4145.5         10.220         42.080         68.010        0.14000
         4146.0         10.220         40.460         67.840        0.14000
         4146.5         10.230         40.160         67.390        0.14000
         4147.0         10.270         41.010         66.940        0.13000
         4147.5         10.300         44.960         66.770        0.13000
         4148.0         10.340         48.870         67.620        0.15000
         4148.5         10.370         51.560         69.920        0.16000
         4149.0         10.400         51.000         71.770        0.18000
         4149.5         10.420         50.180         72.420        0.18000
         4150.0         10.440         49.350         72.400        0.18000
         4150.5         10.460         50.040         72.350        0.18000
         4151.0         10.480         52.050         72.540        0.18000
         4151.5         10.500         54.060         73.080        0.18000
         4152.0         10.520         54.090         73.620        0.18000
         4152.5         10.540         52.420         73.520        0.18000
         4153.0         10.540         50.730         72.480        0.17000
         4153.5         10.540         48.820         70.590        0.16000
         4154.0         10.530         46.040         68.060        0.14000
         4154.5         10.530         43.140         66.470        0.13000
         4155.0         10.530         41.730         67.670        0.14000
         4155.5         10.530         43.440         69.740        0.16000
         4156.0         10.530         48.450         71.800        0.18000
         4156.5         10.520         53.470         73.550        0.18000
         4157.0         10.520         58.550         73.480        0.18000
         4157.5         10.520         63.690         73.030        0.18000
         4158.0         10.510         65.170         72.580        0.17000
         4158.5         10.500         58.670         72.180        0.17000
         4159.0         10.480         52.610         72.130        0.17000
         4159.5         10.470         51.470         72.080        0.17000
         4160.0         10.470         54.790         71.760        0.17000
         4160.5         10.470         59.030         71.010        0.16000
         4161.0         10.470         61.450         68.780        0.14000
         4161.5         10.430         58.710         66.740        0.13000
         4162.0         10.380         56.520         65.600        0.13000
         4162.5         10.340         57.620         66.000        0.14000
         4163.0         10.300         62.720         67.250        0.14000
         4163.5         10.280         67.730         68.500        0.15000
         4164.0         10.270         70.780         69.470        0.16000
         4164.5         10.270         69.670         70.150        0.16000
         4165.0         10.270         67.540         70.840        0.17000
         4165.5         10.260         62.470         71.600        0.17000
         4166.0         10.260         57.400         71.600        0.17000
         4166.5         10.260         52.640         70.760        0.16000
         4167.0         10.250         50.700         69.840        0.15000
         4167.5         10.240         50.020         69.060        0.15000
         4168.0         10.220         49.290         69.560        0.16000
         4168.5         10.210         48.260         70.230        0.16000
         4169.0         10.200         47.740         70.700        0.16000
         4169.5         10.190         48.740         70.400        0.16000
         4170.0         10.200         48.900         68.750        0.14000
         4170.5         10.200         45.680         66.880        0.13000
         4171.0         10.210         42.520         65.130        0.12000
         4171.5         10.210         39.580         64.260        0.12000
         4172.0         10.220         39.880         64.230        0.13000
         4172.5         10.220         41.540         65.730        0.14000
