###############################################
##         ENVERUS                           ##
##         ESS - Open Hole                   ##
##         PERMIAN / DELAWARE                ##
##         Nov 04 2023  V4.0                 ##
##         42-389-32421-01-00                ##
###############################################
## Copyright 2017-2023  ENVERUS.  All Rights Reserved. 
## Confidential - Property of ENVERUS, use governed by terms and 
## conditions found within the existing Information Services Subscription Agreement 
## (as may be amended, the “ISSA”) between Customer and ENVERUS. 
## 
~VERSION INFORMATION
# MNEM.UNIT                               DATA : DESCRIPTION OF MNEMONIC
#-----.-----     ----------------------------- : -----------------------------
VERS.                                     2.00 : CWLS LOG ASCII STANDARD - VERSION 2.00
WRAP.                                       NO : MULTIPLE LINES PER DEPTH STEP
VEND.                                  ENVERUS : VENDOR
TYPE.                          ESS - OPEN HOLE : ENVERUS ESSENTIAL CURVES – ACCESSIBLE THROUGH ENVERUS PRISM(TM)
DOC.                                  51227099 : ENVERUS HEADER RAW DOCUMENT ID
#___________________________________________________________________________________________________ 
~WELL INFORMATION 
# zrraAS4ibxVPgm4F4FjILRFQbgMcjf5VKWH9QXz9oP+5l3DBeEvHFHP9dTNjNwXm2+WMaTXZz7qhRLDoyN0AVg== 
# MNEM.UNIT                                              DATA : DESCRIPTION OF MNEMONIC 
#-----.-----                    ----------------------------- : ----------------------------- 
CNTY.                                                  REEVES : COUNTY 
STATE.                                                  TEXAS : STATE 
CNTRY.                                                    USA : COUNTRY 
API.                                             42-389-32421 : API (10 Digit) 
API_14.                                    42-389-32421-01-00 : API (14 Digits) 
API_14_std.                                 42-389-32421-0100 : API (14 Digits Standard) 
UWI.                                           42389324210100 : UNIQUE WELL ID 
WELL.                                      ARMSTRONG STATE #1 : WELL NAME
STRT.FT                                                2000.0 : START DEPTH
STOP.FT                                               14700.0 : STOP DEPTH
STEP.FT                                                   0.5 : STEP BETWEEN DEPTHS
NULL.                                                 -999.25 : NULL VALUE
COMP.                                   BULLDOG OPERATING CO. : COMPANY 
FLD.                                                  WILDCAT : FIELD 
LOC.                                                3-59-2778 : LOCATION 
SRVC.                                            SCHLUMBERGER : SERVICE COMPANY 
DATE.                                              08/28/2006 : DATE 
PREV_APII.                                       423893242100 : API NUMBER 
PREV_UWI.                                        423893242100 : UWI NUMBER 
TVD.                                                       NO : TVD FLAG
#___________________________________________________________________________________________________ 
~PARAMETER INFORMATION 
# MNEM.UNIT                                              DATA : DESCRIPTION OF MNEMONIC 
#-----.-----                    ----------------------------- : ----------------------------- 
RUN.                                                      ONE : RUN NUMBER 
PDAT.                                                      GL : PERMANENT DATUM 
EPD.FT                                              3134.8000 : ELEVATION OF PERM. DATUM 
LMF.                                            KELLY BUSHING : LOG MEASURED FROM 
EKB.FT                                              3157.8000 : ELEVATION OF KELLY BUSHING 
DF.FT                                               3156.8000 : ELEVATION OF DERRICK FLOOR 
GL.FT                                               3134.8000 : ELEVATION OF GROUND LEVEL 
TD.FT                                              14700.0000 : TOTAL DEPTH 
BHT.DEGF                                               230.00 : BOTTOM HOLE TEMPERATURE 
BLI.FT                                             14700.0000 : BOTTOM LOG INTERVAL 
CSGSIZE.IN                                             9.6250 : CASING SIZE 
BITSIZE.IN                                              8.750 : BITSIZE 
CSGD.FT                                                  2014 : CASING BOTTOM (DRILLER) 1 
CSGL.FT                                                  2014 : CASING BOTTOM (LOGGER) 1 
MUD.                                                    BRINE : DRILLING FLUID TYPE 
MUDV.CP                                               31.0000 : DRILLING FLUID VISCOSITY 
MUDD.LB/USG                                            9.3000 : DRILLING FLUID DENSITY 
FL.ML/30MIN                                           13.0000 : DRILLING FLUID LOSS 
PH.                                                   10.0000 : DRILLING FLUID PH 
MUDS.                                        CIRCULATION TANK : MUD SAMPLE SOURCE 
RM.OHMM                                                0.0540 : RESISTIVITY OF MUD SAMPLE 
RMT.DEGF                                              90.0000 : MUD SAMPLE TEMPERATURE 
RMF.OHMM                                               0.0640 : MUD FILTRATE RESISTIVITY 
RMFT.DEGF                                             80.0000 : MUD FILTRATE SAMPLE TEMPERATURE
#___________________________________________________________________________________________________ 
~CURVE INFORMATION 
# MNEM.UNIT           : CURVE DESCRIPTION 
#-----.-----          : ----------------------------- 
 DEPT.FT               : MEASURED DEPTH 
 DT.US/FT              : SONIC DELTA TRANSIT TIME (DELTA T) 
 SPHI.V/V              : SONIC POROSITY (SONIC POROSITY) 
 #___________________________________________________________________________________________________ 
~A         DEPT             DT           SPHI
# ...
         3653.0         81.848        0.25100
         3653.5         81.882        0.25100
         3654.0         81.917        0.25100
         3654.5         81.951        0.25100
         3655.0         81.736        0.25000
         3655.5         81.520        0.24800
         3656.0         81.347        0.24800
         3656.5         81.465        0.24900
         3657.0         81.562        0.25000
         3657.5         81.662        0.25100
         3658.0         81.743        0.24800
         3658.5         80.770        0.24300
         3659.0         79.952        0.23800
         3659.5         79.135        0.23300
         3660.0         79.746        0.23700
         3660.5         80.356        0.24200
         3661.0         80.967        0.24600
         3661.5         81.578        0.25100
         3662.0         82.189        0.25500
         3662.5         82.606        0.25600
         3663.0         82.707        0.25700
         3663.5         82.690        0.25700
         3664.0         82.499        0.25600
         3664.5         82.308        0.25400
         3665.0         82.117        0.25300
         3665.5         81.927        0.25100
         3666.0         81.739        0.25000
         3666.5         81.551        0.24800
         3667.0         81.363        0.24700
         3667.5         81.175        0.24500
         3668.0         80.949        0.24400
         3668.5         81.228        0.24700
         3669.0         81.577        0.25000
         3669.5         81.925        0.25300
         3670.0         82.273        0.25500
         3670.5         82.621        0.25800
         3671.0         82.608        0.25700
         3671.5         82.354        0.25600
         3672.0         82.151        0.25400
         3672.5         81.640        0.25200
         3673.0         81.216        0.24800
         3673.5         80.792        0.24500
         3674.0         80.365        0.24200
         3674.5         79.940        0.23800
         3675.0         80.128        0.23800
         3675.5         80.317        0.24000
         3676.0         80.543        0.24300
         3676.5         80.031        0.23900
         3677.0         79.391        0.23500
         3677.5         78.751        0.23000
         3678.0         78.110        0.22600
         3678.5         77.626        0.22100
         3679.0         77.374        0.21800
         3679.5         77.123        0.21500
         3680.0         76.922        0.21400
         3680.5         75.865        0.20500
         3681.0         74.985        0.19600
         3681.5         74.105        0.19800
         3682.0         75.664        0.20800
         3682.5         77.223        0.21900
         3683.0         78.783        0.23000
         3683.5         80.342        0.24000
         3684.0         80.342        0.24200
         3684.5         80.342        0.24100
         3685.0         80.342        0.24000
         3685.5         79.175        0.23500
         3686.0         77.716        0.22200
         3686.5         76.258        0.21000
         3687.0         74.507        0.19800
         3687.5         73.702        0.18900
         3688.0         72.696        0.18400
         3688.5         71.690        0.17900
         3689.0         71.841        0.17900
         3689.5         71.992        0.18000
         3690.0         72.143        0.18100
         3690.5         72.294        0.18200
         3691.0         71.288        0.17800
         3691.5         70.282        0.16900
         3692.0         69.276        0.16100
         3692.5         68.270        0.15300
         3693.0         67.465        0.14700
         3693.5         67.062        0.14500
         3694.0         66.727        0.14400
         3694.5         66.392        0.13600
         3695.0         66.056        0.13500
         3695.5         65.999        0.13800
         3696.0         66.358        0.14000
         3696.5         66.717        0.14200
         3697.0         66.710        0.14000
         3697.5         66.459        0.13900
         3698.0         66.207        0.13900
         3698.5         66.233        0.14000
         3699.0         66.674        0.14100
         3699.5         67.115        0.14500
         3700.0         67.556        0.14800
         3700.5         67.997        0.15100
         3701.0         68.438        0.15500
         3701.5         68.873        0.15500
         3702.0         67.990        0.15000
         3702.5         67.118        0.14200
         3703.0         66.246        0.13200
         3703.5         65.374        0.12900
         3704.0         65.368        0.13100
         3704.5         65.873        0.13400
         3705.0         66.368        0.13700
         3705.5         66.876        0.14000
         3706.0         67.471        0.14700
         3706.5         68.329        0.15300
         3707.0         69.186        0.16000
         3707.5         70.044        0.16600
         3708.0         70.902        0.17300
         3708.5         71.702        0.17900
         3709.0         72.095        0.18100
         3709.5         71.921        0.17800
         3710.0         71.136        0.17200
         3710.5         70.350        0.16600
         3711.0         69.477        0.16000
         3711.5         69.327        0.15900
         3712.0         69.159        0.15800
         3712.5         69.242        0.16200
         3713.0         69.579        0.16500
         3713.5         69.915        0.16900
         3714.0         70.282        0.16500
         3714.5         69.303        0.15800
         3715.0         68.229        0.15200
         3715.5         67.302        0.14500
         3716.0         68.280        0.15600
         3716.5         70.243        0.17200
         3717.0         72.205        0.18200
         3717.5         73.331        0.19100
         3718.0         73.735        0.19200
         3718.5         73.807        0.19200
         3719.0         73.602        0.19100
         3719.5         73.509        0.19100
         3720.0         73.603        0.19100
         3720.5         73.682        0.19000
         3721.0         73.393        0.18900
         3721.5         72.989        0.18800
         3722.0         72.995        0.18700
         3722.5         73.099        0.18700
         3723.0         72.503        0.18300
         3723.5         71.998        0.17800
         3724.0         71.493        0.17700
         3724.5         71.260        0.17600
         3725.0         71.215        0.17600
         3725.5         71.169        0.17500
         3726.0         71.123        0.17400
         3726.5         70.967        0.17300
         3727.0         70.398        0.16900
         3727.5         69.830        0.16500
         3728.0         69.281        0.16100
         3728.5         70.505        0.16800
         3729.0         71.700        0.17600
         3729.5         73.093        0.18400
         3730.0         73.516        0.18900
         3730.5         74.025        0.19300
         3731.0         74.537        0.19600
         3731.5         75.048        0.19900
         3732.0         74.939        0.20000
         3732.5         74.118        0.19700
         3733.0         73.298        0.19100
         3733.5         72.477        0.18400
         3734.0         71.656        0.17700
         3734.5         70.836        0.16900
         3735.0         70.080        0.16700
         3735.5         70.080        0.16400
         3736.0         70.080        0.16500
         3736.5         70.080        0.16500
         3737.0         70.080        0.16600
         3737.5         69.552        0.16200
         3738.0         68.873        0.15100
         3738.5         65.947        0.13800
         3739.0         63.898        0.12100
         3739.5         64.497        0.12500
