###############################################
##         ENVERUS                           ##
##         ESS - Open Hole                   ##
##         PERMIAN / DELAWARE                ##
##         Nov 04 2023  V4.0                 ##
##         42-389-30414-00-00                ##
###############################################
## Copyright 2017-2023  ENVERUS.  All Rights Reserved. 
## Confidential - Property of ENVERUS, use governed by terms and 
## conditions found within the existing Information Services Subscription Agreement 
## (as may be amended, the “ISSA”) between Customer and ENVERUS. 
## 
~VERSION INFORMATION
# MNEM.UNIT                               DATA : DESCRIPTION OF MNEMONIC
#-----.-----     ----------------------------- : -----------------------------
VERS.                                     2.00 : CWLS LOG ASCII STANDARD - VERSION 2.00
WRAP.                                       NO : MULTIPLE LINES PER DEPTH STEP
VEND.                                  ENVERUS : VENDOR
TYPE.                          ESS - OPEN HOLE : ENVERUS ESSENTIAL CURVES – ACCESSIBLE THROUGH ENVERUS PRISM(TM)
DOC.                                  31965441 : ENVERUS HEADER RAW DOCUMENT ID
#___________________________________________________________________________________________________ 
~WELL INFORMATION 
# 4Nagw4FJNzCtYOfTAudVsymR6uv0ccMrNFKiy1Vrqa1gQVNLoB6NNR/Tzdk8H0Jxf2Akv2rjPRKaT9zVNBkTiw== 
# MNEM.UNIT                                              DATA : DESCRIPTION OF MNEMONIC 
#-----.-----                    ----------------------------- : ----------------------------- 
CNTY.                                                  REEVES : COUNTY 
STATE.                                                  TEXAS : STATE 
CNTRY.                                                    USA : COUNTRY 
API.                                             42-389-30414 : API (10 Digit) 
API_14.                                    42-389-30414-00-00 : API (14 Digits) 
API_14_std.                                 42-389-30414-0000 : API (14 Digits Standard) 
UWI.                                           42389304140000 : UNIQUE WELL ID 
WELL.                                            TXL 17-39  2 : WELL NAME
STRT.FT                                                 237.0 : START DEPTH
STOP.FT                                               13872.0 : STOP DEPTH
STEP.FT                                                   0.5 : STEP BETWEEN DEPTHS
NULL.                                                 -999.25 : NULL VALUE
COMP.                          ENDEAVOR ENERGY RESOURCES L.P. : COMPANY
#___________________________________________________________________________________________________ 
~CURVE INFORMATION 
# MNEM.UNIT           : CURVE DESCRIPTION 
#-----.-----          : ----------------------------- 
 DEPT.FT               : MEASURED DEPTH 
 CALI.IN               : CALIPER (CAL - CAL) 
 GR.API                : GAMMA RAY (GR) 
 DT.US/FT              : SONIC DELTA TRANSIT TIME (DT) 
 RESS.OHMM             : SHALLOW INDUCTION RESISTIVITY (ILS - ILS) 
 RESD.OHMM             : DEEP INDUCTION RESISTIVITY (ILD - ILD) 
 #___________________________________________________________________________________________________ 
~A         DEPT           CALI             GR             DT           RESS           RESD
# ...
        13129.0          7.769         20.416         49.937       -999.250        170.743
        13129.5          7.768         19.492         49.915       -999.250        174.060
        13130.0          7.768         18.568         49.893       -999.250        177.377
        13130.5          7.767         17.794         49.870       -999.250        180.693
        13131.0          7.767         17.411         50.070       -999.250        184.010
        13131.5          7.766         17.028         50.354       -999.250        189.990
        13132.0          7.766         16.644         50.639       -999.250        196.746
        13132.5          7.765         16.261         50.923       -999.250        203.501
        13133.0          7.765         15.878         50.892       -999.250        210.256
        13133.5          7.764         15.494         50.833       -999.250        217.181
        13134.0          7.764         15.111         50.774       -999.250        224.508
        13134.5          7.763         14.728         50.715       -999.250        231.836
        13135.0          7.763         14.345         50.656       -999.250        239.164
        13135.5          7.762         13.961         50.597       -999.250        246.491
        13136.0          7.762         15.480         50.538       -999.250        258.347
        13136.5          7.762         18.038         50.478       -999.250        271.218
        13137.0          7.761         20.596         50.419       -999.250        284.089
        13137.5          7.761         23.154         50.360       -999.250        296.959
        13138.0          7.760         25.711         50.370       -999.250        279.902
        13138.5          7.760         28.269         50.605       -999.250        211.879
        13139.0          7.759         30.827         50.840       -999.250        182.143
        13139.5          7.759         33.385         51.075       -999.250        179.579
        13140.0          7.758         31.229         51.310       -999.250        190.085
        13140.5          7.758         28.229         51.545       -999.250        201.552
        13141.0          7.757         25.229         51.267       -999.250        414.025
        13141.5          7.757         22.228         50.711       -999.250        390.264
        13142.0          7.756         19.228         50.155       -999.250        366.504
        13142.5          7.756         16.227         49.599       -999.250        342.744
        13143.0          7.755         14.070         49.043       -999.250        328.932
        13143.5          7.755         14.881         48.487       -999.250        315.478
        13144.0          7.754         16.435         48.481       -999.250        302.024
        13144.5          7.754         20.423         48.632       -999.250        308.039
        13145.0          7.753         24.410         48.784       -999.250        318.921
        13145.5          7.753         28.398         51.379       -999.250        329.803
        13146.0          7.752         32.386         54.880       -999.250        290.463
        13146.5          7.752         36.374         58.381       -999.250        198.856
        13147.0          7.751         40.362         59.895       -999.250        135.246
        13147.5          7.751         44.350         59.386       -999.250        125.141
        13148.0          7.751         41.917         57.048       -999.250         88.397
        13148.5          7.750         35.062         54.644       -999.250         73.801
        13149.0          7.750         28.207         52.239       -999.250         58.035
        13149.5          7.749         21.352         50.116       -999.250         42.270
        13150.0          7.749         14.497         50.762       -999.250         26.505
        13150.5          7.748          8.275         51.408       -999.250         31.531
        13151.0          7.748          8.666         51.504       -999.250         41.675
        13151.5          7.747          9.058         51.476       -999.250         51.818
        13152.0          7.747          9.449         51.447       -999.250         61.961
        13152.5          7.746          9.841         51.418       -999.250         72.104
        13153.0          7.746         10.232         51.389       -999.250        142.555
        13153.5          7.745         10.623         51.517       -999.250        242.203
        13154.0          7.745         11.015         52.205       -999.250        315.402
        13154.5          7.744         11.406         52.893       -999.250        361.855
        13155.0          7.744         11.798         53.581       -999.250        344.838
        13155.5          7.745         12.189         54.269       -999.250        322.664
        13156.0          7.746         12.356         54.834       -999.250        282.573
        13156.5          7.747         12.237         54.720       -999.250        246.418
        13157.0          7.747         12.118         54.606       -999.250        218.321
        13157.5          7.748         11.999         54.492       -999.250        200.811
        13158.0          7.749         11.880         54.377       -999.250        183.446
        13158.5          7.750         11.761         54.263       -999.250        167.188
        13159.0          7.751         11.642         54.149       -999.250        150.931
        13159.5          7.751         11.559         54.142       -999.250        139.812
        13160.0          7.752         11.958         54.407       -999.250        132.149
        13160.5          7.753         12.245         54.672       -999.250        124.485
        13161.0          7.754         12.531         54.937       -999.250        119.442
        13161.5          7.755         12.817         55.202       -999.250        117.970
        13162.0          7.756         13.103         55.466       -999.250        116.498
        13162.5          7.756         13.375         55.731       -999.250        115.026
        13163.0          7.757         13.643         55.996       -999.250        113.553
        13163.5          7.758         13.911         55.940       -999.250        111.076
        13164.0          7.759         14.180         55.420       -999.250        105.746
        13164.5          7.760         14.448         54.900       -999.250        100.416
        13165.0          7.760         14.716         54.380       -999.250         95.519
        13165.5          7.761         14.984         53.876       -999.250         94.974
        13166.0          7.762         15.253         53.570       -999.250         94.429
        13166.5          7.763         15.521         53.264       -999.250         93.884
        13167.0          7.764         16.054         52.953       -999.250         94.974
        13167.5          7.765         17.482         52.405       -999.250        100.298
        13168.0          7.765         18.558         51.856       -999.250        105.621
        13168.5          7.766         19.426         51.307       -999.250        114.812
        13169.0          7.767         20.293         50.759       -999.250        124.723
        13169.5          7.768         21.160         50.210       -999.250        134.634
        13170.0          7.769         22.028         49.662       -999.250        144.545
        13170.5          7.770         22.895         49.534       -999.250        176.290
        13171.0          7.770         23.762         49.641       -999.250        211.003
        13171.5          7.771         24.629         49.747       -999.250        245.715
        13172.0          7.772         26.059         49.854       -999.250        280.428
        13172.5          7.773         31.087         50.205       -999.250        312.356
