###############################################
##         ENVERUS                           ##
##         ESS - Open Hole                   ##
##         PERMIAN / DELAWARE                ##
##         Nov 04 2023  V4.0                 ##
##         42-389-30259-00-00                ##
###############################################
## Copyright 2017-2023  ENVERUS.  All Rights Reserved. 
## Confidential - Property of ENVERUS, use governed by terms and 
## conditions found within the existing Information Services Subscription Agreement 
## (as may be amended, the “ISSA”) between Customer and ENVERUS. 
## 
~VERSION INFORMATION
# MNEM.UNIT                               DATA : DESCRIPTION OF MNEMONIC
#-----.-----     ----------------------------- : -----------------------------
VERS.                                     2.00 : CWLS LOG ASCII STANDARD - VERSION 2.00
WRAP.                                       NO : MULTIPLE LINES PER DEPTH STEP
VEND.                                  ENVERUS : VENDOR
TYPE.                          ESS - OPEN HOLE : ENVERUS ESSENTIAL CURVES – ACCESSIBLE THROUGH ENVERUS PRISM(TM)
DOC.                                  32063127 : ENVERUS HEADER RAW DOCUMENT ID
#___________________________________________________________________________________________________ 
~WELL INFORMATION 
# gPsidqVjAScFWwbHY3NvrhVb9Q0dnpAvxUas8qP1mSjKWoj7hBgJ2nw/4lW9Nf69eTG+8mlPQw3CFq6Jh/Hagw== 
# MNEM.UNIT                                              DATA : DESCRIPTION OF MNEMONIC 
#-----.-----                    ----------------------------- : ----------------------------- 
CNTY.                                                  REEVES : COUNTY 
STATE.                                                  TEXAS : STATE 
CNTRY.                                                    USA : COUNTRY 
API.                                             42-389-30259 : API (10 Digit) 
API_14.                                    42-389-30259-00-00 : API (14 Digits) 
API_14_std.                                 42-389-30259-0000 : API (14 Digits Standard) 
UWI.                                           42389302590000 : UNIQUE WELL ID 
WELL.                                         FORTUNE UNIT  1 : WELL NAME
STRT.FT                                                     0 : START DEPTH
STOP.FT                                               15675.0 : STOP DEPTH
STEP.FT                                                   0.5 : STEP BETWEEN DEPTHS
NULL.                                                 -999.25 : NULL VALUE
COMP.                          SANDRIDGE EXPL. AND PROD.  LLC : COMPANY 
DATE.                                             19-FEB-2007 : LOG DATE
#___________________________________________________________________________________________________ 
~CURVE INFORMATION 
# MNEM.UNIT           : CURVE DESCRIPTION 
#-----.-----          : ----------------------------- 
 DEPT.FT               : MEASURED DEPTH 
 CALI__B.IN            : CALIPER (CAL - CAL) 
 GR__B.API             : GAMMA RAY (GR) 
 DT__B.US/FT           : SONIC DELTA TRANSIT TIME (DT) 
 #___________________________________________________________________________________________________ 
~A         DEPT        CALI__B          GR__B          DT__B
# ...
        10956.0         11.707         99.074         85.830
        10956.5         11.738         96.407         85.784
        10957.0         11.757         98.376         84.839
        10957.5         11.715        100.345         83.961
        10958.0         11.672        102.315         84.217
        10958.5         11.629        104.284         85.221
        10959.0         11.587        106.253         87.819
        10959.5         11.544        108.222         89.803
        10960.0         11.502        105.244         91.442
        10960.5         11.459         99.475         91.860
        10961.0         11.418         96.112         89.915
        10961.5         11.396         94.187         86.874
        10962.0         11.374         92.261         88.695
        10962.5         11.352         90.336         91.672
        10963.0         11.435         91.521         91.672
        10963.5         11.312         92.870         91.064
        10964.0         11.230         92.103         87.555
        10964.5         11.261         90.138         83.160
        10965.0         11.293         89.432         83.519
        10965.5         11.325         90.104         84.668
        10966.0         11.219         90.775         85.268
        10966.5         11.086         87.609         85.820
        10967.0         10.953         80.877         85.796
        10967.5         11.119         81.519         84.928
        10968.0         11.271         85.192         83.292
        10968.5         11.229         83.724         80.544
        10969.0         11.290         81.394         78.074
        10969.5         11.326         79.064         78.761
        10970.0         11.270         82.385         81.354
        10970.5         11.406         86.977         83.948
        10971.0         11.407         90.155         86.542
        10971.5         11.391         86.009         86.958
        10972.0         11.375         81.863         85.860
        10972.5         11.360         77.718         82.754
        10973.0         11.314         73.572         77.048
        10973.5         11.184         69.427         71.881
        10974.0         11.054         71.145         71.716
        10974.5         11.206         80.938         74.919
        10975.0         11.565         90.730         80.735
        10975.5         11.226        100.523         86.546
        10976.0         11.266        110.315         87.858
        10976.5         11.235        108.142         88.292
        10977.0         11.131        101.568         88.726
        10977.5         11.131         94.995         86.488
        10978.0         11.131         88.421         83.556
        10978.5         11.131         81.848         77.918
        10979.0         10.856         76.855         74.992
        10979.5         10.702         89.318         77.066
        10980.0         10.846        101.780         82.145
        10980.5         10.990        110.684         87.821
        10981.0         10.968        106.727         89.830
        10981.5         10.833        102.771         88.139
        10982.0         10.833         99.355         85.823
        10982.5         10.728         96.935         83.506
        10983.0         10.633         98.793         82.841
        10983.5         10.897        101.528         89.460
        10984.0         11.160        103.076         96.046
        10984.5         11.424         96.939         97.689
        10985.0         11.065         90.803         96.274
        10985.5         11.037         84.666         85.566
        10986.0         11.009         78.530         76.913
        10986.5         10.511         72.394         73.260
        10987.0         10.547         72.856         68.446
        10987.5         10.583         76.135         70.812
        10988.0         10.619         84.159         75.215
        10988.5         10.655         92.184         78.044
        10989.0         10.692         99.568         83.179
        10989.5         10.728        101.434         87.474
        10990.0         10.740        100.565         85.414
        10990.5         10.703         96.396         85.332
        10991.0         10.665         94.962         86.112
        10991.5         10.816         93.529         85.776
        10992.0         10.959         93.817         86.763
        10992.5         10.997         94.738         86.906
        10993.0         10.985         95.660         86.109
        10993.5         10.862         96.582         85.303
        10994.0         10.739         95.876         85.257
        10994.5         10.678         96.893         85.434
        10995.0         10.823        100.927         85.418
        10995.5         10.756        104.960         85.932
        10996.0         10.834         99.362         86.849
        10996.5         10.998         93.519         86.684
        10997.0         10.924         87.676         82.972
        10997.5         10.746         81.833         78.499
        10998.0         10.524         78.816         77.287
        10998.5         10.287         80.853         76.075
        10999.0         10.453         84.668         75.054
        10999.5         10.572         86.216         78.332
        11000.0         10.534         94.731         81.611
        11000.5         10.887        105.854         84.769
        11001.0         10.762        105.702         88.879
        11001.5         10.692        103.636         90.031
        11002.0         10.727        100.830         89.321
        11002.5         10.727         98.025         87.087
        11003.0         10.635         95.219         84.548
        11003.5         10.544         92.414         81.940
        11004.0         10.615         90.333         82.913
        11004.5         10.751         90.334         84.792
        11005.0         10.888         88.544         83.393
        11005.5         10.818         86.724         81.072
        11006.0         10.696         84.904         78.969
        11006.5         10.756         83.489         77.433
        11007.0         10.853         86.229         79.706
        11007.5         10.845         86.765         81.387
        11008.0         10.958         86.898         80.912
        11008.5         11.071         88.442         82.840
        11009.0         11.019         90.529         83.352
        11009.5         10.955         92.616         83.963
        11010.0         10.892         97.874         84.649
        11010.5         10.958        105.289         86.558
        11011.0         11.148        105.380         89.601
        11011.5         11.074        100.703         90.165
        11012.0         10.934         96.025         87.844
        11012.5         10.822         93.509         86.605
        11013.0         10.809         96.811         86.914
        11013.5         11.047         98.536         87.839
        11014.0         11.193         94.266         87.875
        11014.5         11.041         89.995         86.333
        11015.0         10.993         85.724         83.854
        11015.5         10.976         90.632         83.667
        11016.0         10.959         96.698         84.989
        11016.5         10.942        102.763         87.310
        11017.0         10.958        108.828         88.905
        11017.5         11.008        111.619         88.852
        11018.0         11.058        104.995         88.291
        11018.5         11.088         98.371         86.817
        11019.0         11.051         91.746         84.657
        11019.5         11.015         85.122         82.935
        11020.0         10.978         78.497         82.490
        11020.5         10.964         77.496         82.466
        11021.0         11.009         77.744         83.012
        11021.5         11.055         78.719         82.890
