###############################################
##         ENVERUS                           ##
##         ESS - Open Hole                   ##
##         PERMIAN / DELAWARE                ##
##         Nov 04 2023  V4.0                 ##
##         42-389-32353-00-00                ##
###############################################
## Copyright 2017-2023  ENVERUS.  All Rights Reserved. 
## Confidential - Property of ENVERUS, use governed by terms and 
## conditions found within the existing Information Services Subscription Agreement 
## (as may be amended, the “ISSA”) between Customer and ENVERUS. 
## 
~VERSION INFORMATION
# MNEM.UNIT                               DATA : DESCRIPTION OF MNEMONIC
#-----.-----     ----------------------------- : -----------------------------
VERS.                                     2.00 : CWLS LOG ASCII STANDARD - VERSION 2.00
WRAP.                                       NO : MULTIPLE LINES PER DEPTH STEP
VEND.                                  ENVERUS : VENDOR
TYPE.                          ESS - OPEN HOLE : ENVERUS ESSENTIAL CURVES – ACCESSIBLE THROUGH ENVERUS PRISM(TM)
DOC.                                  31816014 : ENVERUS HEADER RAW DOCUMENT ID
#___________________________________________________________________________________________________ 
~WELL INFORMATION 
# N6wmpYeOPIEODBGNmaSz+o1WStwpnSM+Mr70h4S2k9wmNhpeTZrfoFyYX6I24xyp8IiB7B51j2C/wpla6NseZQ== 
# MNEM.UNIT                                              DATA : DESCRIPTION OF MNEMONIC 
#-----.-----                    ----------------------------- : ----------------------------- 
CNTY.                                                  REEVES : COUNTY 
STATE.                                                  TEXAS : STATE 
CNTRY.                                                    USA : COUNTRY 
API.                                             42-389-32353 : API (10 Digit) 
API_14.                                    42-389-32353-00-00 : API (14 Digits) 
API_14_std.                                 42-389-32353-0000 : API (14 Digits Standard) 
UWI.                                           42389323530000 : UNIQUE WELL ID 
WELL.                                             DORNFIELD 1 : WELL NAME
STRT.FT                                                 210.0 : START DEPTH
STOP.FT                                               13522.0 : STOP DEPTH
STEP.FT                                                   0.5 : STEP BETWEEN DEPTHS
NULL.                                                 -999.25 : NULL VALUE
LOC.                                                      UNK : LOCATION 
SRVC.                                                     UNK : SERVICE COMPANY
#___________________________________________________________________________________________________ 
~CURVE INFORMATION 
# MNEM.UNIT           : CURVE DESCRIPTION 
#-----.-----          : ----------------------------- 
 DEPT.FT               : MEASURED DEPTH 
 CALI.IN               : CALIPER (CAL - CAL) 
 GR.API                : GAMMA RAY (GR) 
 DT.US/FT              : SONIC DELTA TRANSIT TIME (DT) 
 RESS.OHMM             : SHALLOW INDUCTION RESISTIVITY (ILS - ILS) 
 RESD.OHMM             : DEEP INDUCTION RESISTIVITY (ILD - ILD) 
 DPHI.V/V              : DENSITY POROSITY (DPHI) 
 NPHI.V/V              : NEUTRON POROSITY (NPHI) 
 RHOB.G/CC             : BULK DENSITY (RHOB) 
 #___________________________________________________________________________________________________ 
~A         DEPT           CALI             GR             DT           RESS           RESD           DPHI           NPHI           RHOB
# ...
         4487.5         10.725         62.941         75.865          3.507          4.148        0.09769        0.18138         2.4756
         4488.0         10.720         66.148         75.839          3.533          3.978        0.08809        0.18274         2.4770
         4488.5         10.715         69.355         74.761          3.876          3.832        0.07849        0.17483         2.4838
         4489.0         10.711         72.562         73.682          4.241          4.172        0.06889        0.16798         2.4997
         4489.5         10.706         75.769         72.768          4.605          4.513        0.05929        0.16112         2.5171
         4490.0         10.701         77.681         71.965          4.786          4.854        0.05326        0.15421         2.5345
         4490.5         10.681         78.953         71.162          4.956          5.194        0.04848        0.14685         2.5519
         4491.0         10.638         79.992         70.445          5.127          5.535        0.04370        0.13950         2.5639
         4491.5         10.594         79.958         69.853          5.674          5.876        0.03893        0.14031         2.5722
         4492.0         10.550         78.432         69.260          7.251          7.277        0.03206        0.14834         2.5804
         4492.5         10.517         76.906         68.667          7.395          7.309        0.04367        0.15802         2.5886
         4493.0         10.544         78.591         68.300          7.158          7.274        0.05264        0.16770         2.5818
         4493.5         10.572         83.880         68.017          7.978          7.340        0.06161        0.17021         2.5734
         4494.0         10.600         89.170         67.733         10.833          9.763        0.05492        0.15625         2.5650
         4494.5         10.572         93.755         66.791         13.687         12.187        0.04369        0.14229         2.5566
         4495.0         10.507         96.811         64.178         16.542         14.611        0.02658        0.12833         2.5482
         4495.5         10.443         96.573         61.565         19.396         17.035        0.00121        0.06889         2.5861
         4496.0         10.379         87.789         60.114         34.323         34.590       -0.02362        0.06139         2.6265
         4496.5         10.314         75.392         58.475         55.462         51.059       -0.03854        0.06494         2.6669
         4497.0         10.250         62.995         56.250         76.602         67.527       -0.04352        0.07434         2.6978
         4497.5         10.234         48.155         55.767        105.645         83.995       -0.03921        0.08382         2.7088
         4498.0         10.234         46.421         55.347        101.274        128.929       -0.02693        0.09329         2.7145
         4498.5         10.234         50.396         57.097         67.263         84.557       -0.01466        0.10277         2.6992
         4499.0         10.234         56.084         58.480         44.598         51.295        0.00159        0.10725         2.6675
         4499.5         10.274         61.773         59.523         52.293         48.290        0.01225        0.10725         2.6358
         4500.0         10.313         67.461         60.216         38.331         43.985        0.01020        0.10725         2.6313
         4500.5         10.353         70.240         60.562         24.370         33.588        0.00094        0.10725         2.6366
         4501.0         10.392         68.545         60.796         31.722         30.275       -0.00943        0.10928         2.6419
         4501.5         10.432         67.196         61.030         42.640         33.797       -0.00100        0.11375         2.6472
         4502.0         10.472         68.293         61.718         41.037         31.272        0.00743        0.12390         2.6448
         4502.5         10.511         69.424         63.001         32.211         25.550        0.01586        0.13595         2.6323
         4503.0         10.593         70.417         64.284         23.385         19.966        0.02429        0.14801         2.6199
         4503.5         10.628         71.591         65.567         14.560         14.465        0.02983        0.15202         2.6074
         4504.0         10.663         72.764         66.850         11.283         10.421        0.03327        0.15161         2.5957
         4504.5         10.698         73.766         67.846          9.877          8.858        0.03449        0.15121         2.5926
         4505.0         10.733         74.478         68.151          9.264          9.130        0.03822        0.15132         2.5896
         4505.5         10.768         75.190         68.313          8.858          8.617        0.04601        0.15299         2.5842
         4506.0         10.803         75.901         68.352          8.451          8.103        0.04941        0.15466         2.5772
         4506.5         10.838         74.623         68.258          8.044          7.704        0.04941        0.15632         2.5703
         4507.0         10.873         72.590         68.164          7.879          7.915        0.04248        0.15279         2.5698
         4507.5         10.908         70.557         68.070          7.855          7.993        0.04057        0.14431         2.5753
         4508.0         10.862         72.113         67.438          7.830          7.970        0.04151        0.13584         2.5772
         4508.5         10.809         74.530         66.730          7.852          7.947        0.03949        0.12737         2.5784
         4509.0         10.755         76.946         66.021          8.059          8.068        0.04051        0.11889         2.5801
         4509.5         10.702         76.985         64.517          8.266          8.936        0.03564        0.11042         2.5833
         4510.0         10.649         76.731         62.657          8.806         11.902        0.02628        0.10157         2.5955
         4510.5         10.595         76.477         60.796         26.895         31.443        0.01691        0.09028         2.6079
         4511.0         10.571         72.888         58.935         44.655         50.985        0.00823        0.07900         2.6203
         4511.5         10.568         69.209         57.175         40.828         58.748       -0.00022        0.06852         2.6326
         4512.0         10.558         63.407         56.528         38.454         63.532       -0.00996        0.06359         2.6450
         4512.5         10.549         54.283         55.880         59.007         69.813       -0.02577        0.06173         2.6574
         4513.0         10.540         48.143         55.233         79.560         96.592       -0.04157        0.06356         2.6767
         4513.5         10.530         44.914         54.586        100.113        139.293       -0.04568        0.06294         2.7123
         4514.0         10.521         44.661         54.166        103.057        179.316       -0.04297        0.06233         2.7133
         4514.5         10.512         47.175         53.860         94.381        143.729       -0.04463        0.06172         2.7144
         4515.0         10.502         51.084         53.622         85.706        100.635       -0.05705        0.06241         2.7192
         4515.5         10.493         53.015         53.634         81.822        113.246       -0.06947        0.06368         2.7270
         4516.0         10.484         52.823         53.646         99.868        136.676       -0.07507        0.06496         2.7349
         4516.5         10.474         52.364         53.658        117.913        136.349       -0.07322        0.06623         2.7427
