###############################################
##         ENVERUS                           ##
##         ESS - Open Hole                   ##
##         PERMIAN / DELAWARE                ##
##         Nov 04 2023  V4.0                 ##
##         42-389-30283-00-00                ##
###############################################
## Copyright 2017-2023  ENVERUS.  All Rights Reserved. 
## Confidential - Property of ENVERUS, use governed by terms and 
## conditions found within the existing Information Services Subscription Agreement 
## (as may be amended, the “ISSA”) between Customer and ENVERUS. 
## 
~VERSION INFORMATION
# MNEM.UNIT                               DATA : DESCRIPTION OF MNEMONIC
#-----.-----     ----------------------------- : -----------------------------
VERS.                                     2.00 : CWLS LOG ASCII STANDARD - VERSION 2.00
WRAP.                                       NO : MULTIPLE LINES PER DEPTH STEP
VEND.                                  ENVERUS : VENDOR
TYPE.                          ESS - OPEN HOLE : ENVERUS ESSENTIAL CURVES – ACCESSIBLE THROUGH ENVERUS PRISM(TM)
DOC.                                  32052778 : ENVERUS HEADER RAW DOCUMENT ID
#___________________________________________________________________________________________________ 
~WELL INFORMATION 
# CKTmoz7OsKELnwE/IP0i4B9qEmEewtam1JWnvb6ghWZsYWfxLv+2EOc67unJ6Yof0W+RqImtxqI23GomxkzDLA== 
# MNEM.UNIT                                              DATA : DESCRIPTION OF MNEMONIC 
#-----.-----                    ----------------------------- : ----------------------------- 
CNTY.                                                  REEVES : COUNTY 
STATE.                                                  TEXAS : STATE 
CNTRY.                                                    USA : COUNTRY 
API.                                             42-389-30283 : API (10 Digit) 
API_14.                                    42-389-30283-00-00 : API (14 Digits) 
API_14_std.                                 42-389-30283-0000 : API (14 Digits Standard) 
UWI.                                           42389302830000 : UNIQUE WELL ID 
WELL.                       RANDOLPH  A. T.  ET AL-STATE  1 L : WELL NAME
STRT.FT                                                 155.0 : START DEPTH
STOP.FT                                               15740.0 : STOP DEPTH
STEP.FT                                                   0.5 : STEP BETWEEN DEPTHS
NULL.                                                 -999.25 : NULL VALUE
COMP.                                     RIO PETROLEUM  INC. : COMPANY
#___________________________________________________________________________________________________ 
~CURVE INFORMATION 
# MNEM.UNIT           : CURVE DESCRIPTION 
#-----.-----          : ----------------------------- 
 DEPT.FT               : MEASURED DEPTH 
 CALI__A.IN            : CALIPER (CAL - CAL) 
 GR__A.API             : GAMMA RAY (GR) 
 SP__A.MV              : SPONTANEOUS POTENTIAL (SP) 
 DT__A.US/FT           : SONIC DELTA TRANSIT TIME (DT) 
 RESD__A.OHMM          : DEEP INDUCTION RESISTIVITY (ILD - ILD) 
 NPHI__A.V/V           : NEUTRON POROSITY (NPH - NPH) 
 #___________________________________________________________________________________________________ 
~A         DEPT        CALI__A          GR__A          SP__A          DT__A        RESD__A        NPHI__A
# ...
        11707.0         11.218         60.849        -40.108         68.119          9.946     -999.25000
        11707.5         11.230         59.079        -40.108         68.136          9.765     -999.25000
        11708.0         11.242         60.054        -40.109         69.697          9.598     -999.25000
        11708.5         11.253         61.956        -40.109         71.257          9.715     -999.25000
        11709.0         11.265         63.320        -40.110         71.236          9.832     -999.25000
        11709.5         11.276         62.942        -40.111         71.200          9.948     -999.25000
        11710.0         11.288         62.564        -40.111         71.595         10.023     -999.25000
        11710.5         11.299         61.840        -40.112         72.158         10.070     -999.25000
        11711.0         11.311         60.164        -40.112         72.287         10.118     -999.25000
        11711.5         11.323         58.488        -40.113         70.129         10.244     -999.25000
        11712.0         11.334         56.811        -40.113         67.971         10.395     -999.25000
        11712.5         11.346         56.089        -40.114         67.265         10.546     -999.25000
        11713.0         11.344         56.704        -40.114         67.053         10.697     -999.25000
        11713.5         11.340         57.319        -40.176         68.266         10.848     -999.25000
        11714.0         11.337         58.866        -40.268         70.532         10.988     -999.25000
        11714.5         11.333         60.858        -40.360         69.842         10.834     -999.25000
        11715.0         11.330         62.851        -40.451         70.051         10.681     -999.25000
        11715.5         11.326         64.844        -40.543         71.626         10.461     -999.25000
        11716.0         11.323         66.836        -40.635         73.892          9.898     -999.25000
        11716.5         11.320         68.829        -40.726         76.688          9.335     -999.25000
        11717.0         11.316         68.830        -40.818         79.484          8.929     -999.25000
        11717.5         11.313         67.578        -40.910         78.653          8.649     -999.25000
        11718.0         11.309         66.326        -41.002         77.295          8.370     -999.25000
        11718.5         11.306         65.074        -41.093         75.938          8.090     -999.25000
        11719.0         11.302         64.027        -41.185         74.581          8.002     -999.25000
        11719.5         11.299         64.344        -41.277         73.287          7.960     -999.25000
        11720.0         11.291         64.661        -41.368         72.233          7.986     -999.25000
        11720.5         11.264         64.978        -41.460         71.178          8.250     -999.25000
        11721.0         11.238         65.295        -41.552         69.069          8.513     -999.25000
        11721.5         11.211         60.965        -41.520         63.759          9.465     -999.25000
        11722.0         11.185         54.597        -41.474         58.449         10.771     -999.25000
        11722.5         11.158         48.229        -41.429         56.467         12.078     -999.25000
        11723.0         11.132         44.477        -41.383         56.447         13.384     -999.25000
        11723.5         11.105         44.859        -41.338         58.103         14.690     -999.25000
        11724.0         11.079         49.461        -41.292         61.671         16.242     -999.25000
        11724.5         11.052         54.483        -41.246         65.741         17.824     -999.25000
        11725.0         11.026         59.504        -41.205         69.006         17.415     -999.25000
        11725.5         10.999         64.526        -41.206         72.271         16.830     -999.25000
        11726.0         10.972         69.547        -41.206         73.246         15.670     -999.25000
        11726.5         10.946         68.207        -41.207         72.508         14.499     -999.25000
        11727.0         10.925         66.785        -41.207         69.804         13.622     -999.25000
        11727.5         10.904         65.564        -41.208         67.418         12.744     -999.25000
        11728.0         10.883         64.621        -41.209         68.310         12.177     -999.25000
        11728.5         10.863         67.474        -41.209         69.462         11.672     -999.25000
        11729.0         10.842         70.603        -41.210         72.633         11.167     -999.25000
        11729.5         10.822         73.732        -41.210         75.805         10.856     -999.25000
        11730.0         10.801         71.060        -41.211         72.479         10.646     -999.25000
        11730.5         10.781         62.137        -41.211         67.186         10.436     -999.25000
        11731.0         10.760         52.271        -41.212         58.380         10.511     -999.25000
        11731.5         10.739         42.405        -41.212         54.844         11.700     -999.25000
        11732.0         10.719         40.940        -41.213         57.114         12.890     -999.25000
        11732.5         10.698         44.235        -41.213         60.107         13.459     -999.25000
        11733.0         10.678         49.854        -41.214         62.968         13.998     -999.25000
        11733.5         10.657         55.474        -41.214         65.655         14.537     -999.25000
        11734.0         10.653         61.093        -41.215         68.342         15.076     -999.25000
        11734.5         10.743         66.447        -41.171         69.753         15.615     -999.25000
        11735.0         10.834         63.836        -41.055         70.735         16.154     -999.25000
        11735.5         10.925         61.224        -40.938         71.717         15.477     -999.25000
        11736.0         11.016         61.309        -40.821         72.700         14.258     -999.25000
        11736.5         11.045         61.754        -40.704         73.049         13.040     -999.25000
        11737.0         10.986         58.048        -40.588         67.694         12.564     -999.25000
        11737.5         10.927         54.267        -40.471         62.702         12.298     -999.25000
        11738.0         10.868         50.936        -40.354         62.890         12.032     -999.25000
        11738.5         10.821         50.942        -40.237         67.235         12.012     -999.25000
        11739.0         10.856         53.357        -40.179         67.987         12.145     -999.25000
        11739.5         10.892         55.772        -40.367         68.426         12.279     -999.25000
        11740.0         10.928         58.188        -40.556         70.182         12.413     -999.25000
        11740.5         10.963         60.603        -40.745         71.881         12.546     -999.25000
        11741.0         10.999         60.807        -40.934         71.845         12.680     -999.25000
        11741.5         11.034         58.950        -41.123         71.560         12.557     -999.25000
        11742.0         11.068         57.093        -41.202         70.643         11.892     -999.25000
        11742.5         11.029         58.020        -41.157         70.780         11.227     -999.25000
        11743.0         10.990         59.106        -41.112         71.138         11.041     -999.25000
        11743.5         10.951         60.192        -41.067         67.850         11.505     -999.25000
        11744.0         10.912         58.726        -41.022         64.563         11.968     -999.25000
        11744.5         10.839         55.426        -40.977         62.059         12.437     -999.25000
