#--------------------------------------------------#
#-------------------ENVERUS, INC.------------------#
#------------------WWW.ENVERUS.COM-----------------#
#------------------COPYRIGHT 2020------------------#
#--------------------------------------------------#
#THIS FILE MAY BE USED ONLY IN ACCORDANCE WITH A CURRENT SUBSCRIPTION AGREEMENT BETWEEN
#THE USER AND ENVERUS, INC. NO PART OF THIS FILE MAY BE REPRODUCED, USED, COPIED,
#MODIFIED, PROPAGATED, OR DISTRIBUTED EXCEPT IN ACCORDANCE WITH THE SUBSCRIPTION
#AGREEMENT. UNAUTHORIZED USE OR DISTRIBUTION OF ALL OR ANY PART OF THIS FILE MAY VIOLATE
#COPYRIGHT, TRADEMARK, AND/OR OTHER LAWS AND IS SUBJECT TO CIVIL AS WELL AS CRIMINAL
#SANCTIONS.
#--------------------------------------------------#
#THIS FILE IS PROVIDED "AS-IS" AND ALL WARRANTIES ARE EXPRESSLY DISCLAIMED, WHETHER
#EXPRESS, ORAL, IMPLIED, STATUTORY OR OTHERWISE, INCLUDING ANY IMPLIED WARRANTY OF FITNESS
#FOR A PARTICULAR PURPOSE, MERCHANTABILITY, TITLE OR NON-INFRINGEMENT, AND ANY WARRANTIES
#ARISING BY VIRTUE OF CUSTOM OF TRADE OR COURSE OF DEALING.  FURTHER, ENVERUS, INC.
#AND ITS LICENSORS DO NOT REPRESENT OR WARRANT THAT THIS FILE WILL MEET USER'S
#REQUIREMENTS OR ARE SUITABLE FOR USER'S NEEDS OR THAT THE DATA OR RESULTS PROVIDED IN
#CONJUNCTION THEREWITH ARE CORRECT, ACCURATE, TIMELY OR RELIABLE. THESE DISCLAIMERS SHALL
#APPLY REGARDLESS OF ANY FAILURE OF ESSENTIAL PURPOSE OF ANY LIMITED REMEDY.  SOME
#JURISDICTIONS DO NOT ALLOW THE EXCLUSION OF CERTAIN WARRANTIES SO SOME OF THE ABOVE
#EXCLUSIONS MAY NOT APPLY. IN NO EVENT SHALL ENVERUS, INC. OR ANY OF ITS AFFILIATES
#BE LIABLE UNDER ANY LEGAL THEORY, WHETHER IN TORT (INCLUDING WITHOUT LIMITATION
#NEGLIGENCE), CONTRACT, STRICT LIABILITY, STATUTORY OR OTHERWISE, FOR ANY SPECIAL,
#INCIDENTAL, CONSEQUENTIAL, EXEMPLARY, PUNITIVE OR INDIRECT DAMAGE OF ANY KIND, INCLUDING
#WITHOUT LIMITATION LOSS OF REVENUE, PROFITS, GOODWILL, USE, AND/OR DATA OR THE COST OF
#PROCUREMENT OF SUBSTITUTE GOODS OR SERVICES, EVEN IF APPRISED OF THE POSSIBILITY OF SUCH
#DAMAGES IN ADVANCE.
#--------------------------------------------------#

~VERSION INFORMATION
VERS. 2.0 : CWLS LOG ASCII STANDARD - VERSION 2.0
WRAP.  NO : ONE LINE PER DEPTH STEP
~WELL INFORMATION
#MNEMONIC     .UNIT              VALUE :DESCRIPTION
STRT       .FT                25 :START DEPTH
STOP       .FT                17136 :STOP DEPTH
STEP       .FT                   0.500 :STEP
NULL       .                  -999.250 :NULL
UWI        .              42389302310000 :UNIQUE WELL ID
API        .              42389302310000 :API NUMBER
COMP       .         EDISTO RESOURCES CORPORATION :COMPANY
WELL       .        WIGGINS  ORLA  1 :WELL
DATE       .                            :LOG DATE
~CURVE INFORMATION
#MNEMONIC     .UNIT      API CODE :CURVE DESCRIPTION
DEPTH       .FT                      :MEASURED DEPTH
CAL.INCH        UNKNOWN   :CAL
ILS.OHM        UNKNOWN   :ILS
SP.MV        UNKNOWN   :SP
DT.US/FT        UNKNOWN   :DT
GR.API        UNKNOWN   :GR
ILD.OHM        UNKNOWN   :ILD
~A    DEPTH    CAL    ILS    SP    DT    GR    ILD
# ...
 7745     13.483   27.007   -19.73   63.038   74.771   56.249
 7745.5     13.586   28.12   -19.711   63.101   68.261   61.843
 7746     13.688   28.01   -19.691   61.153   61.751   58.196
 7746.5     13.665   27.079   -19.672   59.205   58.981   54.549
 7747     13.518   26.032   -19.652   57.258   56.758   49.964
 7747.5     13.371   23.532   -19.633   58.781   53.709   39.902
 7748     13.224   21.032   -19.614   62.858   49.351   26.907
 7748.5     13.237   18.532   -19.594   66.935   45.432   23.513
 7749     13.252   16.182   -19.575   69.532   43.754   22.023
 7749.5     13.267   15.63   -19.555   67.588   45.379   23.537
 7750     13.282   15.079   -19.536   65.643   49.064   26.318
 7750.5     13.297   14.133   -19.498   64.862   55.596   23.214
 7751     13.312   11.532   -19.399   67.716   62.34   18.01
 7751.5     13.327   8.931   -19.301   68.837   67.413   11.917
 7752     13.342   8.258   -19.202   69.957   70.261   7.9
 7752.5     13.357   7.605   -19.104   71.078   67.761   7.554
 7753     13.372   7.385   -19.005   72.198   59.866   9.061
 7753.5     13.443   7.685   -18.907   72.673   51.098   10.568
 7754     13.545   7.468   -18.808   71.529   45.712   10.441
 7754.5     13.584   6.085   -18.71   70.386   46.145   7.839
 7755     13.606   4.702   -18.611   67.365   50.573   5.238
 7755.5     13.785   3.319   -18.512   62.937   55.001   2.636
 7756     14.126   1.935   -18.414   58.509   59.43   1.678
 7756.5     14.085   1.685   -18.315   55.609   60.517   1.639
 7757     14.044   1.966   -18.217   56.158   58.153   1.653
 7757.5     14.003   2.724   -18.118   56.707   54.019   2.418
 7758     13.978   3.482   -18.02   57.005   48.729   4.706
 7758.5     14.057   4.423   -17.921   57.5   49.495   6.995
 7759     14.136   5.889   -17.823   58.395   50.435   11.457
 7759.5     14.129   7.356   -17.724   59.29   51.456   16.694
 7760     14.094   8.822   -17.586   60.186   52.478   20.557
 7760.5     14.06   9.868   -17.399   61.081   53.714   23.24
 7761     14.102   10.77   -17.212   61.461   58.949   25.923
 7761.5     14.204   11.673   -17.025   61.112   63.447   28.606
 7762     14.28   12.534   -16.838   60.764   65.326   31.289
 7762.5     14.246   13.358   -16.65   60.415   67.205   34.051
 7763     14.211   14.182   -16.463   62.955   69.084   36.833
 7763.5     14.177   15.007   -16.276   64.402   72.884   39.616
 7764     14.142   16.044   -16.089   64.121   73.766   42.399
 7764.5     14.047   17.689   -15.902   63.796   73.205   45.181
 7765     13.856   19.333   -15.715   62.05   76.499   47.737
 7765.5     13.666   20.842   -15.527   60.304   70.204   45.145
 7766     13.616   20.081   -15.34   59.466   60.687   41.856
 7766.5     13.777   19.319   -15.21   59.684   60.835   38.214
 7767     13.939   18.558   -15.158   61.29   60.982   34.276
 7767.5     14.1   17.797   -15.105   61.292   61.13   32.097
 7768     14.159   17.128   -15.053   62.484   61.044   31.09
 7768.5     13.864   16.493   -15   64.676   60.834   34.513
 7769     13.568   15.858   -14.948   66.17   60.653   43.285
 7769.5     13.273   15.223   -14.895   66.194   61.806   48.411
 7770     13.385   14.081   -14.843   66.217   58.673   43.566
 7770.5     13.532   12.778   -14.79   65.949   55.709   36.421
 7771     13.679   11.474   -14.738   64.716   53.619   27.06
 7771.5     13.759   10.171   -14.685   63.739   53.315   16.584
 7772     13.644   8.867   -14.633   64.191   55.388   9.571
 7772.5     13.53   7.564   -14.58   64.643   54.979   7.192
 7773     13.415   6.26   -14.528   62.729   53.717   6.115
 7773.5     13.327   6.02   -14.497   60.549   48.97   6.318
 7774     13.331   6.952   -14.779   58.369   44.223   7.177
 7774.5     13.335   7.884   -15.061   56.515   40.793   8.11
 7775     13.339   8.428   -15.343   57.049   38.296   9.042
 7775.5     13.343   7.988   -15.625   57.583   35.406   8.682
 7776     13.348   7.547   -15.906   58.117   32.461   7.729
 7776.5     13.383   7.106   -16.188   63.193   32.581   7.062
 7777     13.437   7.56   -16.47   68.522   33.665   7.403
 7777.5     13.491   8.454   -16.752   67.277   35.895   11.113
 7778     13.545   7.649   -17.034   66.337   39.834   12.912
 7778.5     13.533   6.61   -17.316   65.396   43.772   11.281
 7779     13.487   5.562   -17.662   64.455   47.201   9.051
 7779.5     13.441   4.514   -18.007   65.364   50.434   4.832
 7780     13.396   4.363   -18.353   67.073   50.317   4.504
 7780.5     13.35   4.341   -18.699   68.782   49.636   4.387
 7781     13.33   4.32   -19.044   65.686   49.461   4.546
 7781.5     13.313   4.189   -19.39   61.449   49.455   4.516
 7782     13.296   3.776   -19.736   59.899   51.173   3.908
 7782.5     13.28   3.364   -20.081   59.972   53.776   3.396
 7783     13.263   2.951   -20.427   60.044   55.086   3.073
 7783.5     13.272   3.706   -20.905   61.789   50.934   3.043
 7784     13.288   5.105   -21.383   64.098   43.338   4.354
 7784.5     13.303   6.503   -21.861   66.406   39.249   7.271
 7785     13.318   6.91   -22.339   66.2   42.05   10.189
 7785.5     13.334   6.363   -22.817   65.199   45.663   11.621
 7786     13.324   5.817   -23.295   64.198   49.443   10.077
 7786.5     13.305   5.27   -23.773   63.197   54.54   8.201
 7787     13.286   4.724   -24.251   62.196   59.636   5.808
 7787.5     13.267   4.177   -24.729   61.466   64.45   5.128
 7788     13.248   4.478   -25.207   61.365   69.184   5.503
 7788.5     13.229   5.141   -25.552   61.264   68.085   6.548
 7789     13.21   7.741   -25.687   62.598   66.616   12.971
 7789.5     13.191   9.863   -25.822   64.651   72.729   19.883
 7790     13.172   11.985   -25.957   66.704   78.881   26.795
 7790.5     13.154   14.106   -26.091   64.724   82.77   31.785
 7791     13.135   16.228   -26.226   62.598   82.764   37.555
 7791.5     13.116   18.35   -26.361   60.471   82.758   46.132
 7792     13.097   20.472   -26.496   58.345   73.479   50.307
 7792.5     13.078   22.045   -26.631   58.692   67.31   51.699
 7793     13.059   23.143   -26.765   60.809   61.349   53.091
 7793.5     13.04   24.241   -26.9   62.926   55.388   59.348
 7794     13.041   25.104   -26.804   65.043   53.981   65.841
 7794.5     13.062   25.855   -26.582   66.726   57.921   72.127
 7795     13.083   26.606   -26.359   65.794   63.681   78.414
 7795.5     13.104   27.357   -26.137   64.861   69.441   82.167
 7796     13.124   28.108   -25.914   66.846   77.104   81.511
 7796.5     13.23   28.859   -25.692   69.443   84.869   80.856
 7797     13.438   29.231   -25.469   68.063   96.089   80.2
 7797.5     13.646   29.335   -25.247   65.66   108.22   75.797
 7798     13.477   29.439   -25.025   63.444   104.438   70.977
 7798.5     13.279   29.544   -24.802   65.508   99.142   66.157
 7799     13.2   29.648   -24.58   64.662   93.741   63.582
 7799.5     13.121   29.752   -24.357   61.601   89.536   66.636
 7800     13.127   29.857   -24.135   61.133   90.64   70.792
 7800.5     13.155   29.961   -23.956   61.135   91.849   70.142
 7801     13.183   30.065   -23.922   61.136   86.535   69.1
 7801.5     13.21   30.292   -23.889   63.318   84.808   68.058
 7802     13.251   30.884   -23.855   65.543   72.898   65.534
 7802.5     13.77   31.476   -23.822   67.768   76.068   62.74
 7803     13.97   32.068   -23.788   69.992   81.272   65.96
 7803.5     14.079   31.291   -23.755   71.178   86.149   71.518
 7804     14.187   29.836   -23.722   71.372   85.635   77.075
 7804.5     14.296   27.263   -23.688   68.143   85.121   78.234
 7805     14.214   23.569   -23.655   58.895   82.889   74.597
 7805.5     13.712   19.875   -23.621   56.851   75.7   60.298
 7806     13.234   17.446   -23.588   54.807   67.803   42.21
 7806.5     13.268   15.933   -23.554   52.764   57.129   25.667
 7807     13.301   14.42   -23.521   51.167   46.455   21.942
 7807.5     13.279   15.986   -23.487   52.188   35.781   23.111
 7808     13.228   19.024   -23.454   53.744   30.084   30.538
 7808.5     13.177   20.038   -23.421   55.475   30.487   43.563
