#--------------------------------------------------#
#-------------------ENVERUS, INC.------------------#
#------------------WWW.ENVERUS.COM-----------------#
#------------------COPYRIGHT 2020------------------#
#--------------------------------------------------#
#THIS FILE MAY BE USED ONLY IN ACCORDANCE WITH A CURRENT SUBSCRIPTION AGREEMENT BETWEEN
#THE USER AND ENVERUS, INC. NO PART OF THIS FILE MAY BE REPRODUCED, USED, COPIED,
#MODIFIED, PROPAGATED, OR DISTRIBUTED EXCEPT IN ACCORDANCE WITH THE SUBSCRIPTION
#AGREEMENT. UNAUTHORIZED USE OR DISTRIBUTION OF ALL OR ANY PART OF THIS FILE MAY VIOLATE
#COPYRIGHT, TRADEMARK, AND/OR OTHER LAWS AND IS SUBJECT TO CIVIL AS WELL AS CRIMINAL
#SANCTIONS.
#--------------------------------------------------#
#THIS FILE IS PROVIDED "AS-IS" AND ALL WARRANTIES ARE EXPRESSLY DISCLAIMED, WHETHER
#EXPRESS, ORAL, IMPLIED, STATUTORY OR OTHERWISE, INCLUDING ANY IMPLIED WARRANTY OF FITNESS
#FOR A PARTICULAR PURPOSE, MERCHANTABILITY, TITLE OR NON-INFRINGEMENT, AND ANY WARRANTIES
#ARISING BY VIRTUE OF CUSTOM OF TRADE OR COURSE OF DEALING.  FURTHER, ENVERUS, INC.
#AND ITS LICENSORS DO NOT REPRESENT OR WARRANT THAT THIS FILE WILL MEET USER'S
#REQUIREMENTS OR ARE SUITABLE FOR USER'S NEEDS OR THAT THE DATA OR RESULTS PROVIDED IN
#CONJUNCTION THEREWITH ARE CORRECT, ACCURATE, TIMELY OR RELIABLE. THESE DISCLAIMERS SHALL
#APPLY REGARDLESS OF ANY FAILURE OF ESSENTIAL PURPOSE OF ANY LIMITED REMEDY.  SOME
#JURISDICTIONS DO NOT ALLOW THE EXCLUSION OF CERTAIN WARRANTIES SO SOME OF THE ABOVE
#EXCLUSIONS MAY NOT APPLY. IN NO EVENT SHALL ENVERUS, INC. OR ANY OF ITS AFFILIATES
#BE LIABLE UNDER ANY LEGAL THEORY, WHETHER IN TORT (INCLUDING WITHOUT LIMITATION
#NEGLIGENCE), CONTRACT, STRICT LIABILITY, STATUTORY OR OTHERWISE, FOR ANY SPECIAL,
#INCIDENTAL, CONSEQUENTIAL, EXEMPLARY, PUNITIVE OR INDIRECT DAMAGE OF ANY KIND, INCLUDING
#WITHOUT LIMITATION LOSS OF REVENUE, PROFITS, GOODWILL, USE, AND/OR DATA OR THE COST OF
#PROCUREMENT OF SUBSTITUTE GOODS OR SERVICES, EVEN IF APPRISED OF THE POSSIBILITY OF SUCH
#DAMAGES IN ADVANCE.
#--------------------------------------------------#

~VERSION INFORMATION
VERS. 2.0 : CWLS LOG ASCII STANDARD - VERSION 2.0
WRAP. NO : ONE LINE PER DEPTH STEP
~WELL INFORMATION
#MNEMONIC     .UNIT              VALUE :DESCRIPTION
STRT       .FT                2834.00000 :START DEPTH
STOP       .FT                7010.00000 :STOP DEPTH
STEP       .FT                0.50000 :STEP
NULL       .                -999.25000 :NULL VALUE
UWI       .                42389304120000 :UNIQUE WELL ID
API       .                42389304120000 :API NUMBER
COMP       .                 :COMPANY
WELL       .                 :WELL
FLD       .                 :FIELD
LOC       .                 :LOCATION
CNTY       .                 :COUNTY
STAT       .                 :STATE
CTRY       .                 :COUNTRY
SRVC       .                 :SERVICE COMPANY
DATE       .                 :DATE
~CURVE INFORMATION
#MNEMONIC     .UNIT      API CODE :CURVE DESCRIPTION
DEPTH       .FT                      :MEASURED DEPTH
CAL       .IN        UNKNOWN   :CAL
DT       .US/FT        UNKNOWN   :DT
GR       .GAPI        UNKNOWN   :GR
~A    DEPTH    CAL    DT    GR
# ...
6194.50000    13.47874    56.05828    42.86871
6195.00000    13.48072    54.30241    44.39039
6195.50000    13.48271    52.54653    45.89212
6196.00000    13.48469    50.79066    46.37786
6196.50000    13.48667    51.38765    46.86360
6197.00000    13.48865    54.51631    47.34934
6197.50000    13.49064    57.11166    46.56714
6198.00000    13.49262    54.98856    44.40256
6198.50000    13.49460    52.86546    42.23797
6199.00000    13.49658    50.74235    40.07339
6199.50000    13.49857    48.61925    37.90880
6200.00000    13.50055    46.49615    35.74422
6200.50000    13.50253    44.37305    33.57964
6201.00000    13.50451    44.86149    32.28707
6201.50000    13.50650    49.40625    31.23417
6202.00000    13.50848    52.71007    30.18127
6202.50000    13.51046    54.12995    29.12837
6203.00000    13.51244    55.54982    29.19541
6203.50000    13.51443    56.96970    29.94398
6204.00000    13.51641    58.38957    30.69255
6204.50000    13.51839    59.80945    31.44112
6205.00000    13.52037    59.61228    32.18968
6205.50000    13.52235    58.71145    32.93825
6206.00000    13.52434    57.81061    33.68682
6206.50000    13.52632    56.90978    34.43539
6207.00000    13.52830    56.00895    35.00942
6207.50000    13.53028    55.10811    35.51334
6208.00000    13.53227    54.69606    36.01726
6208.50000    13.53710    55.94762    36.52117
6209.00000    13.54275    57.19918    37.02509
6209.50000    13.54841    58.19430    38.21135
6210.00000    13.55407    57.36358    40.40070
6210.50000    13.55973    56.53286    42.59004
6211.00000    13.56539    55.70214    44.77938
6211.50000    13.57105    55.33225    46.96873
6212.00000    13.57671    55.25021    49.15807
6212.50000    13.58237    55.16816    51.34741
6213.00000    13.58803    55.08612    53.53676
6213.50000    13.59369    55.00408    55.72610
6214.00000    13.59935    54.92204    54.26311
6214.50000    13.60501    53.51461    52.61395
6215.00000    13.61067    51.51959    50.96479
6215.50000    13.61633    49.52457    49.31563
6216.00000    13.62199    47.52955    47.66647
6216.50000    13.62765    45.53453    46.01731
6217.00000    13.63331    45.02517    43.24974
6217.50000    13.63897    48.80755    38.52060
6218.00000    13.64463    52.58992    33.79146
6218.50000    13.65029    54.48149    30.21932
6219.00000    13.65595    55.34119    29.96700
6219.50000    13.66161    56.20090    29.71468
6220.00000    13.66727    57.06061    29.46236
6220.50000    13.67293    57.92032    29.21004
6221.00000    13.67859    58.78003    28.95772
6221.50000    13.68425    59.63974    28.70539
6222.00000    13.68991    60.49945    28.92184
6222.50000    13.69557    60.29416    29.64550
6223.00000    13.70123    60.00660    30.36916
6223.50000    13.70688    59.71903    31.09282
6224.00000    13.71255    59.43147    32.51922
6224.50000    13.71820    59.14390    34.58808
6225.00000    13.72386    58.85634    36.65693
6225.50000    13.72952    58.56877    38.72578
6226.00000    13.73518    58.28121    40.08836
6226.50000    13.74084    57.95608    39.63728
6227.00000    13.74650    57.59096    39.18621
6227.50000    13.75216    57.22583    38.73513
6228.00000    13.75782    56.86071    38.28405
6228.50000    13.76348    56.49559    37.83297
6229.00000    13.76914    56.13046    37.93836
6229.50000    13.77480    56.14163    38.98198
6230.00000    13.78046    56.29812    40.02560
6230.50000    13.78612    56.45462    41.06921
6231.00000    13.79178    56.61111    42.11283
6231.50000    13.79744    56.76761    43.15644
6232.00000    13.80310    56.92410    43.10259
6232.50000    13.80876    57.08060    42.58486
6233.00000    13.81442    57.23709    42.06712
6233.50000    13.82008    57.41354    41.54938
6234.00000    13.82574    57.61438    41.03165
6234.50000    13.83140    57.81522    40.51391
6235.00000    13.83296    58.01606    39.99617
6235.50000    13.83303    58.21690    39.47843
6236.00000    13.83310    58.41774    38.96070
6236.50000    13.83316    58.61859    38.48843
6237.00000    13.83323    58.81943    38.29204
6237.50000    13.83329    59.02027    38.09565
6238.00000    13.83336    58.95734    37.89926
6238.50000    13.83343    58.70919    37.70287
6239.00000    13.83349    58.46105    37.50648
6239.50000    13.83356    58.21291    37.31009
6240.00000    13.83362    57.96477    37.54180
6240.50000    13.83369    57.71662    38.49162
6241.00000    13.83375    57.46848    39.44144
6241.50000    13.83382    57.22034    40.39126
6242.00000    13.83389    56.99652    41.34108
6242.50000    13.83395    56.97354    42.29090
6243.00000    13.83402    56.95057    43.24072
6243.50000    13.83408    56.92759    44.19054
6244.00000    13.83415    56.90461    44.02332
6244.50000    13.83421    56.88163    43.78288
6245.00000    13.83428    56.85865    43.54245
6245.50000    13.83435    56.59032    42.64722
6246.00000    13.82906    52.81872    41.56314
6246.50000    13.82204    49.04711    40.47906
6247.00000    13.81502    45.27551    39.39499
6247.50000    13.80800    46.38836    38.31091
6248.00000    13.80098    48.10070    37.22684
6248.50000    13.79396    49.81304    36.14276
6249.00000    13.78694    51.52537    35.05868
6249.50000    13.77992    53.23771    33.97461
6250.00000    13.77290    54.95005    34.20363
6250.50000    13.76588    55.87213    34.44888
6251.00000    13.75887    55.45116    34.69413
6251.50000    13.75185    55.03019    34.93938
6252.00000    13.74483    54.60921    35.18463
6252.50000    13.73781    54.18824    35.42988
6253.00000    13.73079    53.76727    35.67513
6253.50000    13.72377    53.34630    35.92038
6254.00000    13.71675    52.97468    36.16563
6254.50000    13.70973    53.28296    36.62981
6255.00000    13.70271    53.59125    37.22429
6255.50000    13.69569    53.89953    37.81877
6256.00000    13.68867    54.20782    38.41325
6256.50000    13.68165    54.51610    39.00773
6257.00000    13.67464    54.82438    39.60220
6257.50000    13.66762    55.13267    40.19668
6258.00000    13.66060    55.44095    40.15962
6258.50000    13.65354    52.32773    39.62747
6259.00000    13.64278    47.52812    39.09533
6259.50000    13.63201    43.18164    38.56319
6260.00000    13.62125    44.48353    38.03104
6260.50000    13.61048    45.78543    37.49890
6261.00000    13.59972    47.08732    36.96676
6261.50000    13.58896    48.38922    36.43461
6262.00000    13.57819    49.69112    35.90247
6262.50000    13.56743    50.99301    35.37033
6263.00000    13.55666    52.29491    35.80458
6263.50000    13.54590    53.59680    37.05550
6264.00000    13.53514    54.16419    38.30642
6264.50000    13.52437    53.50814    39.55735
6265.00000    13.51361    52.85209    40.80827
6265.50000    13.50284    52.19604    42.05919
6266.00000    13.49208    51.53999    41.78862
6266.50000    13.48132    50.88394    41.34629
6267.00000    13.47055    50.22790    40.90397
6267.50000    13.45979    50.14208    40.46165
6268.00000    13.44902    52.02985    40.01933
6268.50000    13.43826    53.91761    39.57701
6269.00000    13.42749    54.56024    39.13468
6269.50000    13.41673    54.25353    38.69236
6270.00000    13.40597    53.94682    39.52360
6270.50000    13.39520    54.33776    39.76642
6271.00000    13.38444    54.78131    38.53501
6271.50000    13.37367    55.22486    37.30359
6272.00000    13.36291    55.66841    36.07218
6272.50000    13.36409    56.11196    34.84076
6273.00000    13.37189    56.08705    33.60935
6273.50000    13.37968    55.96149    34.63333
6274.00000    13.38748    55.83593    36.04981
6274.50000    13.39527    55.71037    37.46629
6275.00000    13.40307    55.58481    38.88278
6275.50000    13.41086    55.45926    40.29926
6276.00000    13.41866    55.33370    41.71574
6276.50000    13.42646    55.20814    43.13222
6277.00000    13.43425    55.08258    44.54871
6277.50000    13.44205    54.95702    44.20755
6278.00000    13.44984    54.83146    42.86281
6278.50000    13.45764    54.70590    41.51806
6279.00000    13.46543    54.58035    40.17332
6279.50000    13.47323    55.04147    38.82857
