###############################################
##         ENVERUS                           ##
##         ESS - Open Hole                   ##
##         PERMIAN / DELAWARE                ##
##         Nov 02 2023  V4.0                 ##
##         42-301-31112-00-00                ##
###############################################
## Copyright 2017-2023  ENVERUS.  All Rights Reserved. 
## Confidential - Property of ENVERUS, use governed by terms and 
## conditions found within the existing Information Services Subscription Agreement 
## (as may be amended, the “ISSA”) between Customer and ENVERUS. 
## 
~VERSION INFORMATION
# MNEM.UNIT                               DATA : DESCRIPTION OF MNEMONIC
#-----.-----     ----------------------------- : -----------------------------
VERS.                                     2.00 : CWLS LOG ASCII STANDARD - VERSION 2.00
WRAP.                                       NO : MULTIPLE LINES PER DEPTH STEP
VEND.                                  ENVERUS : VENDOR
TYPE.                          ESS - OPEN HOLE : ENVERUS ESSENTIAL CURVES – ACCESSIBLE THROUGH ENVERUS PRISM(TM)
DOC.                                  31879965 : ENVERUS HEADER RAW DOCUMENT ID
#___________________________________________________________________________________________________ 
~WELL INFORMATION 
# p11foxtE5QnwhaJbtzBz2LJF4p4dkL7jzyXNzohJvMqLCglFSJK87xuVm3WB3m+8huK6qzS+fp5X73xeHrMy5w== 
# MNEM.UNIT                                              DATA : DESCRIPTION OF MNEMONIC 
#-----.-----                    ----------------------------- : ----------------------------- 
CNTY.                                                  LOVING : COUNTY 
STATE.                                                  TEXAS : STATE 
CNTRY.                                                    USA : COUNTRY 
API.                                             42-301-31112 : API (10 Digit) 
API_14.                                    42-301-31112-00-00 : API (14 Digits) 
API_14_std.                                 42-301-31112-0000 : API (14 Digits Standard) 
UWI.                                           42301311120000 : UNIQUE WELL ID 
WELL.                                                    JR 1 : WELL NAME
STRT.FT                                                3102.0 : START DEPTH
STOP.FT                                               15993.0 : STOP DEPTH
STEP.FT                                                   0.5 : STEP BETWEEN DEPTHS
NULL.                                                 -999.25 : NULL VALUE
LOC.                                                      UNK : LOCATION 
SRVC.                                                     UNK : SERVICE COMPANY
#___________________________________________________________________________________________________ 
~CURVE INFORMATION 
# MNEM.UNIT           : CURVE DESCRIPTION 
#-----.-----          : ----------------------------- 
 DEPT.FT               : MEASURED DEPTH 
 CALI.IN               : CALIPER (CAL - CAL) 
 GR.API                : GAMMA RAY (GR) 
 DT.US/FT              : SONIC DELTA TRANSIT TIME (DT) 
 #___________________________________________________________________________________________________ 
~A         DEPT           CALI             GR             DT
# ...
         6600.0         15.126         28.901         37.370
         6600.5         15.124         30.624         39.797
         6601.0         15.121         32.315         52.395
         6601.5         15.119         32.984         68.333
         6602.0         15.116         32.272         78.959
         6602.5         15.114         31.409         77.128
         6603.0         15.111         31.617         78.088
         6603.5         15.109         31.261         80.943
         6604.0         15.106         30.037         83.485
         6604.5         15.104         28.813         85.178
         6605.0         15.101         29.618         86.871
         6605.5         15.099         30.762         84.565
         6606.0         15.096         31.636         81.976
         6606.5         15.093         30.913         81.548
         6607.0         15.064         30.190         81.418
         6607.5         15.035         31.620         82.773
         6608.0         15.006         33.370         84.131
         6608.5         14.977         35.120         81.956
         6609.0         14.948         36.870         77.964
         6609.5         14.919         38.620         73.972
         6610.0         14.897         37.793         76.318
         6610.5         14.885         35.284         78.368
         6611.0         14.872         32.774         77.465
         6611.5         14.860         30.265         80.582
         6612.0         14.847         30.497         77.096
         6612.5         14.835         31.180         59.987
         6613.0         14.822         31.695         35.025
         6613.5         14.810         31.857         25.827
         6614.0         14.779         32.019         91.391
         6614.5         14.743         33.414        110.402
         6615.0         14.707         35.940         93.229
         6615.5         14.670         38.465         76.434
         6616.0         14.635         40.661         57.898
         6616.5         14.617         41.508         39.962
         6617.0         14.599         40.461         37.797
         6617.5         14.581         38.929         37.532
         6618.0         14.563         37.247         39.414
         6618.5         14.545         34.977         42.017
         6619.0         14.528         36.502         40.573
         6619.5         14.510         38.026         31.582
         6620.0         14.481         39.550         33.621
         6620.5         14.443         37.841         52.711
         6621.0         14.404         33.035         60.409
         6621.5         14.366         28.228         63.563
         6622.0         14.345         28.135         65.048
         6622.5         14.325         29.843         66.532
         6623.0         14.304         33.368         66.126
         6623.5         14.283         35.437         65.157
         6624.0         14.262         37.343         64.188
         6624.5         14.241         43.024         63.219
         6625.0         14.220         50.148         63.349
         6625.5         14.191         53.799         63.687
         6626.0         14.158         50.877         63.680
         6626.5         14.126         46.501         63.660
         6627.0         14.093         42.125         63.529
         6627.5         14.061         41.034         63.329
         6628.0         14.028         43.373         62.961
         6628.5         13.996         47.236         62.362
         6629.0         13.964         49.462         62.027
         6629.5         13.931         50.556         62.630
         6630.0         13.899         51.269         63.213
         6630.5         13.870         53.035         63.233
         6631.0         13.867         59.695         63.253
         6631.5         13.863         66.478         63.467
         6632.0         13.860         73.262         63.858
         6632.5         13.857         78.282         64.218
         6633.0         13.854         77.574         63.307
         6633.5         13.851         72.182         62.396
         6634.0         13.847         64.737         62.127
         6634.5         13.844         60.744         62.181
         6635.0         13.841         59.867         62.236
         6635.5         13.838         58.990         62.314
         6636.0         13.835         61.753         62.761
         6636.5         13.832         64.852         63.754
         6637.0         13.835         67.856         64.765
         6637.5         13.839         67.675         64.566
         6638.0         13.842         67.495         64.290
         6638.5         13.846         67.752         64.071
         6639.0         13.849         68.463         64.289
         6639.5         13.853         66.683         63.703
         6640.0         13.856         60.253         62.462
         6640.5         13.860         45.777         61.222
         6641.0         13.863         40.735         60.947
         6641.5         13.867         40.296         61.340
         6642.0         13.870         42.270         61.817
         6642.5         13.874         50.110         62.294
         6643.0         13.877         57.951         63.541
         6643.5         13.881         65.791         64.975
         6644.0         13.884         72.339         66.408
         6644.5         13.888         72.404         66.575
         6645.0         13.891         66.803         65.643
         6645.5         13.894         59.407         65.254
         6646.0         13.898         52.011         64.995
         6646.5         13.901         44.922         64.735
         6647.0         13.905         44.574         63.651
         6647.5         13.908         45.224         62.552
         6648.0         13.912         45.881         61.454
         6648.5         13.915         43.368         60.356
         6649.0         13.919         39.002         59.257
         6649.5         13.922         34.636         58.276
         6650.0         13.926         31.765         57.902
         6650.5         13.929         32.286         57.529
         6651.0         13.933         36.011         59.801
         6651.5         13.936         40.912         62.037
         6652.0         13.940         45.813         62.375
         6652.5         13.943         48.176         62.492
         6653.0         13.943         48.533         62.250
         6653.5         13.940         46.945         57.735
         6654.0         13.937         43.008         58.715
         6654.5         13.934         39.036         80.198
         6655.0         13.932         34.813         89.634
         6655.5         13.929         31.455         77.525
         6656.0         13.926         31.650         59.120
         6656.5         13.923         33.807         63.598
         6657.0         13.921         36.469         65.835
         6657.5         13.918         39.131         66.495
         6658.0         13.915         41.793         66.428
         6658.5         13.912         43.117         75.808
         6659.0         13.909         43.150         86.135
         6659.5         13.907         43.183         78.060
         6660.0         13.891         44.163         80.424
         6660.5         13.866         45.384         85.867
         6661.0         13.841         46.606         84.144
         6661.5         13.816         48.448         73.215
         6662.0         13.791         52.624         67.846
         6662.5         13.766         55.675         64.532
         6663.0         13.742         56.840         65.032
         6663.5         13.717         56.553         63.927
         6664.0         13.710         56.078         61.920
         6664.5         13.705         54.331         62.364
         6665.0         13.699         51.303         62.808
         6665.5         13.694         46.326         63.134
