###############################################
##         ENVERUS                           ##
##         ESS - Open Hole                   ##
##         PERMIAN / DELAWARE                ##
##         Nov 02 2023  V4.0                 ##
##         42-301-31112-00-00                ##
###############################################
## Copyright 2017-2023  ENVERUS.  All Rights Reserved. 
## Confidential - Property of ENVERUS, use governed by terms and 
## conditions found within the existing Information Services Subscription Agreement 
## (as may be amended, the “ISSA”) between Customer and ENVERUS. 
## 
~VERSION INFORMATION
# MNEM.UNIT                               DATA : DESCRIPTION OF MNEMONIC
#-----.-----     ----------------------------- : -----------------------------
VERS.                                     2.00 : CWLS LOG ASCII STANDARD - VERSION 2.00
WRAP.                                       NO : MULTIPLE LINES PER DEPTH STEP
VEND.                                  ENVERUS : VENDOR
TYPE.                          ESS - OPEN HOLE : ENVERUS ESSENTIAL CURVES – ACCESSIBLE THROUGH ENVERUS PRISM(TM)
DOC.                                  31879965 : ENVERUS HEADER RAW DOCUMENT ID
#___________________________________________________________________________________________________ 
~WELL INFORMATION 
# p11foxtE5QnwhaJbtzBz2LJF4p4dkL7jzyXNzohJvMqLCglFSJK87xuVm3WB3m+8huK6qzS+fp5X73xeHrMy5w== 
# MNEM.UNIT                                              DATA : DESCRIPTION OF MNEMONIC 
#-----.-----                    ----------------------------- : ----------------------------- 
CNTY.                                                  LOVING : COUNTY 
STATE.                                                  TEXAS : STATE 
CNTRY.                                                    USA : COUNTRY 
API.                                             42-301-31112 : API (10 Digit) 
API_14.                                    42-301-31112-00-00 : API (14 Digits) 
API_14_std.                                 42-301-31112-0000 : API (14 Digits Standard) 
UWI.                                           42301311120000 : UNIQUE WELL ID 
WELL.                                                    JR 1 : WELL NAME
STRT.FT                                                3102.0 : START DEPTH
STOP.FT                                               15993.0 : STOP DEPTH
STEP.FT                                                   0.5 : STEP BETWEEN DEPTHS
NULL.                                                 -999.25 : NULL VALUE
LOC.                                                      UNK : LOCATION 
SRVC.                                                     UNK : SERVICE COMPANY
#___________________________________________________________________________________________________ 
~CURVE INFORMATION 
# MNEM.UNIT           : CURVE DESCRIPTION 
#-----.-----          : ----------------------------- 
 DEPT.FT               : MEASURED DEPTH 
 CALI.IN               : CALIPER (CAL - CAL) 
 GR.API                : GAMMA RAY (GR) 
 DT.US/FT              : SONIC DELTA TRANSIT TIME (DT) 
 #___________________________________________________________________________________________________ 
~A         DEPT           CALI             GR             DT
# ...
        13398.0       -999.250         88.597         90.419
        13398.5       -999.250         89.114         90.437
        13399.0       -999.250         90.915         90.570
        13399.5       -999.250         91.214         88.899
        13400.0       -999.250         91.693         86.422
        13400.5       -999.250         92.660         83.946
        13401.0       -999.250         93.626         85.094
        13401.5       -999.250         94.593         87.729
        13402.0       -999.250         96.983         90.364
        13402.5       -999.250         99.644         92.999
        13403.0       -999.250        102.078         94.119
        13403.5       -999.250        101.936         93.531
        13404.0       -999.250        101.395         92.779
        13404.5       -999.250        100.593         92.027
        13405.0       -999.250         97.626         92.715
        13405.5       -999.250         93.670         93.747
        13406.0       -999.250         91.590         93.623
        13406.5       -999.250         90.193         93.386
        13407.0       -999.250         88.734         93.150
        13407.5       -999.250         88.717         93.308
        13408.0       -999.250         91.495         93.727
        13408.5       -999.250         94.310         94.146
        13409.0       -999.250         97.124         93.806
        13409.5       -999.250         98.644         93.399
        13410.0       -999.250         98.966         93.201
        13410.5       -999.250         96.110         93.323
        13411.0       -999.250         91.336         93.444
        13411.5       -999.250         87.109         93.565
        13412.0       -999.250         89.691         94.394
        13412.5       -999.250         93.253         95.404
        13413.0       -999.250         98.781         95.446
        13413.5       -999.250        104.183         95.487
        13414.0       -999.250        103.911         94.822
        13414.5       -999.250         97.114         91.620
        13415.0       -999.250         88.164         86.731
        13415.5       -999.250         85.109         83.508
        13416.0       -999.250         89.093         82.048
        13416.5       -999.250         92.069         82.840
        13417.0       -999.250         91.734         83.322
        13417.5       -999.250         89.413         83.748
        13418.0       -999.250         87.688         84.275
        13418.5       -999.250         87.205         84.801
        13419.0       -999.250         87.015         85.879
        13419.5       -999.250         87.050         86.404
        13420.0       -999.250         88.817         86.382
        13420.5       -999.250         90.583         86.360
        13421.0       -999.250         91.300         86.822
        13421.5       -999.250         90.295         86.753
        13422.0       -999.250         88.420         86.684
        13422.5       -999.250         86.545         86.615
        13423.0       -999.250         84.670         86.602
        13423.5       -999.250         82.795         87.076
        13424.0       -999.250         81.959         87.032
        13424.5       -999.250         81.544         86.988
        13425.0       -999.250         81.769         86.943
        13425.5       -999.250         81.595         86.899
        13426.0       -999.250         80.682         87.256
        13426.5       -999.250         79.341         87.672
        13427.0       -999.250         78.573         88.089
        13427.5       -999.250         78.922         88.506
        13428.0       -999.250         80.898         88.761
        13428.5       -999.250         84.757         88.626
        13429.0       -999.250         88.615         88.491
        13429.5       -999.250         92.473         88.357
        13430.0       -999.250         94.313         87.794
        13430.5       -999.250         92.642         87.017
        13431.0       -999.250         90.741         87.022
        13431.5       -999.250         89.804         87.250
        13432.0       -999.250         89.413         87.477
        13432.5       -999.250         87.841         87.705
        13433.0       -999.250         85.198         87.933
        13433.5       -999.250         82.555         88.095
        13434.0       -999.250         80.509         88.164
        13434.5       -999.250         80.423         88.326
        13435.0       -999.250         81.221         88.490
        13435.5       -999.250         84.268         88.556
        13436.0       -999.250         87.315         88.504
        13436.5       -999.250         88.709         88.363
        13437.0       -999.250         85.694         88.703
        13437.5       -999.250         82.064         89.323
        13438.0       -999.250         81.956         89.224
        13438.5       -999.250         82.807         89.310
        13439.0       -999.250         82.951         89.651
        13439.5       -999.250         81.959         89.992
        13440.0       -999.250         82.343         90.142
        13440.5       -999.250         85.591         90.082
        13441.0       -999.250         87.487         90.023
        13441.5       -999.250         83.517         89.963
        13442.0       -999.250         77.152         89.904
        13442.5       -999.250         77.013         89.844
        13443.0       -999.250         81.066         89.785
        13443.5       -999.250         86.374         89.777
        13444.0       -999.250         86.975         90.477
        13444.5       -999.250         86.706         91.177
        13445.0       -999.250         88.053         91.877
        13445.5       -999.250         88.457         91.997
        13446.0       -999.250         85.708         91.364
        13446.5       -999.250         84.435         90.730
        13447.0       -999.250         87.594         90.097
        13447.5       -999.250         92.158         90.292
        13448.0       -999.250         93.602         91.323
        13448.5       -999.250         93.080         92.263
        13449.0       -999.250         94.325         92.573
        13449.5       -999.250         98.327         92.883
        13450.0       -999.250        101.347         92.901
        13450.5       -999.250        102.491         92.554
        13451.0       -999.250        100.926         92.207
        13451.5       -999.250         98.873         91.860
        13452.0       -999.250         96.851         91.513
        13452.5       -999.250         94.623         91.295
        13453.0       -999.250         91.722         92.429
        13453.5       -999.250         88.821         93.564
        13454.0       -999.250         89.479         94.698
        13454.5       -999.250         91.577         95.549
        13455.0       -999.250         92.585         95.716
        13455.5       -999.250         91.687         96.083
        13456.0       -999.250         90.624         96.541
        13456.5       -999.250         93.886         96.355
        13457.0       -999.250         99.955         96.239
        13457.5       -999.250        102.813         96.859
        13458.0       -999.250        104.199         97.478
        13458.5       -999.250         99.841         98.097
        13459.0       -999.250         94.814         98.429
        13459.5       -999.250         91.641         98.125
        13460.0       -999.250         92.887         97.691
        13460.5       -999.250         94.772         97.256
        13461.0       -999.250         95.467         95.476
        13461.5       -999.250         93.513         93.498
        13462.0       -999.250         89.252         95.389
        13462.5       -999.250         84.987         97.280
        13463.0       -999.250         82.915         96.328
        13463.5       -999.250         84.111         93.217
