#--------------------------------------------------#
#-------------------ENVERUS, INC.------------------#
#------------------WWW.ENVERUS.COM-----------------#
#------------------COPYRIGHT 2020------------------#
#--------------------------------------------------#
#THIS FILE MAY BE USED ONLY IN ACCORDANCE WITH A CURRENT SUBSCRIPTION AGREEMENT BETWEEN
#THE USER AND ENVERUS, INC. NO PART OF THIS FILE MAY BE REPRODUCED, USED, COPIED,
#MODIFIED, PROPAGATED, OR DISTRIBUTED EXCEPT IN ACCORDANCE WITH THE SUBSCRIPTION
#AGREEMENT. UNAUTHORIZED USE OR DISTRIBUTION OF ALL OR ANY PART OF THIS FILE MAY VIOLATE
#COPYRIGHT, TRADEMARK, AND/OR OTHER LAWS AND IS SUBJECT TO CIVIL AS WELL AS CRIMINAL
#SANCTIONS.
#--------------------------------------------------#
#THIS FILE IS PROVIDED "AS-IS" AND ALL WARRANTIES ARE EXPRESSLY DISCLAIMED, WHETHER
#EXPRESS, ORAL, IMPLIED, STATUTORY OR OTHERWISE, INCLUDING ANY IMPLIED WARRANTY OF FITNESS
#FOR A PARTICULAR PURPOSE, MERCHANTABILITY, TITLE OR NON-INFRINGEMENT, AND ANY WARRANTIES
#ARISING BY VIRTUE OF CUSTOM OF TRADE OR COURSE OF DEALING.  FURTHER, ENVERUS, INC.
#AND ITS LICENSORS DO NOT REPRESENT OR WARRANT THAT THIS FILE WILL MEET USER'S
#REQUIREMENTS OR ARE SUITABLE FOR USER'S NEEDS OR THAT THE DATA OR RESULTS PROVIDED IN
#CONJUNCTION THEREWITH ARE CORRECT, ACCURATE, TIMELY OR RELIABLE. THESE DISCLAIMERS SHALL
#APPLY REGARDLESS OF ANY FAILURE OF ESSENTIAL PURPOSE OF ANY LIMITED REMEDY.  SOME
#JURISDICTIONS DO NOT ALLOW THE EXCLUSION OF CERTAIN WARRANTIES SO SOME OF THE ABOVE
#EXCLUSIONS MAY NOT APPLY. IN NO EVENT SHALL ENVERUS, INC. OR ANY OF ITS AFFILIATES
#BE LIABLE UNDER ANY LEGAL THEORY, WHETHER IN TORT (INCLUDING WITHOUT LIMITATION
#NEGLIGENCE), CONTRACT, STRICT LIABILITY, STATUTORY OR OTHERWISE, FOR ANY SPECIAL,
#INCIDENTAL, CONSEQUENTIAL, EXEMPLARY, PUNITIVE OR INDIRECT DAMAGE OF ANY KIND, INCLUDING
#WITHOUT LIMITATION LOSS OF REVENUE, PROFITS, GOODWILL, USE, AND/OR DATA OR THE COST OF
#PROCUREMENT OF SUBSTITUTE GOODS OR SERVICES, EVEN IF APPRISED OF THE POSSIBILITY OF SUCH
#DAMAGES IN ADVANCE.
#--------------------------------------------------#

~VERSION INFORMATION
VERS. 2.0 : CWLS LOG ASCII STANDARD - VERSION 2.0
WRAP.  NO : ONE LINE PER DEPTH STEP
~WELL INFORMATION
#MNEMONIC     .UNIT              VALUE :DESCRIPTION
STRT       .FT                47 :START DEPTH
STOP       .FT                15730 :STOP DEPTH
STEP       .FT                   0.500 :STEP
NULL       .                  -999.250 :NULL
UWI        .              42389303580000 :UNIQUE WELL ID
API        .              42389303580000 :API NUMBER
COMP       .         CIMAREX ENERGY CO. OF COLORADO :COMPANY
WELL       .        REEVES  AZ  FEE  1 :WELL
DATE       .                08-JAN-2006 :LOG DATE
~CURVE INFORMATION
#MNEMONIC     .UNIT      API CODE :CURVE DESCRIPTION
DEPTH       .FT                      :MEASURED DEPTH
NEUT.API        UNKNOWN   :NEUT
GR.API        UNKNOWN   :GR
DT.US/FT        UNKNOWN   :DT
CAL.INCH        UNKNOWN   :CAL
~A    DEPTH    NEUT    GR    DT    CAL
# ...
 3678     -999.250   57.149   72.685   14.848
 3678.5     -999.250   56.382   72.279   14.771
 3679     -999.250   55.615   70.597   14.695
 3679.5     -999.250   54.849   68.916   14.618
 3680     -999.250   58.53   67.234   14.541
 3680.5     -999.250   62.348   67.754   14.465
 3681     -999.250   66.166   68.349   14.388
 3681.5     -999.250   69.983   68.943   14.392
 3682     -999.250   73.801   69.886   14.398
 3682.5     -999.250   77.885   70.849   14.404
 3683     -999.250   83.841   71.812   14.41
 3683.5     -999.250   80.785   72.776   14.416
 3684     -999.250   76.452   73.739   14.423
 3684.5     -999.250   72.119   74.702   14.429
 3685     -999.250   67.785   75.19   14.435
 3685.5     -999.250   63.452   75.018   14.441
 3686     -999.250   59.119   72.768   14.447
 3686.5     -999.250   55.286   70.517   14.453
 3687     -999.250   55.184   69.784   14.456
 3687.5     -999.250   55.082   70.572   14.451
 3688     -999.250   54.98   70.84   14.445
 3688.5     -999.250   54.878   70.561   14.439
 3689     -999.250   54.606   70.281   14.434
 3689.5     -999.250   54.319   70.565   14.428
 3690     -999.250   54.033   71.54   14.423
 3690.5     -999.250   53.746   72.514   14.417
 3691     -999.250   53.459   73.489   14.411
 3691.5     -999.250   53.172   73.267   14.406
 3692     -999.250   52.886   72.668   14.4
 3692.5     -999.250   52.457   72.069   14.394
 3693     -999.250   51.779   71.534   14.389
 3693.5     -999.250   51.1   72.39   14.383
 3694     -999.250   50.422   73.245   14.378
 3694.5     -999.250   49.744   73.215   14.372
 3695     -999.250   49.066   72.796   14.382
 3695.5     -999.250   48.387   72.377   14.405
 3696     -999.250   47.709   71.959   14.428
 3696.5     -999.250   47.031   72.827   14.451
 3697     -999.250   46.353   74.41   14.474
 3697.5     -999.250   45.675   75.993   14.497
 3698     -999.250   45.613   76.226   14.52
 3698.5     -999.250   46.334   73.34   14.528
 3699     -999.250   47.056   71.754   14.519
 3699.5     -999.250   47.778   74.106   14.511
 3700     -999.250   48.499   74.536   14.528
 3700.5     -999.250   49.221   74.05   14.545
 3701     -999.250   49.942   75.083   14.562
 3701.5     -999.250   50.664   76.116   14.579
 3702     -999.250   51.385   77.149   14.596
 3702.5     -999.250   52.107   77.754   14.613
 3703     -999.250   52.829   78   14.616
 3703.5     -999.250   53.55   78.246   14.559
 3704     -999.250   54.07   78.493   14.502
 3704.5     -999.250   54.073   78.739   14.445
 3705     -999.250   54.075   78.649   14.388
 3705.5     -999.250   54.077   78.491   14.331
 3706     -999.250   54.08   78.334   14.274
 3706.5     -999.250   54.082   77.97   14.218
 3707     -999.250   54.084   77.364   14.161
 3707.5     -999.250   54.087   76.758   14.104
 3708     -999.250   54.089   76.152   14.047
 3708.5     -999.250   54.091   75.546   13.99
 3709     -999.250   54.286   74.938   13.974
 3709.5     -999.250   54.594   74.327   13.962
 3710     -999.250   54.903   73.715   13.951
 3710.5     -999.250   55.212   73.104   13.939
 3711     -999.250   55.52   72.493   13.928
 3711.5     -999.250   55.829   71.882   13.916
 3712     -999.250   56.138   71.271   13.905
 3712.5     -999.250   56.913   71.27   13.893
 3713     -999.250   58.168   71.629   13.882
 3713.5     -999.250   59.422   71.988   13.87
 3714     -999.250   60.677   72.346   13.859
 3714.5     -999.250   61.931   72.705   13.847
 3715     -999.250   63.186   71.829   13.836
 3715.5     -999.250   64.44   70.846   13.824
 3716     -999.250   65.695   70.158   13.813
 3716.5     -999.250   66.659   69.709   13.801
 3717     -999.250   65.33   69.261   13.79
 3717.5     -999.250   64.001   68.813   13.776
 3718     -999.250   62.671   68.365   13.749
 3718.5     -999.250   61.342   68.484   13.723
 3719     -999.250   60.013   68.728   13.697
 3719.5     -999.250   58.684   68.972   13.671
 3720     -999.250   57.354   69.216   13.645
 3720.5     -999.250   56.025   69.459   13.619
 3721     -999.250   54.696   69.703   13.593
 3721.5     -999.250   53.366   68.94   13.567
 3722     -999.250   54.498   67.864   13.541
 3722.5     -999.250   57.243   66.789   13.515
 3723     -999.250   59.989   65.502   13.489
 3723.5     -999.250   62.734   64.13   13.463
 3724     -999.250   65.48   62.758   13.437
 3724.5     -999.250   68.225   61.895   13.411
 3725     -999.250   70.97   62.13   13.385
 3725.5     -999.250   73.716   62.366   13.359
 3726     -999.250   76.461   62.996   13.333
 3726.5     -999.250   79.207   63.863   13.307
 3727     -999.250   78.615   64.73   13.281
 3727.5     -999.250   75.429   65.597   13.255
 3728     -999.250   72.243   66.464   13.229
 3728.5     -999.250   69.057   66.523   13.203
 3729     -999.250   65.871   64.284   13.177
 3729.5     -999.250   62.685   62.044   13.151
 3730     -999.250   62.699   59.941   13.125
 3730.5     -999.250   64.319   58.429   13.099
 3731     -999.250   65.939   56.916   13.093
 3731.5     -999.250   67.559   56.739   13.09
 3732     -999.250   69.178   56.878   13.088
 3732.5     -999.250   70.798   57.017   13.085
 3733     -999.250   72.418   58.07   13.082
 3733.5     -999.250   74.038   59.383   13.079
 3734     -999.250   74.894   60.697   13.077
 3734.5     -999.250   73.855   62.011   13.074
 3735     -999.250   72.817   61.399   13.071
 3735.5     -999.250   71.778   58.248   13.068
 3736     -999.250   70.74   55.096   13.066
 3736.5     -999.250   69.701   53.455   13.063
 3737     -999.250   68.663   54.719   13.06
 3737.5     -999.250   67.624   55.984   13.057
 3738     -999.250   66.586   57.249   13.055
 3738.5     -999.250   63.549   58.513   13.052
 3739     -999.250   60.248   57.253   13.049
 3739.5     -999.250   56.948   55.977   13.046
 3740     -999.250   53.647   54.702   13.044
 3740.5     -999.250   50.365   53.52   13.041
 3741     -999.250   47.137   52.603   13.038
 3741.5     -999.250   43.909   51.686   13.035
 3742     -999.250   40.682   50.769   13.033
 3742.5     -999.250   39.201   49.853   13.03
 3743     -999.250   39.771   49.118   13.027
 3743.5     -999.250   40.342   49.229   13.024
 3744     -999.250   40.913   49.339   13.022
 3744.5     -999.250   41.484   49.449   13.019
 3745     -999.250   45.709   49.559   13.016
 3745.5     -999.250   50.599   49.669   13.013
 3746     -999.250   54.273   49.943   13.011
 3746.5     -999.250   55.603   50.414   13.008
 3747     -999.250   56.933   50.886   13.005
 3747.5     -999.250   58.263   51.358   13.002
 3748     -999.250   59.593   51.83   13
 3748.5     -999.250   60.923   53.649   12.997
 3749     -999.250   62.253   55.922   12.994
 3749.5     -999.250   63.584   57.635   12.991
 3750     -999.250   64.914   58.582   12.989
 3750.5     -999.250   65.751   59.529   13.008
 3751     -999.250   63.064   60.475   13.027
 3751.5     -999.250   60.377   61.471   13.047
 3752     -999.250   57.69   62.54   13.067
 3752.5     -999.250   55.003   63.609   13.086
 3753     -999.250   52.316   64.677   13.106
 3753.5     -999.250   49.629   65.721   13.126
 3754     -999.250   46.942   66.26   13.145
 3754.5     -999.250   48.882   66.8   13.165
 3755     -999.250   50.971   68.853   13.185
 3755.5     -999.250   52.961   70.371   13.204
 3756     -999.250   52.297   69.865   13.224
 3756.5     -999.250   51.632   69.359   13.244
 3757     -999.250   50.968   68.852   13.263
 3757.5     -999.250   50.303   68.346   13.283
 3758     -999.250   49.639   68.879   13.303
 3758.5     -999.250   48.974   69.436   13.322
 3759     -999.250   48.31   69.993   13.342
 3759.5     -999.250   47.645   70.549   13.362
 3760     -999.250   46.981   70.45   13.381
 3760.5     -999.250   46.316   69.935   13.381
 3761     -999.250   46.938   69.42   13.377
 3761.5     -999.250   48.659   68.905   13.372
 3762     -999.250   50.38   68.39   13.368
 3762.5     -999.250   52.101   68.772   13.364
 3763     -999.250   53.822   69.275   13.36
 3763.5     -999.250   55.543   69.779   13.356
