###############################################
##         ENVERUS                           ##
##         ESS - Open Hole                   ##
##         PERMIAN / DELAWARE                ##
##         Nov 04 2023  V4.0                 ##
##         42-389-30414-00-00                ##
###############################################
## Copyright 2017-2023  ENVERUS.  All Rights Reserved. 
## Confidential - Property of ENVERUS, use governed by terms and 
## conditions found within the existing Information Services Subscription Agreement 
## (as may be amended, the “ISSA”) between Customer and ENVERUS. 
## 
~VERSION INFORMATION
# MNEM.UNIT                               DATA : DESCRIPTION OF MNEMONIC
#-----.-----     ----------------------------- : -----------------------------
VERS.                                     2.00 : CWLS LOG ASCII STANDARD - VERSION 2.00
WRAP.                                       NO : MULTIPLE LINES PER DEPTH STEP
VEND.                                  ENVERUS : VENDOR
TYPE.                          ESS - OPEN HOLE : ENVERUS ESSENTIAL CURVES – ACCESSIBLE THROUGH ENVERUS PRISM(TM)
DOC.                                  31965441 : ENVERUS HEADER RAW DOCUMENT ID
#___________________________________________________________________________________________________ 
~WELL INFORMATION 
# 4Nagw4FJNzCtYOfTAudVsymR6uv0ccMrNFKiy1Vrqa1gQVNLoB6NNR/Tzdk8H0Jxf2Akv2rjPRKaT9zVNBkTiw== 
# MNEM.UNIT                                              DATA : DESCRIPTION OF MNEMONIC 
#-----.-----                    ----------------------------- : ----------------------------- 
CNTY.                                                  REEVES : COUNTY 
STATE.                                                  TEXAS : STATE 
CNTRY.                                                    USA : COUNTRY 
API.                                             42-389-30414 : API (10 Digit) 
API_14.                                    42-389-30414-00-00 : API (14 Digits) 
API_14_std.                                 42-389-30414-0000 : API (14 Digits Standard) 
UWI.                                           42389304140000 : UNIQUE WELL ID 
WELL.                                            TXL 17-39  2 : WELL NAME
STRT.FT                                                 237.0 : START DEPTH
STOP.FT                                               13872.0 : STOP DEPTH
STEP.FT                                                   0.5 : STEP BETWEEN DEPTHS
NULL.                                                 -999.25 : NULL VALUE
COMP.                          ENDEAVOR ENERGY RESOURCES L.P. : COMPANY
#___________________________________________________________________________________________________ 
~CURVE INFORMATION 
# MNEM.UNIT           : CURVE DESCRIPTION 
#-----.-----          : ----------------------------- 
 DEPT.FT               : MEASURED DEPTH 
 CALI.IN               : CALIPER (CAL - CAL) 
 GR.API                : GAMMA RAY (GR) 
 DT.US/FT              : SONIC DELTA TRANSIT TIME (DT) 
 RESS.OHMM             : SHALLOW INDUCTION RESISTIVITY (ILS - ILS) 
 RESD.OHMM             : DEEP INDUCTION RESISTIVITY (ILD - ILD) 
 #___________________________________________________________________________________________________ 
~A         DEPT           CALI             GR             DT           RESS           RESD
# ...
        12469.0          7.666         76.201         71.108       -999.250         15.141
        12469.5          7.666         74.910         69.823       -999.250         15.522
        12470.0          7.666         73.620         66.357       -999.250         15.779
        12470.5          7.665         72.329         65.457       -999.250         16.037
        12471.0          7.665         74.642         67.955       -999.250         16.295
        12471.5          7.665         79.488         69.923       -999.250         16.231
        12472.0          7.665         84.334         70.973       -999.250         15.638
        12472.5          7.665         88.189         71.127       -999.250         15.044
        12473.0          7.665         88.489         71.280       -999.250         14.451
        12473.5          7.665         88.789         71.703       -999.250         13.857
        12474.0          7.664         89.089         72.439       -999.250         13.304
        12474.5          7.664         89.388         73.174       -999.250         13.278
        12475.0          7.664         89.688         72.881       -999.250         13.252
        12475.5          7.664         89.988         72.191       -999.250         13.227
        12476.0          7.664         90.288         71.501       -999.250         13.201
        12476.5          7.664         90.625         70.811       -999.250         13.175
        12477.0          7.663         90.986         70.120       -999.250         13.226
        12477.5          7.663         91.346         70.872       -999.250         13.482
        12478.0          7.663         91.706         72.016       -999.250         13.738
        12478.5          7.663         92.067         72.999       -999.250         13.993
        12479.0          7.663         91.180         71.990       -999.250         14.249
        12479.5          7.663         89.311         70.981       -999.250         14.505
        12480.0          7.663         87.442         69.972       -999.250         14.496
        12480.5          7.663         86.419         68.311       -999.250         14.401
        12481.0          7.663         86.939         69.941       -999.250         14.307
        12481.5          7.663         87.459         71.313       -999.250         14.208
        12482.0          7.663         87.979         72.684       -999.250         14.052
        12482.5          7.664         88.499         73.706       -999.250         13.896
        12483.0          7.664         89.019         73.359       -999.250         13.740
        12483.5          7.664         89.323         73.012       -999.250         13.583
        12484.0          7.665         88.751         72.665       -999.250         13.427
        12484.5          7.665         88.179         71.945       -999.250         13.271
        12485.0          7.665         87.607         71.165       -999.250         13.115
        12485.5          7.665         87.034         71.631       -999.250         12.959
        12486.0          7.666         86.504         72.455       -999.250         12.803
        12486.5          7.666         86.051         73.279       -999.250         12.646
        12487.0          7.666         85.599         73.742       -999.250         12.627
        12487.5          7.666         85.146         73.341       -999.250         12.745
        12488.0          7.667         84.694         72.941       -999.250         12.862
        12488.5          7.667         84.242         71.492       -999.250         12.980
        12489.0          7.667         83.789         68.114       -999.250         13.100
        12489.5          7.668         82.624         66.152       -999.250         13.228
        12490.0          7.668         81.141         67.972       -999.250         13.355
        12490.5          7.668         79.658         69.861       -999.250         13.482
        12491.0          7.668         78.176         70.163       -999.250         13.610
        12491.5          7.669         76.693         70.088       -999.250         13.737
        12492.0          7.669         78.162         70.013       -999.250         13.864
        12492.5          7.669         80.065         69.937       -999.250         13.810
        12493.0          7.670         81.969         69.862       -999.250         13.532
        12493.5          7.670         83.873         70.477       -999.250         13.255
        12494.0          7.670         85.776         71.381       -999.250         12.977
        12494.5          7.670         87.294         71.376       -999.250         12.700
        12495.0          7.671         87.269         70.364       -999.250         12.778
        12495.5          7.671         87.244         70.419       -999.250         13.016
        12496.0          7.671         87.219         71.078       -999.250         13.255
        12496.5          7.671         87.194         70.566       -999.250         13.493
        12497.0          7.672         87.169         70.440       -999.250         13.477
        12497.5          7.672         87.144         71.060       -999.250         13.192
        12498.0          7.672         87.120         71.593       -999.250         12.907
        12498.5          7.673         87.095         72.108       -999.250         12.631
        12499.0          7.673         87.070         72.379       -999.250         12.535
        12499.5          7.673         87.045         72.469       -999.250         12.440
        12500.0          7.673         86.086         72.560       -999.250         12.344
        12500.5          7.674         84.797         72.650       -999.250         12.248
        12501.0          7.674         83.508         72.575       -999.250         12.238
        12501.5          7.674         82.219         72.027       -999.250         12.429
        12502.0          7.674         82.856         70.959       -999.250         12.620
        12502.5          7.675         83.527         69.676       -999.250         12.811
        12503.0          7.675         84.198         69.296       -999.250         13.032
        12503.5          7.675         84.869         69.532       -999.250         13.541
        12504.0          7.676         85.540         69.769       -999.250         14.049
        12504.5          7.676         86.108         69.913       -999.250         14.558
        12505.0          7.676         86.211         69.848       -999.250         15.067
        12505.5          7.676         86.314         69.784       -999.250         15.053
        12506.0          7.677         86.418         69.720       -999.250         14.985
        12506.5          7.677         86.521         69.733       -999.250         15.032
        12507.0          7.677         86.624         69.774       -999.250         14.714
        12507.5          7.677         86.728         69.815       -999.250         14.160
        12508.0          7.678         83.978         69.857       -999.250         13.606
        12508.5          7.678         80.354         70.622       -999.250         13.131
        12509.0          7.678         80.732         71.447       -999.250         12.847
        12509.5          7.679         81.110         72.272       -999.250         12.563
        12510.0          7.679         81.488         73.096       -999.250         12.279
        12510.5          7.679         81.910         72.713       -999.250         12.677
        12511.0          7.679         81.907         71.794       -999.250         13.176
        12511.5          7.680         82.499         70.912       -999.250         13.701
        12512.0          7.680         82.592         70.451       -999.250         14.329
        12512.5          7.680         82.589         69.989       -999.250         14.958
