#--------------------------------------------------#
#-------------------ENVERUS, INC.------------------#
#------------------WWW.ENVERUS.COM-----------------#
#------------------COPYRIGHT 2020------------------#
#--------------------------------------------------#
#THIS FILE MAY BE USED ONLY IN ACCORDANCE WITH A CURRENT SUBSCRIPTION AGREEMENT BETWEEN
#THE USER AND ENVERUS, INC. NO PART OF THIS FILE MAY BE REPRODUCED, USED, COPIED,
#MODIFIED, PROPAGATED, OR DISTRIBUTED EXCEPT IN ACCORDANCE WITH THE SUBSCRIPTION
#AGREEMENT. UNAUTHORIZED USE OR DISTRIBUTION OF ALL OR ANY PART OF THIS FILE MAY VIOLATE
#COPYRIGHT, TRADEMARK, AND/OR OTHER LAWS AND IS SUBJECT TO CIVIL AS WELL AS CRIMINAL
#SANCTIONS.
#--------------------------------------------------#
#THIS FILE IS PROVIDED "AS-IS" AND ALL WARRANTIES ARE EXPRESSLY DISCLAIMED, WHETHER
#EXPRESS, ORAL, IMPLIED, STATUTORY OR OTHERWISE, INCLUDING ANY IMPLIED WARRANTY OF FITNESS
#FOR A PARTICULAR PURPOSE, MERCHANTABILITY, TITLE OR NON-INFRINGEMENT, AND ANY WARRANTIES
#ARISING BY VIRTUE OF CUSTOM OF TRADE OR COURSE OF DEALING.  FURTHER, ENVERUS, INC.
#AND ITS LICENSORS DO NOT REPRESENT OR WARRANT THAT THIS FILE WILL MEET USER'S
#REQUIREMENTS OR ARE SUITABLE FOR USER'S NEEDS OR THAT THE DATA OR RESULTS PROVIDED IN
#CONJUNCTION THEREWITH ARE CORRECT, ACCURATE, TIMELY OR RELIABLE. THESE DISCLAIMERS SHALL
#APPLY REGARDLESS OF ANY FAILURE OF ESSENTIAL PURPOSE OF ANY LIMITED REMEDY.  SOME
#JURISDICTIONS DO NOT ALLOW THE EXCLUSION OF CERTAIN WARRANTIES SO SOME OF THE ABOVE
#EXCLUSIONS MAY NOT APPLY. IN NO EVENT SHALL ENVERUS, INC. OR ANY OF ITS AFFILIATES
#BE LIABLE UNDER ANY LEGAL THEORY, WHETHER IN TORT (INCLUDING WITHOUT LIMITATION
#NEGLIGENCE), CONTRACT, STRICT LIABILITY, STATUTORY OR OTHERWISE, FOR ANY SPECIAL,
#INCIDENTAL, CONSEQUENTIAL, EXEMPLARY, PUNITIVE OR INDIRECT DAMAGE OF ANY KIND, INCLUDING
#WITHOUT LIMITATION LOSS OF REVENUE, PROFITS, GOODWILL, USE, AND/OR DATA OR THE COST OF
#PROCUREMENT OF SUBSTITUTE GOODS OR SERVICES, EVEN IF APPRISED OF THE POSSIBILITY OF SUCH
#DAMAGES IN ADVANCE.
#--------------------------------------------------#

~VERSION INFORMATION
VERS. 2.0 : CWLS LOG ASCII STANDARD - VERSION 2.0
WRAP.  NO : ONE LINE PER DEPTH STEP
~WELL INFORMATION
#MNEMONIC     .UNIT              VALUE :DESCRIPTION
STRT       .FT                0 :START DEPTH
STOP       .FT                3396 :STOP DEPTH
STEP       .FT                   0.500 :STEP
NULL       .                  -999.250 :NULL
UWI        .              42389305140000 :UNIQUE WELL ID
API        .              42389305140000 :API NUMBER
COMP       .         SLEDGE BROS. OIL CO. :COMPANY
WELL       .        BOLLINGER  5 :WELL
DATE       .                            :LOG DATE
~CURVE INFORMATION
#MNEMONIC     .UNIT      API CODE :CURVE DESCRIPTION
DEPTH       .FT                      :MEASURED DEPTH
ILS.OHM        UNKNOWN   :ILS
GR.API        UNKNOWN   :GR
DT.US/FT        UNKNOWN   :DT
CAL.INCH        UNKNOWN   :CAL
ILD.OHM        UNKNOWN   :ILD
~A    DEPTH    ILS    GR    DT    CAL    ILD
# ...
 2776     -999.250   4.527   67.068   13.161   -999.250
 2776.5     -999.250   4.852   67.121   13.112   -999.250
 2777     -999.250   4.906   67.276   13.075   -999.250
 2777.5     -999.250   4.288   67.448   13.049   -999.250
 2778     -999.250   3.936   67.517   13.019   -999.250
 2778.5     -999.250   4.167   66.249   12.967   -999.250
 2779     -999.250   4.398   66.331   12.888   -999.250
 2779.5     -999.250   4.629   65.677   12.809   -999.250
 2780     -999.250   4.859   64.839   12.814   -999.250
 2780.5     -999.250   5.09   65.183   12.82   -999.250
 2781     -999.250   5.321   58.621   12.789   -999.250
 2781.5     -999.250   5.552   23.342   12.712   -999.250
 2782     -999.250   5.783   12.303   12.635   -999.250
 2782.5     -999.250   6.013   9.147   12.187   -999.250
 2783     -999.250   6.244   5.99   10.808   -999.250
 2783.5     -999.250   6.13   39.982   9.298   -999.250
 2784     -999.250   5.957   40.034   7.93   -999.250
 2784.5     -999.250   5.784   34.584   7.691   -999.250
 2785     -999.250   5.611   22.172   7.452   -999.250
 2785.5     -999.250   6.877   18.49   7.241   -999.250
 2786     -999.250   8.278   19.316   7.137   -999.250
 2786.5     -999.250   9.63   19.619   7.034   -999.250
 2787     -999.250   9.119   19.398   6.93   -999.250
 2787.5     -999.250   8.608   19.144   6.922   -999.250
 2788     -999.250   8.711   32.407   6.926   -999.250
 2788.5     -999.250   9.161   44.482   6.93   -999.250
 2789     -999.250   9.611   47.739   6.933   -999.250
 2789.5     -999.250   8.122   49.281   6.937   -999.250
 2790     -999.250   6.525   49.258   6.941   -999.250
 2790.5     -999.250   5.394   49.216   6.944   -999.250
 2791     -999.250   5.758   49.125   6.948   -999.250
 2791.5     -999.250   6.121   49.034   6.952   -999.250
 2792     -999.250   6.074   49.004   6.955   -999.250
 2792.5     -999.250   5.805   48.808   6.959   -999.250
 2793     -999.250   5.536   48.747   6.963   -999.250
 2793.5     -999.250   5.268   49.032   6.966   -999.250
 2794     -999.250   5.72   48.561   6.97   -999.250
 2794.5     -999.250   6.646   48.432   6.974   -999.250
 2795     -999.250   7.572   48.436   6.978   -999.250
 2795.5     -999.250   8.079   48.641   6.98   -999.250
 2796     -999.250   7.959   48.846   6.98   -999.250
 2796.5     -999.250   7.944   49.051   6.981   -999.250
 2797     -999.250   8.705   49.198   6.982   -999.250
 2797.5     -999.250   9.465   49.273   6.983   -999.250
 2798     -999.250   8.909   49.348   6.984   -999.250
 2798.5     -999.250   7.611   49.413   6.985   -999.250
 2799     -999.250   6.312   49.252   6.986   -999.250
 2799.5     -999.250   6.091   49.091   6.986   -999.250
 2800     -999.250   8.085   48.929   6.987   -999.250
 2800.5     -999.250   10.08   49.058   6.988   -999.250
 2801     -999.250   10.252   49.22   6.989   -999.250
 2801.5     -999.250   8.895   49.382   6.99   -999.250
 2802     -999.250   7.537   49.544   6.991   -999.250
 2802.5     -999.250   7.665   49.479   6.991   -999.250
 2803     -999.250   8.117   49.378   6.992   -999.250
 2803.5     -999.250   7.798   49.223   6.993   -999.250
 2804     -999.250   6.499   49.068   6.994   -999.250
 2804.5     -999.250   5.2   48.914   6.995   -999.250
 2805     -999.250   4.738   48.765   6.996   -999.250
 2805.5     -999.250   5.033   48.642   6.997   -999.250
 2806     -999.250   5.455   48.542   6.997   -999.250
 2806.5     -999.250   6.262   48.566   6.998   -999.250
 2807     -999.250   7.069   48.53   6.999   -999.250
 2807.5     -999.250   7.876   48.398   7   -999.250
 2808     -999.250   8.683   48.265   7.001   -999.250
 2808.5     -999.250   8.247   48.133   7.002   -999.250
 2809     -999.250   7.683   48   7.003   -999.250
 2809.5     -999.250   7.119   48.039   7.003   -999.250
 2810     -999.250   6.606   48.192   7.004   -999.250
 2810.5     -999.250   6.83   48.345   7.005   -999.250
 2811     -999.250   7.055   48.497   7.006   -999.250
 2811.5     -999.250   6.85   48.65   7.007   -999.250
 2812     -999.250   6.445   48.802   7.008   -999.250
 2812.5     -999.250   6.04   48.912   7.009   -999.250
 2813     -999.250   5.905   49.023   7.009   -999.250
 2813.5     -999.250   6.925   48.995   7.01   -999.250
 2814     -999.250   8.843   48.909   7.011   -999.250
 2814.5     -999.250   10.761   48.822   7.012   -999.250
 2815     -999.250   11.399   48.761   7.013   -999.250
 2815.5     -999.250   10.056   48.762   7.014   -999.250
 2816     -999.250   8.713   48.762   7.015   -999.250
 2816.5     -999.250   7.378   48.763   7.015   -999.250
 2817     -999.250   7.246   48.763   7.016   -999.250
 2817.5     -999.250   7.114   48.69   7.017   -999.250
 2818     -999.250   7.246   48.61   7.018   -999.250
 2818.5     -999.250   7.547   48.53   7.019   -999.250
 2819     -999.250   8.567   48.476   7.022   -999.250
 2819.5     -999.250   9.586   48.51   7.026   -999.250
 2820     -999.250   10.605   48.544   7.031   -999.250
 2820.5     -999.250   10.335   48.578   7.035   -999.250
 2821     -999.250   9.867   48.612   7.039   -999.250
 2821.5     -999.250   9.398   48.646   7.044   -999.250
 2822     -999.250   8.93   48.68   7.048   -999.250
 2822.5     -999.250   8.843   48.714   7.052   -999.250
 2823     -999.250   8.841   48.663   7.057   -999.250
 2823.5     -999.250   8.631   48.554   7.061   -999.250
 2824     -999.250   8.303   48.481   7.065   -999.250
 2824.5     -999.250   7.976   48.506   7.07   -999.250
 2825     -999.250   8.171   48.531   7.074   -999.250
 2825.5     -999.250   8.553   48.556   7.078   -999.250
 2826     -999.250   8.934   48.581   7.082   -999.250
 2826.5     -999.250   9.316   48.606   7.087   -999.250
 2827     -999.250   9.698   48.631   7.091   -999.250
 2827.5     -999.250   10.402   48.76   7.095   -999.250
 2828     -999.250   12.243   49.112   7.1   -999.250
 2828.5     -999.250   16.816   49.46   7.104   -999.250
 2829     -999.250   16.861   49.786   7.108   -999.250
 2829.5     -999.250   13.188   50.112   7.113   -999.250
 2830     -999.250   9.515   50.437   7.117   -999.250
 2830.5     -999.250   6.993   50.499   7.122   -999.250
 2831     -999.250   6.791   50.38   7.126   -999.250
 2831.5     -999.250   7.642   49.978   7.131   -999.250
 2832     -999.250   8.511   49.576   7.135   -999.250
 2832.5     -999.250   9.088   49.185   7.14   -999.250
 2833     -999.250   9.376   48.805   7.144   -999.250
 2833.5     -999.250   9.663   48.657   7.148   -999.250
 2834     -999.250   9.059   48.602   7.153   -999.250
 2834.5     -999.250   8.084   48.546   7.157   -999.250
 2835     -999.250   7.108   48.55   7.162   -999.250
 2835.5     -999.250   6.714   48.585   7.166   -999.250
 2836     -999.250   7.271   48.639   7.171   -999.250
 2836.5     -999.250   7.616   48.694   7.175   -999.250
 2837     -999.250   7.141   48.729   7.18   -999.250
 2837.5     -999.250   6.666   48.533   7.184   -999.250
 2838     -999.250   7.915   48.654   7.188   -999.250
 2838.5     -999.250   8.847   48.717   7.193   -999.250
 2839     -999.250   8.19   48.601   7.197   -999.250
 2839.5     -999.250   6.851   48.672   7.202   -999.250
 2840     -999.250   5.511   48.985   7.206   -999.250
 2840.5     -999.250   4.494   49.221   7.211   -999.250
 2841     -999.250   4.655   49.238   7.215   -999.250
 2841.5     -999.250   4.816   49.256   7.22   -999.250
 2842     -999.250   4.977   49.165   7.224   -999.250
 2842.5     -999.250   5.949   49.048   7.229   -999.250
 2843     -999.250   7.01   48.931   7.233   -999.250
 2843.5     -999.250   8.072   48.814   7.237   -999.250
 2844     -999.250   9.133   48.785   7.242   -999.250
 2844.5     -999.250   9.36   48.772   7.246   -999.250
 2845     -999.250   8.594   48.76   7.251   -999.250
 2845.5     -999.250   7.828   48.873   7.255   -999.250
 2846     -999.250   7.062   49.082   7.26   -999.250
 2846.5     -999.250   6.296   49.169   7.264   -999.250
 2847     -999.250   5.678   49.146   7.269   -999.250
 2847.5     -999.250   5.85   49.124   7.273   -999.250
