#--------------------------------------------------#
#-------------------ENVERUS, INC.------------------#
#------------------WWW.ENVERUS.COM-----------------#
#------------------COPYRIGHT 2020------------------#
#--------------------------------------------------#
#THIS FILE MAY BE USED ONLY IN ACCORDANCE WITH A CURRENT SUBSCRIPTION AGREEMENT BETWEEN
#THE USER AND ENVERUS, INC. NO PART OF THIS FILE MAY BE REPRODUCED, USED, COPIED,
#MODIFIED, PROPAGATED, OR DISTRIBUTED EXCEPT IN ACCORDANCE WITH THE SUBSCRIPTION
#AGREEMENT. UNAUTHORIZED USE OR DISTRIBUTION OF ALL OR ANY PART OF THIS FILE MAY VIOLATE
#COPYRIGHT, TRADEMARK, AND/OR OTHER LAWS AND IS SUBJECT TO CIVIL AS WELL AS CRIMINAL
#SANCTIONS.
#--------------------------------------------------#
#THIS FILE IS PROVIDED "AS-IS" AND ALL WARRANTIES ARE EXPRESSLY DISCLAIMED, WHETHER
#EXPRESS, ORAL, IMPLIED, STATUTORY OR OTHERWISE, INCLUDING ANY IMPLIED WARRANTY OF FITNESS
#FOR A PARTICULAR PURPOSE, MERCHANTABILITY, TITLE OR NON-INFRINGEMENT, AND ANY WARRANTIES
#ARISING BY VIRTUE OF CUSTOM OF TRADE OR COURSE OF DEALING.  FURTHER, ENVERUS, INC.
#AND ITS LICENSORS DO NOT REPRESENT OR WARRANT THAT THIS FILE WILL MEET USER'S
#REQUIREMENTS OR ARE SUITABLE FOR USER'S NEEDS OR THAT THE DATA OR RESULTS PROVIDED IN
#CONJUNCTION THEREWITH ARE CORRECT, ACCURATE, TIMELY OR RELIABLE. THESE DISCLAIMERS SHALL
#APPLY REGARDLESS OF ANY FAILURE OF ESSENTIAL PURPOSE OF ANY LIMITED REMEDY.  SOME
#JURISDICTIONS DO NOT ALLOW THE EXCLUSION OF CERTAIN WARRANTIES SO SOME OF THE ABOVE
#EXCLUSIONS MAY NOT APPLY. IN NO EVENT SHALL ENVERUS, INC. OR ANY OF ITS AFFILIATES
#BE LIABLE UNDER ANY LEGAL THEORY, WHETHER IN TORT (INCLUDING WITHOUT LIMITATION
#NEGLIGENCE), CONTRACT, STRICT LIABILITY, STATUTORY OR OTHERWISE, FOR ANY SPECIAL,
#INCIDENTAL, CONSEQUENTIAL, EXEMPLARY, PUNITIVE OR INDIRECT DAMAGE OF ANY KIND, INCLUDING
#WITHOUT LIMITATION LOSS OF REVENUE, PROFITS, GOODWILL, USE, AND/OR DATA OR THE COST OF
#PROCUREMENT OF SUBSTITUTE GOODS OR SERVICES, EVEN IF APPRISED OF THE POSSIBILITY OF SUCH
#DAMAGES IN ADVANCE.
#--------------------------------------------------#

~VERSION INFORMATION
VERS. 2.0 : CWLS LOG ASCII STANDARD - VERSION 2.0
WRAP. NO : ONE LINE PER DEPTH STEP
~WELL INFORMATION
#MNEMONIC     .UNIT              VALUE :DESCRIPTION
STRT       .FT                2834.00000 :START DEPTH
STOP       .FT                7010.00000 :STOP DEPTH
STEP       .FT                0.50000 :STEP
NULL       .                -999.25000 :NULL VALUE
UWI       .                42389304120000 :UNIQUE WELL ID
API       .                42389304120000 :API NUMBER
COMP       .                 :COMPANY
WELL       .                 :WELL
FLD       .                 :FIELD
LOC       .                 :LOCATION
CNTY       .                 :COUNTY
STAT       .                 :STATE
CTRY       .                 :COUNTRY
SRVC       .                 :SERVICE COMPANY
DATE       .                 :DATE
~CURVE INFORMATION
#MNEMONIC     .UNIT      API CODE :CURVE DESCRIPTION
DEPTH       .FT                      :MEASURED DEPTH
CAL       .IN        UNKNOWN   :CAL
DT       .US/FT        UNKNOWN   :DT
GR       .GAPI        UNKNOWN   :GR
~A    DEPTH    CAL    DT    GR
# ...
5852.50000    13.97884    76.70093    27.62006
5853.00000    13.88574    77.13013    51.69206
5853.50000    13.79264    76.94289    55.25190
5854.00000    13.69954    67.29902    57.28215
5854.50000    13.60645    57.65515    59.31241
5855.00000    13.51335    53.45297    59.45517
5855.50000    13.42025    52.77339    57.61690
5856.00000    13.32715    52.09381    55.77864
5856.50000    13.30266    51.41423    52.28632
5857.00000    13.29089    50.73465    48.67473
5857.50000    13.27912    50.05507    45.82469
5858.00000    13.26736    49.37549    43.45121
5858.50000    13.25559    48.69591    41.68518
5859.00000    13.24382    48.02862    40.11154
5859.50000    13.23205    48.36857    38.53790
5860.00000    13.22029    48.70853    36.96426
5860.50000    13.20852    49.04848    35.39061
5861.00000    13.19675    49.38844    33.81697
5861.50000    13.18498    49.72839    34.95380
5862.00000    13.17322    50.06835    37.86884
5862.50000    13.16145    50.40830    40.78388
5863.00000    13.17241    50.74826    43.69891
5863.50000    13.21391    51.08821    45.65669
5864.00000    13.25540    50.91209    46.53106
5864.50000    13.29689    50.21023    47.23892
5865.00000    13.33838    49.50837    46.63688
5865.50000    13.37987    48.80651    46.03484
5866.00000    13.42136    48.10465    45.43279
5866.50000    13.46286    47.40279    44.83075
5867.00000    13.50435    47.70743    44.22871
5867.50000    13.54584    48.06784    43.62667
5868.00000    13.58733    48.42826    43.47574
5868.50000    13.62882    48.78868    43.44893
5869.00000    13.67032    49.49520    43.42213
5869.50000    13.71181    50.60978    43.39532
5870.00000    13.75330    51.72436    43.36851
5870.50000    13.79479    52.83893    43.61722
5871.00000    13.83628    53.95351    44.04959
5871.50000    13.87004    55.06809    44.48195
5872.00000    13.88511    56.18267    44.91432
5872.50000    13.90018    57.29725    45.34669
5873.00000    13.91525    58.41183    44.92964
5873.50000    13.93032    59.05947    44.33411
5874.00000    13.94539    58.62821    42.76281
5874.50000    13.96046    58.19694    39.49871
5875.00000    13.97553    57.76567    36.37634
5875.50000    13.99060    57.33440    35.10435
5876.00000    14.00567    56.90314    33.83236
5876.50000    14.02074    56.47187    32.56036
5877.00000    14.04408    56.04060    32.00599
5877.50000    14.07364    55.64051    31.58737
5878.00000    14.10320    56.75733    31.16876
5878.50000    14.13276    57.87415    30.82752
5879.00000    14.16233    58.99097    30.61762
5879.50000    14.19189    60.10779    30.40772
5880.00000    14.22145    61.22460    30.19782
5880.50000    14.25101    62.34142    29.98791
5881.00000    14.28057    63.45824    29.82946
5881.50000    14.31013    64.57506    29.80734
5882.00000    14.33969    65.69188    29.78521
5882.50000    14.36926    66.80870    29.76308
5883.00000    14.39882    67.92551    29.74095
5883.50000    14.42838    69.04233    29.71883
5884.00000    14.45794    70.15915    29.69670
5884.50000    14.48610    71.27597    29.67457
5885.00000    14.46895    70.34263    29.94328
5885.50000    14.45181    69.29699    31.41001
5886.00000    14.43467    68.25135    32.87674
5886.50000    14.41753    67.20571    34.34347
5887.00000    14.40039    66.16007    35.81019
5887.50000    14.38325    65.11442    36.91162
5888.00000    14.36611    64.06878    37.97174
5888.50000    14.34897    63.02314    39.03186
5889.00000    14.33183    61.97750    40.09198
5889.50000    14.31469    60.93186    41.15210
5890.00000    14.29755    59.97475    42.21222
5890.50000    14.28041    59.05394    43.27233
5891.00000    14.26327    58.13312    45.26541
5891.50000    14.24613    57.21231    48.15880
5892.00000    14.22899    56.29149    51.05219
5892.50000    14.21185    56.97279    53.94559
5893.00000    14.19471    58.11584    56.83898
5893.50000    14.21411    59.25889    59.73237
5894.00000    14.23985    60.40194    62.62576
5894.50000    14.26558    61.54499    65.51916
5895.00000    14.29131    61.93701    66.26433
5895.50000    14.31704    60.05117    60.93570
5896.00000    14.34277    59.42679    55.60707
5896.50000    14.36850    60.39499    50.27844
5897.00000    14.39423    61.36319    44.94981
5897.50000    14.41996    62.33138    39.62118
5898.00000    14.44569    63.29958    34.29255
5898.50000    14.47142    64.26778    28.96392
5899.00000    14.49715    65.23598    28.20618
5899.50000    14.52288    66.20418    28.74156
5900.00000    14.54861    67.17238    29.27694
5900.50000    14.57434    68.14057    29.81231
5901.00000    14.60008    69.10877    30.34769
5901.50000    14.62581    70.07697    30.88307
5902.00000    14.65154    71.04517    31.41845
5902.50000    14.67449    72.01336    31.66307
5903.00000    14.66957    72.98156    31.14108
5903.50000    14.66465    73.18843    30.61908
5904.00000    14.65973    72.15718    30.09709
5904.50000    14.65481    71.12593    29.57510
5905.00000    14.64989    70.09469    29.05310
5905.50000    14.64497    69.06344    28.53111
5906.00000    14.64005    68.03219    28.00912
5906.50000    14.63513    67.00094    29.67508
5907.00000    14.63021    65.96969    31.37603
5907.50000    14.62529    64.93844    33.07698
5908.00000    14.62037    63.90719    34.77793
5908.50000    14.61545    63.35699    36.10829
5909.00000    14.61053    63.09226    37.29297
5909.50000    14.60561    62.82753    38.47765
5910.00000    14.60069    62.56281    39.66233
5910.50000    14.59577    61.74505    40.84700
5911.00000    14.59085    60.89474    42.03168
5911.50000    14.58593    60.04444    43.21636
5912.00000    14.58101    59.19413    44.40104
5912.50000    14.57609    58.34382    43.84930
5913.00000    14.57117    57.59958    41.51266
5913.50000    14.56625    56.85711    39.17602
5914.00000    14.57027    56.11464    36.83938
5914.50000    14.58147    55.37217    34.50274
5915.00000    14.59267    54.62970    32.16610
5915.50000    14.60386    53.88723    31.60824
5916.00000    14.61506    53.14476    31.81797
5916.50000    14.62626    52.40229    32.02769
5917.00000    14.63745    52.03199    32.23742
5917.50000    14.64865    52.09754    32.44714
5918.00000    14.65985    52.16308    32.65687
5918.50000    14.67104    52.22863    32.86659
5919.00000    14.68224    52.29417    33.07632
5919.50000    14.69343    53.02124    33.28605
5920.00000    14.70463    54.26859    33.49577
5920.50000    14.71583    55.51595    33.70550
5921.00000    14.72702    56.76330    33.91522
5921.50000    14.73822    58.01066    34.12495
5922.00000    14.74942    59.25801    34.33467
5922.50000    14.76061    60.02477    34.54440
5923.00000    14.77181    59.78775    34.75413
5923.50000    14.78301    59.55072    34.90928
5924.00000    14.79420    59.31369    34.85762
5924.50000    14.80540    59.07666    34.80595
5925.00000    14.81660    58.83964    34.75429
5925.50000    14.82779    58.60261    34.70263
5926.00000    14.83899    58.95511    34.65096
5926.50000    14.85018    59.98318    34.59930
5927.00000    14.86138    61.01125    34.54480
5927.50000    14.87258    62.03932    34.35757
5928.00000    14.88377    62.83294    34.17034
5928.50000    14.89137    62.74594    33.98312
5929.00000    14.89649    62.65893    33.79589
5929.50000    14.90161    62.57193    33.60866
5930.00000    14.90672    62.93303    33.42143
5930.50000    14.91184    63.82292    33.23421
5931.00000    14.91696    64.71281    33.04698
5931.50000    14.92208    65.60271    32.85975
5932.00000    14.92719    66.11482    32.67252
5932.50000    14.93231    65.60861    32.48530
5933.00000    14.93743    65.10240    32.29807
5933.50000    14.94255    64.59620    32.11084
5934.00000    14.94766    64.08999    31.92361
5934.50000    14.95278    63.69840    31.73639
5935.00000    14.95790    64.01153    31.54916
5935.50000    14.96301    64.32466    31.36193
5936.00000    14.96813    64.63779    31.17470
5936.50000    14.97325    64.95091    30.98748
5937.00000    14.97837    65.26404    30.80025
5937.50000    14.98348    65.57717    30.61302
