#--------------------------------------------------#
#-------------------ENVERUS, INC.------------------#
#------------------WWW.ENVERUS.COM-----------------#
#------------------COPYRIGHT 2020------------------#
#--------------------------------------------------#
#THIS FILE MAY BE USED ONLY IN ACCORDANCE WITH A CURRENT SUBSCRIPTION AGREEMENT BETWEEN
#THE USER AND ENVERUS, INC. NO PART OF THIS FILE MAY BE REPRODUCED, USED, COPIED,
#MODIFIED, PROPAGATED, OR DISTRIBUTED EXCEPT IN ACCORDANCE WITH THE SUBSCRIPTION
#AGREEMENT. UNAUTHORIZED USE OR DISTRIBUTION OF ALL OR ANY PART OF THIS FILE MAY VIOLATE
#COPYRIGHT, TRADEMARK, AND/OR OTHER LAWS AND IS SUBJECT TO CIVIL AS WELL AS CRIMINAL
#SANCTIONS.
#--------------------------------------------------#
#THIS FILE IS PROVIDED "AS-IS" AND ALL WARRANTIES ARE EXPRESSLY DISCLAIMED, WHETHER
#EXPRESS, ORAL, IMPLIED, STATUTORY OR OTHERWISE, INCLUDING ANY IMPLIED WARRANTY OF FITNESS
#FOR A PARTICULAR PURPOSE, MERCHANTABILITY, TITLE OR NON-INFRINGEMENT, AND ANY WARRANTIES
#ARISING BY VIRTUE OF CUSTOM OF TRADE OR COURSE OF DEALING.  FURTHER, ENVERUS, INC.
#AND ITS LICENSORS DO NOT REPRESENT OR WARRANT THAT THIS FILE WILL MEET USER'S
#REQUIREMENTS OR ARE SUITABLE FOR USER'S NEEDS OR THAT THE DATA OR RESULTS PROVIDED IN
#CONJUNCTION THEREWITH ARE CORRECT, ACCURATE, TIMELY OR RELIABLE. THESE DISCLAIMERS SHALL
#APPLY REGARDLESS OF ANY FAILURE OF ESSENTIAL PURPOSE OF ANY LIMITED REMEDY.  SOME
#JURISDICTIONS DO NOT ALLOW THE EXCLUSION OF CERTAIN WARRANTIES SO SOME OF THE ABOVE
#EXCLUSIONS MAY NOT APPLY. IN NO EVENT SHALL ENVERUS, INC. OR ANY OF ITS AFFILIATES
#BE LIABLE UNDER ANY LEGAL THEORY, WHETHER IN TORT (INCLUDING WITHOUT LIMITATION
#NEGLIGENCE), CONTRACT, STRICT LIABILITY, STATUTORY OR OTHERWISE, FOR ANY SPECIAL,
#INCIDENTAL, CONSEQUENTIAL, EXEMPLARY, PUNITIVE OR INDIRECT DAMAGE OF ANY KIND, INCLUDING
#WITHOUT LIMITATION LOSS OF REVENUE, PROFITS, GOODWILL, USE, AND/OR DATA OR THE COST OF
#PROCUREMENT OF SUBSTITUTE GOODS OR SERVICES, EVEN IF APPRISED OF THE POSSIBILITY OF SUCH
#DAMAGES IN ADVANCE.
#--------------------------------------------------#

~VERSION INFORMATION
VERS. 2.0 : CWLS LOG ASCII STANDARD - VERSION 2.0
WRAP.  NO : ONE LINE PER DEPTH STEP
~WELL INFORMATION
#MNEMONIC     .UNIT              VALUE :DESCRIPTION
STRT       .FT                0 :START DEPTH
STOP       .FT                13134 :STOP DEPTH
STEP       .FT                   0.500 :STEP
NULL       .                  -999.250 :NULL
UWI        .              42389303540000 :UNIQUE WELL ID
API        .              42389303540000 :API NUMBER
COMP       .         SMC OIL & GAS  INC. :COMPANY
WELL       .        TIFFANY STATE  1 :WELL
DATE       .                18-OCT-1995 :LOG DATE
~CURVE INFORMATION
#MNEMONIC     .UNIT      API CODE :CURVE DESCRIPTION
DEPTH       .FT                      :MEASURED DEPTH
DT.US/FT        UNKNOWN   :DT
CAL.INCH        UNKNOWN   :CAL
GR.API        UNKNOWN   :GR
~A    DEPTH    DT    CAL    GR
# ...
 10106     79.214   6.881   113.978
 10106.5     79.453   6.882   111.341
 10107     81.973   6.884   108.704
 10107.5     84.494   6.886   106.067
 10108     87.014   6.887   103.43
 10108.5     86.7   6.889   100.793
 10109     86.147   6.89   98.156
 10109.5     85.593   6.892   95.519
 10110     85.159   6.893   91.683
 10110.5     85.792   6.895   84.158
 10111     85.926   6.897   76.633
 10111.5     85.642   6.898   69.108
 10112     83.508   6.9   61.583
 10112.5     79.238   6.901   54.243
 10113     74.967   6.903   56.514
 10113.5     70.697   6.905   58.785
 10114     62.192   6.906   61.057
 10114.5     63.628   6.898   63.328
 10115     65.065   6.888   65.599
 10115.5     66.502   6.878   67.871
 10116     68.049   6.868   68.165
 10116.5     69.995   6.858   61.411
 10117     71.942   6.848   54.657
 10117.5     73.888   6.838   47.903
 10118     75.834   6.828   41.149
 10118.5     77.781   6.818   45.999
 10119     81.392   6.808   57.214
 10119.5     85.231   6.798   68.429
 10120     87.959   6.788   79.644
 10120.5     88.541   6.777   90.859
 10121     89.124   6.767   99.286
 10121.5     89.598   6.766   97.111
 10122     89.671   6.766   94.936
 10122.5     83.623   6.766   92.761
 10123     77.576   6.766   90.586
 10123.5     73.191   6.766   88.411
 10124     69.818   6.766   86.236
 10124.5     74.116   6.766   84.061
 10125     78.414   6.766   81.886
 10125.5     82.266   6.766   79.711
 10126     85.026   6.766   77.536
 10126.5     87.785   6.766   75.361
 10127     88.051   6.766   76.507
 10127.5     86.511   6.766   81.037
 10128     84.972   6.766   81.097
 10128.5     83.432   6.77   79.569
 10129     82.901   6.776   78.042
 10129.5     82.473   6.781   85.614
 10130     80.335   6.786   93.931
 10130.5     75.475   6.792   102.248
 10131     70.616   6.797   110.565
 10131.5     62.253   6.803   116.81
 10132     57.582   6.808   115.482
 10132.5     55.12   6.813   114.155
 10133     52.658   6.819   112.827
 10133.5     54.545   6.824   111.499
 10134     58.333   6.83   110.172
 10134.5     64.891   6.835   108.844
 10135     74.418   6.841   107.517
 10135.5     74.963   6.846   106.803
 10136     75.508   6.851   108.891
 10136.5     76.053   6.857   110.979
 10137     76.598   6.862   113.066
 10137.5     77.315   6.868   115.154
 10138     78.368   6.873   117.242
 10138.5     79.42   6.878   116.306
 10139     80.473   6.884   115.352
 10139.5     81.302   6.889   114.397
 10140     81.12   6.89   113.443
 10140.5     80.938   6.89   112.489
 10141     80.756   6.89   111.535
 10141.5     80.574   6.891   108.917
 10142     80.392   6.891   105.42
 10142.5     80.21   6.891   101.923
 10143     79.99   6.891   98.426
 10143.5     79.771   6.892   94.93
 10144     78.594   6.892   91.433
 10144.5     68.142   6.892   90.487
 10145     61.597   6.893   90.952
 10145.5     63.996   6.893   91.417
 10146     68.163   6.893   91.882
 10146.5     72.33   6.894   90.9
 10147     76.707   6.894   83.794
 10147.5     79.498   6.894   76.688
 10148     78.372   6.895   69.581
 10148.5     78.48   6.895   62.475
 10149     78.589   6.895   61.689
 10149.5     78.848   6.895   61.689
 10150     81.787   6.896   61.689
 10150.5     82.478   6.896   62.315
 10151     83.169   6.896   64.489
 10151.5     83.86   6.897   66.662
 10152     84.357   6.897   68.835
 10152.5     83.822   6.897   71.008
 10153     83.287   6.898   73.181
 10153.5     82.751   6.898   73.157
 10154     81.615   6.898   69.117
 10154.5     80.297   6.899   65.077
 10155     78.979   6.899   61.037
 10155.5     77.661   6.899   56.997
 10156     76.69   6.9   58.198
 10156.5     76.691   6.9   62.049
 10157     76.928   6.9   65.9
 10157.5     77.965   6.9   69.751
 10158     79.003   6.901   73.602
 10158.5     80.04   6.901   71.087
 10159     81.078   6.901   68.243
 10159.5     80.645   6.902   65.399
 10160     76.86   6.902   106.947
 10160.5     75.978   6.902   128.314
 10161     71.244   6.903   124.847
 10161.5     65.559   6.903   121.283
 10162     68.094   6.903   117.718
 10162.5     69.161   6.904   114.153
 10163     71.471   6.904   110.588
 10163.5     73.394   6.904   128.08
 10164     75.316   6.905   130.884
 10164.5     77.238   6.905   130.737
 10165     77.159   6.905   127.089
 10165.5     77.862   6.905   123.441
 10166     78.455   6.906   119.793
 10166.5     75.631   6.906   118.386
 10167     72.808   6.906   121.395
 10167.5     73.674   6.907   124.404
 10168     74.573   6.907   127.413
 10168.5     75.472   6.907   130.422
 10169     70.846   6.908   131.087
 10169.5     70.082   6.914   129.93
 10170     71.569   6.92   128.773
 10170.5     73.081   6.926   127.616
 10171     74.878   6.931   126.459
 10171.5     76.674   6.937   122.691
 10172     78.471   6.943   114.388
 10172.5     79.28   6.949   106.084
 10173     78.538   6.955   97.78
 10173.5     76.231   6.96   89.477
 10174     73.925   6.966   81.173
 10174.5     73.09   6.972   72.87
 10175     75.536   6.978   69.358
 10175.5     77.494   6.983   74.172
 10176     79.452   6.989   78.987
 10176.5     80.012   6.995   83.801
 10177     78.621   6.987   88.616
 10177.5     77.229   6.976   93.43
 10178     75.519   6.965   98.245
 10178.5     72.841   6.955   102.373
 10179     70.164   6.944   104.476
 10179.5     67.486   6.933   127.836
 10180     68.071   6.923   137.974
 10180.5     72.89   6.912   141.131
 10181     79.364   6.901   140.412
 10181.5     80.221   6.891   139.692
 10182     78.624   6.88   138.973
 10182.5     78.464   6.87   138.253
 10183     79.339   6.859   137.533
 10183.5     80.656   6.862   136.814
 10184     81.973   6.872   134.327
 10184.5     82.717   6.882   131.005
 10185     83.173   6.893   127.683
 10185.5     83.629   6.903   123.639
 10186     83.975   6.913   117.997
 10186.5     83.477   6.923   112.354
 10187     82.979   6.933   106.711
 10187.5     82.481   6.944   107.866
 10188     81.983   6.954   115.248
 10188.5     78.799   6.964   122.63
 10189     75.287   6.974   131.012
 10189.5     74.672   6.968   130.184
 10190     75.494   6.948   129.357
 10190.5     77.982   6.928   128.529
 10191     80.469   6.908   127.702
 10191.5     77.883   6.888   126.874
 10192     78.644   6.868   126.047
 10192.5     79.405   6.848   124.111
 10193     80.166   6.828   118.056
 10193.5     80.927   6.808   115.086
 10194     79.856   6.804   115.536
 10194.5     78.419   6.807   115.987
 10195     76.982   6.809   116.437
 10195.5     75.545   6.811   116.888
 10196     75.725   6.813   112.686
 10196.5     76.448   6.815   106.017
 10197     77.096   6.818   99.349
 10197.5     75.864   6.82   92.68
 10198     74.632   6.822   86.012
 10198.5     73.399   6.824   79.344
 10199     66.162   6.827   72.675
 10199.5     57.988   6.829   66.007
 10200     57.783   6.831   59.339
 10200.5     57.135   6.833   52.67
 10201     56.358   6.835   46.002
 10201.5     55.582   6.838   41.161
 10202     57.988   6.838   56.569
 10202.5     61.393   6.837   71.978
 10203     65.41   6.837   87.386
 10203.5     70.873   6.836   96.313
 10204     71.786   6.835   98.335
 10204.5     72.699   6.835   100.369
 10205     73.612   6.834   104.119
 10205.5     74.525   6.833   107.869
 10206     75.439   6.833   111.619
 10206.5     75.388   6.832   115.368
 10207     74.74   6.831   119.118
 10207.5     74.092   6.831   120.159
 10208     73.444   6.83   119.175
 10208.5     74.794   6.83   118.192
 10209     76.725   6.829   117.209
 10209.5     77.817   6.828   116.226
 10210     76.609   6.828   115.243
 10210.5     76.393   6.827   113.405
 10211     77.219   6.826   111.349
 10211.5     78.046   6.826   109.293
 10212     78.872   6.825   107.237
 10212.5     77.146   6.824   105.181
 10213     73.98   6.824   103.125
 10213.5     70.923   6.823   101.068
 10214     67.959   6.822   97.381
 10214.5     64.995   6.822   93.09
 10215     62.031   6.821   88.8
 10215.5     60.152   6.822   84.51
 10216     59.757   6.823   80.219
