###############################################
##         ENVERUS                           ##
##         ESS - Open Hole                   ##
##         PERMIAN / DELAWARE                ##
##         Nov 04 2023  V4.0                 ##
##         42-389-32398-00-00                ##
###############################################
## Copyright 2017-2023  ENVERUS.  All Rights Reserved. 
## Confidential - Property of ENVERUS, use governed by terms and 
## conditions found within the existing Information Services Subscription Agreement 
## (as may be amended, the “ISSA”) between Customer and ENVERUS. 
## 
~VERSION INFORMATION
# MNEM.UNIT                               DATA : DESCRIPTION OF MNEMONIC
#-----.-----     ----------------------------- : -----------------------------
VERS.                                     2.00 : CWLS LOG ASCII STANDARD - VERSION 2.00
WRAP.                                       NO : MULTIPLE LINES PER DEPTH STEP
VEND.                                  ENVERUS : VENDOR
TYPE.                          ESS - OPEN HOLE : ENVERUS ESSENTIAL CURVES – ACCESSIBLE THROUGH ENVERUS PRISM(TM)
DOC.                                  31812117 : ENVERUS HEADER RAW DOCUMENT ID
#___________________________________________________________________________________________________ 
~WELL INFORMATION 
# uAwnbjLw6pKN5CeTb7gwROLhNOHLu74gercCwdGpUdKCBCGOTLsJuzWIBCYkU6KzQxtC+uHRBloynRtd0Ulspg== 
# MNEM.UNIT                                              DATA : DESCRIPTION OF MNEMONIC 
#-----.-----                    ----------------------------- : ----------------------------- 
CNTY.                                                  REEVES : COUNTY 
STATE.                                                  TEXAS : STATE 
CNTRY.                                                    USA : COUNTRY 
API.                                             42-389-32398 : API (10 Digit) 
API_14.                                    42-389-32398-00-00 : API (14 Digits) 
API_14_std.                                 42-389-32398-0000 : API (14 Digits Standard) 
UWI.                                           42389323980000 : UNIQUE WELL ID 
WELL.                                    BLOCK 58 STATE 32  1 : WELL NAME
STRT.FT                                                8311.0 : START DEPTH
STOP.FT                                               12834.0 : STOP DEPTH
STEP.FT                                                   0.5 : STEP BETWEEN DEPTHS
NULL.                                                 -999.25 : NULL VALUE
COMP.                                       SHELL WESTERN E&P : COMPANY 
DATE.                                             08-FEB-2006 : LOG DATE
#___________________________________________________________________________________________________ 
~CURVE INFORMATION 
# MNEM.UNIT           : CURVE DESCRIPTION 
#-----.-----          : ----------------------------- 
 DEPT.FT               : MEASURED DEPTH 
 CALI__B.IN            : CALIPER (CAL - CAL) 
 GR__B.API             : GAMMA RAY (GR) 
 DT__B.US/FT           : SONIC DELTA TRANSIT TIME (DT) 
 RESS__B.OHMM          : SHALLOW INDUCTION RESISTIVITY (ILS - ILS) 
 RESD__B.OHMM          : DEEP INDUCTION RESISTIVITY (ILD - ILD) 
 #___________________________________________________________________________________________________ 
~A         DEPT        CALI__B          GR__B          DT__B        RESS__B        RESD__B
# ...
         9103.0          8.279         90.917         69.023          6.117          7.325
         9103.5          8.280         92.182         69.853          5.212          6.114
         9104.0          8.280         90.798         70.564          4.922          5.213
         9104.5          8.280         89.414         70.734          5.152          5.636
         9105.0          8.281         88.030         70.364          5.836          6.059
         9105.5          8.281         90.095         69.992          6.366          6.482
         9106.0          8.282         92.666         69.960          5.947          6.093
         9106.5          8.282         97.389         70.308          5.650          5.688
         9107.0          8.282        102.112         70.657          5.601          5.657
         9107.5          8.283        106.835         71.077          5.552          5.522
         9108.0          8.283        111.558         71.444          5.074          5.153
         9108.5          8.283        115.092         71.587          4.891          4.967
         9109.0          8.284        112.510         71.587          5.108          5.214
         9109.5          8.284        106.048         71.412          5.478          5.461
         9110.0          8.284        103.523         71.095          5.734          5.707
         9110.5          8.285        101.842         70.642          5.519          5.775
         9111.0          8.285        100.129         70.352          5.320          5.642
         9111.5          8.285         98.416         70.720          5.796          5.948
         9112.0          8.286         98.273         71.023          6.543          6.789
         9112.5          8.286         99.785         70.954          6.129          6.509
         9113.0          8.286         99.973         70.249          5.090          5.614
         9113.5          8.287         91.738         68.805          4.575          4.718
         9114.0          8.287         83.504         67.770          5.023          5.197
         9114.5          8.288         78.088         67.120          5.846          5.805
         9115.0          8.288         76.156         66.747          6.279          6.413
         9115.5          8.288         80.406         66.374          5.950          7.021
         9116.0          8.289         86.796         67.036          5.536          6.745
         9116.5          8.289         93.186         67.881          5.059          5.726
         9117.0          8.289         93.884         69.300          4.531          4.708
         9117.5          8.290         94.317         70.950          4.004          4.267
         9118.0          8.290         94.750         71.471          3.820          4.254
         9118.5          8.290         94.393         71.388          3.787          4.242
         9119.0          8.291         93.024         71.087          3.860          4.229
         9119.5          8.291         84.471         70.728          4.065          4.680
         9120.0          8.291         73.769         70.357          4.918          5.385
         9120.5          8.292         63.067         69.982          5.462          6.089
         9121.0          8.292         56.374         69.951          5.301          6.113
         9121.5          8.292         53.780         70.153          5.248          5.972
         9122.0          8.293         55.761         70.477          5.169          5.796
         9122.5          8.293         58.678         70.874          5.077          5.589
         9123.0          8.294         63.150         71.280          4.985          5.383
         9123.5          8.294         71.168         71.685          4.855          5.177
         9124.0          8.294         79.185         72.091          4.688          4.970
         9124.5          8.295         87.034         72.265          4.522          4.764
         9125.0          8.295         87.671         72.434          4.356          4.558
         9125.5          8.295         82.284         73.068          4.184          4.351
         9126.0          8.296         76.719         73.765          4.010          4.145
         9126.5          8.296         71.898         73.976          3.836          3.939
         9127.0          8.296         75.104         73.452          3.767          3.834
         9127.5          8.297         78.413         72.953          3.753          3.939
         9128.0          8.297         83.393         72.500          3.900          4.044
         9128.5          8.297         94.157         72.411          4.048          4.150
         9129.0          8.298        102.756         72.861          4.195          4.255
         9129.5          8.298        100.569         73.389          4.295          4.360
         9130.0          8.296         85.280         73.461          4.274          4.343
         9130.5          8.294         69.990         72.734          4.242          4.305
         9131.0          8.292         56.924         72.076          4.207          4.267
         9131.5          8.290         50.780         71.418          4.173          4.229
         9132.0          8.288         49.493         70.760          4.139          4.192
         9132.5          8.285         49.782         70.335          4.104          4.154
         9133.0          8.283         50.070         70.334          4.070          4.116
         9133.5          8.281         50.400         70.334          4.035          4.078
         9134.0          8.279         50.859         70.333          4.003          4.040
         9134.5          8.277         51.319         70.332          3.970          4.003
         9135.0          8.274         51.778         70.303          3.937          3.965
         9135.5          8.272         52.237         70.170          3.904          3.927
         9136.0          8.270         52.697         70.049          3.871          3.889
         9136.5          8.268         55.994         70.128          3.834          3.851
         9137.0          8.266         60.445         70.207          3.755          3.762
         9137.5          8.264         64.897         70.555          3.676          3.661
         9138.0          8.261         69.348         71.185          3.597          3.560
         9138.5          8.263         71.961         71.386          3.519          3.518
         9139.0          8.266         72.650         71.428          3.493          3.565
         9139.5          8.268         73.338         71.268          3.525          3.612
         9140.0          8.271         74.027         71.041          3.609          3.660
         9140.5          8.274         78.289         70.815          3.692          3.689
         9141.0          8.277         83.146         71.165          3.763          3.714
         9141.5          8.279         87.580         71.082          3.787          3.739
         9142.0          8.279         89.748         70.942          3.811          3.765
         9142.5          8.279         91.915         70.776          3.915          3.867
         9143.0          8.278         94.082         70.611          4.024          4.039
         9143.5          8.278         95.926         70.505          4.133          4.210
         9144.0          8.278         96.683         70.421          4.242          4.304
         9144.5          8.277         93.500         70.284          4.219          4.250
         9145.0          8.277         87.127         70.025          4.154          4.196
         9145.5          8.277         82.096         69.766          4.090          4.142
         9146.0          8.276         81.291         69.506          4.459          5.248
         9146.5          8.276         80.487         69.087          4.900          6.236
