###############################################
##         ENVERUS                           ##
##         ESS - Open Hole                   ##
##         PERMIAN / DELAWARE                ##
##         Nov 04 2023  V4.0                 ##
##         42-389-30297-00-00                ##
###############################################
## Copyright 2017-2023  ENVERUS.  All Rights Reserved. 
## Confidential - Property of ENVERUS, use governed by terms and 
## conditions found within the existing Information Services Subscription Agreement 
## (as may be amended, the “ISSA”) between Customer and ENVERUS. 
## 
~VERSION INFORMATION
# MNEM.UNIT                               DATA : DESCRIPTION OF MNEMONIC
#-----.-----     ----------------------------- : -----------------------------
VERS.                                     2.00 : CWLS LOG ASCII STANDARD - VERSION 2.00
WRAP.                                       NO : MULTIPLE LINES PER DEPTH STEP
VEND.                                  ENVERUS : VENDOR
TYPE.                          ESS - OPEN HOLE : ENVERUS ESSENTIAL CURVES – ACCESSIBLE THROUGH ENVERUS PRISM(TM)
DOC.                                  32306493 : ENVERUS HEADER RAW DOCUMENT ID
#___________________________________________________________________________________________________ 
~WELL INFORMATION 
# rQStLE5sYsP+YdYw4QOWpp6z6mWwFJBvCxgTqRv2Ioz+qyoYLl+79qTOna8BSHgUk5jTgp49hkgrAQ1kFKyHCg== 
# MNEM.UNIT                                              DATA : DESCRIPTION OF MNEMONIC 
#-----.-----                    ----------------------------- : ----------------------------- 
CNTY.                                                  REEVES : COUNTY 
STATE.                                                  TEXAS : STATE 
CNTRY.                                                    USA : COUNTRY 
API.                                             42-389-30297 : API (10 Digit) 
API_14.                                    42-389-30297-00-00 : API (14 Digits) 
API_14_std.                                 42-389-30297-0000 : API (14 Digits Standard) 
UWI.                                           42389302970000 : UNIQUE WELL ID 
WELL.                              R.S. BRENNAND, JR. ET AL 1 : WELL NAME
STRT.FT                                                   3.0 : START DEPTH
STOP.FT                                               13007.0 : STOP DEPTH
STEP.FT                                                   0.5 : STEP BETWEEN DEPTHS
NULL.                                                 -999.25 : NULL VALUE
#___________________________________________________________________________________________________ 
~CURVE INFORMATION 
# MNEM.UNIT           : CURVE DESCRIPTION 
#-----.-----          : ----------------------------- 
 DEPT.FT               : MEASURED DEPTH 
 CALI.IN               : CALIPER (CAL - CAL) 
 GR.API                : GAMMA RAY (GR) 
 DT.US/FT              : SONIC DELTA TRANSIT TIME (DT) 
 NPHI.V/V              : NEUTRON POROSITY (NPHI) 
 RHOB.G/CC             : BULK DENSITY (RHOB) 
 #___________________________________________________________________________________________________ 
~A         DEPT           CALI             GR             DT           NPHI           RHOB
# ...
         3435.0         10.141          9.313       -999.250       -0.00536      -999.2500
         3435.5         10.141          9.313       -999.250       -0.00538      -999.2500
         3436.0         10.141          9.312       -999.250       -0.00541      -999.2500
         3436.5         10.141          9.295       -999.250       -0.00544      -999.2500
         3437.0         10.141          9.230       -999.250       -0.00546      -999.2500
         3437.5         10.142          9.166       -999.250       -0.00549      -999.2500
         3438.0         10.142          9.102       -999.250       -0.00551      -999.2500
         3438.5         10.142          9.037       -999.250       -0.00554      -999.2500
         3439.0         10.142          8.973       -999.250       -0.00557      -999.2500
         3439.5         10.142          8.909       -999.250       -0.00559      -999.2500
         3440.0         10.142          8.845       -999.250       -0.00562      -999.2500
         3440.5         10.142          8.780       -999.250       -0.00565      -999.2500
         3441.0         10.142          8.716       -999.250       -0.00567      -999.2500
         3441.5         10.142          8.624       -999.250       -0.00570      -999.2500
         3442.0         10.142          8.183       -999.250       -0.00572      -999.2500
         3442.5         10.143          7.742       -999.250       -0.00575      -999.2500
         3443.0         10.143          7.301       -999.250       -0.00578      -999.2500
         3443.5         10.143          6.860       -999.250       -0.00580      -999.2500
         3444.0         10.143          6.419       -999.250       -0.00583      -999.2500
         3444.5         10.143          5.978       -999.250       -0.00585      -999.2500
         3445.0         10.143          5.537       -999.250       -0.00588      -999.2500
         3445.5         10.143          5.096       -999.250       -0.00591      -999.2500
         3446.0         10.143          4.655       -999.250       -0.00593      -999.2500
         3446.5         10.143          4.584       -999.250       -0.00596      -999.2500
         3447.0         10.143          4.837       -999.250       -0.00599      -999.2500
         3447.5         10.143          5.090       -999.250       -0.00601      -999.2500
         3448.0         10.144          5.343       -999.250       -0.00604      -999.2500
         3448.5         10.144          5.596       -999.250       -0.00606      -999.2500
         3449.0         10.144          5.848       -999.250       -0.00609      -999.2500
         3449.5         10.144          6.101       -999.250       -0.00612      -999.2500
         3450.0         10.144          6.354       -999.250       -0.00614      -999.2500
         3450.5         10.144          6.607       -999.250       -0.00617      -999.2500
         3451.0         10.144          6.860       -999.250       -0.00619      -999.2500
         3451.5         10.144          7.113       -999.250       -0.00622      -999.2500
         3452.0         10.144          7.366       -999.250       -0.00625      -999.2500
         3452.5         10.144          7.619       -999.250       -0.00627      -999.2500
         3453.0         10.145          7.871       -999.250       -0.00630      -999.2500
         3453.5         10.145          8.124       -999.250       -0.00633      -999.2500
         3454.0         10.145          8.364       -999.250       -0.00635      -999.2500
         3454.5         10.145          8.566       -999.250       -0.00638      -999.2500
         3455.0         10.145          8.768       -999.250       -0.00640      -999.2500
         3455.5         10.145          8.970       -999.250       -0.00643      -999.2500
         3456.0         10.145          9.172       -999.250       -0.00646      -999.2500
         3456.5         10.145          9.375       -999.250       -0.00648      -999.2500
         3457.0         10.145          9.577       -999.250       -0.00651      -999.2500
         3457.5         10.145          9.779       -999.250       -0.00653      -999.2500
         3458.0         10.146          9.981       -999.250       -0.00656      -999.2500
         3458.5         10.146         10.183       -999.250       -0.00659      -999.2500
         3459.0         10.146         10.115       -999.250       -0.00661      -999.2500
         3459.5         10.146          9.938       -999.250       -0.00664      -999.2500
         3460.0         10.146          9.762       -999.250       -0.00667      -999.2500
         3460.5         10.146          9.585       -999.250       -0.00669      -999.2500
         3461.0         10.146          9.408       -999.250       -0.00672      -999.2500
         3461.5         10.146          9.232       -999.250       -0.00674      -999.2500
         3462.0         10.146          9.055       -999.250       -0.00677      -999.2500
         3462.5         10.146          8.878       -999.250       -0.00680      -999.2500
         3463.0         10.147          8.702       -999.250       -0.00682      -999.2500
         3463.5         10.147          8.525       -999.250       -0.00685      -999.2500
         3464.0         10.147          8.349       -999.250       -0.00687      -999.2500
         3464.5         10.147          8.172       -999.250       -0.00690      -999.2500
         3465.0         10.147          7.995       -999.250       -0.00693      -999.2500
         3465.5         10.147          7.819       -999.250       -0.00695      -999.2500
         3466.0         10.147          7.642       -999.250       -0.00698      -999.2500
         3466.5         10.147          7.465       -999.250       -0.00701      -999.2500
         3467.0         10.147          7.284       -999.250       -0.00703      -999.2500
         3467.5         10.147          7.080       -999.250       -0.00706      -999.2500
         3468.0         10.148          6.876       -999.250       -0.00708      -999.2500
         3468.5         10.148          6.672       -999.250       -0.00711      -999.2500
         3469.0         10.148          6.468       -999.250       -0.00714      -999.2500
         3469.5         10.148          6.264       -999.250       -0.00716      -999.2500
         3470.0         10.148          6.060       -999.250       -0.00719      -999.2500
         3470.5         10.148          5.856       -999.250       -0.00722      -999.2500
         3471.0         10.148          5.652       -999.250       -0.00724      -999.2500
         3471.5         10.148          5.448       -999.250       -0.00727      -999.2500
         3472.0         10.148          5.464       -999.250       -0.00729      -999.2500
         3472.5         10.148          5.608       -999.250       -0.00732      -999.2500
         3473.0         10.149          5.752       -999.250       -0.00735      -999.2500
         3473.5         10.149          5.896       -999.250       -0.00737      -999.2500
         3474.0         10.149          6.040       -999.250       -0.00740      -999.2500
         3474.5         10.149          6.184       -999.250       -0.00742      -999.2500
         3475.0         10.149          6.328       -999.250       -0.00745      -999.2500
         3475.5         10.149          6.472       -999.250       -0.00748      -999.2500
         3476.0         10.149          6.616       -999.250       -0.00750      -999.2500
         3476.5         10.149          6.761       -999.250       -0.00753      -999.2500
         3477.0         10.149          6.905       -999.250       -0.00756      -999.2500
         3477.5         10.149          7.049       -999.250       -0.00758      -999.2500
         3478.0         10.150          7.193       -999.250       -0.00761      -999.2500
         3478.5         10.150          7.268       -999.250       -0.00763      -999.2500
