###############################################
##         ENVERUS                           ##
##         ESS - Open Hole                   ##
##         PERMIAN / DELAWARE                ##
##         Nov 04 2023  V4.0                 ##
##         42-389-32245-00-00                ##
###############################################
## Copyright 2017-2023  ENVERUS.  All Rights Reserved. 
## Confidential - Property of ENVERUS, use governed by terms and 
## conditions found within the existing Information Services Subscription Agreement 
## (as may be amended, the “ISSA”) between Customer and ENVERUS. 
## 
~VERSION INFORMATION
# MNEM.UNIT                               DATA : DESCRIPTION OF MNEMONIC
#-----.-----     ----------------------------- : -----------------------------
VERS.                                     2.00 : CWLS LOG ASCII STANDARD - VERSION 2.00
WRAP.                                       NO : MULTIPLE LINES PER DEPTH STEP
VEND.                                  ENVERUS : VENDOR
TYPE.                          ESS - OPEN HOLE : ENVERUS ESSENTIAL CURVES – ACCESSIBLE THROUGH ENVERUS PRISM(TM)
DOC.                                  31784178 : ENVERUS HEADER RAW DOCUMENT ID
#___________________________________________________________________________________________________ 
~WELL INFORMATION 
# v5kOeJgG8V8Fdrn76qwaaSXPAkEfLGq57aawfXlCwOXh55ROPeN2VCvB7JmY2/dENYnWxxZwl4Ma/Wu+4c2YGQ== 
# MNEM.UNIT                                              DATA : DESCRIPTION OF MNEMONIC 
#-----.-----                    ----------------------------- : ----------------------------- 
CNTY.                                                  REEVES : COUNTY 
STATE.                                                  TEXAS : STATE 
CNTRY.                                                    USA : COUNTRY 
API.                                             42-389-32245 : API (10 Digit) 
API_14.                                    42-389-32245-00-00 : API (14 Digits) 
API_14_std.                                 42-389-32245-0000 : API (14 Digits Standard) 
UWI.                                           42389322450000 : UNIQUE WELL ID 
WELL.                          TEXAS PACIFIC LAND TRUST 25 1H : WELL NAME
STRT.FT                                                2519.0 : START DEPTH
STOP.FT                                               10624.0 : STOP DEPTH
STEP.FT                                                   0.5 : STEP BETWEEN DEPTHS
NULL.                                                 -999.25 : NULL VALUE
#___________________________________________________________________________________________________ 
~CURVE INFORMATION 
# MNEM.UNIT           : CURVE DESCRIPTION 
#-----.-----          : ----------------------------- 
 DEPT.FT               : MEASURED DEPTH 
 CALI__B.IN            : CALIPER (CAL - CAL) 
 GR__B.API             : GAMMA RAY (GR) 
 DT__B.US/FT           : SONIC DELTA TRANSIT TIME (DT) 
 #___________________________________________________________________________________________________ 
~A         DEPT        CALI__B          GR__B          DT__B
# ...
         5753.0         13.317         40.845         65.753
         5753.5         13.349         50.988         67.027
         5754.0         13.381         61.222         67.805
         5754.5         13.413         66.796         67.860
         5755.0         13.445         59.060         67.914
         5755.5         13.477         51.325         67.969
         5756.0         13.510         46.810         68.024
         5756.5         13.542         49.143         67.408
         5757.0         13.574         53.904         66.742
         5757.5         13.606         55.762         66.142
         5758.0         13.611         53.688         65.667
         5758.5         13.613         47.355         66.019
         5759.0         13.615         41.818         66.517
         5759.5         13.618         41.107         67.016
         5760.0         13.620         45.874         67.242
         5760.5         13.622         51.999         67.111
         5761.0         13.624         58.123         66.935
         5761.5         13.627         60.018         66.785
         5762.0         13.629         56.116         66.815
         5762.5         13.631         52.215         66.846
         5763.0         13.634         51.208         66.709
         5763.5         13.636         56.568         65.944
         5764.0         13.638         61.927         64.449
         5764.5         13.640         65.486         62.734
         5765.0         13.643         59.642         61.020
         5765.5         13.645         53.799         60.264
         5766.0         13.647         47.956         61.011
         5766.5         13.650         48.628         62.303
         5767.0         13.652         53.323         63.595
         5767.5         13.650         58.018         64.560
         5768.0         13.645         62.571         65.047
         5768.5         13.640         60.301         64.787
         5769.0         13.635         58.030         64.385
         5769.5         13.629         55.760         64.218
         5770.0         13.624         56.889         64.408
         5770.5         13.619         62.050         64.926
         5771.0         13.614         67.212         65.444
         5771.5         13.608         72.373         65.891
         5772.0         13.603         76.729         66.104
         5772.5         13.598         80.613         66.306
         5773.0         13.593         81.258         66.107
         5773.5         13.587         79.661         65.909
         5774.0         13.582         77.607         65.710
         5774.5         13.577         75.553         65.515
         5775.0         13.572         74.277         65.356
         5775.5         13.566         74.277         65.196
         5776.0         13.561         74.277         65.188
         5776.5         13.556         74.648         65.267
         5777.0         13.551         70.339         65.272
         5777.5         13.545         64.845         64.927
         5778.0         13.540         59.351         64.582
         5778.5         13.535         53.858         64.277
         5779.0         13.530         48.364         64.047
         5779.5         13.524         43.121         63.875
         5780.0         13.519         43.333         64.103
         5780.5         13.503         49.575         64.332
         5781.0         13.484         56.285         64.560
         5781.5         13.465         64.527         64.604
         5782.0         13.447         67.961         64.297
         5782.5         13.428         69.343         63.980
         5783.0         13.409         75.281         64.032
         5783.5         13.391         85.296         64.611
         5784.0         13.372         97.822         65.190
         5784.5         13.353        116.589         65.769
         5785.0         13.334        116.234         66.106
         5785.5         13.316        110.692         66.052
         5786.0         13.297        103.586         65.496
         5786.5         13.278         91.367         64.077
         5787.0         13.260         75.105         62.658
         5787.5         13.251         61.091         61.732
         5788.0         13.253         58.952         62.037
         5788.5         13.255         63.144         63.465
         5789.0         13.257         85.388         64.894
         5789.5         13.260        100.341         65.767
         5790.0         13.262         99.513         65.493
         5790.5         13.264         86.011         64.673
         5791.0         13.267         70.470         63.749
         5791.5         13.269         57.328         63.024
         5792.0         13.271         44.623         62.764
         5792.5         13.274         47.687         62.790
         5793.0         13.276         50.946         63.688
         5793.5         13.278         77.399         64.457
         5794.0         13.281        101.408         65.157
         5794.5         13.283        114.322         65.480
         5795.0         13.285        103.169         65.197
         5795.5         13.287         90.976         64.721
         5796.0         13.290         78.322         64.490
         5796.5         13.292         72.351         64.354
         5797.0         13.294         69.004         64.140
         5797.5         13.297         63.574         63.450
         5798.0         13.299         58.014         62.760
         5798.5         13.301         52.454         62.359
         5799.0         13.304         47.449         62.403
         5799.5         13.306         46.437         63.060
         5800.0         13.308         48.914         63.716
         5800.5         13.311         56.077         64.172
         5801.0         13.313         63.536         63.646
         5801.5         13.315         67.803         62.527
         5802.0         13.313         60.405         61.408
         5802.5         13.305         52.755         60.444
         5803.0         13.297         48.818         60.313
         5803.5         13.288         49.855         61.360
         5804.0         13.280         58.099         62.408
         5804.5         13.272         70.448         63.360
         5805.0         13.264         83.336         63.778
         5805.5         13.256         95.418         64.195
         5806.0         13.248         95.715         64.440
         5806.5         13.239         93.000         64.115
         5807.0         13.231         90.285         63.534
         5807.5         13.223         91.992         63.075
         5808.0         13.215        104.341         63.129
         5808.5         13.207        118.028         64.095
         5809.0         13.187        114.276         64.993
         5809.5         13.161        107.655         64.785
         5810.0         13.136        101.034         63.891
         5810.5         13.110         87.612         63.052
         5811.0         13.096         74.277         62.629
         5811.5         13.109         73.922         62.388
         5812.0         13.121         73.614         62.647
         5812.5         13.134         83.685         62.905
         5813.0         13.146         93.755         63.506
         5813.5         13.159        102.610         64.256
         5814.0         13.172        111.029         64.628
         5814.5         13.179        107.824         64.422
         5815.0         13.165        103.717         64.029
         5815.5         13.151         99.752         63.635
         5816.0         13.137         97.250         63.394
         5816.5         13.123         97.812         63.659
         5817.0         13.109        105.009         64.148
         5817.5         13.095        112.206         64.542
         5818.0         13.081        112.444         64.664
         5818.5         13.067        106.990         64.494
