###############################################
##         ENVERUS                           ##
##         ESS - Open Hole                   ##
##         PERMIAN / DELAWARE                ##
##         Nov 04 2023  V4.0                 ##
##         42-389-32353-00-00                ##
###############################################
## Copyright 2017-2023  ENVERUS.  All Rights Reserved. 
## Confidential - Property of ENVERUS, use governed by terms and 
## conditions found within the existing Information Services Subscription Agreement 
## (as may be amended, the “ISSA”) between Customer and ENVERUS. 
## 
~VERSION INFORMATION
# MNEM.UNIT                               DATA : DESCRIPTION OF MNEMONIC
#-----.-----     ----------------------------- : -----------------------------
VERS.                                     2.00 : CWLS LOG ASCII STANDARD - VERSION 2.00
WRAP.                                       NO : MULTIPLE LINES PER DEPTH STEP
VEND.                                  ENVERUS : VENDOR
TYPE.                          ESS - OPEN HOLE : ENVERUS ESSENTIAL CURVES – ACCESSIBLE THROUGH ENVERUS PRISM(TM)
DOC.                                  31816014 : ENVERUS HEADER RAW DOCUMENT ID
#___________________________________________________________________________________________________ 
~WELL INFORMATION 
# N6wmpYeOPIEODBGNmaSz+o1WStwpnSM+Mr70h4S2k9wmNhpeTZrfoFyYX6I24xyp8IiB7B51j2C/wpla6NseZQ== 
# MNEM.UNIT                                              DATA : DESCRIPTION OF MNEMONIC 
#-----.-----                    ----------------------------- : ----------------------------- 
CNTY.                                                  REEVES : COUNTY 
STATE.                                                  TEXAS : STATE 
CNTRY.                                                    USA : COUNTRY 
API.                                             42-389-32353 : API (10 Digit) 
API_14.                                    42-389-32353-00-00 : API (14 Digits) 
API_14_std.                                 42-389-32353-0000 : API (14 Digits Standard) 
UWI.                                           42389323530000 : UNIQUE WELL ID 
WELL.                                             DORNFIELD 1 : WELL NAME
STRT.FT                                                 210.0 : START DEPTH
STOP.FT                                               13522.0 : STOP DEPTH
STEP.FT                                                   0.5 : STEP BETWEEN DEPTHS
NULL.                                                 -999.25 : NULL VALUE
LOC.                                                      UNK : LOCATION 
SRVC.                                                     UNK : SERVICE COMPANY
#___________________________________________________________________________________________________ 
~CURVE INFORMATION 
# MNEM.UNIT           : CURVE DESCRIPTION 
#-----.-----          : ----------------------------- 
 DEPT.FT               : MEASURED DEPTH 
 CALI.IN               : CALIPER (CAL - CAL) 
 GR.API                : GAMMA RAY (GR) 
 DT.US/FT              : SONIC DELTA TRANSIT TIME (DT) 
 RESS.OHMM             : SHALLOW INDUCTION RESISTIVITY (ILS - ILS) 
 RESD.OHMM             : DEEP INDUCTION RESISTIVITY (ILD - ILD) 
 DPHI.V/V              : DENSITY POROSITY (DPHI) 
 NPHI.V/V              : NEUTRON POROSITY (NPHI) 
 RHOB.G/CC             : BULK DENSITY (RHOB) 
 #___________________________________________________________________________________________________ 
~A         DEPT           CALI             GR             DT           RESS           RESD           DPHI           NPHI           RHOB
# ...
         3838.5          8.826         36.691       -999.250       -999.250       -999.250     -999.25000        0.02451      -999.2500
         3839.0          8.827         36.639       -999.250       -999.250       -999.250     -999.25000        0.04400      -999.2500
         3839.5          8.828         36.586       -999.250       -999.250       -999.250     -999.25000        0.05082      -999.2500
         3840.0          8.829         36.534       -999.250       -999.250       -999.250     -999.25000        0.03978      -999.2500
         3840.5          8.830         35.488       -999.250       -999.250       -999.250     -999.25000        0.01602      -999.2500
         3841.0          8.832         34.292       -999.250       -999.250       -999.250     -999.25000        0.02371      -999.2500
         3841.5          8.833         29.174       -999.250       -999.250       -999.250     -999.25000        0.04716      -999.2500
         3842.0          8.834         26.544       -999.250       -999.250       -999.250     -999.25000        0.07062      -999.2500
         3842.5          8.835         25.350       -999.250       -999.250       -999.250     -999.25000        0.09407      -999.2500
         3843.0          8.836         27.382       -999.250       -999.250       -999.250     -999.25000        0.11704      -999.2500
         3843.5          8.837         30.540       -999.250       -999.250       -999.250     -999.25000        0.09694      -999.2500
         3844.0          8.838         33.369       -999.250       -999.250       -999.250     -999.25000        0.07684      -999.2500
         3844.5          8.840         36.197       -999.250       -999.250       -999.250     -999.25000        0.05673      -999.2500
         3845.0          8.841         39.026       -999.250       -999.250       -999.250     -999.25000        0.03663      -999.2500
         3845.5          8.842         39.068       -999.250       -999.250       -999.250     -999.25000        0.01653      -999.2500
         3846.0          8.843         38.330       -999.250       -999.250       -999.250     -999.25000       -0.00358      -999.2500
         3846.5          8.844         36.795       -999.250       -999.250       -999.250     -999.25000       -0.02368      -999.2500
         3847.0          8.845         35.260       -999.250       -999.250       -999.250     -999.25000       -0.04378      -999.2500
         3847.5          8.846         33.724       -999.250       -999.250       -999.250     -999.25000       -0.05972      -999.2500
         3848.0          8.848         35.072       -999.250       -999.250       -999.250     -999.25000       -0.05362      -999.2500
         3848.5          8.849         36.999       -999.250       -999.250       -999.250     -999.25000       -0.04751      -999.2500
         3849.0          8.850         38.141       -999.250       -999.250       -999.250     -999.25000       -0.04141         2.6065
         3849.5          8.851         38.368       -999.250       -999.250       -999.250     -999.25000       -0.03530         2.5724
         3850.0          8.852         38.596       -999.250       -999.250       -999.250     -999.25000       -0.02920         2.5523
         3850.5          8.853         39.841       -999.250       -999.250       -999.250     -999.25000       -0.03607         2.5380
         3851.0          8.854         41.589       -999.250       -999.250       -999.250     -999.25000       -0.04302         2.5238
         3851.5          8.856         43.336       -999.250       -999.250       -999.250     -999.25000       -0.04998         2.5096
         3852.0          8.857         43.936       -999.250       -999.250       -999.250     -999.25000       -0.05693         2.4954
         3852.5          8.858         44.364       -999.250       -999.250       -999.250     -999.25000       -0.05853         2.4812
         3853.0          8.859         44.792       -999.250       -999.250       -999.250     -999.25000       -0.04154         2.4696
         3853.5          8.859         44.495       -999.250       -999.250       -999.250     -999.25000       -0.02455         2.4604
         3854.0          8.858         44.080       -999.250       -999.250       -999.250     -999.25000       -0.00757         2.4513
         3854.5          8.856         43.666       -999.250       -999.250       -999.250     -999.25000       -0.00491         2.4421
         3855.0          8.855         42.844         56.324       -999.250       -999.250     -999.25000       -0.01507         2.4330
         3855.5          8.853         41.791         56.336       -999.250       -999.250     -999.25000       -0.02083         2.4238
         3856.0          8.852         40.739         56.348       -999.250       -999.250     -999.25000       -0.02659         2.4147
         3856.5          8.850         39.686         56.361       -999.250       -999.250     -999.25000       -0.03234         2.4138
         3857.0          8.849         39.824         56.373       -999.250       -999.250     -999.25000       -0.03810         2.4163
         3857.5          8.847         40.883         56.380       -999.250       -999.250     -999.25000       -0.04281         2.4187
         3858.0          8.846         42.628         56.380       -999.250       -999.250     -999.25000       -0.03947         2.4196
         3858.5          8.844         45.373         56.409       -999.250       -999.250     -999.25000       -0.03406         2.4180
         3859.0          8.843         47.953         56.485       -999.250       -999.250     -999.25000       -0.02134         2.4163
         3859.5          8.841         45.650         56.561       -999.250       -999.250     -999.25000       -0.00862         2.4154
         3860.0          8.840         43.347         56.489       -999.250       -999.250     -999.25000        0.00410         2.4350
         3860.5          8.838         41.043         56.302       -999.250       -999.250     -999.25000       -0.01252         2.4547
         3861.0          8.836         39.784         56.114       -999.250       -999.250     -999.25000       -0.03300         2.4743
         3861.5          8.835         39.183         55.866       -999.250       -999.250     -999.25000       -0.04287         2.4819
         3862.0          8.833         38.582         55.536       -999.250       -999.250     -999.25000       -0.01872         2.4863
         3862.5          8.832         37.981         55.188       -999.250       -999.250     -999.25000        0.00542         2.4907
         3863.0          8.830         39.271         55.293       -999.250       -999.250     -999.25000        0.02957         2.4951
         3863.5          8.829         41.202         55.424       -999.250       -999.250     -999.25000        0.01832         2.5059
         3864.0          8.827         42.506         55.554       -999.250       -999.250     -999.25000       -0.00661         2.5183
         3864.5          8.826         42.783         55.738       -999.250       -999.250     -999.25000       -0.03154         2.5307
         3865.0          8.824         43.061         55.948       -999.250       -999.250     -999.25000       -0.04359         2.5286
         3865.5          8.823         43.338         56.158       -999.250       -999.250     -999.25000       -0.02286         2.5134
         3866.0          8.821         41.692         56.278       -999.250       -999.250     -999.25000       -0.00213         2.4982
         3866.5          8.820         39.923         56.180       -999.250       -999.250     -999.25000        0.01860         2.4830
         3867.0          8.818         38.674         55.883       -999.250       -999.250     -999.25000        0.00483         2.4678
         3867.5          8.817         40.340         55.846       -999.250       -999.250     -999.25000       -0.01508         2.4729
