#--------------------------------------------------#
#-------------------ENVERUS, INC.------------------#
#------------------WWW.ENVERUS.COM-----------------#
#------------------COPYRIGHT 2020------------------#
#--------------------------------------------------#
#THIS FILE MAY BE USED ONLY IN ACCORDANCE WITH A CURRENT SUBSCRIPTION AGREEMENT BETWEEN
#THE USER AND ENVERUS, INC. NO PART OF THIS FILE MAY BE REPRODUCED, USED, COPIED,
#MODIFIED, PROPAGATED, OR DISTRIBUTED EXCEPT IN ACCORDANCE WITH THE SUBSCRIPTION
#AGREEMENT. UNAUTHORIZED USE OR DISTRIBUTION OF ALL OR ANY PART OF THIS FILE MAY VIOLATE
#COPYRIGHT, TRADEMARK, AND/OR OTHER LAWS AND IS SUBJECT TO CIVIL AS WELL AS CRIMINAL
#SANCTIONS.
#--------------------------------------------------#
#THIS FILE IS PROVIDED "AS-IS" AND ALL WARRANTIES ARE EXPRESSLY DISCLAIMED, WHETHER
#EXPRESS, ORAL, IMPLIED, STATUTORY OR OTHERWISE, INCLUDING ANY IMPLIED WARRANTY OF FITNESS
#FOR A PARTICULAR PURPOSE, MERCHANTABILITY, TITLE OR NON-INFRINGEMENT, AND ANY WARRANTIES
#ARISING BY VIRTUE OF CUSTOM OF TRADE OR COURSE OF DEALING.  FURTHER, ENVERUS, INC.
#AND ITS LICENSORS DO NOT REPRESENT OR WARRANT THAT THIS FILE WILL MEET USER'S
#REQUIREMENTS OR ARE SUITABLE FOR USER'S NEEDS OR THAT THE DATA OR RESULTS PROVIDED IN
#CONJUNCTION THEREWITH ARE CORRECT, ACCURATE, TIMELY OR RELIABLE. THESE DISCLAIMERS SHALL
#APPLY REGARDLESS OF ANY FAILURE OF ESSENTIAL PURPOSE OF ANY LIMITED REMEDY.  SOME
#JURISDICTIONS DO NOT ALLOW THE EXCLUSION OF CERTAIN WARRANTIES SO SOME OF THE ABOVE
#EXCLUSIONS MAY NOT APPLY. IN NO EVENT SHALL ENVERUS, INC. OR ANY OF ITS AFFILIATES
#BE LIABLE UNDER ANY LEGAL THEORY, WHETHER IN TORT (INCLUDING WITHOUT LIMITATION
#NEGLIGENCE), CONTRACT, STRICT LIABILITY, STATUTORY OR OTHERWISE, FOR ANY SPECIAL,
#INCIDENTAL, CONSEQUENTIAL, EXEMPLARY, PUNITIVE OR INDIRECT DAMAGE OF ANY KIND, INCLUDING
#WITHOUT LIMITATION LOSS OF REVENUE, PROFITS, GOODWILL, USE, AND/OR DATA OR THE COST OF
#PROCUREMENT OF SUBSTITUTE GOODS OR SERVICES, EVEN IF APPRISED OF THE POSSIBILITY OF SUCH
#DAMAGES IN ADVANCE.
#--------------------------------------------------#

~VERSION INFORMATION
VERS. 2.0 : CWLS LOG ASCII STANDARD - VERSION 2.0
WRAP. NO : ONE LINE PER DEPTH STEP
~WELL INFORMATION
#MNEMONIC     .UNIT              VALUE :DESCRIPTION
STRT       .FT                2834.00000 :START DEPTH
STOP       .FT                7010.00000 :STOP DEPTH
STEP       .FT                0.50000 :STEP
NULL       .                -999.25000 :NULL VALUE
UWI       .                42389304120000 :UNIQUE WELL ID
API       .                42389304120000 :API NUMBER
COMP       .                 :COMPANY
WELL       .                 :WELL
FLD       .                 :FIELD
LOC       .                 :LOCATION
CNTY       .                 :COUNTY
STAT       .                 :STATE
CTRY       .                 :COUNTRY
SRVC       .                 :SERVICE COMPANY
DATE       .                 :DATE
~CURVE INFORMATION
#MNEMONIC     .UNIT      API CODE :CURVE DESCRIPTION
DEPTH       .FT                      :MEASURED DEPTH
CAL       .IN        UNKNOWN   :CAL
DT       .US/FT        UNKNOWN   :DT
GR       .GAPI        UNKNOWN   :GR
~A    DEPTH    CAL    DT    GR
# ...
4570.00000    14.30062    60.18585    29.05592
4570.50000    14.31052    56.95177    29.94592
4571.00000    14.32042    53.71771    30.85391
4571.50000    14.33032    50.48363    31.76191
4572.00000    14.34022    47.24956    32.66990
4572.50000    14.35012    44.01549    34.12927
4573.00000    14.36002    50.21182    37.90197
4573.50000    14.36992    59.62034    41.67467
4574.00000    14.37981    69.02886    45.38062
4574.50000    14.38971    74.15083    46.80762
4575.00000    14.39914    72.54255    48.23463
4575.50000    14.38828    70.93426    49.66163
4576.00000    14.37743    69.32598    51.08863
4576.50000    14.36657    71.97198    52.51564
4577.00000    14.35571    74.68636    51.63772
4577.50000    14.34485    77.40075    48.05229
4578.00000    14.33399    80.11513    44.46686
4578.50000    14.32313    76.52649    40.88143
4579.00000    14.31227    72.58480    37.29599
4579.50000    14.30870    68.64311    33.71056
4580.00000    14.31540    64.70141    30.12513
4580.50000    14.32211    62.90279    29.65737
4581.00000    14.32881    66.40906    30.30121
4581.50000    14.33552    69.91533    30.94505
4582.00000    14.34222    73.42160    31.58888
4582.50000    14.34893    76.92787    33.21329
4583.00000    14.35563    77.51481    36.73764
4583.50000    14.36234    68.43925    40.26198
4584.00000    14.36905    65.49591    42.29980
4584.50000    14.37575    66.97405    43.09603
4585.00000    14.38246    68.45218    43.89227
4585.50000    14.38916    69.93032    44.68850
4586.00000    14.38301    71.40845    45.48473
4586.50000    14.36917    72.59598    46.28096
4587.00000    14.35532    71.81309    47.84680
4587.50000    14.34147    71.03019    49.54650
4588.00000    14.32763    70.24730    51.24620
4588.50000    14.31378    69.46182    52.94590
4589.00000    14.29994    68.51201    54.71608
4589.50000    14.28609    67.56221    56.81890
4590.00000    14.27224    66.61240    58.92171
4590.50000    14.25840    65.66260    61.02453
4591.00000    14.24455    64.71279    64.84202
4591.50000    14.23071    65.39457    71.30451
4592.00000    14.21686    66.20077    77.76700
4592.50000    14.20302    67.00697    84.22948
4593.00000    14.18917    67.81317    90.69197
4593.50000    14.19330    67.80951    97.15446
4594.00000    14.21302    66.15378    79.02717
4594.50000    14.23275    64.49805    55.57495
4595.00000    14.25247    62.84232    47.91739
4595.50000    14.27219    64.05368    45.24240
4596.00000    14.29192    65.50121    42.56742
4596.50000    14.31164    66.94874    39.89244
4597.00000    14.33137    68.39627    37.21746
4597.50000    14.35109    69.84380    34.54247
4598.00000    14.37665    71.29133    35.20836
4598.50000    14.40721    72.73885    36.71990
4599.00000    14.43776    70.76924    38.23145
4599.50000    14.46831    67.23037    39.74299
4600.00000    14.49886    63.69151    41.25454
4600.50000    14.52941    60.23064    41.86254
4601.00000    14.55997    56.81461    42.01520
4601.50000    14.59052    53.39857    42.16786
4602.00000    14.62107    49.98253    42.32052
4602.50000    14.65162    46.56650    42.47317
4603.00000    14.68217    43.15046    42.62583
4603.50000    14.71273    49.35735    42.77849
4604.00000    14.74328    56.31445    42.93115
4604.50000    14.76469    63.27155    42.80758
4605.00000    14.77138    70.22864    41.11896
4605.50000    14.77806    77.18574    39.47708
4606.00000    14.78475    79.13845    37.98555
4606.50000    14.79144    79.10179    36.49401
4607.00000    14.79813    79.06513    35.00248
4607.50000    14.80482    79.02846    33.51094
4608.00000    14.81151    78.99180    32.03183
4608.50000    14.81820    78.95514    31.53937
4609.00000    14.82489    78.91848    31.04691
4609.50000    14.83158    78.88181    30.55445
4610.00000    14.83827    78.84515    30.06199
4610.50000    14.84496    78.80849    29.56953
4611.00000    14.85165    78.77183    29.45060
4611.50000    14.85834    78.73516    29.34241
4612.00000    14.86502    78.69850    29.23421
4612.50000    14.87171    73.84034    29.12602
4613.00000    14.87840    71.97794    29.01783
4613.50000    14.88509    73.12449    28.90963
4614.00000    14.89178    74.27105    28.80144
4614.50000    14.89847    75.41761    28.37418
4615.00000    14.90516    76.56416    27.83366
4615.50000    14.91185    77.71072    27.29313
4616.00000    14.91854    78.68194    26.75261
4616.50000    14.92523    78.60389    26.21208
4617.00000    14.93192    78.52584    25.67156
4617.50000    14.93860    78.44778    25.13103
4618.00000    14.94529    78.36973    24.59051
4618.50000    14.95198    78.29168    24.04998
4619.00000    14.94403    78.21363    23.91968
4619.50000    14.92614    78.13557    24.11416
4620.00000    14.90825    78.05752    24.30865
4620.50000    14.89036    77.97947    24.50314
4621.00000    14.87247    77.90141    24.69762
4621.50000    14.85458    77.30050    24.89211
4622.00000    14.83669    76.63811    25.08660
4622.50000    14.81880    75.97571    25.94631
4623.00000    14.80091    75.31331    26.92733
4623.50000    14.78303    74.65092    27.90834
4624.00000    14.76514    73.98852    28.88936
4624.50000    14.74725    73.32613    29.87037
4625.00000    14.72936    72.66373    30.85139
4625.50000    14.71147    72.00133    31.83240
4626.00000    14.69358    71.33894    32.81342
4626.50000    14.67569    70.67654    33.69236
4627.00000    14.65780    70.46227    34.49125
4627.50000    14.63991    70.75414    35.29013
4628.00000    14.62202    71.04602    36.08902
4628.50000    14.60413    71.33790    36.88790
4629.00000    14.58624    71.62977    37.68679
4629.50000    14.56836    71.92165    37.46390
4630.00000    14.55047    72.21353    35.79112
4630.50000    14.53258    71.50297    34.11834
4631.00000    14.51469    70.58996    32.44556
4631.50000    14.49680    69.67695    30.77277
4632.00000    14.47891    68.76395    29.09999
4632.50000    14.46102    67.85094    27.42721
4633.00000    14.44313    66.93793    26.29857
4633.50000    14.42524    66.02492    26.75535
4634.00000    14.44080    65.11191    27.21214
4634.50000    14.46074    64.19890    27.66893
4635.00000    14.48069    63.28590    28.12571
4635.50000    14.50063    63.87843    28.58250
4636.00000    14.52057    65.47565    29.80759
4636.50000    14.54052    67.07286    31.84967
4637.00000    14.56046    68.67007    33.89175
4637.50000    14.58040    70.26728    35.93383
4638.00000    14.60035    71.86449    41.48014
4638.50000    14.62029    73.46170    48.65481
4639.00000    14.64023    75.05891    55.82948
4639.50000    14.57623    76.65612    63.00415
4640.00000    14.48639    78.25333    69.50569
4640.50000    14.39654    79.85054    75.62883
4641.00000    14.30669    81.44775    81.75197
4641.50000    14.21685    83.04496    87.87511
4642.00000    14.12701    84.64217    93.99825
4642.50000    14.03716    82.44888    91.86630
4643.00000    13.94731    78.39290    85.98161
4643.50000    13.85747    74.33693    80.09692
4644.00000    13.76763    70.28095    74.21223
4644.50000    13.74098    67.96261    75.31129
4645.00000    13.74815    68.48356    77.63829
4645.50000    13.75532    69.00451    79.96529
4646.00000    13.76250    69.52546    82.29229
4646.50000    13.76967    70.04641    84.61929
4647.00000    13.77685    70.56736    86.94629
4647.50000    13.78402    71.08831    59.50549
4648.00000    13.79120    71.60926    50.49273
4648.50000    13.79837    72.13021    41.47996
4649.00000    13.80554    72.32267    32.46719
4649.50000    13.81272    72.02021    27.05205
4650.00000    13.81989    71.71775    27.64887
4650.50000    13.82706    71.41528    28.24570
4651.00000    13.83424    71.11282    28.84252
4651.50000    13.84141    64.33622    29.43934
4652.00000    13.85761    53.43618    30.03616
4652.50000    13.87722    47.74835    30.63298
4653.00000    13.89683    50.63365    31.22980
4653.50000    13.91644    53.51895    31.82662
4654.00000    13.93605    56.40425    31.83136
4654.50000    13.95567    59.28956    31.30292
4655.00000    13.97528    62.17486    30.77448
