#--------------------------------------------------#
#-------------------ENVERUS, INC.------------------#
#------------------WWW.ENVERUS.COM-----------------#
#------------------COPYRIGHT 2020------------------#
#--------------------------------------------------#
#THIS FILE MAY BE USED ONLY IN ACCORDANCE WITH A CURRENT SUBSCRIPTION AGREEMENT BETWEEN
#THE USER AND ENVERUS, INC. NO PART OF THIS FILE MAY BE REPRODUCED, USED, COPIED,
#MODIFIED, PROPAGATED, OR DISTRIBUTED EXCEPT IN ACCORDANCE WITH THE SUBSCRIPTION
#AGREEMENT. UNAUTHORIZED USE OR DISTRIBUTION OF ALL OR ANY PART OF THIS FILE MAY VIOLATE
#COPYRIGHT, TRADEMARK, AND/OR OTHER LAWS AND IS SUBJECT TO CIVIL AS WELL AS CRIMINAL
#SANCTIONS.
#--------------------------------------------------#
#THIS FILE IS PROVIDED "AS-IS" AND ALL WARRANTIES ARE EXPRESSLY DISCLAIMED, WHETHER
#EXPRESS, ORAL, IMPLIED, STATUTORY OR OTHERWISE, INCLUDING ANY IMPLIED WARRANTY OF FITNESS
#FOR A PARTICULAR PURPOSE, MERCHANTABILITY, TITLE OR NON-INFRINGEMENT, AND ANY WARRANTIES
#ARISING BY VIRTUE OF CUSTOM OF TRADE OR COURSE OF DEALING.  FURTHER, ENVERUS, INC.
#AND ITS LICENSORS DO NOT REPRESENT OR WARRANT THAT THIS FILE WILL MEET USER'S
#REQUIREMENTS OR ARE SUITABLE FOR USER'S NEEDS OR THAT THE DATA OR RESULTS PROVIDED IN
#CONJUNCTION THEREWITH ARE CORRECT, ACCURATE, TIMELY OR RELIABLE. THESE DISCLAIMERS SHALL
#APPLY REGARDLESS OF ANY FAILURE OF ESSENTIAL PURPOSE OF ANY LIMITED REMEDY.  SOME
#JURISDICTIONS DO NOT ALLOW THE EXCLUSION OF CERTAIN WARRANTIES SO SOME OF THE ABOVE
#EXCLUSIONS MAY NOT APPLY. IN NO EVENT SHALL ENVERUS, INC. OR ANY OF ITS AFFILIATES
#BE LIABLE UNDER ANY LEGAL THEORY, WHETHER IN TORT (INCLUDING WITHOUT LIMITATION
#NEGLIGENCE), CONTRACT, STRICT LIABILITY, STATUTORY OR OTHERWISE, FOR ANY SPECIAL,
#INCIDENTAL, CONSEQUENTIAL, EXEMPLARY, PUNITIVE OR INDIRECT DAMAGE OF ANY KIND, INCLUDING
#WITHOUT LIMITATION LOSS OF REVENUE, PROFITS, GOODWILL, USE, AND/OR DATA OR THE COST OF
#PROCUREMENT OF SUBSTITUTE GOODS OR SERVICES, EVEN IF APPRISED OF THE POSSIBILITY OF SUCH
#DAMAGES IN ADVANCE.
#--------------------------------------------------#

~VERSION INFORMATION
VERS. 2.0 : CWLS LOG ASCII STANDARD - VERSION 2.0
WRAP.  NO : ONE LINE PER DEPTH STEP
~WELL INFORMATION
#MNEMONIC     .UNIT              VALUE :DESCRIPTION
STRT       .FT                145 :START DEPTH
STOP       .FT                15608 :STOP DEPTH
STEP       .FT                   0.500 :STEP
NULL       .                  -999.250 :NULL
UWI        .              42389304120000 :UNIQUE WELL ID
API        .              42389304120000 :API NUMBER
COMP       .         BTA OIL PRODUCERS :COMPANY
WELL       .        7607 JV-P ORLA  1 :WELL
DATE       .                            :LOG DATE
~CURVE INFORMATION
#MNEMONIC     .UNIT      API CODE :CURVE DESCRIPTION
DEPTH       .FT                      :MEASURED DEPTH
DT.US/FT        UNKNOWN   :DT
CAL.INCH        UNKNOWN   :CAL
GR.API        UNKNOWN   :GR
~A    DEPTH    DT    CAL    GR
# ...
 7138.5     89.738   13.072   76.532
 7139     89.725   13.074   76.382
 7139.5     89.712   13.076   76.2
 7140     89.7   13.078   75.984
 7140.5     89.687   13.079   75.768
 7141     89.675   13.081   75.552
 7141.5     89.662   13.083   75.335
 7142     88.055   13.085   73.899
 7142.5     85.188   13.087   72.08
 7143     82.321   13.089   70.754
 7143.5     81.695   13.09   71.199
 7144     86.363   13.092   71.643
 7144.5     89.709   13.094   72.087
 7145     89.706   13.096   72.531
 7145.5     89.702   13.098   72.704
 7146     89.298   13.1   72.073
 7146.5     87.093   13.101   71.442
 7147     86.497   13.103   70.811
 7147.5     85.915   13.105   69.112
 7148     83.329   13.107   65.397
 7148.5     80.517   13.109   61.751
 7149     78.506   13.11   59.737
 7149.5     81.303   13.112   60.045
 7150     88.097   13.114   61.748
 7150.5     89.928   13.116   63.451
 7151     89.903   13.119   65.154
 7151.5     89.877   13.123   65.757
 7152     87.848   13.128   66.11
 7152.5     85.016   13.132   66.463
 7153     83.628   13.136   66.815
 7153.5     83.772   13.141   67.168
 7154     85.067   13.145   67.52
 7154.5     86.363   13.15   67.873
 7155     85.178   13.154   68.226
 7155.5     83.555   13.159   68.578
 7156     81.971   13.163   68.931
 7156.5     80.926   13.167   70.125
 7157     83.57   13.172   73.108
 7157.5     86.919   13.176   76.092
 7158     88.468   13.181   79.076
 7158.5     88.737   13.185   79.607
 7159     89.106   13.19   79.23
 7159.5     89.475   13.194   76.834
 7160     88.288   13.199   74.438
 7160.5     86.66   13.203   72.029
 7161     86.82   13.207   69.28
 7161.5     87.451   13.212   66.531
 7162     88.082   13.216   64.681
 7162.5     88.713   13.221   66.856
 7163     88.903   13.225   69.03
 7163.5     88.207   13.23   71.133
 7164     87.512   13.234   72.956
 7164.5     86.34   13.237   74.716
 7165     86.198   13.24   74.245
 7165.5     85.931   13.243   73.774
 7166     85.346   13.246   72.936
 7166.5     86.343   13.249   72.005
 7167     86.824   13.252   71.074
 7167.5     85.737   13.254   70.142
 7168     86.387   13.257   69.211
 7168.5     86.793   13.26   69.081
 7169     86.446   13.263   69.815
 7169.5     86.099   13.266   70.54
 7170     88.8   13.269   69.782
 7170.5     87.89   13.272   69.025
 7171     87.469   13.274   68.268
 7171.5     87.599   13.277   67.51
 7172     86.118   13.28   66.753
 7172.5     85.978   13.283   66.425
 7173     86.235   13.285   66.696
 7173.5     86.491   13.288   66.968
 7174     86.748   13.291   65.099
 7174.5     86.028   13.293   62.106
 7175     84.662   13.296   59.113
 7175.5     83.297   13.299   57.111
 7176     75.872   13.301   55.366
 7176.5     71.473   13.304   53.621
 7177     71.117   13.306   52.418
 7177.5     76.435   13.309   54.999
 7178     85.578   13.312   57.58
 7178.5     87.284   13.314   60.16
 7179     86.746   13.317   62.741
 7179.5     87.123   13.319   65.865
 7180     87.935   13.322   69.121
 7180.5     88.502   13.325   68.572
 7181     88.221   13.327   67.731
 7181.5     86.408   13.327   66.091
 7182     83.21   13.32   63.313
 7182.5     84.424   13.313   60.535
 7183     86.347   13.306   61.217
 7183.5     88.27   13.299   62.538
 7184     88.175   13.292   63.717
 7184.5     86.117   13.285   63.728
 7185     84.06   13.278   63.74
 7185.5     83.29   13.27   63.751
 7186     87.694   13.263   63.763
 7186.5     89.775   13.256   67.293
 7187     89.71   13.249   70.993
 7187.5     89.645   13.242   70.976
 7188     89.456   13.235   70.134
 7188.5     88.989   13.228   68.938
 7189     89.09   13.221   66.926
 7189.5     89.692   13.214   64.914
 7190     89.788   13.207   64.185
 7190.5     89.785   13.199   64.897
 7191     88.388   13.192   65.61
 7191.5     86.34   13.185   66.322
 7192     85.07   13.178   67.035
 7192.5     85.351   13.171   67.747
 7193     87.587   13.164   68.46
 7193.5     89.524   13.157   68.688
 7194     88.238   13.15   67.876
 7194.5     88.303   13.143   67.064
 7195     89.035   13.136   66.252
 7195.5     87.977   13.161   64.027
 7196     85.974   13.187   59.716
 7196.5     81.751   13.213   55.404
 7197     76.593   13.239   51.093
 7197.5     71.435   13.264   50.12
 7198     72.702   13.29   49.42
 7198.5     77.45   13.316   50.992
 7199     82.53   13.341   55.808
 7199.5     88.217   13.367   60.625
 7200     89.26   13.393   63.116
 7200.5     88.258   13.419   63.332
 7201     87.207   13.444   63.548
 7201.5     87.402   13.47   63.764
 7202     88.117   13.491   63.98
 7202.5     88.832   13.48   64.576
 7203     89.547   13.468   66.296
 7203.5     89.789   13.457   68.017
 7204     89.803   13.446   67.075
 7204.5     89.816   13.435   63.421
 7205     89.83   13.424   58.915
 7205.5     84.799   13.412   54.409
 7206     76.069   13.401   50.421
 7206.5     70.282   13.39   47.003
 7207     65.216   13.379   45.184
 7207.5     65.648   13.368   50.738
 7208     77.757   13.356   56.292
 7208.5     86.692   13.345   61.846
 7209     88.169   13.334   67.4
 7209.5     87.623   13.323   69.055
 7210     86.041   13.311   69.197
 7210.5     86.434   13.3   69.338
 7211     86.369   13.289   67.816
 7211.5     85.884   13.278   66.209
 7212     88.17   13.267   64.602
 7212.5     87.883   13.275   65.493
 7213     87.133   13.3   66.812
 7213.5     88.764   13.325   69.48
 7214     88.698   13.35   72.238
 7214.5     88.894   13.375   74.996
 7215     89.638   13.401   77.754
 7215.5     89.623   13.426   77.708
 7216     89.609   13.451   77.334
 7216.5     89.595   13.476   76.475
 7217     89.58   13.481   71.774
 7217.5     89.566   13.466   68.383
 7218     89.249   13.451   67.277
 7218.5     88.857   13.435   66.602
 7219     89.21   13.42   69.028
 7219.5     89.648   13.404   71.454
 7220     89.676   13.389   73.881
 7220.5     89.664   13.374   76.307
 7221     89.652   13.358   78.504
 7221.5     89.641   13.343   80.493
 7222     89.629   13.328   82.483
 7222.5     89.618   13.312   83.364
 7223     89.606   13.297   80.935
 7223.5     88.557   13.282   76.919
 7224     83.74   13.266   72.903
 7224.5     82.245   13.251   68.887
 7225     80.751   13.236   64.871
 7225.5     82.306   13.223   63.911
 7226     86.232   13.222   65.946
 7226.5     88.661   13.221   67.98
 7227     87.363   13.219   70.015
 7227.5     82.969   13.218   70.395
 7228     79.712   13.217   68.611
 7228.5     80.856   13.216   66.827
 7229     82   13.214   65.09
 7229.5     81.843   13.213   64.396
 7230     81.083   13.212   63.702
 7230.5     80.323   13.21   63.007
 7231     81.13   13.209   62.313
 7231.5     83.102   13.208   61.619
 7232     85.074   13.207   61.611
 7232.5     87.046   13.205   62.405
 7233     86.258   13.204   63.198
 7233.5     85.361   13.203   63.991
 7234     84.464   13.202   64.784
 7234.5     86.306   13.2   65.577
 7235     88.533   13.199   66.37
 7235.5     88.079   13.198   66.088
 7236     84.109   13.197   65.047
 7236.5     80.138   13.195   64.006
 7237     78.42   13.194   62.965
 7237.5     80.977   13.193   61.924
 7238     89.182   13.192   62.94
 7238.5     89.257   13.19   64.395
 7239     87.448   13.189   65.579
 7239.5     82.045   13.188   64.16
 7240     79.523   13.187   62.741
 7240.5     82.23   13.185   63.909
 7241     88.425   13.184   65.562
 7241.5     89.442   13.183   62.878
 7242     83.706   13.182   57.978
 7242.5     77.667   13.18   53.077
 7243     72.713   13.179   49.372
 7243.5     72.297   13.178   51.829
 7244     74.724   13.177   54.286
 7244.5     77.15   13.175   56.743
 7245     79.576   13.174   56.852
 7245.5     76.934   13.173   55.678
 7246     73.824   13.172   54.505
 7246.5     73.214   13.17   53.331
 7247     72.947   13.169   52.732
 7247.5     73.946   13.168   52.357
 7248     77.525   13.167   51.982
 7248.5     78.533   13.165   48.923
 7249     78.599   13.164   44.709
 7249.5     76.474   13.163   39.545
 7250     73.807   13.161   34.381
 7250.5     71.302   13.16   29.217
