###############################################
##         ENVERUS                           ##
##         ESS - Open Hole                   ##
##         PERMIAN / DELAWARE                ##
##         Nov 04 2023  V4.0                 ##
##         42-389-30259-00-00                ##
###############################################
## Copyright 2017-2023  ENVERUS.  All Rights Reserved. 
## Confidential - Property of ENVERUS, use governed by terms and 
## conditions found within the existing Information Services Subscription Agreement 
## (as may be amended, the “ISSA”) between Customer and ENVERUS. 
## 
~VERSION INFORMATION
# MNEM.UNIT                               DATA : DESCRIPTION OF MNEMONIC
#-----.-----     ----------------------------- : -----------------------------
VERS.                                     2.00 : CWLS LOG ASCII STANDARD - VERSION 2.00
WRAP.                                       NO : MULTIPLE LINES PER DEPTH STEP
VEND.                                  ENVERUS : VENDOR
TYPE.                          ESS - OPEN HOLE : ENVERUS ESSENTIAL CURVES – ACCESSIBLE THROUGH ENVERUS PRISM(TM)
DOC.                                  32063127 : ENVERUS HEADER RAW DOCUMENT ID
#___________________________________________________________________________________________________ 
~WELL INFORMATION 
# gPsidqVjAScFWwbHY3NvrhVb9Q0dnpAvxUas8qP1mSjKWoj7hBgJ2nw/4lW9Nf69eTG+8mlPQw3CFq6Jh/Hagw== 
# MNEM.UNIT                                              DATA : DESCRIPTION OF MNEMONIC 
#-----.-----                    ----------------------------- : ----------------------------- 
CNTY.                                                  REEVES : COUNTY 
STATE.                                                  TEXAS : STATE 
CNTRY.                                                    USA : COUNTRY 
API.                                             42-389-30259 : API (10 Digit) 
API_14.                                    42-389-30259-00-00 : API (14 Digits) 
API_14_std.                                 42-389-30259-0000 : API (14 Digits Standard) 
UWI.                                           42389302590000 : UNIQUE WELL ID 
WELL.                                         FORTUNE UNIT  1 : WELL NAME
STRT.FT                                                     0 : START DEPTH
STOP.FT                                               15675.0 : STOP DEPTH
STEP.FT                                                   0.5 : STEP BETWEEN DEPTHS
NULL.                                                 -999.25 : NULL VALUE
COMP.                          SANDRIDGE EXPL. AND PROD.  LLC : COMPANY 
DATE.                                             19-FEB-2007 : LOG DATE
#___________________________________________________________________________________________________ 
~CURVE INFORMATION 
# MNEM.UNIT           : CURVE DESCRIPTION 
#-----.-----          : ----------------------------- 
 DEPT.FT               : MEASURED DEPTH 
 CALI__B.IN            : CALIPER (CAL - CAL) 
 GR__B.API             : GAMMA RAY (GR) 
 DT__B.US/FT           : SONIC DELTA TRANSIT TIME (DT) 
 #___________________________________________________________________________________________________ 
~A         DEPT        CALI__B          GR__B          DT__B
# ...
        15642.0          7.514         14.453         46.757
        15642.5          7.495         16.076         46.459
        15643.0          7.477         16.127         46.819
        15643.5          7.459         14.963         47.178
        15644.0          7.441         13.798         47.537
        15644.5          7.423         14.415         47.897
        15645.0          7.405         15.416         48.149
        15645.5          7.387         15.714         48.156
        15646.0          7.369         15.131         48.164
        15646.5          7.351         14.547         48.172
        15647.0          7.333         15.013         48.180
        15647.5          7.314         15.630         48.188
        15648.0          7.296         15.445         48.195
        15648.5          7.278         15.260         48.203
        15649.0          7.260         14.853         48.211
        15649.5          7.219         14.003         48.219
        15650.0          7.169         15.311         48.227
        15650.5          7.118         14.385         48.234
        15651.0          7.068         13.340         48.242
        15651.5          7.018         13.607         48.250
        15652.0          7.106         13.086         48.258
        15652.5          7.221         12.562         48.266
        15653.0          7.219         14.259         48.273
        15653.5          7.218         15.873         48.281
        15654.0          7.216         15.633         48.289
        15654.5          7.215         15.393         48.297
        15655.0          7.213         15.153         48.305
        15655.5          7.212         14.913         48.312
        15656.0          7.210         15.155         48.320
        15656.5          7.209         15.873         48.328
        15657.0          7.207         16.591         48.331
        15657.5          7.206         15.384         48.334
        15658.0          7.205         14.025         48.337
        15658.5          7.203         12.666         48.341
        15659.0          7.202         13.438         48.344
        15659.5          7.200         14.258         48.347
        15660.0          7.199         14.464         48.350
        15660.5          7.197         13.752         48.353
        15661.0          7.196         13.039         48.356
        15661.5          7.194         12.327         48.359
        15662.0          7.193         12.006         48.362
        15662.5          7.191         12.791         48.365
        15663.0          7.190         13.575         48.368
        15663.5          7.188         14.360         48.371
        15664.0          7.187         14.037         48.374
        15664.5          7.185         13.582         48.377
        15665.0          7.184         13.127         48.381
        15665.5          7.182         12.588         48.384
        15666.0          7.181         12.043         48.387
        15666.5          7.180         12.405         48.390
        15667.0          7.178         12.802         48.393
        15667.5          7.177         13.200         48.396
        15668.0          7.175         13.603         48.399
        15668.5          7.174         14.937         48.402
        15669.0          7.172         15.928         48.405
        15669.5          7.171         15.685         48.408
        15670.0          7.169         15.441         48.411
        15670.5          7.168         15.685         48.414
        15671.0          7.166       -999.250         48.417
        15671.5          7.165       -999.250         48.421
        15672.0          7.163       -999.250         48.424
        15672.5          7.162       -999.250         48.427
        15673.0          7.160       -999.250         48.430
        15673.5          7.159       -999.250         48.433
        15674.0          7.158       -999.250         48.436
        15674.5          7.156       -999.250         48.439
        15675.0          7.155       -999.250         48.442
