###############################################
##         ENVERUS                           ##
##         ESS - Open Hole                   ##
##         PERMIAN / DELAWARE                ##
##         Nov 04 2023  V4.0                 ##
##         42-389-30297-00-00                ##
###############################################
## Copyright 2017-2023  ENVERUS.  All Rights Reserved. 
## Confidential - Property of ENVERUS, use governed by terms and 
## conditions found within the existing Information Services Subscription Agreement 
## (as may be amended, the “ISSA”) between Customer and ENVERUS. 
## 
~VERSION INFORMATION
# MNEM.UNIT                               DATA : DESCRIPTION OF MNEMONIC
#-----.-----     ----------------------------- : -----------------------------
VERS.                                     2.00 : CWLS LOG ASCII STANDARD - VERSION 2.00
WRAP.                                       NO : MULTIPLE LINES PER DEPTH STEP
VEND.                                  ENVERUS : VENDOR
TYPE.                          ESS - OPEN HOLE : ENVERUS ESSENTIAL CURVES – ACCESSIBLE THROUGH ENVERUS PRISM(TM)
DOC.                                  32306493 : ENVERUS HEADER RAW DOCUMENT ID
#___________________________________________________________________________________________________ 
~WELL INFORMATION 
# rQStLE5sYsP+YdYw4QOWpp6z6mWwFJBvCxgTqRv2Ioz+qyoYLl+79qTOna8BSHgUk5jTgp49hkgrAQ1kFKyHCg== 
# MNEM.UNIT                                              DATA : DESCRIPTION OF MNEMONIC 
#-----.-----                    ----------------------------- : ----------------------------- 
CNTY.                                                  REEVES : COUNTY 
STATE.                                                  TEXAS : STATE 
CNTRY.                                                    USA : COUNTRY 
API.                                             42-389-30297 : API (10 Digit) 
API_14.                                    42-389-30297-00-00 : API (14 Digits) 
API_14_std.                                 42-389-30297-0000 : API (14 Digits Standard) 
UWI.                                           42389302970000 : UNIQUE WELL ID 
WELL.                              R.S. BRENNAND, JR. ET AL 1 : WELL NAME
STRT.FT                                                   3.0 : START DEPTH
STOP.FT                                               13007.0 : STOP DEPTH
STEP.FT                                                   0.5 : STEP BETWEEN DEPTHS
NULL.                                                 -999.25 : NULL VALUE
#___________________________________________________________________________________________________ 
~CURVE INFORMATION 
# MNEM.UNIT           : CURVE DESCRIPTION 
#-----.-----          : ----------------------------- 
 DEPT.FT               : MEASURED DEPTH 
 CALI.IN               : CALIPER (CAL - CAL) 
 GR.API                : GAMMA RAY (GR) 
 DT.US/FT              : SONIC DELTA TRANSIT TIME (DT) 
 NPHI.V/V              : NEUTRON POROSITY (NPHI) 
 RHOB.G/CC             : BULK DENSITY (RHOB) 
 #___________________________________________________________________________________________________ 
~A         DEPT           CALI             GR             DT           NPHI           RHOB
# ...
        10035.0          7.015        110.754         78.221     -999.25000         2.5683
        10035.5          7.015        112.128         79.873     -999.25000         2.5198
        10036.0          7.014        112.509         81.363     -999.25000         2.5023
        10036.5          7.014        112.890         82.368     -999.25000         2.5073
        10037.0          7.014        111.803         83.372     -999.25000         2.5123
        10037.5          7.014        110.335         84.376     -999.25000         2.5173
        10038.0          7.013        108.867         85.380     -999.25000         2.5223
        10038.5          7.013        107.399         85.137     -999.25000         2.5273
        10039.0          7.013        105.931         84.394     -999.25000         2.5323
        10039.5          7.012        101.411         83.791     -999.25000         2.5456
        10040.0          7.012         88.745         83.408     -999.25000         2.5720
        10040.5          7.012         82.650         83.025     -999.25000         2.5953
        10041.0          7.012         83.504         82.642     -999.25000         2.5883
        10041.5          7.011         84.358         82.259     -999.25000         2.5813
        10042.0          7.011         85.212         81.876     -999.25000         2.5743
        10042.5          7.011         86.066         68.469     -999.25000         2.5673
        10043.0          7.010         86.920         70.348     -999.25000         2.5603
        10043.5          7.010         83.813         72.227     -999.25000         2.5533
        10044.0          7.010         77.517         74.106     -999.25000         2.5472
        10044.5          7.010         71.221         75.985     -999.25000         2.6140
        10045.0          7.009         69.958         77.864     -999.25000         2.6364
        10045.5          7.009         73.797         74.883     -999.25000         2.6301
        10046.0          7.009         77.637         70.775     -999.25000         2.6238
        10046.5          7.008         81.476         66.667     -999.25000         2.6176
        10047.0          7.008         85.315         62.558     -999.25000         2.6113
        10047.5          7.008         89.155         64.943     -999.25000         2.6050
        10048.0          7.007         92.994         69.386     -999.25000         2.5988
        10048.5          7.007         96.142         73.829     -999.25000         2.6000
        10049.0          7.007         64.082         78.273     -999.25000         2.6071
        10049.5          7.007         40.044         79.317     -999.25000         2.6142
        10050.0          7.006         43.092         75.601     -999.25000         2.6212
        10050.5          7.006         46.140         71.885     -999.25000         2.6283
        10051.0          7.006         49.188         68.169     -999.25000         2.6353
        10051.5          7.005         52.236         64.453     -999.25000         2.6423
        10052.0          7.005         52.067         60.737     -999.25000         2.6487
        10052.5          7.005         51.079         57.021     -999.25000         2.6551
        10053.0          7.005         50.090         57.496     -999.25000         2.6615
        10053.5          7.004         49.102         58.075     -999.25000         2.6679
        10054.0          7.004         48.113         58.654     -999.25000         2.6589
        10054.5          7.004         47.124         59.232     -999.25000         2.6389
        10055.0          7.003         53.688         59.847     -999.25000         2.6189
        10055.5          7.003         52.125         60.515     -999.25000         2.5989
        10056.0          7.003         50.561         61.183     -999.25000         2.5789
        10056.5          7.002         48.998         61.851     -999.25000         2.5554
        10057.0          7.002         54.315         62.518     -999.25000         2.5097
        10057.5          7.002         63.190         63.217     -999.25000         2.4641
        10058.0          7.002         72.065         64.253     -999.25000         2.4184
        10058.5          7.001         80.940         65.289     -999.25000         2.3727
        10059.0          7.135         89.250         66.325     -999.25000         2.3271
        10059.5          7.306         92.016         67.361     -999.25000         2.3007
        10060.0          7.478         94.781         68.397     -999.25000         2.3121
        10060.5          7.649         97.547         69.433     -999.25000         2.3235
        10061.0          7.820         97.779         70.469     -999.25000         2.3349
        10061.5          7.991         97.779         82.360     -999.25000         2.3463
        10062.0          8.162         97.779         82.684     -999.25000         2.3578
        10062.5          8.334         97.780         81.381     -999.25000         2.3725
        10063.0          8.322         93.211         80.079     -999.25000         2.4439
        10063.5          8.075         88.110         78.777     -999.25000         2.5060
        10064.0          7.828         83.009         78.457     -999.25000         2.5354
        10064.5          7.581         77.908         81.118     -999.25000         2.5647
        10065.0          7.334         72.807         83.778     -999.25000         2.5940
        10065.5          7.087         67.706         86.439     -999.25000         2.5556
        10066.0          6.921         75.059         87.451     -999.25000         2.5035
        10066.5          6.987         83.266         87.106     -999.25000         2.4514
        10067.0          7.053         91.472         86.761     -999.25000         2.4255
        10067.5          7.119         99.679         86.416     -999.25000         2.4091
        10068.0          7.302        107.886         86.071     -999.25000         2.3927
        10068.5          7.727        108.353         85.726     -999.25000         2.3763
        10069.0          8.152        106.229         85.381     -999.25000         2.3599
        10069.5          8.577        104.104         85.036     -999.25000         2.3561
        10070.0          9.003        101.979         84.692     -999.25000         2.3687
        10070.5          9.151         99.855         84.347     -999.25000         2.3812
        10071.0          8.944         97.730         85.274     -999.25000         2.3937
        10071.5          8.737         95.605         87.156     -999.25000         2.4063
        10072.0          8.530         92.186         86.256     -999.25000         2.4188
        10072.5          8.323         88.343         85.356     -999.25000         2.4313
        10073.0          8.115         84.500         84.457     -999.25000         2.4439
        10073.5          7.908         80.411         83.557     -999.25000         2.4966
        10074.0          7.701         76.280         81.787     -999.25000         2.5512
        10074.5          7.494         72.149         78.661     -999.25000         2.6059
        10075.0          7.287         68.018         75.535     -999.25000         2.6605
        10075.5          7.258         63.886         72.409     -999.25000         2.6417
        10076.0          7.254         59.755         69.283     -999.25000         2.6416
        10076.5          7.250         55.624         66.157     -999.25000         2.6663
        10077.0          7.247         51.493         63.030     -999.25000         2.6911
        10077.5          7.243         48.272         59.904     -999.25000         2.6950
        10078.0          7.240         52.947         56.778     -999.25000         2.6811
        10078.5          7.236         57.622         56.310     -999.25000         2.6672
