#--------------------------------------------------#
#-------------------ENVERUS, INC.------------------#
#------------------WWW.ENVERUS.COM-----------------#
#------------------COPYRIGHT 2020------------------#
#--------------------------------------------------#
#THIS FILE MAY BE USED ONLY IN ACCORDANCE WITH A CURRENT SUBSCRIPTION AGREEMENT BETWEEN
#THE USER AND ENVERUS, INC. NO PART OF THIS FILE MAY BE REPRODUCED, USED, COPIED,
#MODIFIED, PROPAGATED, OR DISTRIBUTED EXCEPT IN ACCORDANCE WITH THE SUBSCRIPTION
#AGREEMENT. UNAUTHORIZED USE OR DISTRIBUTION OF ALL OR ANY PART OF THIS FILE MAY VIOLATE
#COPYRIGHT, TRADEMARK, AND/OR OTHER LAWS AND IS SUBJECT TO CIVIL AS WELL AS CRIMINAL
#SANCTIONS.
#--------------------------------------------------#
#THIS FILE IS PROVIDED "AS-IS" AND ALL WARRANTIES ARE EXPRESSLY DISCLAIMED, WHETHER
#EXPRESS, ORAL, IMPLIED, STATUTORY OR OTHERWISE, INCLUDING ANY IMPLIED WARRANTY OF FITNESS
#FOR A PARTICULAR PURPOSE, MERCHANTABILITY, TITLE OR NON-INFRINGEMENT, AND ANY WARRANTIES
#ARISING BY VIRTUE OF CUSTOM OF TRADE OR COURSE OF DEALING.  FURTHER, ENVERUS, INC.
#AND ITS LICENSORS DO NOT REPRESENT OR WARRANT THAT THIS FILE WILL MEET USER'S
#REQUIREMENTS OR ARE SUITABLE FOR USER'S NEEDS OR THAT THE DATA OR RESULTS PROVIDED IN
#CONJUNCTION THEREWITH ARE CORRECT, ACCURATE, TIMELY OR RELIABLE. THESE DISCLAIMERS SHALL
#APPLY REGARDLESS OF ANY FAILURE OF ESSENTIAL PURPOSE OF ANY LIMITED REMEDY.  SOME
#JURISDICTIONS DO NOT ALLOW THE EXCLUSION OF CERTAIN WARRANTIES SO SOME OF THE ABOVE
#EXCLUSIONS MAY NOT APPLY. IN NO EVENT SHALL ENVERUS, INC. OR ANY OF ITS AFFILIATES
#BE LIABLE UNDER ANY LEGAL THEORY, WHETHER IN TORT (INCLUDING WITHOUT LIMITATION
#NEGLIGENCE), CONTRACT, STRICT LIABILITY, STATUTORY OR OTHERWISE, FOR ANY SPECIAL,
#INCIDENTAL, CONSEQUENTIAL, EXEMPLARY, PUNITIVE OR INDIRECT DAMAGE OF ANY KIND, INCLUDING
#WITHOUT LIMITATION LOSS OF REVENUE, PROFITS, GOODWILL, USE, AND/OR DATA OR THE COST OF
#PROCUREMENT OF SUBSTITUTE GOODS OR SERVICES, EVEN IF APPRISED OF THE POSSIBILITY OF SUCH
#DAMAGES IN ADVANCE.
#--------------------------------------------------#

~VERSION INFORMATION
VERS. 2.0 : CWLS LOG ASCII STANDARD - VERSION 2.0
WRAP.  NO : ONE LINE PER DEPTH STEP
~WELL INFORMATION
#MNEMONIC     .UNIT              VALUE :DESCRIPTION
STRT       .FT                0 :START DEPTH
STOP       .FT                13134 :STOP DEPTH
STEP       .FT                   0.500 :STEP
NULL       .                  -999.250 :NULL
UWI        .              42389303540000 :UNIQUE WELL ID
API        .              42389303540000 :API NUMBER
COMP       .         SMC OIL & GAS  INC. :COMPANY
WELL       .        TIFFANY STATE  1 :WELL
DATE       .                18-OCT-1995 :LOG DATE
~CURVE INFORMATION
#MNEMONIC     .UNIT      API CODE :CURVE DESCRIPTION
DEPTH       .FT                      :MEASURED DEPTH
DT.US/FT        UNKNOWN   :DT
CAL.INCH        UNKNOWN   :CAL
GR.API        UNKNOWN   :GR
~A    DEPTH    DT    CAL    GR
# ...
 10769     72.055   6.835   107.408
 10769.5     70.868   6.85   103.215
 10770     70.015   6.865   102.226
 10770.5     70.163   6.879   126.043
 10771     71.182   6.894   133.511
 10771.5     72.2   6.909   131.876
 10772     73.219   6.924   130.242
 10772.5     72.643   6.927   127.691
 10773     71.915   6.916   124.28
 10773.5     71.516   6.904   107.434
 10774     71.202   6.892   89.113
 10774.5     70.887   6.881   94.189
 10775     70.573   6.869   109.215
 10775.5     70.33   6.857   112.338
 10776     70.127   6.846   114.644
 10776.5     70.244   6.834   118.217
 10777     70.593   6.822   109.002
 10777.5     70.942   6.811   99.787
 10778     70.283   6.81   90.572
 10778.5     67.837   6.809   81.356
 10779     65.518   6.808   82.852
 10779.5     65.663   6.808   93.981
 10780     66.599   6.807   92.11
 10780.5     67.68   6.806   82.455
 10781     68.762   6.805   72.799
 10781.5     69.844   6.805   85.309
 10782     69.446   6.804   110.704
 10782.5     68.953   6.803   103.437
 10783     68.448   6.803   96.171
 10783.5     66.732   6.802   88.905
 10784     70.237   6.801   84.289
 10784.5     73.742   6.8   87.368
 10785     77.247   6.8   90.447
 10785.5     75.785   6.799   93.526
 10786     73.892   6.798   89.997
 10786.5     71.999   6.797   74.733
 10787     72.02   6.797   59.469
 10787.5     72.555   6.796   62.319
 10788     73.09   6.795   76.202
 10788.5     73.625   6.8   90.085
 10789     74.159   6.813   103.969
 10789.5     74.694   6.826   110.746
 10790     75.229   6.838   108.534
 10790.5     75.764   6.851   108.208
 10791     74.733   6.864   103.988
 10791.5     71.35   6.876   92.682
 10792     68.232   6.889   81.375
 10792.5     65.129   6.902   93.041
 10793     64.58   6.914   85.231
 10793.5     66.045   6.911   60.892
 10794     67.51   6.898   37.682
 10794.5     71.724   6.886   40.905
 10795     74.548   6.874   43.598
 10795.5     75.786   6.862   43.873
 10796     77.023   6.85   44.149
 10796.5     77.288   6.837   44.424
 10797     77.326   6.825   44.7
 10797.5     76.432   6.813   49.485
 10798     73.879   6.801   63.775
 10798.5     72.403   6.788   78.065
 10799     71.941   6.785   92.356
 10799.5     71.479   6.808   106.646
 10800     69.734   6.831   117.582
 10800.5     67.09   6.854   115.502
 10801     64.445   6.877   103.724
 10801.5     61.199   6.9   87.458
 10802     56.69   6.923   71.193
 10802.5     53.38   6.946   54.928
 10803     54.406   6.969   49.59
 10803.5     55.843   6.954   51.904
 10804     57.281   6.932   60.902
 10804.5     58.545   6.91   76.592
 10805     59.524   6.887   92.282
 10805.5     60.607   6.865   75.539
 10806     64.542   6.842   53.824
 10806.5     68.477   6.82   40.184
 10807     72.412   6.827   44.249
 10807.5     76.347   6.841   48.314
 10808     79.232   6.855   53.59
 10808.5     77.134   6.869   68.007
 10809     75.191   6.882   82.425
 10809.5     73.506   6.896   96.842
 10810     71.821   6.91   69.528
 10810.5     70.136   6.924   43.071
 10811     68.451   6.938   41.626
 10811.5     70.761   6.952   40.18
 10812     73.162   6.966   38.734
 10812.5     75.23   6.979   37.289
 10813     77.299   6.992   35.843
 10813.5     77.63   6.978   35.479
 10814     77.668   6.964   36.982
 10814.5     77.616   6.95   46.624
 10815     77.428   6.937   52.986
 10815.5     77.24   6.923   59.349
 10816     75.012   6.909   65.711
 10816.5     72.626   6.895   58.172
 10817     71.831   6.881   50.183
 10817.5     71.915   6.867   42.194
 10818     71.999   6.854   43.65
 10818.5     72.082   6.84   46.1
 10819     71.969   6.843   48.55
 10819.5     70.804   6.855   58.221
 10820     69.639   6.866   69.97
 10820.5     70.163   6.878   81.718
 10821     70.688   6.889   83.085
 10821.5     71.212   6.901   67.104
 10822     73.328   6.912   53.024
 10822.5     74.991   6.924   50.198
 10823     75.84   6.918   58.549
 10823.5     76.689   6.912   68.038
 10824     77.539   6.906   77.527
 10824.5     77.341   6.9   87.017
 10825     76.806   6.894   71.873
 10825.5     76.271   6.888   50.096
 10826     75.736   6.882   52.478
 10826.5     75.128   6.876   56.27
 10827     74.104   6.87   64.395
 10827.5     73.081   6.864   72.52
 10828     72.109   6.858   78.08
 10828.5     71.428   6.852   75.167
 10829     70.748   6.846   86.666
 10829.5     71.73   6.84   103.06
 10830     73.739   6.843   119.454
 10830.5     75.747   6.853   126.008
 10831     74.454   6.864   118.469
 10831.5     67.921   6.874   108.185
 10832     64.641   6.884   110.412
 10832.5     63.856   6.894   112.64
 10833     64.725   6.904   114.867
 10833.5     65.594   6.914   113.695
 10834     66.578   6.924   101.593
 10834.5     72.718   6.93   89.491
 10835     78.858   6.935   77.389
 10835.5     78.836   6.94   65.288
 10836     77.785   6.945   69.732
 10836.5     78.082   6.951   83.408
 10837     78.379   6.956   97.315
 10837.5     78.677   6.961   111.192
 10838     78.974   6.949   116.285
 10838.5     78.947   6.933   121.377
 10839     78.666   6.917   125.226
 10839.5     78.427   6.901   122.447
 10840     78.686   6.885   111.811
 10840.5     78.418   6.869   100.453
 10841     77.522   6.853   83.657
 10841.5     76.789   6.837   66.861
 10842     76.388   6.821   50.065
 10842.5     76.034   6.805   33.269
 10843     75.828   6.789   27.81
 10843.5     75.622   6.773   27.538
 10844     75.417   6.775   27.265
 10844.5     75.211   6.783   30.764
 10845     74.295   6.79   46.315
 10845.5     71.641   6.798   57.048
 10846     68.986   6.806   67.443
 10846.5     69.54   6.813   77.838
 10847     70.167   6.821   88.233
 10847.5     70.793   6.828   98.629
 10848     71.419   6.836   108.217
 10848.5     73.897   6.843   98.981
 10849     77.648   6.851   89.744
 10849.5     80.268   6.858   80.508
 10850     74.137   6.866   74.601
 10850.5     70.694   6.874   76.107
 10851     66.427   6.881   85.833
 10851.5     60.798   6.889   98.134
 10852     61.076   6.892   110.436
 10852.5     62.039   6.887   116.99
 10853     64.298   6.882   118.287
 10853.5     68.676   6.877   117.725
 10854     74.376   6.872   114.176
 10854.5     76.938   6.867   107.347
 10855     79.5   6.863   100.518
 10855.5     80.029   6.859   93.689
 10856     79.34   6.859   88.042
 10856.5     78.65   6.859   86.83
 10857     77.96   6.859   85.617
 10857.5     77.271   6.859   84.883
 10858     76.581   6.859   86.174
 10858.5     75.891   6.86   91.411
 10859     75.202   6.86   102.987
 10859.5     75.021   6.86   114.562
 10860     75.159   6.86   116.161
 10860.5     75.13   6.86   114.201
 10861     74.98   6.86   112.241
 10861.5     74.709   6.86   110.314
 10862     73.412   6.86   112.015
 10862.5     72.116   6.86   111.225
 10863     70.82   6.86   107.833
 10863.5     69.524   6.86   101.142
 10864     60.326   6.86   95.388
 10864.5     59.019   6.86   100.785
 10865     57.712   6.861   106.182
 10865.5     57.954   6.861   111.579
 10866     61.164   6.861   116.976
 10866.5     64.827   6.859   111.81
 10867     68.529   6.858   91.995
 10867.5     72.127   6.856   77.457
 10868     75.64   6.854   94.763
 10868.5     77.192   6.852   109.448
 10869     78.745   6.85   122.109
 10869.5     80.297   6.849   125.467
 10870     81.416   6.847   128.746
 10870.5     80.472   6.845   129.106
 10871     79.527   6.85   129.751
 10871.5     79.712   6.869   128.935
 10872     80.591   6.888   121.967
 10872.5     81.47   6.906   117.486
 10873     82.349   6.925   116.697
 10873.5     81.759   6.933   115.909
 10874     80.412   6.935   115.064
 10874.5     79.064   6.936   114.187
 10875     78.226   6.938   113.31
 10875.5     77.685   6.939   112.433
 10876     77.144   6.941   111.556
 10876.5     76.603   6.942   109.17
 10877     77.389   6.944   103.729
 10877.5     78.39   6.945   98.288
 10878     78.439   6.947   92.847
 10878.5     77.527   6.948   96.396
 10879     76.616   6.95   108.698
 10879.5     75.705   6.951   120.519
 10880     74.793   6.951   116.832
