#--------------------------------------------------#
#-------------------ENVERUS, INC.------------------#
#------------------WWW.ENVERUS.COM-----------------#
#------------------COPYRIGHT 2020------------------#
#--------------------------------------------------#
#THIS FILE MAY BE USED ONLY IN ACCORDANCE WITH A CURRENT SUBSCRIPTION AGREEMENT BETWEEN
#THE USER AND ENVERUS, INC. NO PART OF THIS FILE MAY BE REPRODUCED, USED, COPIED,
#MODIFIED, PROPAGATED, OR DISTRIBUTED EXCEPT IN ACCORDANCE WITH THE SUBSCRIPTION
#AGREEMENT. UNAUTHORIZED USE OR DISTRIBUTION OF ALL OR ANY PART OF THIS FILE MAY VIOLATE
#COPYRIGHT, TRADEMARK, AND/OR OTHER LAWS AND IS SUBJECT TO CIVIL AS WELL AS CRIMINAL
#SANCTIONS.
#--------------------------------------------------#
#THIS FILE IS PROVIDED "AS-IS" AND ALL WARRANTIES ARE EXPRESSLY DISCLAIMED, WHETHER
#EXPRESS, ORAL, IMPLIED, STATUTORY OR OTHERWISE, INCLUDING ANY IMPLIED WARRANTY OF FITNESS
#FOR A PARTICULAR PURPOSE, MERCHANTABILITY, TITLE OR NON-INFRINGEMENT, AND ANY WARRANTIES
#ARISING BY VIRTUE OF CUSTOM OF TRADE OR COURSE OF DEALING.  FURTHER, ENVERUS, INC.
#AND ITS LICENSORS DO NOT REPRESENT OR WARRANT THAT THIS FILE WILL MEET USER'S
#REQUIREMENTS OR ARE SUITABLE FOR USER'S NEEDS OR THAT THE DATA OR RESULTS PROVIDED IN
#CONJUNCTION THEREWITH ARE CORRECT, ACCURATE, TIMELY OR RELIABLE. THESE DISCLAIMERS SHALL
#APPLY REGARDLESS OF ANY FAILURE OF ESSENTIAL PURPOSE OF ANY LIMITED REMEDY.  SOME
#JURISDICTIONS DO NOT ALLOW THE EXCLUSION OF CERTAIN WARRANTIES SO SOME OF THE ABOVE
#EXCLUSIONS MAY NOT APPLY. IN NO EVENT SHALL ENVERUS, INC. OR ANY OF ITS AFFILIATES
#BE LIABLE UNDER ANY LEGAL THEORY, WHETHER IN TORT (INCLUDING WITHOUT LIMITATION
#NEGLIGENCE), CONTRACT, STRICT LIABILITY, STATUTORY OR OTHERWISE, FOR ANY SPECIAL,
#INCIDENTAL, CONSEQUENTIAL, EXEMPLARY, PUNITIVE OR INDIRECT DAMAGE OF ANY KIND, INCLUDING
#WITHOUT LIMITATION LOSS OF REVENUE, PROFITS, GOODWILL, USE, AND/OR DATA OR THE COST OF
#PROCUREMENT OF SUBSTITUTE GOODS OR SERVICES, EVEN IF APPRISED OF THE POSSIBILITY OF SUCH
#DAMAGES IN ADVANCE.
#--------------------------------------------------#

~VERSION INFORMATION
VERS. 2.0 : CWLS LOG ASCII STANDARD - VERSION 2.0
WRAP.  NO : ONE LINE PER DEPTH STEP
~WELL INFORMATION
#MNEMONIC     .UNIT              VALUE :DESCRIPTION
STRT       .FT                0 :START DEPTH
STOP       .FT                3396 :STOP DEPTH
STEP       .FT                   0.500 :STEP
NULL       .                  -999.250 :NULL
UWI        .              42389305140000 :UNIQUE WELL ID
API        .              42389305140000 :API NUMBER
COMP       .         SLEDGE BROS. OIL CO. :COMPANY
WELL       .        BOLLINGER  5 :WELL
DATE       .                            :LOG DATE
~CURVE INFORMATION
#MNEMONIC     .UNIT      API CODE :CURVE DESCRIPTION
DEPTH       .FT                      :MEASURED DEPTH
ILS.OHM        UNKNOWN   :ILS
GR.API        UNKNOWN   :GR
DT.US/FT        UNKNOWN   :DT
CAL.INCH        UNKNOWN   :CAL
ILD.OHM        UNKNOWN   :ILD
~A    DEPTH    ILS    GR    DT    CAL    ILD
# ...
 3356     5.578   63.277   75.186   6.506   4.838
 3356.5     5.752   65.024   74.932   6.504   5.057
 3357     5.927   66.04   74.648   6.5   5.333
 3357.5     6.259   65.755   74.34   6.495   5.966
 3358     6.574   65.47   74.031   6.49   5.961
 3358.5     6.595   66.048   73.909   6.486   5.857
 3359     6.113   66.114   74.51   6.481   5.164
 3359.5     5.282   65.424   75.51   6.477   4.471
 3360     4.616   64.733   76.51   6.472   3.532
 3360.5     4.05   64.043   77.51   6.467   3.084
 3361     3.787   63.603   78.307   6.463   2.861
 3361.5     3.768   63.009   78.759   6.458   2.847
 3362     3.75   61.78   78.697   6.463   2.87
 3362.5     3.977   60.953   77.611   6.47   3.163
 3363     4.366   60.876   76.059   6.476   3.891
 3363.5     4.916   64.238   74.654   6.483   4.543
 3364     5.466   67.599   73.249   6.487   5.194
 3364.5     5.959   68.095   72.495   6.485   5.844
 3365     6.411   67.502   72.829   6.484   6.326
 3365.5     6.863   68.028   72.79   6.482   6.744
 3366     7.182   69.973   72.564   6.48   7.162
 3366.5     7.499   70.223   72.374   6.478   7.528
 3367     7.816   66.976   72.187   6.476   7.738
 3367.5     8.133   63.728   71.999   6.474   7.947
 3368     8.245   61.06   71.856   6.472   8.156
 3368.5     8.349   61.76   71.73   6.471   8.187
 3369     8.379   62.46   71.604   6.469   8.076
 3369.5     8.38   62.583   71.723   6.467   7.963
 3370     8.3   62.403   71.998   6.465   7.838
 3370.5     7.934   62.933   72.341   6.463   7.514
 3371     7.569   64.661   72.703   6.461   7.191
 3371.5     7.203   64.978   73.065   6.46   6.868
 3372     6.98   62.579   73.427   6.458   6.545
 3372.5     6.836   60.142   73.706   6.456   6.468
 3373     6.798   57.706   73.578   6.454   6.411
 3373.5     6.799   56.882   72.464   6.452   6.354
 3374     6.234   56.879   72.198   6.455   5.796
 3374.5     5.289   56.882   73.112   6.459   4.944
 3375     4.808   -999.250   75.493   6.463   4.153
 3375.5     4.447   -999.250   78.324   6.467   3.807
 3376     4.19   -999.250   80.68   6.471   3.632
 3376.5     4.06   -999.250   81.119   6.474   3.657
 3377     4.05   -999.250   81.133   6.478   3.682
 3377.5     4.04   -999.250   81.146   6.477   3.595
 3378     4.044   -999.250   81.136   6.458   3.426
 3378.5     4.049   -999.250   81.088   6.439   3.436
 3379     4.054   -999.250   81.04   6.42   3.46
 3379.5     4.049   -999.250   80.993   6.401   3.484
 3380     -999.250   -999.250   81.025   6.382   3.508
 3380.5     -999.250   -999.250   81.091   6.375   3.57
 3381     -999.250   -999.250   81.157   6.385   3.656
 3381.5     -999.250   -999.250   81.222   6.395   3.665
 3382     -999.250   -999.250   81.288   6.405   3.613
 3382.5     -999.250   -999.250   81.187   6.415   3.561
 3383     -999.250   -999.250   81.039   6.43   3.509
 3383.5     -999.250   -999.250   80.925   6.445   3.458
 3384     -999.250   -999.250   81.017   6.46   3.419
 3384.5     -999.250   -999.250   81.109   6.475   3.434
 3385     -999.250   -999.250   81.201   6.889   3.449
 3385.5     -999.250   -999.250   81.271   7.194   3.464
 3386     -999.250   -999.250   81.271   7.45   3.478
 3386.5     -999.250   -999.250   81.271   7.411   3.493
 3387     -999.250   -999.250   -999.250   7.121   3.508
 3387.5     -999.250   -999.250   -999.250   6.859   3.532
 3388     -999.250   -999.250   -999.250   6.792   3.589
 3388.5     -999.250   -999.250   -999.250   6.799   3.597
 3389     -999.250   -999.250   -999.250   6.805   3.521
 3389.5     -999.250   -999.250   -999.250   6.812   3.456
 3390     -999.250   -999.250   -999.250   6.818   3.498
 3390.5     -999.250   -999.250   -999.250   6.825   3.508
 3391     -999.250   -999.250   -999.250   6.831   3.48
 3391.5     -999.250   -999.250   -999.250   6.838   3.451
 3392     -999.250   -999.250   -999.250   6.844   3.423
 3392.5     -999.250   -999.250   -999.250   6.838   3.394
 3393     -999.250   -999.250   -999.250   -999.250   3.415
 3393.5     -999.250   -999.250   -999.250   -999.250   3.455
 3394     -999.250   -999.250   -999.250   -999.250   3.496
 3394.5     -999.250   -999.250   -999.250   -999.250   3.536
 3395     -999.250   -999.250   -999.250   -999.250   3.576
 3395.5     -999.250   -999.250   -999.250   -999.250   3.593
 3396     -999.250   -999.250   -999.250   -999.250   3.593
