#--------------------------------------------------#
#-------------------ENVERUS, INC.------------------#
#------------------WWW.ENVERUS.COM-----------------#
#------------------COPYRIGHT 2020------------------#
#--------------------------------------------------#
#THIS FILE MAY BE USED ONLY IN ACCORDANCE WITH A CURRENT SUBSCRIPTION AGREEMENT BETWEEN
#THE USER AND ENVERUS, INC. NO PART OF THIS FILE MAY BE REPRODUCED, USED, COPIED,
#MODIFIED, PROPAGATED, OR DISTRIBUTED EXCEPT IN ACCORDANCE WITH THE SUBSCRIPTION
#AGREEMENT. UNAUTHORIZED USE OR DISTRIBUTION OF ALL OR ANY PART OF THIS FILE MAY VIOLATE
#COPYRIGHT, TRADEMARK, AND/OR OTHER LAWS AND IS SUBJECT TO CIVIL AS WELL AS CRIMINAL
#SANCTIONS.
#--------------------------------------------------#
#THIS FILE IS PROVIDED "AS-IS" AND ALL WARRANTIES ARE EXPRESSLY DISCLAIMED, WHETHER
#EXPRESS, ORAL, IMPLIED, STATUTORY OR OTHERWISE, INCLUDING ANY IMPLIED WARRANTY OF FITNESS
#FOR A PARTICULAR PURPOSE, MERCHANTABILITY, TITLE OR NON-INFRINGEMENT, AND ANY WARRANTIES
#ARISING BY VIRTUE OF CUSTOM OF TRADE OR COURSE OF DEALING.  FURTHER, ENVERUS, INC.
#AND ITS LICENSORS DO NOT REPRESENT OR WARRANT THAT THIS FILE WILL MEET USER'S
#REQUIREMENTS OR ARE SUITABLE FOR USER'S NEEDS OR THAT THE DATA OR RESULTS PROVIDED IN
#CONJUNCTION THEREWITH ARE CORRECT, ACCURATE, TIMELY OR RELIABLE. THESE DISCLAIMERS SHALL
#APPLY REGARDLESS OF ANY FAILURE OF ESSENTIAL PURPOSE OF ANY LIMITED REMEDY.  SOME
#JURISDICTIONS DO NOT ALLOW THE EXCLUSION OF CERTAIN WARRANTIES SO SOME OF THE ABOVE
#EXCLUSIONS MAY NOT APPLY. IN NO EVENT SHALL ENVERUS, INC. OR ANY OF ITS AFFILIATES
#BE LIABLE UNDER ANY LEGAL THEORY, WHETHER IN TORT (INCLUDING WITHOUT LIMITATION
#NEGLIGENCE), CONTRACT, STRICT LIABILITY, STATUTORY OR OTHERWISE, FOR ANY SPECIAL,
#INCIDENTAL, CONSEQUENTIAL, EXEMPLARY, PUNITIVE OR INDIRECT DAMAGE OF ANY KIND, INCLUDING
#WITHOUT LIMITATION LOSS OF REVENUE, PROFITS, GOODWILL, USE, AND/OR DATA OR THE COST OF
#PROCUREMENT OF SUBSTITUTE GOODS OR SERVICES, EVEN IF APPRISED OF THE POSSIBILITY OF SUCH
#DAMAGES IN ADVANCE.
#--------------------------------------------------#

~VERSION INFORMATION
VERS. 2.0 : CWLS LOG ASCII STANDARD - VERSION 2.0
WRAP.  NO : ONE LINE PER DEPTH STEP
~WELL INFORMATION
#MNEMONIC     .UNIT              VALUE :DESCRIPTION
STRT       .FT                0 :START DEPTH
STOP       .FT                15761 :STOP DEPTH
STEP       .FT                   0.500 :STEP
NULL       .                  -999.250 :NULL
UWI        .              42389302550000 :UNIQUE WELL ID
API        .              42389302550000 :API NUMBER
COMP       .         COASTAL STATES GAS PROD. CO. :COMPANY
WELL       .        CHAPMAN  MCGUIRE & WYNNE  3B :WELL
DATE       .                            :LOG DATE
~CURVE INFORMATION
#MNEMONIC     .UNIT      API CODE :CURVE DESCRIPTION
DEPTH       .FT                      :MEASURED DEPTH
GR.API        UNKNOWN   :GR
DT.US/FT        UNKNOWN   :DT
CAL.INCH        UNKNOWN   :CAL
~A    DEPTH    GR    DT    CAL
# ...
 11185.5     86.286   89.988   -999.250
 11186     84.425   92.264   -999.250
 11186.5     82.565   94.541   -999.250
 11187     80.696   91.672   -999.250
 11187.5     77.083   88.56   -999.250
 11188     73.471   82.323   -999.250
 11188.5     69.401   78.391   -999.250
 11189     64.905   75.709   -999.250
 11189.5     65.086   79.985   -999.250
 11190     68.56   87.91   -999.250
 11190.5     72.034   96.524   -999.250
 11191     75.508   97.653   -999.250
 11191.5     78.272   92.212   -999.250
 11192     79.63   85.694   -999.250
 11192.5     77.475   85.751   -999.250
 11193     75.246   85.145   -999.250
 11193.5     72.817   82.491   -999.250
 11194     70.388   82.774   -999.250
 11194.5     67.959   83.806   -999.250
 11195     70.315   86.276   -999.250
 11195.5     70.703   88.884   -999.250
 11196     64.238   86.18   -999.250
 11196.5     57.773   79.97   -999.250
 11197     51.308   67.422   -999.250
 11197.5     44.217   62.134   -999.250
 11198     50.137   63.007   -999.250
 11198.5     58.073   69.402   -999.250
 11199     66.009   78.775   -999.250
 11199.5     73.946   90.868   -999.250
 11200     81.882   92.986   -999.250
 11200.5     80.941   90.896   -999.250
 11201     76.185   87.559   -999.250
 11201.5     71.43   84.222   -999.250
 11202     66.674   80.741   -999.250
 11202.5     63.18   79.513   -999.250
 11203     62.75   78.286   -999.250
 11203.5     62.64   77.419   -999.250
 11204     62.568   77.007   -999.250
 11204.5     62.495   77.044   -999.250
 11205     62.422   77.22   -999.250
 11205.5     61.899   76.812   -999.250
 11206     61.182   76.405   -999.250
 11206.5     60.373   75.814   -999.250
 11207     59.163   74.855   -999.250
 11207.5     57.953   73.897   -999.250
 11208     56.743   72.938   -999.250
 11208.5     55.533   71.98   -999.250
 11209     52.341   70.904   -999.250
 11209.5     48.414   69.201   -999.250
 11210     43.372   67.48   -999.250
 11210.5     37.289   64.285   -999.250
 11211     32.904   60.509   -999.250
 11211.5     29.659   56.541   -999.250
 11212     27.039   54.013   -999.250
 11212.5     29.69   53.452   -999.250
 11213     33.748   55.971   -999.250
 11213.5     37.839   58.739   -999.250
 11214     41.93   61.494   -999.250
 11214.5     46.02   62.463   -999.250
 11215     51.084   64.527   -999.250
 11215.5     57.376   67.73   -999.250
 11216     63.667   73.976   -999.250
 11216.5     69.959   83.554   -999.250
 11217     76.251   92.156   -999.250
 11217.5     77.031   92.531   -999.250
 11218     77.029   90.311   -999.250
 11218.5     77.028   88.097   -999.250
 11219     77.532   87.107   -999.250
 11219.5     78.509   87.229   -999.250
 11220     79.486   87.128   -999.250
 11220.5     79.988   84.595   -999.250
 11221     77.832   82.458   -999.250
 11221.5     75.676   82.987   -999.250
 11222     76.046   84.954   -999.250
 11222.5     77.774   87.658   -999.250
 11223     77.642   87.814   -999.250
 11223.5     74.726   86.43   -999.250
 11224     71.811   85.046   -999.250
 11224.5     71.838   84.282   -999.250
 11225     73.611   85.02   -999.250
 11225.5     75.163   83.333   -999.250
 11226     74.675   84.025   -999.250
 11226.5     74.186   85.344   -999.250
 11227     73.745   85.927   -999.250
 11227.5     75.196   87.076   -999.250
 11228     76.646   89.6   -999.250
 11228.5     78.097   90.17   -999.250
 11229     77.556   91.528   -999.250
 11229.5     76.872   90.651   -999.250
 11230     76.188   85.621   -999.250
 11230.5     72.488   82.061   -999.250
 11231     68.306   80.54   -999.250
 11231.5     69.327   80.881   -999.250
 11232     70.745   83.167   -999.250
 11232.5     71.095   85.627   -999.250
 11233     69.84   84.8   -999.250
 11233.5     71.048   84.301   -999.250
 11234     71.373   85.498   -999.250
 11234.5     67.895   84.64   -999.250
 11235     64.417   83.783   -999.250
 11235.5     60.939   82.724   -999.250
 11236     56.002   80.67   -999.250
 11236.5     49.259   73.427   -999.250
 11237     42.515   65.546   -999.250
 11237.5     37.639   57.092   -999.250
 11238     42.483   55.945   -999.250
 11238.5     51.492   60.755   -999.250
 11239     61.966   68.384   -999.250
 11239.5     70.22   78.946   -999.250
 11240     75.475   87.894   -999.250
 11240.5     79.264   87.858   -999.250
 11241     74.592   83.984   -999.250
 11241.5     69.92   79.909   -999.250
 11242     67.534   78.749   -999.250
 11242.5     68.695   79.083   -999.250
 11243     69.857   84.185   -999.250
 11243.5     69.174   85.096   -999.250
 11244     64.245   83.8   -999.250
 11244.5     59.316   80.554   -999.250
 11245     54.388   75.192   -999.250
 11245.5     50.274   68.128   -999.250
 11246     50.094   64.569   -999.250
 11246.5     54.458   65.498   -999.250
 11247     63.466   70.195   -999.250
 11247.5     70.563   80.44   -999.250
 11248     77.08   88.168   -999.250
 11248.5     82.054   89.118   -999.250
 11249     80.672   90.057   -999.250
 11249.5     80.322   90.783   -999.250
 11250     83.148   91.586   -999.250
 11250.5     83.226   88.364   -999.250
 11251     76.707   85.142   -999.250
 11251.5     68.468   81.921   -999.250
 11252     63.728   78.699   -999.250
 11252.5     62.116   77.605   -999.250
 11253     61.148   77.445   -999.250
 11253.5     60.181   77.05   -999.250
 11254     56.856   74.459   -999.250
 11254.5     49.284   69.704   -999.250
 11255     41.712   63.748   -999.250
 11255.5     38.552   58.145   -999.250
 11256     43.52   56.422   -999.250
 11256.5     49.544   61.979   -999.250
 11257     57.414   68.855   -999.250
 11257.5     65.283   77.898   -999.250
 11258     71.929   83.854   -999.250
 11258.5     73.902   86.242   -999.250
 11259     75.112   87.075   -999.250
 11259.5     73.856   87.294   -999.250
 11260     71.478   85.8   -999.250
 11260.5     68.235   83.672   -999.250
 11261     65.626   81.51   -999.250
 11261.5     71.179   82.535   -999.250
 11262     76.151   84.893   -999.250
 11262.5     74.265   87.164   -999.250
 11263     72.378   88.702   -999.250
 11263.5     67.926   84.792   -999.250
 11264     64.743   80.882   -999.250
 11264.5     62.122   77.866   -999.250
 11265     62.772   75.961   -999.250
 11265.5     64.191   75.625   -999.250
 11266     65.609   75.289   -999.250
 11266.5     66.289   75.247   -999.250
 11267     66.884   75.685   -999.250
 11267.5     69.308   75.567   -999.250
 11268     70.058   76.47   -999.250
 11268.5     67.652   77.633   -999.250
 11269     65.245   77.611   -999.250
 11269.5     62.839   76.609   -999.250
 11270     56.382   74.475   -999.250
 11270.5     48.481   70.41   -999.250
 11271     40.576   65.703   -999.250
 11271.5     32.262   61.507   -999.250
 11272     24.742   57.446   -999.250
 11272.5     24.338   53.083   -999.250
 11273     23.935   50.77   -999.250
 11273.5     28.296   49.091   -999.250
 11274     33.411   50.221   -999.250
 11274.5     45.848   58.648   -999.250
 11275     58.013   66.135   -999.250
 11275.5     60.588   78.355   -999.250
 11276     62.445   82.376   -999.250
 11276.5     60.107   79.081   -999.250
 11277     58.549   75.191   -999.250
 11277.5     57.833   71.78   -999.250
 11278     58.441   72.564   -999.250
 11278.5     59.373   76.056   -999.250
 11279     62.088   79.548   -999.250
 11279.5     66.206   82.942   -999.250
 11280     70.324   82.716   -999.250
 11280.5     73.949   82.49   -999.250
 11281     73.609   85.642   -999.250
 11281.5     70.694   83.988   -999.250
 11282     67.779   82.335   -999.250
 11282.5     68.07   81.331   -999.250
 11283     69.06   81.045   -999.250
 11283.5     70.049   81.538   -999.250
 11284     71.038   81.857   -999.250
 11284.5     68.536   81.977   -999.250
 11285     65.618   79.975   -999.250
 11285.5     63.108   80.123   -999.250
 11286     63.533   81.005   -999.250
 11286.5     63.959   79.835   -999.250
 11287     63.236   79.373   -999.250
 11287.5     60.065   77.363   -999.250
 11288     56.894   72.343   -999.250
 11288.5     53.722   67.324   -999.250
