#--------------------------------------------------#
#-------------------ENVERUS, INC.------------------#
#------------------WWW.ENVERUS.COM-----------------#
#------------------COPYRIGHT 2020------------------#
#--------------------------------------------------#
#THIS FILE MAY BE USED ONLY IN ACCORDANCE WITH A CURRENT SUBSCRIPTION AGREEMENT BETWEEN
#THE USER AND ENVERUS, INC. NO PART OF THIS FILE MAY BE REPRODUCED, USED, COPIED,
#MODIFIED, PROPAGATED, OR DISTRIBUTED EXCEPT IN ACCORDANCE WITH THE SUBSCRIPTION
#AGREEMENT. UNAUTHORIZED USE OR DISTRIBUTION OF ALL OR ANY PART OF THIS FILE MAY VIOLATE
#COPYRIGHT, TRADEMARK, AND/OR OTHER LAWS AND IS SUBJECT TO CIVIL AS WELL AS CRIMINAL
#SANCTIONS.
#--------------------------------------------------#
#THIS FILE IS PROVIDED "AS-IS" AND ALL WARRANTIES ARE EXPRESSLY DISCLAIMED, WHETHER
#EXPRESS, ORAL, IMPLIED, STATUTORY OR OTHERWISE, INCLUDING ANY IMPLIED WARRANTY OF FITNESS
#FOR A PARTICULAR PURPOSE, MERCHANTABILITY, TITLE OR NON-INFRINGEMENT, AND ANY WARRANTIES
#ARISING BY VIRTUE OF CUSTOM OF TRADE OR COURSE OF DEALING.  FURTHER, ENVERUS, INC.
#AND ITS LICENSORS DO NOT REPRESENT OR WARRANT THAT THIS FILE WILL MEET USER'S
#REQUIREMENTS OR ARE SUITABLE FOR USER'S NEEDS OR THAT THE DATA OR RESULTS PROVIDED IN
#CONJUNCTION THEREWITH ARE CORRECT, ACCURATE, TIMELY OR RELIABLE. THESE DISCLAIMERS SHALL
#APPLY REGARDLESS OF ANY FAILURE OF ESSENTIAL PURPOSE OF ANY LIMITED REMEDY.  SOME
#JURISDICTIONS DO NOT ALLOW THE EXCLUSION OF CERTAIN WARRANTIES SO SOME OF THE ABOVE
#EXCLUSIONS MAY NOT APPLY. IN NO EVENT SHALL ENVERUS, INC. OR ANY OF ITS AFFILIATES
#BE LIABLE UNDER ANY LEGAL THEORY, WHETHER IN TORT (INCLUDING WITHOUT LIMITATION
#NEGLIGENCE), CONTRACT, STRICT LIABILITY, STATUTORY OR OTHERWISE, FOR ANY SPECIAL,
#INCIDENTAL, CONSEQUENTIAL, EXEMPLARY, PUNITIVE OR INDIRECT DAMAGE OF ANY KIND, INCLUDING
#WITHOUT LIMITATION LOSS OF REVENUE, PROFITS, GOODWILL, USE, AND/OR DATA OR THE COST OF
#PROCUREMENT OF SUBSTITUTE GOODS OR SERVICES, EVEN IF APPRISED OF THE POSSIBILITY OF SUCH
#DAMAGES IN ADVANCE.
#--------------------------------------------------#

~VERSION INFORMATION
VERS. 2.0 : CWLS LOG ASCII STANDARD - VERSION 2.0
WRAP.  NO : ONE LINE PER DEPTH STEP
~WELL INFORMATION
#MNEMONIC     .UNIT              VALUE :DESCRIPTION
STRT       .FT                25 :START DEPTH
STOP       .FT                17136 :STOP DEPTH
STEP       .FT                   0.500 :STEP
NULL       .                  -999.250 :NULL
UWI        .              42389302310000 :UNIQUE WELL ID
API        .              42389302310000 :API NUMBER
COMP       .         EDISTO RESOURCES CORPORATION :COMPANY
WELL       .        WIGGINS  ORLA  1 :WELL
DATE       .                            :LOG DATE
~CURVE INFORMATION
#MNEMONIC     .UNIT      API CODE :CURVE DESCRIPTION
DEPTH       .FT                      :MEASURED DEPTH
CAL.INCH        UNKNOWN   :CAL
ILS.OHM        UNKNOWN   :ILS
SP.MV        UNKNOWN   :SP
DT.US/FT        UNKNOWN   :DT
GR.API        UNKNOWN   :GR
ILD.OHM        UNKNOWN   :ILD
~A    DEPTH    CAL    ILS    SP    DT    GR    ILD
# ...
 12474     10.556   -999.99   -28.833   67.238   45.843   12.95
 12474.5     10.556   -999.99   -29.27   74.31   50.563   12.534
 12475     10.555   -999.99   -29.707   76.44   57.27   12.119
 12475.5     10.561   -999.99   -30.143   77.372   63.977   11.704
 12476     10.573   -999.99   -30.328   76.923   67.345   11.289
 12476.5     10.586   -999.99   -30.326   76.473   68.02   10.874
 12477     10.606   -999.99   -30.324   75.821   68.694   10.459
 12477.5     10.626   -999.99   -30.321   75.048   69.649   10.38
 12478     10.646   -999.99   -30.319   73.791   70.694   10.381
 12478.5     10.666   -999.99   -30.781   71.708   71.489   10.373
 12479     10.686   -999.99   -31.383   69.625   71.42   10.326
 12479.5     10.706   -999.99   -31.985   69.645   66.989   10.278
 12480     10.726   -999.99   -32.587   71.209   62.557   10.23
 12480.5     10.746   -999.99   -33.189   74.748   61.8   10.183
 12481     10.766   -999.99   -33.791   76.953   62.265   10.323
 12481.5     10.786   -999.99   -34.475   77.296   65.214   10.997
 12482     10.806   -999.99   -36.386   74.707   67.144   11.672
 12482.5     10.826   -999.99   -38.298   69.673   66.384   14.279
 12483     10.846   -999.99   -40.209   64.794   61.88   16.885
 12483.5     10.866   -999.99   -42.121   62.157   57.109   19.492
 12484     10.887   -999.99   -44.032   59.52   53.068   26.458
 12484.5     10.907   -999.99   -45.943   61.195   49.05   35.233
 12485     10.927   -999.99   -47.855   61.909   45.032   40.603
 12485.5     10.94   -999.99   -49.766   62.214   41.764   43.56
 12486     10.936   -999.99   -51.184   62.616   40.788   44.558
 12486.5     10.933   -999.99   -51.9   63.971   42.476   43.539
 12487     10.929   -999.99   -52.615   65.167   45.253   42.519
 12487.5     10.926   -999.99   -53.331   66.191   48.32   41.972
 12488     10.922   -999.99   -54.046   66.861   49.699   41.848
 12488.5     10.919   -999.99   -54.762   66.247   49.765   41.724
 12489     10.915   -999.99   -55.477   64.579   49.832   41.601
 12489.5     10.911   -999.99   -56.193   63.234   49.484   41.477
 12490     10.908   -999.99   -56.909   61.889   49.095   41.694
 12490.5     10.904   -999.99   -57.624   61.907   47.074   42.347
 12491     10.901   -999.99   -58.34   63.469   44.482   42.999
 12491.5     10.897   -999.99   -59.055   65.301   41.891   43.652
 12492     10.894   -999.99   -59.088   66.392   41.783   44.33
 12492.5     10.89   -999.99   -59.03   65.587   41.723   45.056
 12493     10.887   -999.99   -58.971   64.105   41.659   45.782
 12493.5     10.883   -999.99   -58.912   62.101   41.586   46.508
 12494     10.88   -999.99   -58.853   60.849   41.513   47.578
 12494.5     10.833   -999.99   -58.794   59.721   41.44   49.09
 12495     10.784   -999.99   -58.735   60.333   41.366   50.602
 12495.5     10.735   -999.99   -58.676   61.218   42.019   52.114
 12496     10.695   -999.99   -58.618   61.811   42.813   54.246
 12496.5     10.729   -999.99   -57.829   60.87   43.607   56.478
 12497     10.764   -999.99   -56.588   59.929   44.031   58.709
 12497.5     10.799   -999.99   -55.386   56.204   42.324   62.322
 12498     10.834   -999.99   -54.809   54.869   38.196   75.013
 12498.5     10.831   -999.99   -54.233   54.42   34.067   87.703
 12499     10.817   -999.99   -53.656   53.971   30.875   100.393
 12499.5     10.803   -999.99   -53.079   54.06   31.215   106.718
 12500     10.789   -999.99   -52.502   54.151   32.261   101.554
 12500.5     10.776   -999.99   -51.926   54.564   33.582   95.156
 12501     10.762   -999.99   -51.349   56.425   35.7   83.803
 12501.5     10.749   -999.99   -50.942   58.918   37.819   72.45
 12502     10.755   -999.99   -50.608   61.412   39.941   61.097
 12502.5     10.76   -999.99   -50.274   62.253   42.066   54.414
 12503     10.765   -999.99   -49.94   60.955   47.454   50.779
 12503.5     10.77   -999.99   -49.607   59.657   48.215   48.241
 12504     10.775   -999.99   -49.273   58.637   47.994   48.701
 12504.5     10.775   -999.99   -48.939   58.847   47.774   54.89
 12505     10.768   -999.99   -48.605   58.184   47.553   64.448
 12505.5     10.76   -999.99   -48.272   57.521   47.333   74.007
 12506     10.753   -999.99   -47.938   56.442   47.225   83.451
 12506.5     10.746   -999.99   -47.572   53.895   47.228   76.458
 12507     10.738   -999.99   -46.816   55.29   47.232   69.465
 12507.5     10.731   -999.99   -46.059   57.022   47.235   62.472
 12508     10.724   -999.99   -45.302   58.912   48.302   56.295
 12508.5     10.717   -999.99   -44.545   61.871   51.307   52.033
 12509     10.719   -999.99   -43.788   64.142   54.312   47.77
 12509.5     10.728   -999.99   -43.425   63.954   56.724   43.508
 12510     10.737   -999.99   -43.086   63.766   56.32   39.246
 12510.5     10.746   -999.99   -42.747   61.577   51.476   35.235
 12511     10.755   -999.99   -42.408   59.739   43.042   34.124
 12511.5     10.764   -999.99   -42.068   59.717   40.096   33.013
 12512     10.754   -999.99   -41.729   61.912   37.302   31.991
 12512.5     10.702   -999.99   -41.39   62.821   36.294   31.215
 12513     10.65   -999.99   -41.051   63.213   38.94   30.439
 12513.5     10.597   -999.99   -40.712   62.833   42.001   29.662
 12514     10.545   -999.99   -40.375   62.454   45.062   28.886
 12514.5     10.518   -999.99   -40.437   62.75   44.542   28.109
 12515     10.528   -999.99   -40.498   63.275   42.631   28.104
 12515.5     10.538   -999.99   -40.559   62.528   41.811   29.697
 12516     10.549   -999.99   -40.62   61.227   41.523   31.29
 12516.5     10.559   -999.99   -40.682   59.926   40.338   32.883
 12517     10.569   -999.99   -40.743   58.625   37.641   35.291
 12517.5     10.579   -999.99   -40.804   57.427   36.733   39.753
 12518     10.589   -999.99   -40.866   56.691   36.229   44.216
 12518.5     10.599   -999.99   -40.927   56.772   36.232   48.192
 12519     10.609   -999.99   -40.988   57.398   36.236   50.789
 12519.5     10.619   -999.99   -41.049   58.025   37.373   53.385
 12520     10.629   -999.99   -40.74   58.651   38.818   52.029
 12520.5     10.639   -999.99   -40.366   59.277   40.264   48.779
 12521     10.649   -999.99   -39.992   59.903   41.709   46.145
 12521.5     10.659   -999.99   -39.618   60.529   42.364   44.116
 12522     10.669   -999.99   -39.244   61.093   42.915   42.088
 12522.5     10.679   -999.99   -38.87   60.914   43.42   40.1
 12523     10.689   -999.99   -38.728   60.734   43.424   40.379
 12523.5     10.699   -999.99   -38.694   60.555   43.55   40.659
 12524     10.709   -999.99   -38.659   61.762   44.031   40.938
 12524.5     10.719   -999.99   -38.624   63.236   44.747   41.217
 12525     10.729   -999.99   -38.589   63.958   47.287   36.51
 12525.5     10.74   -999.99   -38.555   64.111   49.758   25.371
 12526     10.75   -999.99   -38.52   63.137   50.054   28.042
 12526.5     10.76   -999.99   -38.485   59.702   49.189   30.945
 12527     10.77   -999.99   -38.45   56.25   42.263   37.919
 12527.5     10.78   -999.99   -38.416   55.139   37.603   55.721
 12528     10.779   -999.99   -38.381   54.039   34.075   74.493
 12528.5     10.777   -999.99   -38.048   53.43   30.548   97.426
 12529     10.775   -999.99   -37.672   53.221   31.157   120.36
 12529.5     10.772   -999.99   -37.296   53.348   32.026   143.293
 12530     10.77   -999.99   -36.92   54.699   34.199   138.747
 12530.5     10.768   -999.99   -36.544   56.895   36.406   132.831
 12531     10.766   -999.99   -36.168   59.501   40.525   87.466
 12531.5     10.764   -999.99   -35.793   62.149   44.891   59.421
 12532     10.762   -999.99   -35.417   64.641   49.257   42.374
 12532.5     10.759   -999.99   -35.041   66.494   55.953   28.95
 12533     10.757   -999.99   -34.665   68.046   63.384   26.081
 12533.5     10.755   -999.99   -34.289   67.406   65.11   25.301
 12534     10.753   -999.99   -33.913   64.872   64.76   26.12
 12534.5     10.751   -999.99   -33.537   62.588   63.643   28.583
 12535     10.749   -999.99   -33.797   60.403   58.542   32.069
