###############################################
##         ENVERUS                           ##
##         ESS - Open Hole                   ##
##         PERMIAN / DELAWARE                ##
##         Nov 04 2023  V4.0                 ##
##         42-389-30259-00-00                ##
###############################################
## Copyright 2017-2023  ENVERUS.  All Rights Reserved. 
## Confidential - Property of ENVERUS, use governed by terms and 
## conditions found within the existing Information Services Subscription Agreement 
## (as may be amended, the “ISSA”) between Customer and ENVERUS. 
## 
~VERSION INFORMATION
# MNEM.UNIT                               DATA : DESCRIPTION OF MNEMONIC
#-----.-----     ----------------------------- : -----------------------------
VERS.                                     2.00 : CWLS LOG ASCII STANDARD - VERSION 2.00
WRAP.                                       NO : MULTIPLE LINES PER DEPTH STEP
VEND.                                  ENVERUS : VENDOR
TYPE.                          ESS - OPEN HOLE : ENVERUS ESSENTIAL CURVES – ACCESSIBLE THROUGH ENVERUS PRISM(TM)
DOC.                                  32063127 : ENVERUS HEADER RAW DOCUMENT ID
#___________________________________________________________________________________________________ 
~WELL INFORMATION 
# gPsidqVjAScFWwbHY3NvrhVb9Q0dnpAvxUas8qP1mSjKWoj7hBgJ2nw/4lW9Nf69eTG+8mlPQw3CFq6Jh/Hagw== 
# MNEM.UNIT                                              DATA : DESCRIPTION OF MNEMONIC 
#-----.-----                    ----------------------------- : ----------------------------- 
CNTY.                                                  REEVES : COUNTY 
STATE.                                                  TEXAS : STATE 
CNTRY.                                                    USA : COUNTRY 
API.                                             42-389-30259 : API (10 Digit) 
API_14.                                    42-389-30259-00-00 : API (14 Digits) 
API_14_std.                                 42-389-30259-0000 : API (14 Digits Standard) 
UWI.                                           42389302590000 : UNIQUE WELL ID 
WELL.                                         FORTUNE UNIT  1 : WELL NAME
STRT.FT                                                     0 : START DEPTH
STOP.FT                                               15675.0 : STOP DEPTH
STEP.FT                                                   0.5 : STEP BETWEEN DEPTHS
NULL.                                                 -999.25 : NULL VALUE
COMP.                          SANDRIDGE EXPL. AND PROD.  LLC : COMPANY 
DATE.                                             19-FEB-2007 : LOG DATE
#___________________________________________________________________________________________________ 
~CURVE INFORMATION 
# MNEM.UNIT           : CURVE DESCRIPTION 
#-----.-----          : ----------------------------- 
 DEPT.FT               : MEASURED DEPTH 
 CALI__B.IN            : CALIPER (CAL - CAL) 
 GR__B.API             : GAMMA RAY (GR) 
 DT__B.US/FT           : SONIC DELTA TRANSIT TIME (DT) 
 #___________________________________________________________________________________________________ 
~A         DEPT        CALI__B          GR__B          DT__B
# ...
         5478.0         13.180         29.726         68.257
         5478.5         13.180         29.277         67.351
         5479.0         13.180         29.180         66.446
         5479.5         13.180         30.405         65.540
         5480.0         13.180         31.630         65.273
         5480.5         13.180         31.070         64.557
         5481.0         13.180         30.171         62.888
         5481.5         13.179         29.272         61.653
         5482.0         13.179         28.372         61.554
         5482.5         13.179         32.231         62.832
         5483.0         13.179         36.175         64.423
         5483.5         13.179         35.669         65.958
         5484.0         13.179         35.006         66.763
         5484.5         13.179         33.974         66.786
         5485.0         13.179         32.942         66.485
         5485.5         13.179         31.910         66.626
         5486.0         13.179         32.222         66.593
         5486.5         13.179         34.618         66.310
         5487.0         13.179         38.051         66.471
         5487.5         13.179         40.733         66.507
         5488.0         13.179         40.519         66.390
         5488.5         13.179         42.919         66.859
         5489.0         13.179         44.635         67.357
         5489.5         13.179         43.093         67.855
         5490.0         13.179         44.972         68.493
         5490.5         13.179         48.568         68.770
         5491.0         13.179         52.163         68.044
         5491.5         13.179         54.980         67.002
         5492.0         13.179         56.170         66.154
         5492.5         13.179         53.639         66.550
         5493.0         13.179         48.549         67.703
         5493.5         13.179         39.893         70.103
         5494.0         13.178         31.236         70.712
         5494.5         13.178         28.669         70.107
         5495.0         13.150         28.441         67.507
         5495.5         13.105         28.248         63.607
         5496.0         13.059         28.054         60.627
         5496.5         13.014         29.655         59.833
         5497.0         13.007         31.470         61.546
         5497.5         13.051         33.718         63.231
         5498.0         13.095         36.387         64.335
         5498.5         13.139         39.200         65.509
         5499.0         13.184         42.436         67.114
         5499.5         13.204         45.860         67.991
         5500.0         13.215         52.266         68.627
         5500.5         13.226         58.672         69.566
         5501.0         13.196         62.470         67.997
         5501.5         13.145         63.369         66.850
         5502.0         13.094         68.300         66.241
         5502.5         13.043         75.462         65.270
         5503.0         12.992         82.015         65.554
         5503.5         12.941         88.567         65.559
         5504.0         12.930         89.331         64.548
         5504.5         12.954         84.397         63.689
         5505.0         12.978         74.795         63.582
         5505.5         13.002         73.193         62.909
         5506.0         13.025         75.413         62.292
         5506.5         13.049         73.107         63.704
         5507.0         13.073         68.249         64.187
         5507.5         13.097         63.392         64.671
         5508.0         13.120         58.534         64.747
         5508.5         13.120         58.054         64.101
         5509.0         13.114         57.466         63.649
         5509.5         13.108         55.968         63.425
         5510.0         13.102         57.595         63.599
         5510.5         13.096         58.500         63.950
         5511.0         13.090         57.564         64.302
         5511.5         13.084         59.650         64.346
         5512.0         13.078         61.736         64.534
         5512.5         13.072         63.422         64.590
         5513.0         13.066         64.597         64.429
         5513.5         13.060         65.645         64.471
         5514.0         13.054         63.448         64.540
         5514.5         13.048         60.617         64.515
         5515.0         13.042         60.385         64.488
         5515.5         13.036         61.366         64.462
         5516.0         13.030         63.097         64.651
         5516.5         13.024         66.577         64.927
         5517.0         13.018         75.042         66.167
         5517.5         13.012         81.732         67.636
         5518.0         13.006         86.725         67.936
         5518.5         13.028         88.759         68.097
         5519.0         13.067         85.484         68.258
         5519.5         13.107         79.575         67.581
         5520.0         13.146         61.464         67.185
         5520.5         13.171         42.807         67.255
         5521.0         13.146         36.543         66.475
         5521.5         13.122         33.845         65.695
         5522.0         13.098         35.255         62.580
         5522.5         13.074         37.141         60.223
         5523.0         13.050         41.876         59.316
         5523.5         13.026         47.608         59.316
         5524.0         13.002         53.757         61.069
         5524.5         12.991         59.713         62.930
         5525.0         13.008         59.713         64.338
         5525.5         13.025         58.561         64.728
         5526.0         13.036         55.515         64.866
         5526.5         13.029         52.335         64.963
         5527.0         13.023         50.310         64.603
         5527.5         13.016         50.858         64.038
         5528.0         13.010         55.097         63.752
         5528.5         13.003         59.077         63.818
         5529.0         12.997         62.226         63.979
         5529.5         12.990         63.488         64.140
         5530.0         12.984         63.488         64.229
         5530.5         12.977         67.616         64.213
         5531.0         12.971         72.530         64.198
         5531.5         12.969         78.518         64.843
         5532.0         12.972         82.413         66.015
         5532.5         12.976         78.480         66.431
         5533.0         12.979         74.547         66.329
         5533.5         12.982         74.594         65.728
         5534.0         12.982         75.007         64.409
         5534.5         12.973         73.761         63.840
         5535.0         12.963         72.516         64.699
         5535.5         12.954         67.476         65.480
         5536.0         12.951         59.365         65.234
         5536.5         12.954         45.870         66.414
         5537.0         12.956         34.251         66.894
         5537.5         12.959         30.796         66.282
         5538.0         12.961         28.657         65.670
         5538.5         12.964         27.159         64.768
         5539.0         12.967         26.232         63.786
         5539.5         12.969         26.082         62.790
         5540.0         12.972         26.398         62.193
         5540.5         12.974         27.206         61.778
         5541.0         12.977         29.051         61.363
         5541.5         12.979         32.994         60.948
         5542.0         12.982         36.937         61.376
         5542.5         12.985         39.186         61.919
         5543.0         12.987         39.935         63.826
         5543.5         12.990         44.343         64.310
