#--------------------------------------------------#
#-------------------ENVERUS, INC.------------------#
#------------------WWW.ENVERUS.COM-----------------#
#------------------COPYRIGHT 2020------------------#
#--------------------------------------------------#
#THIS FILE MAY BE USED ONLY IN ACCORDANCE WITH A CURRENT SUBSCRIPTION AGREEMENT BETWEEN
#THE USER AND ENVERUS, INC. NO PART OF THIS FILE MAY BE REPRODUCED, USED, COPIED,
#MODIFIED, PROPAGATED, OR DISTRIBUTED EXCEPT IN ACCORDANCE WITH THE SUBSCRIPTION
#AGREEMENT. UNAUTHORIZED USE OR DISTRIBUTION OF ALL OR ANY PART OF THIS FILE MAY VIOLATE
#COPYRIGHT, TRADEMARK, AND/OR OTHER LAWS AND IS SUBJECT TO CIVIL AS WELL AS CRIMINAL
#SANCTIONS.
#--------------------------------------------------#
#THIS FILE IS PROVIDED "AS-IS" AND ALL WARRANTIES ARE EXPRESSLY DISCLAIMED, WHETHER
#EXPRESS, ORAL, IMPLIED, STATUTORY OR OTHERWISE, INCLUDING ANY IMPLIED WARRANTY OF FITNESS
#FOR A PARTICULAR PURPOSE, MERCHANTABILITY, TITLE OR NON-INFRINGEMENT, AND ANY WARRANTIES
#ARISING BY VIRTUE OF CUSTOM OF TRADE OR COURSE OF DEALING.  FURTHER, ENVERUS, INC.
#AND ITS LICENSORS DO NOT REPRESENT OR WARRANT THAT THIS FILE WILL MEET USER'S
#REQUIREMENTS OR ARE SUITABLE FOR USER'S NEEDS OR THAT THE DATA OR RESULTS PROVIDED IN
#CONJUNCTION THEREWITH ARE CORRECT, ACCURATE, TIMELY OR RELIABLE. THESE DISCLAIMERS SHALL
#APPLY REGARDLESS OF ANY FAILURE OF ESSENTIAL PURPOSE OF ANY LIMITED REMEDY.  SOME
#JURISDICTIONS DO NOT ALLOW THE EXCLUSION OF CERTAIN WARRANTIES SO SOME OF THE ABOVE
#EXCLUSIONS MAY NOT APPLY. IN NO EVENT SHALL ENVERUS, INC. OR ANY OF ITS AFFILIATES
#BE LIABLE UNDER ANY LEGAL THEORY, WHETHER IN TORT (INCLUDING WITHOUT LIMITATION
#NEGLIGENCE), CONTRACT, STRICT LIABILITY, STATUTORY OR OTHERWISE, FOR ANY SPECIAL,
#INCIDENTAL, CONSEQUENTIAL, EXEMPLARY, PUNITIVE OR INDIRECT DAMAGE OF ANY KIND, INCLUDING
#WITHOUT LIMITATION LOSS OF REVENUE, PROFITS, GOODWILL, USE, AND/OR DATA OR THE COST OF
#PROCUREMENT OF SUBSTITUTE GOODS OR SERVICES, EVEN IF APPRISED OF THE POSSIBILITY OF SUCH
#DAMAGES IN ADVANCE.
#--------------------------------------------------#

# EXPORTED FROM TRANSFORM SOFTWARE 5.2.0 ON 31-MAY-2019 BY USER BRIAN.UMLANG
# DI TRANSFORM - A PRODUCT OF DRILLINGINFO, INC. - WWW.DRILLINGINFO.COM
#
~VERSION INFORMATION
 VERS.        2.0 : LAS ASCII STANDARD - VERSION 2.0
 WRAP.         NO : ONE LINE PER DEPTH STEP

~WELL INFORMATION
#MNEM.UNIT       DATA TYPE       INFORMATION
#---------       ---------       -----------
 STRT.FT                 256 : START DEPTH
 STOP.FT                4706 : STOP DEPTH
 STEP.FT                 0.5 : STEP LENGTH
 NULL.               -999.25 : NULL VALUE
 UWI.         42301312890000 : UNIQUE WELL ID
 API.         42301312890000 : WELL IDENTIFIER
 COMP.                       : COMPANY
 WELL.  42301312890000_API14 : WELL NAME
 FLD.                        : FIELD NAME
 LOC.                        : WELL LOCATION
 CNTY.                       : COUNTY
 STAT.                       : STATE OR PROVINCE
 CTRY.                       : COUNTRY
 SRVC.                       : SERVICE COMPANY
 DATE.                       : DATE

~CURVE INFORMATION
#MNEM.UNIT       API CODE       CURVE DESCRIPTION
#---------       --------       -----------------
 DEPT.FT          : <MEASURED DEPTH>
 CAL.IN           : CALIPER
 DPHI.%           : DENSITY POROSITY
 DT.US/FT         : SONIC
 GR.GAPI          : GAMMA RAY
 ILD.OHMM         : DEEP RESISTIVITY
 ILS.OHMM         : SHALLOW RESISTIVITY
 NPHI.%           : NEUTRON POROSITY
 PE.B/ELEC        : PHOTOELECTRIC FACTOR
 RHOB.G/CM3       : DENSITY

~PARAMETER INFORMATION
#MNEM.UNIT       VALUE       DESCRIPTION
#---------       -----       -----------
 EKB.FT      2822 : ELEVATION ABOVE MSL

~A      DEPT         CAL        DPHI          DT          GR         ILD         ILS        NPHI          PE        RHOB
# ...
        3271        9.88     18.4221     80.7214     68.8439     13.8059      3.1129     20.6278      2.5451      2.4121
      3271.5         9.9     18.4221     80.6188     70.3593     13.8432      3.1725     20.9457      2.5484      2.4121
        3272         9.9     18.4221     80.3922     70.9581     14.3272      3.2231     20.5327      2.5852      2.4122
      3272.5        9.92     18.4221      80.101      70.324     14.4606      3.2531     19.7787      2.6453      2.4129
        3273        9.92     18.2917     79.8918     69.4611     14.4606      3.2531     19.8189      2.6453      2.4134
      3273.5        9.92     17.9964     79.8098     68.8623     14.4606      3.2231     20.6773      2.6453      2.4164
        3274        9.92     17.7235     79.7996     67.8752      14.195      3.1639     21.0218      2.6253      2.4202
      3274.5        9.92     17.6583     79.7661     67.0659      14.195      3.1347     21.3078      2.5538      2.4241
        3275        9.92     17.5976     79.5261      68.151     14.4606      3.1816     21.2676      2.5123      2.4237
      3275.5        9.92     17.2356     79.1211     71.1646     15.3791      3.3139      21.418       2.505       2.434
        3276        9.92      16.533     78.5202      74.214     16.1149      3.4612      21.583       2.505      2.4437
      3276.5        9.94     15.6575     78.0326     76.2261     17.0016      3.6946     21.7907      2.5618      2.4631
        3277        9.94     15.6502      77.678     75.2582      17.694      3.7652     21.6707      2.5852      2.4536
      3277.5          10     16.6284     77.8802     73.0323     17.7303      3.8499     21.3509      2.5852      2.4336
        3278       10.02     17.4146     78.5654     71.0256     17.2656       3.773     20.9015      2.5852      2.4213
      3278.5       10.02     18.2602     79.2948     70.1096     16.9416      3.7037     20.6304      2.5852       2.414
        3279       10.02     18.5041     79.5691     70.3275     16.6168      3.6037     20.5433      2.6052      2.4104
      3279.5       10.02     18.3957     79.6275     71.2436     16.4636      3.6022     20.5835      2.6052      2.4146
        3280       10.02     17.8691     79.4184     71.8602     16.1612      3.5675     20.2616      2.6052      2.4227
      3280.5       10.02     17.4536     79.1074     72.7545     15.8516      3.4391     20.3051      2.6052      2.4301
        3281       10.02     17.1637     78.8318     72.7545     15.4107      3.4074     20.4344      2.5764      2.4327
      3281.5       10.04     17.1505     78.6983     72.3975     15.0066      3.3448     21.3481      2.5251      2.4324
        3282       10.04     17.3629     78.6373     70.8827     14.4606      3.2531      22.757      2.5251       2.428
      3282.5     10.0562     17.7991     78.7402     69.3678     14.3272      3.2231     23.4984      2.5251      2.4196
        3283     10.0774     18.3673     78.9024     68.8623     14.3272      3.1934     22.5686      2.5993      2.4137
      3283.5       10.08     18.5427     78.9178     69.5901     14.2804      3.1934     22.2161      2.6407      2.4127
        3284       10.08     18.2914     78.8377     71.1785     14.3272      3.2052     22.2334      2.6653      2.4187
      3284.5       10.08     17.6617     78.9079     74.3118     14.4606      3.2231      21.675      2.6472      2.4287
        3285     10.0823     17.0789     78.8458     77.4611     14.4606      3.2531     20.5491      2.5857      2.4363
      3285.5        10.1     16.5408     78.3417     78.2426     14.5321      3.2531     20.2234       2.505      2.4429
        3286        10.1     16.2132     77.8223     76.7682      14.731      3.2834     20.7265       2.505      2.4473
      3286.5        10.1      16.049     77.4776     73.7158      14.731      3.3139     21.5811      2.5251      2.4513
        3287        10.1     16.1307     77.4349     72.0739      14.731      3.3139     21.2426      2.5499      2.4498
      3287.5       10.12     16.2578     77.6363     71.5569     14.5952      3.3139     20.6128      2.5713      2.4465
        3288       10.12     16.2915     77.7555     72.4456     14.4606      3.3216     20.4026      2.6052      2.4462
      3288.5       10.14     16.3435     77.7555     73.0623     14.4606      3.3139     20.3063      2.6253      2.4444
        3289       10.16     16.6494     77.8022     73.3533     14.2159      3.2834     20.7752      2.6253      2.4397
      3289.5       10.18       17.54     78.5074     71.7681     13.8205      3.2531     21.3819      2.6253      2.4315
        3290        10.2     18.7234     79.4053     67.9536     12.3691      3.1368     22.4429      2.6052       2.412
      3290.5     10.2739     20.6838     81.9186     62.0658     11.6905      2.8846      22.994       2.571      2.3672
        3291       10.32     23.3896     85.4576     57.1888     10.4535      2.7014     23.3864       2.485      2.3488
      3291.5       10.34     23.2988     87.9423     52.6155      9.4367      2.5331     23.7351       2.428      2.3344
        3292       10.34     23.1353     88.3943     54.9239      9.3551      2.5072     23.9024      2.4248      2.3419
      3292.5       10.34     21.7588     87.3591     57.4883      9.0021      2.4866     23.3154      2.4248      2.3608
        3293       10.34     21.5622     85.6146       59.75      8.9316      2.5097     21.9222      2.4449      2.3687
      3293.5       10.34      22.153      84.993     60.6661      8.9316      2.4866     20.8803      2.4649      2.3494
        3294     10.3755     22.9676     85.3448     57.0751      8.5048        2.48     20.8927      2.4649      2.3291
      3294.5       10.32     23.6938     86.9876       53.37      8.1164      2.4184     21.0159      2.4649       2.322
        3295        10.3     24.2915     88.2964     51.8551      7.7458      2.3961       20.43      2.4649      2.3175
      3295.5       10.28     24.4121     88.8833     50.3402      7.8029      2.4409      19.689      2.4449      2.3139
        3296       10.28     24.5902     88.8255     48.8254      8.2881      2.5724     19.8143      2.4449      2.3083
      3296.5     10.2093     25.0175     88.7315     47.3105      8.6066      2.7156     20.7424      2.4649      2.3044
        3297       10.16     25.3938     89.2841     47.6176      8.6867      2.7675     21.3498       2.485      2.3022
      3297.5       10.14      25.428     90.5214     49.1324      8.6066      2.7534     21.3218      2.4721      2.3077
        3298       10.12     25.0178     91.3219     50.6473      8.4486      2.7028     21.0196      2.4649      2.3214
      3298.5       10.12     24.1759     91.3104     53.5427      8.5272      2.7709     21.4665      2.4649      2.3385
        3299        10.1      21.217      88.623     60.1285      8.9477      2.8767     21.5298       2.485      2.3409
      3299.5      9.9429     18.1196      85.651     72.4355      9.7579      3.1934     21.7875      2.5433      2.4023
        3300      9.8407     16.5701      84.923     78.7134     10.5173      3.6296     21.3481      2.5647      2.4598
      3300.5         9.8     14.4818     77.9116      84.569     12.2391      4.0403     21.0696      2.6453      2.4726
        3301         9.8     14.4422     76.4213     84.1975     13.0593      4.2131     21.1276      2.6453      2.4746
      3301.5        9.76     14.5634     75.9519     80.7666     13.5462      4.3739     21.1638      2.6453      2.4754
        3302        9.76     14.7236     75.9118      78.222     13.4274      4.4578     20.8065      2.6453      2.4744
      3302.5        9.74     14.6775     75.7755      74.731     13.3036      4.4594     20.1189      2.6453      2.4737
        3303        9.72     14.5944     75.3751     73.9521     13.0593      4.4993     19.4005      2.6653      2.4747
      3303.5        9.72      14.431     75.0107     74.4966     13.0593      4.5834     19.0067      2.6854      2.4769
        3304        9.72      14.201     74.6262      76.143     13.3249      4.6335     18.6568      2.7157      2.4802
