###############################################
##         ENVERUS                           ##
##         ESS - Open Hole                   ##
##         PERMIAN / DELAWARE                ##
##         Nov 04 2023  V4.0                 ##
##         42-389-31270-00-00                ##
###############################################
## Copyright 2017-2023  ENVERUS.  All Rights Reserved. 
## Confidential - Property of ENVERUS, use governed by terms and 
## conditions found within the existing Information Services Subscription Agreement 
## (as may be amended, the “ISSA”) between Customer and ENVERUS. 
## 
~VERSION INFORMATION
# MNEM.UNIT                               DATA : DESCRIPTION OF MNEMONIC
#-----.-----     ----------------------------- : -----------------------------
VERS.                                     2.00 : CWLS LOG ASCII STANDARD - VERSION 2.00
WRAP.                                       NO : MULTIPLE LINES PER DEPTH STEP
VEND.                                  ENVERUS : VENDOR
TYPE.                          ESS - OPEN HOLE : ENVERUS ESSENTIAL CURVES – ACCESSIBLE THROUGH ENVERUS PRISM(TM)
DOC.                                  31950282 : ENVERUS HEADER RAW DOCUMENT ID
#___________________________________________________________________________________________________ 
~WELL INFORMATION 
# 0CODbT4LMl4UGLa7W4QP9cEC157HhgZEtdKI2U+cm8ET/zLKkJfEe4mvdgudHboWMGmWziBYTrzgVEWtCsCjWg== 
# MNEM.UNIT                                              DATA : DESCRIPTION OF MNEMONIC 
#-----.-----                    ----------------------------- : ----------------------------- 
CNTY.                                                  REEVES : COUNTY 
STATE.                                                  TEXAS : STATE 
CNTRY.                                                    USA : COUNTRY 
API.                                             42-389-31270 : API (10 Digit) 
API_14.                                    42-389-31270-00-00 : API (14 Digits) 
API_14_std.                                 42-389-31270-0000 : API (14 Digits Standard) 
UWI.                                           42389312700000 : UNIQUE WELL ID 
WELL.                                        FORTUNE UNIT  2R : WELL NAME
STRT.FT                                                3825.0 : START DEPTH
STOP.FT                                               13654.0 : STOP DEPTH
STEP.FT                                                   0.5 : STEP BETWEEN DEPTHS
NULL.                                                 -999.25 : NULL VALUE
COMP.                          SANDRIDGE EXPL. AND PROD.  LLC : COMPANY 
DATE.                                             19-AUG-2004 : LOG DATE
#___________________________________________________________________________________________________ 
~CURVE INFORMATION 
# MNEM.UNIT           : CURVE DESCRIPTION 
#-----.-----          : ----------------------------- 
 DEPT.FT               : MEASURED DEPTH 
 CALI__B.IN            : CALIPER (CAL - CAL) 
 GR__B.API             : GAMMA RAY (GR) 
 DT__B.US/FT           : SONIC DELTA TRANSIT TIME (DT) 
 #___________________________________________________________________________________________________ 
~A         DEPT        CALI__B          GR__B          DT__B
# ...
        11019.0          7.722        127.153         85.935
        11019.5          7.720        117.307         85.844
        11020.0          7.718        107.404         85.754
        11020.5          7.716        108.339         85.663
        11021.0          7.715        109.275         85.573
        11021.5          7.713        110.210         85.482
        11022.0          7.711        111.145         85.391
        11022.5          7.709        112.080         85.301
        11023.0          7.708        113.015         85.913
        11023.5          7.706        113.609         87.070
        11024.0          7.704        114.011         88.228
        11024.5          7.702        112.778         89.385
        11025.0          7.701        109.706         90.543
        11025.5          7.699        107.268         88.906
        11026.0          7.697        106.278         86.469
        11026.5          7.696        105.288         85.767
        11027.0          7.694        104.297         87.879
        11027.5          7.692        102.488         89.992
        11028.0          7.690         99.894         92.105
        11028.5          7.689         97.299         91.554
        11029.0          7.687         94.704         87.022
        11029.5          7.685         96.853         82.489
        11030.0          7.683        100.853         84.032
        11030.5          7.682        100.250         85.583
        11031.0          7.680         95.841         87.133
        11031.5          7.678         92.543         86.242
        11032.0          7.676         91.049         84.771
        11032.5          7.675         89.554         83.300
        11033.0          7.652         88.059         81.829
        11033.5          7.593         86.564         80.358
        11034.0          7.533         85.069         79.813
        11034.5          7.474         88.292         82.511
        11035.0          7.414         91.693         85.209
        11035.5          7.355         95.094         87.753
        11036.0          7.296         98.495         85.506
        11036.5          7.236         94.799         83.259
        11037.0          7.177         86.758         81.012
        11037.5          7.139         78.716         78.765
        11038.0          7.144         77.579         76.518
        11038.5          7.149         87.680         74.271
        11039.0          7.154        100.902         75.710
        11039.5          7.159        108.700         79.194
        11040.0          7.164        113.032         82.679
        11040.5          7.169        117.365         86.163
        11041.0          7.174        121.698         89.648
        11041.5          7.179        116.053         92.586
        11042.0          7.184        107.550         88.964
        11042.5          7.189         95.701         85.343
        11043.0          7.194         83.852         81.721
        11043.5          7.199         82.673         78.100
        11044.0          7.204         90.644         77.278
        11044.5          7.203         99.620         84.160
        11045.0          7.200        110.394         91.042
        11045.5          7.197        121.169         90.317
        11046.0          7.193        131.944         88.689
        11046.5          7.190        135.630         87.062
        11047.0          7.187        132.644         85.434
        11047.5          7.184        129.658         84.213
        11048.0          7.181        126.672         87.117
        11048.5          7.177        122.406         90.021
        11049.0          7.174        117.681         92.924
        11049.5          7.171        112.492         94.718
        11050.0          7.168         96.353         89.532
        11050.5          7.165         80.215         84.346
        11051.0          7.161         82.309         79.161
        11051.5          7.158         86.303         73.975
        11052.0          7.155         90.296         71.343
        11052.5          7.152        103.445         74.983
        11053.0          7.149        121.712         78.624
        11053.5          7.146        132.274         82.265
        11054.0          7.142        130.584         85.906
        11054.5          7.139        125.561         87.436
        11055.0          7.136        120.282         87.113
        11055.5          7.133        115.175         86.790
        11056.0          7.130        112.302         86.467
        11056.5          7.126        109.428         86.431
        11057.0          7.123        106.554         86.637
        11057.5          7.120        103.681         86.744
        11058.0          7.117        100.807         86.279
        11058.5          7.114         99.372         85.814
        11059.0          7.110        105.203         85.349
        11059.5          7.107        111.034         85.965
        11060.0          7.104        116.866         86.636
        11060.5          7.101        116.186         87.307
        11061.0          7.098        102.854         87.978
        11061.5          7.095         91.770         85.271
        11062.0          7.091         89.091         82.467
        11062.5          7.088         86.412         79.663
        11063.0          7.086         83.733         76.859
        11063.5          7.087         85.807         78.314
        11064.0          7.089         88.028         80.004
        11064.5          7.090         90.250         81.694
        11065.0          7.091        109.720         83.384
        11065.5          7.093        126.715         85.074
        11066.0          7.094        135.734         86.764
        11066.5          7.096        135.603         88.454
        11067.0          7.097        132.766         88.027
        11067.5          7.098        124.836         87.087
        11068.0          7.100        121.252         86.148
        11068.5          7.101        112.324         85.208
        11069.0          7.103        103.218         84.120
        11069.5          7.104         96.666         82.994
        11070.0          7.105         90.113         81.869
        11070.5          7.107         83.560         80.743
        11071.0          7.108         84.011         79.618
        11071.5          7.109         86.250         78.493
        11072.0          7.111         88.698         77.367
        11072.5          7.112         93.644         78.554
        11073.0          7.114         98.590         81.356
        11073.5          7.115        103.536         81.635
        11074.0          7.116        108.481         81.914
        11074.5          7.118        113.427         82.193
        11075.0          7.119        118.373         85.620
        11075.5          7.121        119.745         89.749
        11076.0          7.122        117.755         93.878
        11076.5          7.123        115.765         98.007
        11077.0          7.125        113.775         94.234
        11077.5          7.126        113.079         89.915
        11078.0          7.128        112.851         87.096
        11078.5          7.129        112.624         86.035
        11079.0          7.130        112.397         84.974
        11079.5          7.132        102.118         83.913
        11080.0          7.133         98.695         84.142
        11080.5          7.135        109.288         85.959
        11081.0          7.136        119.882         87.776
        11081.5          7.137        130.475         88.726
        11082.0          7.139        136.150         87.556
        11082.5          7.140        129.466         86.386
        11083.0          7.141        120.117         85.216
        11083.5          7.142        106.354         84.045
        11084.0          7.143         99.628         83.356
        11084.5          7.144         95.315         83.214
