###############################################
##         ENVERUS                           ##
##         ESS - Open Hole                   ##
##         PERMIAN / DELAWARE                ##
##         Nov 04 2023  V4.0                 ##
##         42-389-30422-00-00                ##
###############################################
## Copyright 2017-2023  ENVERUS.  All Rights Reserved. 
## Confidential - Property of ENVERUS, use governed by terms and 
## conditions found within the existing Information Services Subscription Agreement 
## (as may be amended, the “ISSA”) between Customer and ENVERUS. 
## 
~VERSION INFORMATION
# MNEM.UNIT                               DATA : DESCRIPTION OF MNEMONIC
#-----.-----     ----------------------------- : -----------------------------
VERS.                                     2.00 : CWLS LOG ASCII STANDARD - VERSION 2.00
WRAP.                                       NO : MULTIPLE LINES PER DEPTH STEP
VEND.                                  ENVERUS : VENDOR
TYPE.                          ESS - OPEN HOLE : ENVERUS ESSENTIAL CURVES – ACCESSIBLE THROUGH ENVERUS PRISM(TM)
DOC.                                  31749874 : ENVERUS HEADER RAW DOCUMENT ID
#___________________________________________________________________________________________________ 
~WELL INFORMATION 
# u82sU1u0B8de5w9HEAjaYOtqLlVzfD+KUeD2ZoqivGgiUzwSeb1LYInaR9MNeJxDUIxxjb7EPbXz9g+KH10l6Q== 
# MNEM.UNIT                                              DATA : DESCRIPTION OF MNEMONIC 
#-----.-----                    ----------------------------- : ----------------------------- 
CNTY.                                                  REEVES : COUNTY 
STATE.                                                  TEXAS : STATE 
CNTRY.                                                    USA : COUNTRY 
API.                                             42-389-30422 : API (10 Digit) 
API_14.                                    42-389-30422-00-00 : API (14 Digits) 
API_14_std.                                 42-389-30422-0000 : API (14 Digits Standard) 
UWI.                                           42389304220000 : UNIQUE WELL ID 
WELL.                                    BECKHAM  AGNES 26  1 : WELL NAME
STRT.FT                                                  89.0 : START DEPTH
STOP.FT                                               15719.0 : STOP DEPTH
STEP.FT                                                   0.5 : STEP BETWEEN DEPTHS
NULL.                                                 -999.25 : NULL VALUE
COMP.                                     WALSH & WATTS  INC. : COMPANY
#___________________________________________________________________________________________________ 
~CURVE INFORMATION 
# MNEM.UNIT           : CURVE DESCRIPTION 
#-----.-----          : ----------------------------- 
 DEPT.FT               : MEASURED DEPTH 
 CALI.IN               : CALIPER (CAL - CAL) 
 GR.API                : GAMMA RAY (GR) 
 DT.US/FT              : SONIC DELTA TRANSIT TIME (DT) 
 #___________________________________________________________________________________________________ 
~A         DEPT           CALI             GR             DT
# ...
        12299.0          9.018         58.371         64.853
        12299.5          9.018         58.293         65.096
        12300.0          9.018         58.216         63.772
        12300.5          9.018         58.902         62.449
        12301.0          9.018         60.039         61.125
        12301.5          9.018         61.175         59.801
        12302.0          9.021         62.311         60.624
        12302.5          9.025         63.447         61.879
        12303.0          9.028         64.583         63.135
        12303.5          9.032         65.720         64.390
        12304.0          9.035         65.644         65.645
        12304.5          9.039         63.424         65.473
        12305.0          9.042         61.203         62.531
        12305.5          9.046         58.983         59.589
        12306.0          9.049         56.762         56.648
        12306.5          9.053         55.910         55.581
        12307.0          9.056         58.174         57.352
        12307.5          9.060         60.438         59.123
        12308.0          9.063         62.702         60.895
        12308.5          9.067         64.966         62.666
        12309.0          9.070         60.979         64.437
        12309.5          9.074         56.981         65.261
        12310.0          9.077         52.982         63.054
        12310.5          9.081         48.984         60.848
        12311.0          9.084         44.986         58.641
        12311.5          9.088         44.207         56.434
        12312.0          9.091         45.884         56.631
        12312.5          9.095         47.562         58.012
        12313.0          9.098         49.239         59.394
        12313.5          9.102         50.917         60.775
        12314.0          9.105         52.594         61.059
        12314.5          9.109         52.430         59.642
        12315.0          9.112         50.626         58.225
        12315.5          9.116         48.822         56.809
        12316.0          9.119         47.018         56.241
        12316.5          9.123         45.214         55.752
        12317.0          9.126         43.410         55.264
        12317.5          9.130         45.417         56.046
        12318.0          9.133         47.708         56.877
        12318.5          9.137         49.999         57.707
        12319.0          9.140         52.452         58.537
        12319.5          9.144         55.721         59.563
        12320.0          9.147         58.989         61.902
        12320.5          9.151         62.257         64.241
        12321.0          9.154         65.526         66.580
        12321.5          9.158         68.794         68.919
        12322.0          9.161         72.062         70.441
        12322.5          9.165         73.232         67.009
        12323.0          9.168         71.242         63.576
        12323.5          9.172         69.253         62.355
        12324.0          9.175         67.263         61.349
        12324.5          9.170         65.273         60.302
        12325.0          9.164         63.283         59.225
        12325.5          9.158         61.521         58.149
        12326.0          9.152         59.830         57.073
        12326.5          9.146         58.140         58.568
        12327.0          9.139         60.780         62.719
        12327.5          9.133         65.649         66.869
        12328.0          9.127         70.518         69.392
        12328.5          9.121         73.893         67.305
        12329.0          9.115         71.160         65.219
        12329.5          9.109         68.427         63.132
        12330.0          9.103         65.694         61.045
        12330.5          9.097         62.961         66.229
        12331.0          9.093         60.228         65.177
        12331.5          9.093         57.495         63.872
        12332.0          9.092         54.762         62.567
        12332.5          9.092         52.029         61.261
        12333.0          9.091         49.830         59.956
        12333.5          9.091         50.439         59.721
        12334.0          9.090         51.049         59.848
        12334.5          9.090         51.659         60.206
        12335.0          9.089         52.269         60.977
        12335.5          9.089         52.878         61.747
        12336.0          9.088         53.488         62.518
        12336.5          9.088         54.098         63.083
        12337.0          9.087         52.231         62.329
        12337.5          9.087         49.582         61.575
        12338.0          9.086         46.932         60.822
        12338.5          9.086         44.282         59.093
        12339.0          9.085         41.632         56.752
        12339.5          9.085         38.983         54.411
        12340.0          9.084         45.147         54.192
        12340.5          9.084         51.577         62.136
        12341.0          9.083         58.007         67.611
        12341.5          9.083         64.438         66.024
        12342.0          9.082         68.325         64.438
        12342.5          9.082         64.634         62.852
        12343.0          9.081         60.942         61.266
        12343.5          9.081         57.251         59.679
        12344.0          9.080         53.559         58.924
        12344.5          9.080         49.868         59.789
        12345.0          9.079         51.609         60.653
        12345.5          9.079         54.108         61.517
        12346.0          9.079         56.607         62.381
        12346.5          9.085         59.106         63.246
        12347.0          9.090         61.508         61.688
        12347.5          9.095         62.744         60.402
        12348.0          9.100         63.980         60.933
        12348.5          9.105         65.216         61.465
        12349.0          9.110         66.419         61.997
        12349.5          9.115         67.610         62.528
        12350.0          9.120         68.801         64.313
        12350.5          9.125         69.992         68.316
        12351.0          9.130         71.183         72.318
        12351.5          9.136         72.374         70.540
        12352.0          9.141         73.565         67.377
        12352.5          9.146         73.117         65.670
        12353.0          9.151         70.962         63.962
        12353.5          9.156         68.808         62.254
        12354.0          9.161         66.654         60.629
        12354.5          9.166         64.499         60.094
        12355.0          9.171         62.345         59.558
        12355.5          9.176         60.190         59.022
        12356.0          9.181         59.038         59.325
        12356.5          9.187         58.723         60.366
        12357.0          9.192         58.716         61.407
        12357.5          9.197         60.011         62.448
        12358.0          9.202         61.306         63.019
        12358.5          9.207         62.601         63.534
        12359.0          9.212         63.895         64.050
        12359.5          9.217         65.190         64.565
        12360.0          9.222         66.485         65.080
        12360.5          9.227         65.524         65.596
        12361.0          9.232         62.543         65.824
        12361.5          9.238         59.562         65.342
        12362.0          9.243         56.580         64.860
        12362.5          9.248         53.599         63.879
        12363.0          9.253         50.618         62.861
        12363.5          9.258         47.641         61.842
        12364.0          9.262         47.388         60.824
        12364.5          9.266         47.136         55.992
