###############################################
##         ENVERUS                           ##
##         ESS - Open Hole                   ##
##         PERMIAN / DELAWARE                ##
##         Nov 04 2023  V4.0                 ##
##         42-389-32730-00-00                ##
###############################################
## Copyright 2017-2023  ENVERUS.  All Rights Reserved. 
## Confidential - Property of ENVERUS, use governed by terms and 
## conditions found within the existing Information Services Subscription Agreement 
## (as may be amended, the “ISSA”) between Customer and ENVERUS. 
## 
~VERSION INFORMATION
# MNEM.UNIT                               DATA : DESCRIPTION OF MNEMONIC
#-----.-----     ----------------------------- : -----------------------------
VERS.                                     2.00 : CWLS LOG ASCII STANDARD - VERSION 2.00
WRAP.                                       NO : MULTIPLE LINES PER DEPTH STEP
VEND.                                  ENVERUS : VENDOR
TYPE.                          ESS - OPEN HOLE : ENVERUS ESSENTIAL CURVES – ACCESSIBLE THROUGH ENVERUS PRISM(TM)
DOC.                                  19552736 : ENVERUS HEADER RAW DOCUMENT ID
#___________________________________________________________________________________________________ 
~WELL INFORMATION 
# Emv0q1Fc4UOVqi1FEPTQ50pHgS2U6oO6A9wxQf5ozJtTAVTQXtUhuyCOytio7eHVwvke0CQF/LYkoyLsbhUTsQ== 
# MNEM.UNIT                                              DATA : DESCRIPTION OF MNEMONIC 
#-----.-----                    ----------------------------- : ----------------------------- 
CNTY.                                                  REEVES : COUNTY 
STATE.                                                  TEXAS : STATE 
CNTRY.                                                    USA : COUNTRY 
API.                                             42-389-32730 : API (10 Digit) 
API_14.                                    42-389-32730-00-00 : API (14 Digits) 
API_14_std.                                 42-389-32730-0000 : API (14 Digits Standard) 
UWI.                                           42389327300000 : UNIQUE WELL ID 
WELL.                                  BIG SKY 55 - 16 NO. 1H : WELL NAME
STRT.FT                                                3850.0 : START DEPTH
STOP.FT                                               12070.5 : STOP DEPTH
STEP.FT                                                   0.5 : STEP BETWEEN DEPTHS
NULL.                                                 -999.25 : NULL VALUE
COMP.                                      CIMAREX ENERGY CO. : COMPANY 
FLD.                                                  WILDCAT : FIELD 
SRVC.                                             HALLIBURTON : SERVICE COMPANY 
DATE.                                              03/23/2011 : DATE 
TVD.                                                       NO : TVD FLAG 
WSTA.                                                     LOC : WELL STATUS
#___________________________________________________________________________________________________ 
~PARAMETER INFORMATION 
# MNEM.UNIT                                              DATA : DESCRIPTION OF MNEMONIC 
#-----.-----                    ----------------------------- : ----------------------------- 
RUN.                                                      ONE : RUN NUMBER 
PDAT.                                                      GL : PERMANENT DATUM 
EPD.FT                                              2996.0000 : ELEVATION OF PERM. DATUM 
LMF.                                            KELLY BUSHING : LOG MEASURED FROM 
EKB.FT                                              3021.0000 : ELEVATION OF KELLY BUSHING 
DF.FT                                               3020.0000 : ELEVATION OF DERRICK FLOOR 
GL.FT                                               2996.0000 : ELEVATION OF GROUND LEVEL 
TD.FT                                              12100.0000 : TOTAL DEPTH 
CSGD.FT                                                  3861 : CASING BOTTOM (DRILLER) 1 
CSGL.FT                                                  3855 : CASING BOTTOM (LOGGER) 1 
MUD.                                                    BRINE : DRILLING FLUID TYPE 
MUDV.CP                                               36.0000 : DRILLING FLUID VISCOSITY 
MUDD.LB/USG                                           10.1000 : DRILLING FLUID DENSITY 
PH.                                                   10.0000 : DRILLING FLUID PH 
MUDS.                                                FLOWLINE : MUD SAMPLE SOURCE 
RM.OHMM                                                0.0600 : RESISTIVITY OF MUD SAMPLE 
RMT.DEGF                                              75.0000 : MUD SAMPLE TEMPERATURE 
RMF.OHMM                                               0.0400 : MUD FILTRATE RESISTIVITY 
RMFT.DEGF                                             75.0000 : MUD FILTRATE SAMPLE TEMPERATURE 
RMC.OHMM                                               0.0600 : MUD CAKE RESISTIVITY 
RMCT.DEGF                                             75.0000 : MUD CAKE SAMPLE TEMPERATURE 
RMB.OHMM                                               0.0240 : MUD RESISTIVITY AT BHT 
TMAX.DEGF                                            200.0000 : BOTTOM HOLE TEMPERATURE
#___________________________________________________________________________________________________ 
~CURVE INFORMATION 
# MNEM.UNIT           : CURVE DESCRIPTION 
#-----.-----          : ----------------------------- 
 DEPT.FT               : MEASURED DEPTH 
 GR.API                : GAMMA RAY (GAMMA RAY) 
 DT.US/FT              : SONIC DELTA TRANSIT TIME (DELTA T) 
 RESD_LL.OHMM          : DEEP LATEROLOG (LLD - DEEP LATEROLOG) 
 DPHI.V/V              : DENSITY POROSITY (DENSITY POROSITY) 
 NPHI.V/V              : NEUTRON POROSITY (NEUTRON POROSITY) 
 #___________________________________________________________________________________________________ 
~A         DEPT             GR             DT        RESD_LL           DPHI           NPHI
# ...
         9834.0         37.653         71.305       307.1690        0.09900        0.11200
         9834.5         32.008         68.815       364.6000        0.08900        0.09400
         9835.0         26.414         66.325       432.7670        0.07600        0.09000
         9835.5         21.106         64.273       497.5150        0.06500        0.08500
         9836.0         18.903         62.466       555.5040        0.05700        0.07900
         9836.5         16.593         60.831       620.4950        0.05000        0.07000
         9837.0         14.541         59.780       679.3920        0.04900        0.06200
         9837.5         14.737         60.411       347.3710        0.04900        0.05600
         9838.0         15.916         61.935       192.6690        0.04600        0.05700
         9838.5         24.868         69.372       146.1660        0.05300        0.08500
         9839.0         35.218         75.544       122.5280        0.11400        0.11700
         9839.5         41.112         78.019       117.6440        0.12700        0.14700
         9840.0         42.970         79.619       126.9860        0.12000        0.15800
         9840.5         42.038         79.619       134.2600        0.10700        0.15800
         9841.0         39.803         76.141       141.9520        0.09400        0.14800
         9841.5         34.060         72.051       150.0830        0.08200        0.13700
         9842.0         28.363         67.458       191.6750        0.07300        0.11800
         9842.5         22.682         62.907       351.1420        0.06700        0.08800
         9843.0         17.040         59.561       655.7380        0.03100        0.05000
         9843.5         13.531         58.743       832.2780        0.00500        0.00300
         9844.0         12.916         60.929       406.0240        0.01300        0.01300
         9844.5         25.872         68.158       245.9670        0.04400        0.06400
         9845.0         32.229         75.387       179.1990        0.08000        0.11300
         9845.5         38.759         78.311       163.3100        0.10200        0.14100
         9846.0         42.960         80.304       155.1710        0.11500        0.16400
         9846.5         44.185         80.330       191.1400        0.11700        0.16500
         9847.0         41.131         78.335       245.9740        0.11800        0.16500
         9847.5         36.178         75.345       324.9760        0.11800        0.15700
         9848.0         30.649         72.380       429.3520        0.10800        0.13200
         9848.5         25.079         69.422       496.3860        0.08600        0.10100
         9849.0         20.056         66.152       496.3860        0.06400        0.07200
         9849.5         20.053         67.664       402.7520        0.05700        0.05700
         9850.0         21.165         71.211       332.3210        0.06700        0.08700
         9850.5         31.049         74.970       285.2540        0.08300        0.11900
         9851.0         40.025         78.007       260.1710        0.09800        0.15100
         9851.5         41.346         78.537       288.2180        0.11100        0.16200
         9852.0         41.993         74.076       354.0130        0.10900        0.14800
         9852.5         36.957         67.162       487.3080        0.07200        0.13200
         9853.0         29.348         60.804       408.1280        0.03900        0.06700
         9853.5         21.499         59.336       290.5680        0.01300        0.05800
         9854.0         17.890         60.291       206.8710        0.00900        0.04900
         9854.5         22.087         63.988       144.1270        0.02900        0.07300
         9855.0         27.795         67.799       135.6350        0.06600        0.10000
         9855.5         33.040         70.394       126.6580        0.07900        0.11200
         9856.0         34.499         70.000       224.5150        0.08000        0.11300
         9856.5         32.915         68.623       264.9200        0.07700        0.09400
         9857.0         30.823         66.894       301.8800        0.06900        0.08100
         9857.5         29.521         67.836       282.2520        0.06300        0.07600
         9858.0         32.937         70.253       250.5810        0.07200        0.09700
         9858.5         36.255         73.353       216.4610        0.09300        0.13300
         9859.0         37.484         71.797       220.8700        0.11100        0.12100
         9859.5         34.798         69.770       224.4570        0.09000        0.10600
         9860.0         32.185         67.737       218.3380        0.07300        0.09200
         9860.5         29.533         65.671       210.6930        0.05500        0.07600
         9861.0         28.677         65.063       201.6140        0.04700        0.07600
         9861.5         29.020         65.068       185.7360        0.04700        0.08000
         9862.0         29.371         65.421       171.1550        0.04800        0.08500
         9862.5         32.831         67.295       157.7180        0.04900        0.09000
         9863.0         36.260         69.156       154.0240        0.06400        0.09600
         9863.5         39.137         71.882       152.3330        0.08000        0.11300
         9864.0         37.490         71.796       160.1360        0.09200        0.11800
         9864.5         34.837         71.202       170.2230        0.08600        0.12000
         9865.0         32.787         70.896       185.9190        0.07600        0.10800
         9865.5         31.988         70.594       210.5290        0.07700        0.10800
         9866.0         29.064         69.618       255.3780        0.08500        0.10900
         9866.5         25.774         67.720       323.3070        0.08800        0.10900
         9867.0         22.491         64.228       369.4560        0.07600        0.09300
         9867.5         20.364         63.555       204.9130        0.05200        0.06400
         9868.0         23.831         63.747       163.0410        0.04900        0.06800
         9868.5         29.950         66.178       141.5110        0.05300        0.08100
         9869.0         35.611         70.435       153.0660        0.06300        0.10500
         9869.5         41.326         75.733       167.9260        0.08000        0.13100
         9870.0         44.626         78.733       184.2290        0.09700        0.14900
         9870.5         45.674         79.499       202.1150        0.11300        0.15700
         9871.0         43.750         76.362       263.3030        0.11500        0.15100
         9871.5         34.175         70.465       376.4180        0.09800        0.13700
         9872.0         24.889         64.568       537.7130        0.06300        0.09500
         9872.5         19.991         60.948       692.0030        0.03100        0.05100
         9873.0         16.723         60.020       422.8790        0.01100        0.04500
         9873.5         20.259         64.064       267.9840        0.02200        0.05600
         9874.0         25.718         67.795       196.8870        0.04800        0.07500
         9874.5         31.198         71.323       170.1730        0.07300        0.10600
         9875.0         31.332         70.000       189.8320        0.08100        0.12300
         9875.5         26.929         65.441       221.9820        0.05800        0.09500
         9876.0         22.533         62.143       255.1650        0.03200        0.05800
         9876.5         19.378         60.323       157.6840        0.02000        0.05000
         9877.0         20.066         60.833       115.7000        0.02100        0.05800
         9877.5         22.143         62.064       109.2710        0.02700        0.06600
