#--------------------------------------------------#
#-------------------ENVERUS, INC.------------------#
#------------------WWW.ENVERUS.COM-----------------#
#------------------COPYRIGHT 2020------------------#
#--------------------------------------------------#
#THIS FILE MAY BE USED ONLY IN ACCORDANCE WITH A CURRENT SUBSCRIPTION AGREEMENT BETWEEN
#THE USER AND ENVERUS, INC. NO PART OF THIS FILE MAY BE REPRODUCED, USED, COPIED,
#MODIFIED, PROPAGATED, OR DISTRIBUTED EXCEPT IN ACCORDANCE WITH THE SUBSCRIPTION
#AGREEMENT. UNAUTHORIZED USE OR DISTRIBUTION OF ALL OR ANY PART OF THIS FILE MAY VIOLATE
#COPYRIGHT, TRADEMARK, AND/OR OTHER LAWS AND IS SUBJECT TO CIVIL AS WELL AS CRIMINAL
#SANCTIONS.
#--------------------------------------------------#
#THIS FILE IS PROVIDED "AS-IS" AND ALL WARRANTIES ARE EXPRESSLY DISCLAIMED, WHETHER
#EXPRESS, ORAL, IMPLIED, STATUTORY OR OTHERWISE, INCLUDING ANY IMPLIED WARRANTY OF FITNESS
#FOR A PARTICULAR PURPOSE, MERCHANTABILITY, TITLE OR NON-INFRINGEMENT, AND ANY WARRANTIES
#ARISING BY VIRTUE OF CUSTOM OF TRADE OR COURSE OF DEALING.  FURTHER, ENVERUS, INC.
#AND ITS LICENSORS DO NOT REPRESENT OR WARRANT THAT THIS FILE WILL MEET USER'S
#REQUIREMENTS OR ARE SUITABLE FOR USER'S NEEDS OR THAT THE DATA OR RESULTS PROVIDED IN
#CONJUNCTION THEREWITH ARE CORRECT, ACCURATE, TIMELY OR RELIABLE. THESE DISCLAIMERS SHALL
#APPLY REGARDLESS OF ANY FAILURE OF ESSENTIAL PURPOSE OF ANY LIMITED REMEDY.  SOME
#JURISDICTIONS DO NOT ALLOW THE EXCLUSION OF CERTAIN WARRANTIES SO SOME OF THE ABOVE
#EXCLUSIONS MAY NOT APPLY. IN NO EVENT SHALL ENVERUS, INC. OR ANY OF ITS AFFILIATES
#BE LIABLE UNDER ANY LEGAL THEORY, WHETHER IN TORT (INCLUDING WITHOUT LIMITATION
#NEGLIGENCE), CONTRACT, STRICT LIABILITY, STATUTORY OR OTHERWISE, FOR ANY SPECIAL,
#INCIDENTAL, CONSEQUENTIAL, EXEMPLARY, PUNITIVE OR INDIRECT DAMAGE OF ANY KIND, INCLUDING
#WITHOUT LIMITATION LOSS OF REVENUE, PROFITS, GOODWILL, USE, AND/OR DATA OR THE COST OF
#PROCUREMENT OF SUBSTITUTE GOODS OR SERVICES, EVEN IF APPRISED OF THE POSSIBILITY OF SUCH
#DAMAGES IN ADVANCE.
#--------------------------------------------------#

~VERSION INFORMATION
VERS. 2.0 : CWLS LOG ASCII STANDARD - VERSION 2.0
WRAP.  NO : ONE LINE PER DEPTH STEP
~WELL INFORMATION
#MNEMONIC     .UNIT              VALUE :DESCRIPTION
STRT       .FT                145 :START DEPTH
STOP       .FT                15608 :STOP DEPTH
STEP       .FT                   0.500 :STEP
NULL       .                  -999.250 :NULL
UWI        .              42389304120000 :UNIQUE WELL ID
API        .              42389304120000 :API NUMBER
COMP       .         BTA OIL PRODUCERS :COMPANY
WELL       .        7607 JV-P ORLA  1 :WELL
DATE       .                            :LOG DATE
~CURVE INFORMATION
#MNEMONIC     .UNIT      API CODE :CURVE DESCRIPTION
DEPTH       .FT                      :MEASURED DEPTH
DT.US/FT        UNKNOWN   :DT
CAL.INCH        UNKNOWN   :CAL
GR.API        UNKNOWN   :GR
~A    DEPTH    DT    CAL    GR
# ...
 13861.5     106.284   8.994   63.196
 13862     107.061   8.994   66.099
 13862.5     107.837   8.995   69.001
 13863     107.57   8.995   67.732
 13863.5     107.239   8.996   65.774
 13864     106.834   8.997   63.816
 13864.5     106.184   8.997   61.858
 13865     105.534   8.998   59.901
 13865.5     104.919   8.999   57.756
 13866     104.625   8.999   54.743
 13866.5     104.332   9   51.73
 13867     104.038   9.001   45.877
 13867.5     103.744   9.001   39.469
 13868     102.885   9.002   36.424
 13868.5     101.563   9.003   33.378
 13869     101.611   9.003   30.531
 13869.5     101.66   9.004   30.93
 13870     101.708   9.005   31.328
 13870.5     101.757   9.005   31.727
 13871     101.805   9.006   32.126
 13871.5     102.271   9.006   32.908
 13872     103.198   9.007   34.628
 13872.5     103.864   9.008   36.348
 13873     104.182   9.008   38.068
 13873.5     104.5   9.009   39.788
 13874     104.818   9.01   41.508
 13874.5     105.136   9.01   43.154
 13875     105.349   9.011   44.132
 13875.5     105.457   9.012   45.111
 13876     105.564   9.012   46.09
 13876.5     105.671   9.013   47.068
 13877     105.779   9.014   48.047
 13877.5     106.527   9.014   49.026
 13878     107.703   9.02   50.004
 13878.5     108.879   9.025   50.983
 13879     108.834   9.031   51.962
 13879.5     108.651   9.036   52.94
 13880     108.401   9.042   53.328
 13880.5     108.014   9.047   53.014
 13881     107.626   9.052   52.7
 13881.5     107.238   9.058   52.386
 13882     106.85   9.063   52.718
 13882.5     106.757   9.069   54.381
 13883     106.732   9.074   56.045
 13883.5     106.512   9.079   57.709
 13884     106.289   9.085   59.372
 13884.5     106.067   9.097   61.036
 13885     107.329   9.13   64.712
 13885.5     108.755   9.164   68.492
 13886     109.398   9.197   67.53
 13886.5     108.706   9.231   65.821
 13887     105.845   9.264   64.111
 13887.5     102.99   9.298   63.752
 13888     103.515   9.341   65.799
 13888.5     111.056   9.428   67.847
 13889     118.597   9.514   67.84
 13889.5     125.015   9.601   67.178
 13890     125.188   9.688   66.516
 13890.5     123.228   9.775   65.854
 13891     122.165   9.811   65.193
 13891.5     121.901   9.824   64.531
 13892     121.638   9.837   63.869
 13892.5     121.718   9.85   63.207
 13893     121.892   9.863   63.386
 13893.5     122.066   9.86   64.033
 13894     122.239   9.855   64.679
 13894.5     123.488   9.851   65.326
 13895     124.791   9.845   65.973
 13895.5     125.006   9.818   65.096
 13896     124.951   9.792   63.627
 13896.5     124.674   9.766   63.013
 13897     124.398   9.74   63.753
 13897.5     121.936   9.714   64.493
 13898     118.872   9.688   65.233
 13898.5     115.807   9.661   63.41
 13899     115.598   9.635   61.43
 13899.5     116.659   9.624   59.451
 13900     117.923   9.632   58.632
 13900.5     118.124   9.641   60.997
 13901     118.216   9.649   63.363
 13901.5     118.278   9.657   65.728
 13902     118.271   9.665   67.408
 13902.5     118.264   9.674   63.748
 13903     118.257   9.684   58.961
 13903.5     118.25   9.693   54.174
 13904     118.243   9.703   49.387
 13904.5     117.445   9.713   44.6
 13905     104.177   9.517   46.857
 13905.5     101.968   9.321   49.587
 13906     100.811   9.296   52.316
 13906.5     100.054   9.278   55.046
 13907     101.99   9.26   55.984
 13907.5     100.549   9.242   54.323
 13908     100.407   9.224   52.663
 13908.5     100.266   9.206   49.22
 13909     100.125   9.202   44.441
 13909.5     99.984   9.205   39.663
 13910     99.857   9.208   40.077
 13910.5     99.843   9.211   41.447
 13911     99.83   9.214   42.818
 13911.5     99.817   9.217   41.227
 13912     99.803   9.22   38.603
 13912.5     99.79   9.223   36.16
 13913     99.777   9.227   36.957
 13913.5     99.783   9.238   37.755
 13914     99.817   9.274   38.552
 13914.5     99.85   9.309   39.35
 13915     99.884   9.345   43.092
 13915.5     99.918   9.38   47.613
 13916     99.952   9.395   48.976
 13916.5     99.986   9.374   49.08
 13917     99.539   9.353   42.37
 13917.5     97.544   9.332   33.224
 13918     96.527   9.322   25.816
 13918.5     96.387   9.322   20.551
 13919     96.248   9.322   19.716
 13919.5     96.356   9.323   19.343
 13920     96.72   9.323   18.97
 13920.5     97.084   9.324   18.596
 13921     97.418   9.324   17.318
 13921.5     97.477   9.324   13.683
 13922     97.536   9.325   12.953
 13922.5     97.595   9.325   12.459
 13923     97.654   9.326   11.965
 13923.5     97.809   9.326   11.471
 13924     98.331   9.326   12.245
 13924.5     98.853   9.327   14.877
 13925     98.932   9.327   16.329
 13925.5     98.676   9.328   16.664
 13926     98.42   9.328   16.999
 13926.5     98.164   9.328   17.334
 13927     97.908   9.329   18.322
 13927.5     97.652   9.329   19.552
 13928     97.396   9.33   20.781
 13928.5     97.141   9.331   21.674
 13929     96.885   9.337   22.479
 13929.5     96.629   9.342   23.283
 13930     96.373   9.348   24.087
 13930.5     96.117   9.353   24.891
 13931     96.754   9.359   25.695
 13931.5     97.071   9.365   26.499
 13932     96.746   9.37   27.303
 13932.5     96.422   9.371   28.108
 13933     96.097   9.339   28.549
 13933.5     95.821   9.308   28.06
 13934     97.19   9.277   27.572
 13934.5     100.695   9.246   27.083
 13935     102.818   9.215   27.72
 13935.5     103.463   9.184   30.862
 13936     104.108   9.152   34.004
 13936.5     102.948   9.121   34.495
 13937     98.475   9.107   34.011
 13937.5     98.351   9.123   33.526
 13938     98.227   9.138   33.041
 13938.5     98.12   9.154   32.557
 13939     99.347   9.169   32.072
 13939.5     100.165   9.185   31.587
 13940     100.689   9.201   30.373
 13940.5     100.816   9.216   28.705
 13941     100.368   9.232   27.037
 13941.5     99.92   9.248   25.752
 13942     99.274   9.243   25.449
 13942.5     98.469   9.206   25.147
 13943     97.664   9.169   24.845
 13943.5     96.995   9.132   24.543
 13944     97.424   9.095   30.89
 13944.5     101.566   9.076   37.342
 13945     104.632   9.068   43.794
 13945.5     106.49   9.059   50.246
 13946     107.073   9.051   51.451
 13946.5     105.325   9.043   51.253
 13947     103.576   9.035   48.819
 13947.5     101.903   9.027   46.386
 13948     101.725   9.019   43.953
 13948.5     101.914   9.011   41.519
 13949     102.108   9.003   39.086
 13949.5     102.302   8.999   38.126
 13950     102.496   9.006   37.781
 13950.5     102.69   9.013   37.436
 13951     102.883   9.02   36.407
 13951.5     102.942   9.027   34.851
 13952     102.976   9.034   33.295
 13952.5     103.01   9.041   32.303
 13953     103.044   9.048   32.159
 13953.5     103.078   9.055   32.015
 13954     103.113   9.062   31.871
 13954.5     103.147   9.069   31.727
 13955     103.181   9.073   31.583
 13955.5     102.769   9.073   30.92
 13956     101.323   9.072   29
 13956.5     99.877   9.072   27.08
 13957     98.843   9.072   25.16
 13957.5     99.015   9.071   25.469
 13958     101.003   9.071   27.121
 13958.5     103.257   9.071   31.775
 13959     105.51   9.07   36.429
 13959.5     106.321   9.07   41.082
 13960     106.04   9.07   45.736
 13960.5     105.758   9.069   46.99
 13961     104.342   9.069   45.628
 13961.5     101.989   9.094   44.267
 13962     100.302   9.136   42.905
 13962.5     99.107   9.178   41.543
 13963     98.621   9.219   40.181
 13963.5     99.934   9.261   43.526
 13964     102.589   9.303   51.193
 13964.5     102.318   9.348   58.86
 13965     102.047   9.409   66.527
 13965.5     101.775   9.471   74.194
 13966     101.504   9.532   67.449
 13966.5     101.233   9.471   60.478
 13967     100.962   9.381   53.508
 13967.5     100.69   9.291   46.537
 13968     100.419   9.218   39.567
 13968.5     96.905   9.197   38.109
 13969     95.169   9.176   36.892
 13969.5     97.412   9.231   35.675
 13970     105.155   9.29   42.698
 13970.5     112.897   9.35   50.027
 13971     120.64   9.41   57.355
 13971.5     126.505   9.386   64.684
