#--------------------------------------------------#
#-------------------ENVERUS, INC.------------------#
#------------------WWW.ENVERUS.COM-----------------#
#------------------COPYRIGHT 2020------------------#
#--------------------------------------------------#
#THIS FILE MAY BE USED ONLY IN ACCORDANCE WITH A CURRENT SUBSCRIPTION AGREEMENT BETWEEN
#THE USER AND ENVERUS, INC. NO PART OF THIS FILE MAY BE REPRODUCED, USED, COPIED,
#MODIFIED, PROPAGATED, OR DISTRIBUTED EXCEPT IN ACCORDANCE WITH THE SUBSCRIPTION
#AGREEMENT. UNAUTHORIZED USE OR DISTRIBUTION OF ALL OR ANY PART OF THIS FILE MAY VIOLATE
#COPYRIGHT, TRADEMARK, AND/OR OTHER LAWS AND IS SUBJECT TO CIVIL AS WELL AS CRIMINAL
#SANCTIONS.
#--------------------------------------------------#
#THIS FILE IS PROVIDED "AS-IS" AND ALL WARRANTIES ARE EXPRESSLY DISCLAIMED, WHETHER
#EXPRESS, ORAL, IMPLIED, STATUTORY OR OTHERWISE, INCLUDING ANY IMPLIED WARRANTY OF FITNESS
#FOR A PARTICULAR PURPOSE, MERCHANTABILITY, TITLE OR NON-INFRINGEMENT, AND ANY WARRANTIES
#ARISING BY VIRTUE OF CUSTOM OF TRADE OR COURSE OF DEALING.  FURTHER, ENVERUS, INC.
#AND ITS LICENSORS DO NOT REPRESENT OR WARRANT THAT THIS FILE WILL MEET USER'S
#REQUIREMENTS OR ARE SUITABLE FOR USER'S NEEDS OR THAT THE DATA OR RESULTS PROVIDED IN
#CONJUNCTION THEREWITH ARE CORRECT, ACCURATE, TIMELY OR RELIABLE. THESE DISCLAIMERS SHALL
#APPLY REGARDLESS OF ANY FAILURE OF ESSENTIAL PURPOSE OF ANY LIMITED REMEDY.  SOME
#JURISDICTIONS DO NOT ALLOW THE EXCLUSION OF CERTAIN WARRANTIES SO SOME OF THE ABOVE
#EXCLUSIONS MAY NOT APPLY. IN NO EVENT SHALL ENVERUS, INC. OR ANY OF ITS AFFILIATES
#BE LIABLE UNDER ANY LEGAL THEORY, WHETHER IN TORT (INCLUDING WITHOUT LIMITATION
#NEGLIGENCE), CONTRACT, STRICT LIABILITY, STATUTORY OR OTHERWISE, FOR ANY SPECIAL,
#INCIDENTAL, CONSEQUENTIAL, EXEMPLARY, PUNITIVE OR INDIRECT DAMAGE OF ANY KIND, INCLUDING
#WITHOUT LIMITATION LOSS OF REVENUE, PROFITS, GOODWILL, USE, AND/OR DATA OR THE COST OF
#PROCUREMENT OF SUBSTITUTE GOODS OR SERVICES, EVEN IF APPRISED OF THE POSSIBILITY OF SUCH
#DAMAGES IN ADVANCE.
#--------------------------------------------------#

~VERSION INFORMATION
VERS. 2.0 : CWLS LOG ASCII STANDARD - VERSION 2.0
WRAP.  NO : ONE LINE PER DEPTH STEP
~WELL INFORMATION
#MNEMONIC     .UNIT              VALUE :DESCRIPTION
STRT       .FT                24 :START DEPTH
STOP       .FT                5035 :STOP DEPTH
STEP       .FT                   0.500 :STEP
NULL       .                  -999.250 :NULL
UWI        .              42389314500000 :UNIQUE WELL ID
API        .              42389314500000 :API NUMBER
COMP       .         SLEDGE BROS. OIL CO. :COMPANY
WELL       .        ELIZABETH MITCHELL  1 :WELL
DATE       .                18-DEC-1983 :LOG DATE
~CURVE INFORMATION
#MNEMONIC     .UNIT      API CODE :CURVE DESCRIPTION
DEPTH       .FT                      :MEASURED DEPTH
CAL.INCH        UNKNOWN   :CAL
DT.US/FT        UNKNOWN   :DT
GR.API        UNKNOWN   :GR
~A    DEPTH    CAL    DT    GR
# ...
 2020.5     10.649   49.98   5.394
 2021     10.648   50.014   5.248
 2021.5     10.647   50.049   5.103
 2022     10.646   50.083   4.958
 2022.5     10.646   50.118   5.362
 2023     10.645   50.152   5.832
 2023.5     10.644   50.187   6.302
 2024     10.644   50.222   6.772
 2024.5     10.643   50.256   7.242
 2025     10.642   50.291   7.711
 2025.5     10.635   50.325   7.716
 2026     10.624   49.895   7.33
 2026.5     10.613   49.707   7.038
 2027     10.601   49.52   7.211
 2027.5     10.59   49.332   7.383
 2028     10.579   49.144   7.555
 2028.5     10.568   49.047   7.728
 2029     10.557   49.084   7.9
 2029.5     10.545   49.121   7.891
 2030     10.534   49.158   7.351
 2030.5     10.523   49.195   6.811
 2031     10.512   49.231   6.27
 2031.5     10.501   49.268   5.965
 2032     10.489   49.445   6.538
 2032.5     10.478   49.827   7.111
 2033     10.467   50.209   7.684
 2033.5     10.456   50.297   8.258
 2034     10.445   50.33   7.794
 2034.5     10.433   50.363   6.644
 2035     10.422   50.397   5.494
 2035.5     10.411   50.43   4.344
 2036     10.4   50.463   5.43
 2036.5     10.389   50.497   6.528
 2037     10.378   50.529   7.542
 2037.5     10.366   50.549   7.668
 2038     10.355   50.569   7.793
 2038.5     10.344   50.398   7.919
 2039     10.333   49.843   8.044
 2039.5     10.322   49.376   8.169
 2040     10.31   49.405   8.295
 2040.5     10.299   49.435   8.42
 2041     10.288   49.465   8.484
 2041.5     10.276   49.618   8.012
 2042     10.265   49.839   7.539
 2042.5     10.254   50.06   7.067
 2043     10.242   50.281   6.594
 2043.5     10.231   50.502   6.122
 2044     10.219   50.466   5.945
 2044.5     10.208   50.347   5.897
 2045     10.196   50.227   5.85
 2045.5     10.185   49.965   5.802
 2046     10.174   49.587   5.755
 2046.5     10.162   49.209   5.707
 2047     10.151   49.212   5.659
 2047.5     10.139   49.461   5.612
 2048     10.128   49.71   5.564
 2048.5     10.116   49.959   5.212
 2049     10.105   50.121   4.531
 2049.5     10.093   50.269   5.746
 2050     10.082   50.368   6.962
 2050.5     10.071   50.264   7.945
 2051     10.059   50.161   7.547
 2051.5     10.051   50.057   7.149
 2052     10.047   49.953   6.751
 2052.5     10.044   49.85   6.353
 2053     10.04   49.523   5.955
 2053.5     10.037   48.603   5.557
 2054     10.033   48.605   5.484
 2054.5     10.03   48.607   5.549
 2055     10.027   48.744   5.749
 2055.5     10.023   48.903   6.296
 2056     10.02   49.061   6.843
 2056.5     10.016   49.219   7.39
 2057     10.013   49.378   7.491
 2057.5     10.009   49.536   7.436
 2058     10.006   49.696   7.38
 2058.5     10.002   49.959   7.325
 2059     9.999   50.221   7.269
 2059.5     9.996   50.475   7.214
 2060     9.992   50.445   7.159
 2060.5     9.989   50.414   7.103
 2061     9.985   50.384   7.048
 2061.5     9.982   50.354   6.992
 2062     9.978   50.323   6.937
 2062.5     9.975   50.293   6.881
 2063     9.972   50.262   6.826
 2063.5     9.969   50.25   6.771
 2064     9.966   50.252   6.715
 2064.5     9.963   50.254   6.66
 2065     9.959   50.256   6.604
 2065.5     9.956   50.258   6.549
 2066     9.953   50.338   6.493
 2066.5     9.95   50.432   6.515
 2067     9.947   50.526   6.625
 2067.5     9.944   50.62   6.735
 2068     9.941   50.683   6.845
 2068.5     9.938   50.727   6.955
 2069     9.935   50.771   6.181
 2069.5     9.931   50.814   5.366
 2070     9.928   50.858   6.625
 2070.5     9.925   50.48   7.325
 2071     9.922   50.084   8.025
 2071.5     9.919   49.688   8.726
 2072     9.916   49.291   9.426
 2072.5     9.913   49.017   10.126
 2073     9.91   49.005   9.736
 2073.5     9.906   48.994   8.331
 2074     9.903   48.982   6.925
 2074.5     9.9   49.162   5.519
 2075     9.897   49.394   4.114
 2075.5     9.896   49.627   4.995
 2076     9.899   49.664   7.115
 2076.5     9.903   49.417   9.235
 2077     9.907   49.17   11.354
 2077.5     9.91   48.923   13.474
 2078     9.914   48.777   15.594
 2078.5     9.917   48.861   6.719
 2079     9.921   48.944   6.828
 2079.5     9.924   49.028   6.936
 2080     9.928   49.112   7.044
 2080.5     9.931   49.196   7.153
 2081     9.935   49.279   7.261
 2081.5     9.939   49.325   7.37
 2082     9.942   49.358   6.974
 2082.5     9.946   49.392   5.704
 2083     9.949   49.425   4.435
 2083.5     9.953   49.458   3.455
 2084     9.956   49.491   5.052
 2084.5     9.96   49.468   6.649
 2085     9.963   49.393   8.245
 2085.5     9.967   49.319   9.842
 2086     9.971   49.334   9.538
 2086.5     9.974   49.514   8.179
 2087     9.978   49.693   6.82
 2087.5     9.981   49.873   5.555
 2088     9.985   50.053   5.657
 2088.5     9.988   49.886   5.759
 2089     9.992   49.25   5.862
 2089.5     9.995   48.757   5.964
 2090     9.999   48.793   6.066
 2090.5     10.002   48.83   6.169
 2091     10.006   48.866   6.271
 2091.5     10.01   48.902   6.373
 2092     10.013   48.697   6.475
 2092.5     10.017   48.475   6.578
 2093     10.02   48.254   6.68
 2093.5     10.024   48.282   6.782
 2094     10.027   48.433   6.885
 2094.5     10.031   48.584   6.987
 2095     10.034   48.735   7.089
 2095.5     10.038   48.886   7.191
 2096     10.042   49.037   7.294
 2096.5     10.045   49.188   7.396
 2097     10.049   48.956   7.498
 2097.5     10.044   48.636   7.6
 2098     10.039   48.316   7.703
 2098.5     10.033   48.288   7.805
 2099     10.028   48.562   7.907
 2099.5     10.023   48.837   8.01
 2100     10.018   49.112   8.112
 2100.5     10.013   49.275   8.214
 2101     10.007   49.264   8.316
 2101.5     10.002   49.252   8.101
 2102     9.997   49.24   7.741
 2102.5     9.992   49.228   7.381
 2103     9.986   49.217   7.02
 2103.5     9.981   49.205   6.66
 2104     9.976   49.269   6.772
 2104.5     9.971   49.486   7.205
 2105     9.966   49.703   7.639
 2105.5     9.96   49.921   8.072
 2106     9.955   50.138   8.506
 2106.5     9.955   49.853   8.94
 2107     9.956   49.452   9.373
 2107.5     9.958   49.081   9.807
 2108     9.959   48.789   9.789
 2108.5     9.96   48.496   9.326
 2109     9.961   48.204   8.863
 2109.5     9.962   48.571   8.401
 2110     9.963   48.957   7.938
 2110.5     9.965   49.343   8.243
 2111     9.966   49.469   8.775
 2111.5     9.967   49.471   9.307
 2112     9.968   49.473   9.838
 2112.5     9.969   49.475   10.37
 2113     9.97   49.477   9.916
 2113.5     9.972   49.479   8.368
 2114     9.973   49.54   6.82
 2114.5     9.974   49.684   6.327
 2115     9.975   49.828   6.638
 2115.5     9.976   49.971   6.949
 2116     9.977   49.874   7.26
 2116.5     9.979   49.773   7.571
 2117     9.98   49.672   7.882
 2117.5     9.977   49.571   8.193
 2118     9.973   49.47   8.505
 2118.5     9.968   49.37   8.748
 2119     9.964   49.269   8.672
 2119.5     9.959   49.34   8.597
 2120     9.955   49.658   8.521
 2120.5     9.951   49.688   8.445
 2121     9.946   49.492   8.369
 2121.5     9.942   49.297   8.293
 2122     9.937   49.102   8.217
 2122.5     9.933   48.907   8.141
 2123     9.929   48.712   8.065
 2123.5     9.924   48.773   7.989
 2124     9.92   48.867   8.125
 2124.5     9.915   48.962   8.457
 2125     9.911   49.057   8.789
 2125.5     9.907   49.151   9.121
 2126     9.902   49.231   9.294
 2126.5     9.898   49.192   9.126
 2127     9.893   49.153   8.958
 2127.5     9.889   49.114   8.79
 2128     9.885   49.075   8.623
 2128.5     9.883   49.035   8.455
 2129     9.883   48.996   8.287
 2129.5     9.883   48.957   8.119
 2130     9.883   48.918   8.198
 2130.5     9.884   48.879   8.586
 2131     9.884   48.929   8.974
 2131.5     9.884   49.028   8.924
 2132     9.884   49.127   7.78
 2132.5     9.884   49.226   6.636
 2133     9.884   49.324   5.491
 2133.5     9.884   49.423   5.057
 2134     9.884   49.487   5.962
 2134.5     9.884   49.283   6.867
 2135     9.884   49.08   7.772
 2135.5     9.884   48.877   8.629
 2136     9.885   48.673   8.26
 2136.5     9.885   48.47   7.891
 2137     9.885   48.417   7.521
 2137.5     9.885   48.565   7.152
