###############################################
##         ENVERUS                           ##
##         ESS - Open Hole                   ##
##         PERMIAN / DELAWARE                ##
##         Nov 04 2023  V4.0                 ##
##         42-389-31391-00-00                ##
###############################################
## Copyright 2017-2023  ENVERUS.  All Rights Reserved. 
## Confidential - Property of ENVERUS, use governed by terms and 
## conditions found within the existing Information Services Subscription Agreement 
## (as may be amended, the “ISSA”) between Customer and ENVERUS. 
## 
~VERSION INFORMATION
# MNEM.UNIT                               DATA : DESCRIPTION OF MNEMONIC
#-----.-----     ----------------------------- : -----------------------------
VERS.                                     2.00 : CWLS LOG ASCII STANDARD - VERSION 2.00
WRAP.                                       NO : MULTIPLE LINES PER DEPTH STEP
VEND.                                  ENVERUS : VENDOR
TYPE.                          ESS - OPEN HOLE : ENVERUS ESSENTIAL CURVES – ACCESSIBLE THROUGH ENVERUS PRISM(TM)
DOC.                                  23866972 : ENVERUS HEADER RAW DOCUMENT ID
#___________________________________________________________________________________________________ 
~WELL INFORMATION 
# fYFWm3OWRd9IdMsmH1sgiJ8+yI47SyIf11h8n9fSv2EtxvNnkQHcFoeZabdKB/2nhpfFDZXLrBDJ+4Q2ZBaHeQ== 
# MNEM.UNIT                                              DATA : DESCRIPTION OF MNEMONIC 
#-----.-----                    ----------------------------- : ----------------------------- 
CNTY.                                                  REEVES : COUNTY 
STATE.                                                  TEXAS : STATE 
CNTRY.                                                    USA : COUNTRY 
API.                                             42-389-31391 : API (10 Digit) 
API_14.                                    42-389-31391-00-00 : API (14 Digits) 
API_14_std.                                 42-389-31391-0000 : API (14 Digits Standard) 
UWI.                                           42389313910000 : UNIQUE WELL ID 
WELL.                                       DIXIELAND # 3 - 1 : WELL NAME
STRT.FT                                                4000.0 : START DEPTH
STOP.FT                                               12000.0 : STOP DEPTH
STEP.FT                                                   0.5 : STEP BETWEEN DEPTHS
NULL.                                                 -999.25 : NULL VALUE
COMP.                             R. K. PETROLEUM CORPORATION : COMPANY 
FLD.                                                  WILDCAT : FIELD 
DATE.                                              08/13/2015 : DATE 
TVD.                                                       NO : TVD FLAG 
WSTA.                                                     LOC : WELL STATUS
#___________________________________________________________________________________________________ 
~PARAMETER INFORMATION 
# MNEM.UNIT                                              DATA : DESCRIPTION OF MNEMONIC 
#-----.-----                    ----------------------------- : ----------------------------- 
RUN.                                                      ONE : RUN NUMBER 
PDAT.                                                      GL : PERMANENT DATUM 
LMF.                                            KELLY BUSHING : LOG MEASURED FROM
#___________________________________________________________________________________________________ 
~CURVE INFORMATION 
# MNEM.UNIT           : CURVE DESCRIPTION 
#-----.-----          : ----------------------------- 
 DEPT.FT               : MEASURED DEPTH 
 CALI.IN               : CALIPER (CALIPER) 
 GR.API                : GAMMA RAY (GAMMA RAY) 
 DT.US/FT              : SONIC DELTA TRANSIT TIME (DELTA-T) 
 RESD.OHMM             : DEEP INDUCTION RESISTIVITY (ILD - DEEP INDUCTION STANDARD PROCESSED RESISTIVITY) 
 RESD_LL.OHMM          : DEEP LATEROLOG (LLD - LATERO-LOG DEEP (RESISTIVITY)) 
 NPHI.V/V              : NEUTRON POROSITY (NEUTRON POROSITY) 
 #___________________________________________________________________________________________________ 
~A         DEPT           CALI             GR             DT           RESD        RESD_LL           NPHI
# ...
        10384.0         13.328        105.559         80.822       -999.250        51.5105     -999.25000
        10384.5         13.374        106.751         79.980       -999.250        49.1835     -999.25000
        10385.0         13.420        107.077         80.701       -999.250        47.0865     -999.25000
        10385.5         13.484        107.191         80.701       -999.250        35.6081     -999.25000
        10386.0         13.523        106.344         80.088       -999.250        33.2859     -999.25000
        10386.5         13.553        101.703         79.344       -999.250        29.6084     -999.25000
        10387.0         13.582         97.431         78.657       -999.250        30.3533     -999.25000
        10387.5         13.620         94.239         76.733       -999.250        31.9058     -999.25000
        10388.0         13.619         93.166         75.651       -999.250        32.3903     -999.25000
        10388.5         13.620         94.641         72.456       -999.250        33.1205     -999.25000
        10389.0         13.620         95.779         72.609       -999.250        30.7357     -999.25000
        10389.5         13.620         95.002         73.126       -999.250        27.9946     -999.25000
        10390.0         13.620         88.488         73.337       -999.250        23.5361     -999.25000
        10390.5         13.620         78.228         73.490       -999.250        19.8604     -999.25000
        10391.0         13.620         75.770         73.643       -999.250        16.5918     -999.25000
        10391.5         13.619         78.743         74.265       -999.250        14.2885     -999.25000
        10392.0         13.628         82.733         75.458       -999.250        13.0713     -999.25000
        10392.5         13.644         88.999         76.650       -999.250        12.0481     -999.25000
        10393.0         13.659         89.255         77.936       -999.250        10.5966     -999.25000
        10393.5         13.668         89.246         78.537       -999.250        10.7305     -999.25000
        10394.0         13.678         87.841         78.036       -999.250        10.0940     -999.25000
        10394.5         13.687         85.348         77.525       -999.250         9.1064     -999.25000
        10395.0         13.697         82.162         77.335       -999.250         9.1036     -999.25000
        10395.5         13.706         83.441         77.214       -999.250        10.3864     -999.25000
        10396.0         13.716         72.962         73.902       -999.250        13.6263     -999.25000
        10396.5         13.725         58.938         66.754       -999.250        18.8421     -999.25000
        10397.0         13.735         45.796         68.196       -999.250        25.3310     -999.25000
        10397.5         13.744         42.020         65.190       -999.250        24.6921     -999.25000
        10398.0         13.754         47.861         66.257       -999.250        25.0261     -999.25000
        10398.5         13.763         54.848         67.440       -999.250        13.7644     -999.25000
        10399.0         13.773         62.061         68.437       -999.250        13.2596     -999.25000
        10399.5         13.782         68.719         70.240       -999.250        12.5369     -999.25000
        10400.0         13.792         70.033         70.709       -999.250        12.0455     -999.25000
        10400.5         13.801         71.583         71.186       -999.250        11.5651     -999.25000
        10401.0         13.810         73.015         71.664       -999.250        11.0001     -999.25000
        10401.5         13.820         74.283         72.044       -999.250        10.3417     -999.25000
        10402.0         13.830         74.957         72.905       -999.250        10.2031     -999.25000
        10402.5         13.838         72.949         73.827       -999.250        10.0145     -999.25000
        10403.0         13.849         70.972         74.810       -999.250        10.0226     -999.25000
        10403.5         13.865         66.447         74.810       -999.250         9.8191     -999.25000
        10404.0         13.899         61.360         74.304       -999.250         9.4266     -999.25000
        10404.5         13.880         60.549         73.909       -999.250         9.0496     -999.25000
        10405.0         13.861         59.278         73.514       -999.250         8.9562     -999.25000
        10405.5         13.892         57.961         72.525       -999.250         8.8889     -999.25000
        10406.0         13.920         56.063         72.085       -999.250         8.8188     -999.25000
        10406.5         13.964         53.435         71.646       -999.250         8.7494     -999.25000
        10407.0         14.008         50.907         71.208       -999.250         8.6462     -999.25000
        10407.5         13.906         48.703         70.601       -999.250         8.7091     -999.25000
        10408.0         13.852         48.563         69.756       -999.250         9.0604     -999.25000
        10408.5         13.828         49.338         70.222       -999.250         9.4730     -999.25000
        10409.0         13.844         50.127         71.139       -999.250        10.0191     -999.25000
        10409.5         13.664         50.714         72.056       -999.250         9.5810     -999.25000
        10410.0         13.659         53.715         72.972       -999.250         8.7827     -999.25000
        10410.5         13.631         57.079         73.891       -999.250         8.0069     -999.25000
        10411.0         13.628         60.318         74.917       -999.250         7.5705     -999.25000
        10411.5         13.619         62.061         74.769       -999.250         7.8893     -999.25000
        10412.0         13.619         59.450         74.667       -999.250         9.4730     -999.25000
        10412.5         13.620         56.257         74.975       -999.250         9.3674     -999.25000
        10413.0         13.619         51.893         75.291       -999.250         9.1230     -999.25000
        10413.5         13.622         54.975         76.012       -999.250         8.6450     -999.25000
        10414.0         13.627         69.636         77.835       -999.250         8.3116     -999.25000
        10414.5         13.631         74.388         79.064       -999.250         8.0198     -999.25000
        10415.0         13.635         75.966         80.220       -999.250         7.2806     -999.25000
        10415.5         13.639         71.844         80.100       -999.250         7.4169     -999.25000
        10416.0         13.643         58.909         79.376       -999.250         7.6546     -999.25000
        10416.5         13.648         46.398         78.556       -999.250         7.8676     -999.25000
        10417.0         13.652         44.341         77.575       -999.250         8.4685     -999.25000
        10417.5         13.656         42.463         76.854       -999.250         8.9567     -999.25000
        10418.0         13.660         41.030         76.226       -999.250         9.2060     -999.25000
        10418.5         13.664         39.438         75.765       -999.250         9.4271     -999.25000
        10419.0         13.668         37.888         75.170       -999.250         9.8336     -999.25000
        10419.5         13.672         37.127         74.930       -999.250         9.8747     -999.25000
        10420.0         13.677         38.312         74.797       -999.250         9.9418     -999.25000
        10420.5         13.681         40.654         74.577       -999.250        10.0191     -999.25000
        10421.0         13.685         42.773         74.340       -999.250         9.6586     -999.25000
        10421.5         13.689         45.107         74.579       -999.250         9.3769     -999.25000
