#--------------------------------------------------#
#-------------------ENVERUS, INC.------------------#
#------------------WWW.ENVERUS.COM-----------------#
#------------------COPYRIGHT 2020------------------#
#--------------------------------------------------#
#THIS FILE MAY BE USED ONLY IN ACCORDANCE WITH A CURRENT SUBSCRIPTION AGREEMENT BETWEEN
#THE USER AND ENVERUS, INC. NO PART OF THIS FILE MAY BE REPRODUCED, USED, COPIED,
#MODIFIED, PROPAGATED, OR DISTRIBUTED EXCEPT IN ACCORDANCE WITH THE SUBSCRIPTION
#AGREEMENT. UNAUTHORIZED USE OR DISTRIBUTION OF ALL OR ANY PART OF THIS FILE MAY VIOLATE
#COPYRIGHT, TRADEMARK, AND/OR OTHER LAWS AND IS SUBJECT TO CIVIL AS WELL AS CRIMINAL
#SANCTIONS.
#--------------------------------------------------#
#THIS FILE IS PROVIDED "AS-IS" AND ALL WARRANTIES ARE EXPRESSLY DISCLAIMED, WHETHER
#EXPRESS, ORAL, IMPLIED, STATUTORY OR OTHERWISE, INCLUDING ANY IMPLIED WARRANTY OF FITNESS
#FOR A PARTICULAR PURPOSE, MERCHANTABILITY, TITLE OR NON-INFRINGEMENT, AND ANY WARRANTIES
#ARISING BY VIRTUE OF CUSTOM OF TRADE OR COURSE OF DEALING.  FURTHER, ENVERUS, INC.
#AND ITS LICENSORS DO NOT REPRESENT OR WARRANT THAT THIS FILE WILL MEET USER'S
#REQUIREMENTS OR ARE SUITABLE FOR USER'S NEEDS OR THAT THE DATA OR RESULTS PROVIDED IN
#CONJUNCTION THEREWITH ARE CORRECT, ACCURATE, TIMELY OR RELIABLE. THESE DISCLAIMERS SHALL
#APPLY REGARDLESS OF ANY FAILURE OF ESSENTIAL PURPOSE OF ANY LIMITED REMEDY.  SOME
#JURISDICTIONS DO NOT ALLOW THE EXCLUSION OF CERTAIN WARRANTIES SO SOME OF THE ABOVE
#EXCLUSIONS MAY NOT APPLY. IN NO EVENT SHALL ENVERUS, INC. OR ANY OF ITS AFFILIATES
#BE LIABLE UNDER ANY LEGAL THEORY, WHETHER IN TORT (INCLUDING WITHOUT LIMITATION
#NEGLIGENCE), CONTRACT, STRICT LIABILITY, STATUTORY OR OTHERWISE, FOR ANY SPECIAL,
#INCIDENTAL, CONSEQUENTIAL, EXEMPLARY, PUNITIVE OR INDIRECT DAMAGE OF ANY KIND, INCLUDING
#WITHOUT LIMITATION LOSS OF REVENUE, PROFITS, GOODWILL, USE, AND/OR DATA OR THE COST OF
#PROCUREMENT OF SUBSTITUTE GOODS OR SERVICES, EVEN IF APPRISED OF THE POSSIBILITY OF SUCH
#DAMAGES IN ADVANCE.
#--------------------------------------------------#

~VERSION INFORMATION
VERS. 2.0 : CWLS LOG ASCII STANDARD - VERSION 2.0
WRAP.  NO : ONE LINE PER DEPTH STEP
~WELL INFORMATION
#MNEMONIC     .UNIT              VALUE :DESCRIPTION
STRT       .FT                145 :START DEPTH
STOP       .FT                15608 :STOP DEPTH
STEP       .FT                   0.500 :STEP
NULL       .                  -999.250 :NULL
UWI        .              42389304120000 :UNIQUE WELL ID
API        .              42389304120000 :API NUMBER
COMP       .         BTA OIL PRODUCERS :COMPANY
WELL       .        7607 JV-P ORLA  1 :WELL
DATE       .                            :LOG DATE
~CURVE INFORMATION
#MNEMONIC     .UNIT      API CODE :CURVE DESCRIPTION
DEPTH       .FT                      :MEASURED DEPTH
DT.US/FT        UNKNOWN   :DT
CAL.INCH        UNKNOWN   :CAL
GR.API        UNKNOWN   :GR
~A    DEPTH    DT    CAL    GR
# ...
 10496.5     81.94   13.405   65.336
 10497     74.498   13.397   56.375
 10497.5     68.569   13.39   52.605
 10498     67.25   13.383   50.173
 10498.5     71.45   13.375   49.436
 10499     76.499   13.368   52.465
 10499.5     79.184   13.36   55.495
 10500     79.956   13.353   58.525
 10500.5     78.736   13.346   61.554
 10501     78.651   13.338   63.992
 10501.5     79.115   13.331   62.527
 10502     79.442   13.324   61.063
 10502.5     79.533   13.316   59.598
 10503     79.131   13.309   58.133
 10503.5     78.584   13.302   58.97
 10504     78.038   13.294   59.853
 10504.5     77.491   13.287   60.736
 10505     78.709   13.279   61.62
 10505.5     79.936   13.272   62.503
 10506     80.703   13.265   63.386
 10506.5     80.717   13.257   62.93
 10507     80.731   13.25   62.388
 10507.5     80.745   13.243   61.846
 10508     80.758   13.235   61.303
 10508.5     80.772   13.228   60.761
 10509     80.836   13.221   60.218
 10509.5     80.904   13.213   59.976
 10510     80.972   13.206   60.379
 10510.5     80.575   13.198   60.781
 10511     80.021   13.191   61.184
 10511.5     79.675   13.184   61.586
 10512     79.975   13.176   61.542
 10512.5     81.157   13.169   61.457
 10513     82.34   13.162   61.373
 10513.5     83.522   13.154   61.288
 10514     83.796   13.147   58.347
 10514.5     77.76   13.14   52.687
 10515     69.371   13.132   47.026
 10515.5     62.326   13.125   41.366
 10516     58.617   13.117   35.706
 10516.5     57.088   13.11   34.676
 10517     62.267   13.103   38.973
 10517.5     68.861   13.095   43.27
 10518     75.073   13.088   47.566
 10518.5     77.831   13.085   51.863
 10519     80.589   13.083   56.159
 10519.5     83.347   13.082   59.204
 10520     84.108   13.081   60.938
 10520.5     83.908   13.08   62.591
 10521     81.799   13.079   60.892
 10521.5     79.69   13.077   59.193
 10522     78.632   13.076   57.494
 10522.5     78.933   13.075   55.795
 10523     80.846   13.074   54.096
 10523.5     82.759   13.072   54.484
 10524     83.859   13.071   55.521
 10524.5     83.86   13.07   56.559
 10525     83.362   13.069   57.596
 10525.5     83.109   13.068   57.587
 10526     83.724   13.066   57.009
 10526.5     84.339   13.065   56.264
 10527     78.128   13.064   54.667
 10527.5     75.798   13.063   53.071
 10528     74.132   13.061   51.475
 10528.5     75.402   13.06   49.878
 10529     79.491   13.059   51.004
 10529.5     80.944   13.058   55.315
 10530     81.915   13.057   59.625
 10530.5     83.082   13.055   63.936
 10531     83.612   13.054   64.487
 10531.5     84.341   13.053   63.065
 10532     85.089   13.052   61.643
 10532.5     83.271   13.05   60.22
 10533     80.789   13.049   58.798
 10533.5     77.767   13.048   57.743
 10534     76.655   13.047   59.303
 10534.5     79.044   13.046   60.863
 10535     81.607   13.047   62.423
 10535.5     82.243   13.048   63.989
 10536     81.23   13.05   66
 10536.5     81.693   13.051   68.011
 10537     83.199   13.052   70.019
 10537.5     84.704   13.054   70.666
 10538     86.209   13.055   71.314
 10538.5     85.087   13.057   70.106
 10539     83.083   13.058   68.445
 10539.5     81.08   13.06   66.784
 10540     79.076   13.061   65.123
 10540.5     78.348   13.062   65.002
 10541     78.812   13.064   64.999
 10541.5     79.406   13.065   64.996
 10542     80.486   13.067   64.46
 10542.5     79.725   13.068   62.931
 10543     77.513   13.07   61.403
 10543.5     75.302   13.071   59.279
 10544     73.091   13.072   55.813
 10544.5     73.377   13.074   52.348
 10545     75.599   13.075   50.926
 10545.5     79.332   13.077   51.355
 10546     84.648   13.078   51.89
 10546.5     83.616   13.079   54.446
 10547     84.059   13.081   57.002
 10547.5     84.288   13.082   59.559
 10548     82.856   13.084   62.115
 10548.5     81.844   13.085   64.671
 10549     81.907   13.087   67.227
 10549.5     81.96   13.088   68.651
 10550     80.611   13.089   66.015
 10550.5     79.262   13.091   63.38
 10551     77.913   13.092   60.745
 10551.5     76.564   13.094   58.11
 10552     77.262   13.095   55.475
 10552.5     79.084   13.097   54.609
 10553     81.394   13.098   56.522
 10553.5     83.671   13.101   58.435
 10554     81.568   13.105   60.347
 10554.5     79.464   13.108   62.26
 10555     78.379   13.112   61.641
 10555.5     80.147   13.115   60.106
 10556     81.916   13.118   58.57
 10556.5     83.312   13.122   57.034
 10557     80.389   13.125   55.873
 10557.5     72.947   13.129   55.547
 10558     69.566   13.132   54.324
 10558.5     69.488   13.136   47.288
 10559     74.032   13.139   45.442
 10559.5     79.463   13.143   45.325
 10560     78.722   13.146   48.885
 10560.5     77.981   13.149   52.445
 10561     78.625   13.153   56.005
 10561.5     82.024   13.156   59.565
 10562     85.459   13.16   62.314
 10562.5     87.944   13.163   63.913
 10563     87.129   13.167   65.511
 10563.5     84.094   13.17   67.109
 10564     81.06   13.173   66.542
 10564.5     78.026   13.177   65.592
 10565     74.991   13.18   64.641
 10565.5     76.208   13.184   63.691
 10566     78.873   13.18   61.439
 10566.5     81.538   13.172   58.894
 10567     84.202   13.165   61.702
 10567.5     85.752   13.157   64.511
 10568     83.96   13.15   67.32
 10568.5     83.662   13.142   68.665
 10569     84.636   13.135   68.5
 10569.5     84.554   13.127   68.336
 10570     81.229   13.12   68.171
 10570.5     81.972   13.112   68.102
 10571     81.784   13.105   69.093
 10571.5     81.832   13.097   70.083
 10572     84.486   13.09   71.073
 10572.5     85.719   13.082   72.063
 10573     85.602   13.075   72.965
 10573.5     80.842   13.067   73.74
 10574     82.192   13.06   74.516
 10574.5     82.329   13.052   72.782
 10575     82.48   13.045   69.809
 10575.5     84.207   13.037   66.835
 10576     80.109   13.03   63.862
 10576.5     78.182   13.022   60.546
 10577     78.797   13.015   56.058
 10577.5     78.65   13.007   55.217
 10578     79.981   13   57.611
 10578.5     80.929   12.992   61.365
 10579     80.052   12.991   65.112
 10579.5     80.386   12.991   66.266
 10580     80.892   12.99   67.421
 10580.5     80.427   12.99   66.921
 10581     78.052   12.99   64.984
 10581.5     75.676   12.99   63.048
 10582     73.301   12.989   57.113
 10582.5     69.052   12.989   49.961
 10583     64.759   12.989   43.871
 10583.5     60.466   12.989   38.845
 10584     56.175   12.988   34.42
 10584.5     52.218   12.988   29.995
 10585     54.258   12.988   26.037
 10585.5     60.15   12.987   29.521
 10586     67.307   12.987   33.006
 10586.5     75.214   12.987   44.27
 10587     78.749   12.987   60.638
 10587.5     81.045   12.986   74.044
 10588     83.341   12.983   77.473
 10588.5     84.322   12.979   80.673
 10589     85.031   12.975   79.164
 10589.5     85.739   12.97   75.556
 10590     85.747   12.966   68.654
 10590.5     85.59   12.962   63.724
 10591     85.058   12.958   61.466
 10591.5     84.224   12.954   59.472
 10592     83.39   12.95   58.474
 10592.5     79.199   12.945   57.477
 10593     75.112   12.941   56.48
 10593.5     74.011   12.937   55.299
 10594     72.909   12.933   54.005
 10594.5     71.728   12.929   52.712
 10595     70.345   12.925   51.418
 10595.5     68.962   12.92   48.081
 10596     67.579   12.921   42.489
 10596.5     66.565   12.922   37.625
 10597     67.46   12.923   35.05
 10597.5     68.355   12.925   34.279
 10598     69.25   12.926   33.814
 10598.5     66.606   12.927   33.348
 10599     62.198   12.928   32.883
 10599.5     59.055   12.929   29.588
 10600     55.912   12.931   26.28
 10600.5     56.575   12.932   22.971
 10601     59.758   12.933   19.932
 10601.5     62.731   12.934   19.067
 10602     62.91   12.936   18.202
 10602.5     59.219   12.937   19.866
 10603     51.426   12.938   23.035
 10603.5     51.092   12.939   26.204
 10604     55.453   12.941   29.373
 10604.5     66.916   12.942   37.951
 10605     76.406   12.943   47.856
 10605.5     81.948   12.944   57.76
