#--------------------------------------------------#
#-------------------ENVERUS, INC.------------------#
#------------------WWW.ENVERUS.COM-----------------#
#------------------COPYRIGHT 2020------------------#
#--------------------------------------------------#
#THIS FILE MAY BE USED ONLY IN ACCORDANCE WITH A CURRENT SUBSCRIPTION AGREEMENT BETWEEN
#THE USER AND ENVERUS, INC. NO PART OF THIS FILE MAY BE REPRODUCED, USED, COPIED,
#MODIFIED, PROPAGATED, OR DISTRIBUTED EXCEPT IN ACCORDANCE WITH THE SUBSCRIPTION
#AGREEMENT. UNAUTHORIZED USE OR DISTRIBUTION OF ALL OR ANY PART OF THIS FILE MAY VIOLATE
#COPYRIGHT, TRADEMARK, AND/OR OTHER LAWS AND IS SUBJECT TO CIVIL AS WELL AS CRIMINAL
#SANCTIONS.
#--------------------------------------------------#
#THIS FILE IS PROVIDED "AS-IS" AND ALL WARRANTIES ARE EXPRESSLY DISCLAIMED, WHETHER
#EXPRESS, ORAL, IMPLIED, STATUTORY OR OTHERWISE, INCLUDING ANY IMPLIED WARRANTY OF FITNESS
#FOR A PARTICULAR PURPOSE, MERCHANTABILITY, TITLE OR NON-INFRINGEMENT, AND ANY WARRANTIES
#ARISING BY VIRTUE OF CUSTOM OF TRADE OR COURSE OF DEALING.  FURTHER, ENVERUS, INC.
#AND ITS LICENSORS DO NOT REPRESENT OR WARRANT THAT THIS FILE WILL MEET USER'S
#REQUIREMENTS OR ARE SUITABLE FOR USER'S NEEDS OR THAT THE DATA OR RESULTS PROVIDED IN
#CONJUNCTION THEREWITH ARE CORRECT, ACCURATE, TIMELY OR RELIABLE. THESE DISCLAIMERS SHALL
#APPLY REGARDLESS OF ANY FAILURE OF ESSENTIAL PURPOSE OF ANY LIMITED REMEDY.  SOME
#JURISDICTIONS DO NOT ALLOW THE EXCLUSION OF CERTAIN WARRANTIES SO SOME OF THE ABOVE
#EXCLUSIONS MAY NOT APPLY. IN NO EVENT SHALL ENVERUS, INC. OR ANY OF ITS AFFILIATES
#BE LIABLE UNDER ANY LEGAL THEORY, WHETHER IN TORT (INCLUDING WITHOUT LIMITATION
#NEGLIGENCE), CONTRACT, STRICT LIABILITY, STATUTORY OR OTHERWISE, FOR ANY SPECIAL,
#INCIDENTAL, CONSEQUENTIAL, EXEMPLARY, PUNITIVE OR INDIRECT DAMAGE OF ANY KIND, INCLUDING
#WITHOUT LIMITATION LOSS OF REVENUE, PROFITS, GOODWILL, USE, AND/OR DATA OR THE COST OF
#PROCUREMENT OF SUBSTITUTE GOODS OR SERVICES, EVEN IF APPRISED OF THE POSSIBILITY OF SUCH
#DAMAGES IN ADVANCE.
#--------------------------------------------------#

~VERSION INFORMATION
VERS. 2.0 : CWLS LOG ASCII STANDARD - VERSION 2.0
WRAP.  NO : ONE LINE PER DEPTH STEP
~WELL INFORMATION
#MNEMONIC     .UNIT              VALUE :DESCRIPTION
STRT       .FT                0 :START DEPTH
STOP       .FT                15761 :STOP DEPTH
STEP       .FT                   0.500 :STEP
NULL       .                  -999.250 :NULL
UWI        .              42389302550000 :UNIQUE WELL ID
API        .              42389302550000 :API NUMBER
COMP       .         COASTAL STATES GAS PROD. CO. :COMPANY
WELL       .        CHAPMAN  MCGUIRE & WYNNE  3B :WELL
DATE       .                            :LOG DATE
~CURVE INFORMATION
#MNEMONIC     .UNIT      API CODE :CURVE DESCRIPTION
DEPTH       .FT                      :MEASURED DEPTH
GR.API        UNKNOWN   :GR
DT.US/FT        UNKNOWN   :DT
CAL.INCH        UNKNOWN   :CAL
~A    DEPTH    GR    DT    CAL
# ...
 13358.5     66.927   97.776   -999.250
 13359     68.198   99.455   -999.250
 13359.5     69.499   92.647   -999.250
 13360     69.189   93.38   -999.250
 13360.5     67.038   91.623   -999.250
 13361     64.887   91.582   -999.250
 13361.5     65.027   93.125   -999.250
 13362     66.225   92.757   -999.250
 13362.5     66.538   91.946   -999.250
 13363     66.687   94.378   -999.250
 13363.5     68.813   92.122   -999.250
 13364     68.981   89.672   -999.250
 13364.5     68.979   92.093   -999.250
 13365     71.704   91.149   -999.250
 13365.5     73.049   91.784   -999.250
 13366     70.468   93.227   -999.250
 13366.5     71.015   90.617   -999.250
 13367     71.974   89.724   -999.250
 13367.5     72.743   88.485   -999.250
 13368     71.4   88.736   -999.250
 13368.5     70.056   88.181   -999.250
 13369     69.095   90.126   -999.250
 13369.5     68.201   91.782   -999.250
 13370     67.306   90.477   -999.250
 13370.5     66.412   89.384   -999.250
 13371     65.517   87.45   -999.250
 13371.5     66.135   86.613   -999.250
 13372     67.067   85.25   -999.250
 13372.5     67.809   86.384   -999.250
 13373     68.417   85.836   -999.250
 13373.5     67.929   85.287   -999.250
 13374     66.788   84.48   -999.250
 13374.5     65.646   82.055   -999.250
 13375     64.505   80.006   -999.250
 13375.5     63.67   80.253   -999.250
 13376     64.379   80.086   -999.250
 13376.5     65.088   79.481   -999.250
 13377     65.797   79.052   -999.250
 13377.5     64.499   79.222   -999.250
 13378     62.707   79.918   -999.250
 13378.5     60.916   80.614   -999.250
 13379     60.64   81.009   -999.250
 13379.5     62.129   81.116   -999.250
 13380     63.617   80.42   -999.250
 13380.5     63.569   79.713   -999.250
 13381     62.71   79.066   -999.250
 13381.5     61.851   78.492   -999.250
 13382     60.992   77.992   -999.250
 13382.5     60.11   77.524   -999.250
 13383     59.201   77.057   -999.250
 13383.5     58.291   77.433   -999.250
 13384     57.382   77.902   -999.250
 13384.5     58.933   78.37   -999.250
 13385     60.941   78.665   -999.250
 13385.5     62.241   78.612   -999.250
 13386     62.002   78.963   -999.250
 13386.5     61.762   78.859   -999.250
 13387     59.995   78.254   -999.250
 13387.5     57.844   76.645   -999.250
 13388     55.423   75.037   -999.250
 13388.5     52.357   73.429   -999.250
 13389     49.29   72.269   -999.250
 13389.5     46.223   71.863   -999.250
 13390     43.685   71.269   -999.250
 13390.5     41.39   69.54   -999.250
 13391     39.094   67.438   -999.250
 13391.5     36.799   64.428   -999.250
 13392     36.193   61.24   -999.250
 13392.5     37.187   61.568   -999.250
 13393     38.181   62.277   -999.250
 13393.5     39.175   62.472   -999.250
 13394     37.155   61.411   -999.250
 13394.5     37.098   61.834   -999.250
 13395     39.754   63.751   -999.250
 13395.5     40.301   64.794   -999.250
 13396     38.836   64.198   -999.250
 13396.5     37.371   64.625   -999.250
 13397     37.666   60.845   -999.250
 13397.5     40.144   59.857   -999.250
 13398     40.739   59.09   -999.250
 13398.5     40.737   56.937   -999.250
 13399     46.236   62.561   -999.250
 13399.5     51.254   70.443   -999.250
 13400     56.271   77.007   -999.250
 13400.5     58.671   87.252   -999.250
 13401     57.195   95.269   -999.250
 13401.5     54.808   90.135   -999.250
 13402     48.046   78.661   -999.250
 13402.5     41.285   59.563   -999.250
 13403     33.139   50.64   -999.250
 13403.5     33.292   52.347   -999.250
 13404     36.349   54.407   -999.250
 13404.5     45.974   56.467   -999.250
 13405     49.738   62.462   -999.250
 13405.5     53.502   66.592   -999.250
 13406     54.539   67.775   -999.250
 13406.5     52.926   67.004   -999.250
 13407     45.518   63.92   -999.250
 13407.5     38.244   58.063   -999.250
 13408     36.33   57.104   -999.250
 13408.5     34.416   54.44   -999.250
 13409     34.479   54.434   -999.250
 13409.5     35.437   53.641   -999.250
 13410     36.395   54.229   -999.250
 13410.5     41.171   55.949   -999.250
 13411     46.446   61.344   -999.250
 13411.5     51.721   69.413   -999.250
 13412     56.997   74.917   -999.250
 13412.5     56.654   79.038   -999.250
 13413     55.819   75.519   -999.250
 13413.5     56.191   74.677   -999.250
 13414     58.316   80.285   -999.250
 13414.5     60.441   88.712   -999.250
 13415     61.436   93.717   -999.250
 13415.5     61.672   95.518   -999.250
 13416     61.692   93.878   -999.250
 13416.5     59.218   94.117   -999.250
 13417     56.743   95.968   -999.250
 13417.5     54.901   95.648   -999.250
 13418     55.106   94.582   -999.250
 13418.5     55.968   92.429   -999.250
 13419     56.829   91.209   -999.250
 13419.5     57.691   92.654   -999.250
 13420     58.552   96.129   -999.250
 13420.5     59.414   99.605   -999.250
 13421     58.672   99.386   -999.250
 13421.5     56.76   97.19   -999.250
 13422     54.975   95.011   -999.250
 13422.5     54.795   90.199   -999.250
 13423     54.614   90.979   -999.250
 13423.5     54.434   94.619   -999.250
 13424     55.576   96.542   -999.250
 13424.5     57.237   96.327   -999.250
 13425     58.898   95.755   -999.250
 13425.5     60.56   93.719   -999.250
 13426     61.463   91.84   -999.250
 13426.5     59.774   92.963   -999.250
 13427     58.884   93.548   -999.250
 13427.5     60.082   92.83   -999.250
 13428     61.13   94.271   -999.250
 13428.5     57.896   94.362   -999.250
 13429     55.117   92.792   -999.250
 13429.5     56.844   93.595   -999.250
 13430     58.572   93.197   -999.250
 13430.5     58.021   93.625   -999.250
 13431     57.054   92.602   -999.250
 13431.5     56.294   91.428   -999.250
 13432     58.942   91.54   -999.250
 13432.5     57.631   90.474   -999.250
 13433     58.943   90.783   -999.250
 13433.5     60.918   92.681   -999.250
 13434     60.151   91.755   -999.250
 13434.5     59.462   91.589   -999.250
 13435     61.41   89.923   -999.250
 13435.5     63.358   88.267   -999.250
 13436     65.305   86.333   -999.250
 13436.5     61.326   86.291   -999.250
 13437     61.084   86.561   -999.250
 13437.5     63.044   86.429   -999.250
 13438     65.005   87.516   -999.250
 13438.5     66.907   87.421   -999.250
 13439     67.651   87.737   -999.250
 13439.5     68.396   88.131   -999.250
 13440     68.55   88.83   -999.250
 13440.5     66.876   90.24   -999.250
 13441     65.203   91.911   -999.250
 13441.5     65.241   95.609   -999.250
 13442     65.297   94.145   -999.250
 13442.5     64.223   92.466   -999.250
 13443     63.148   90.582   -999.250
 13443.5     62.589   89.647   -999.250
 13444     63.408   91.232   -999.250
 13444.5     64.227   93.779   -999.250
 13445     65.045   97.466   -999.250
 13445.5     66.269   97.879   -999.250
 13446     67.731   97.029   -999.250
 13446.5     69.194   94.271   -999.250
 13447     70.656   89.127   -999.250
 13447.5     71.72   89.788   -999.250
 13448     70.309   91.109   -999.250
 13448.5     68.898   90.673   -999.250
 13449     67.488   89.309   -999.250
 13449.5     66.077   88.455   -999.250
 13450     64.309   86.343   -999.250
 13450.5     62.373   86.206   -999.250
 13451     60.437   84.063   -999.250
 13451.5     58.5   80.254   -999.250
 13452     57.625   77.88   -999.250
 13452.5     57.774   74.949   -999.250
 13453     58.973   76.506   -999.250
 13453.5     61.031   79.313   -999.250
 13454     63.089   81.195   -999.250
 13454.5     65.147   86.005   -999.250
 13455     67.029   90.393   -999.250
 13455.5     65.685   91.791   -999.250
 13456     64.342   93.989   -999.250
 13456.5     56.549   99.341   -999.250
 13457     47.375   95.28   -999.250
 13457.5     39.002   85.363   -999.250
 13458     31.077   68.667   -999.250
 13458.5     23.984   50.338   -999.250
 13459     18.454   49.081   -999.250
 13459.5     19.651   50.399   -999.250
 13460     20.848   53.883   -999.250
 13460.5     22.046   55.571   -999.250
 13461     23.243   55.503   -999.250
 13461.5     23.236   55.812   -999.250
