#--------------------------------------------------#
#-------------------ENVERUS, INC.------------------#
#------------------WWW.ENVERUS.COM-----------------#
#------------------COPYRIGHT 2020------------------#
#--------------------------------------------------#
#THIS FILE MAY BE USED ONLY IN ACCORDANCE WITH A CURRENT SUBSCRIPTION AGREEMENT BETWEEN
#THE USER AND ENVERUS, INC. NO PART OF THIS FILE MAY BE REPRODUCED, USED, COPIED,
#MODIFIED, PROPAGATED, OR DISTRIBUTED EXCEPT IN ACCORDANCE WITH THE SUBSCRIPTION
#AGREEMENT. UNAUTHORIZED USE OR DISTRIBUTION OF ALL OR ANY PART OF THIS FILE MAY VIOLATE
#COPYRIGHT, TRADEMARK, AND/OR OTHER LAWS AND IS SUBJECT TO CIVIL AS WELL AS CRIMINAL
#SANCTIONS.
#--------------------------------------------------#
#THIS FILE IS PROVIDED "AS-IS" AND ALL WARRANTIES ARE EXPRESSLY DISCLAIMED, WHETHER
#EXPRESS, ORAL, IMPLIED, STATUTORY OR OTHERWISE, INCLUDING ANY IMPLIED WARRANTY OF FITNESS
#FOR A PARTICULAR PURPOSE, MERCHANTABILITY, TITLE OR NON-INFRINGEMENT, AND ANY WARRANTIES
#ARISING BY VIRTUE OF CUSTOM OF TRADE OR COURSE OF DEALING.  FURTHER, ENVERUS, INC.
#AND ITS LICENSORS DO NOT REPRESENT OR WARRANT THAT THIS FILE WILL MEET USER'S
#REQUIREMENTS OR ARE SUITABLE FOR USER'S NEEDS OR THAT THE DATA OR RESULTS PROVIDED IN
#CONJUNCTION THEREWITH ARE CORRECT, ACCURATE, TIMELY OR RELIABLE. THESE DISCLAIMERS SHALL
#APPLY REGARDLESS OF ANY FAILURE OF ESSENTIAL PURPOSE OF ANY LIMITED REMEDY.  SOME
#JURISDICTIONS DO NOT ALLOW THE EXCLUSION OF CERTAIN WARRANTIES SO SOME OF THE ABOVE
#EXCLUSIONS MAY NOT APPLY. IN NO EVENT SHALL ENVERUS, INC. OR ANY OF ITS AFFILIATES
#BE LIABLE UNDER ANY LEGAL THEORY, WHETHER IN TORT (INCLUDING WITHOUT LIMITATION
#NEGLIGENCE), CONTRACT, STRICT LIABILITY, STATUTORY OR OTHERWISE, FOR ANY SPECIAL,
#INCIDENTAL, CONSEQUENTIAL, EXEMPLARY, PUNITIVE OR INDIRECT DAMAGE OF ANY KIND, INCLUDING
#WITHOUT LIMITATION LOSS OF REVENUE, PROFITS, GOODWILL, USE, AND/OR DATA OR THE COST OF
#PROCUREMENT OF SUBSTITUTE GOODS OR SERVICES, EVEN IF APPRISED OF THE POSSIBILITY OF SUCH
#DAMAGES IN ADVANCE.
#--------------------------------------------------#

~VERSION INFORMATION
VERS. 2.0 : CWLS LOG ASCII STANDARD - VERSION 2.0
WRAP.  NO : ONE LINE PER DEPTH STEP
~WELL INFORMATION
#MNEMONIC     .UNIT              VALUE :DESCRIPTION
STRT       .FT                51 :START DEPTH
STOP       .FT                4494 :STOP DEPTH
STEP       .FT                   0.500 :STEP
NULL       .                  -999.990 :NULL
UWI        .              42389102200000 :UNIQUE WELL ID
API        .              42389102200000 :API NUMBER
COMP       .         GRUY PETROLEUM MANAGEMENT CO. :COMPANY
WELL       .        REEVES -AQ- FEE  2 :WELL
DATE       .                30-NOV-1992 :LOG DATE
~CURVE INFORMATION
#MNEMONIC     .UNIT      API CODE :CURVE DESCRIPTION
DEPTH       .FT                      :MEASURED DEPTH
CAL.INCH        UNKNOWN   :CAL
GR.API        UNKNOWN   :GR
DT.US/FT        UNKNOWN   :DT
~A    DEPTH    CAL    GR    DT
# ...
 4394.5     7.231   41.731   64.407
 4395     7.214   40.389   65.431
 4395.5     7.197   39.601   66.455
 4396     7.181   43.201   67.479
 4396.5     7.187   46.8   68.503
 4397     7.207   50.4   69.527
 4397.5     7.227   50.511   68.992
 4398     7.247   48.1   68.297
 4398.5     7.219   45.688   67.601
 4399     7.187   44.082   68.934
 4399.5     7.155   50.474   70.776
 4400     7.123   56.866   72.619
 4400.5     7.09   63.258   73.563
 4401     7.058   69.65   74.232
 4401.5     7.052   66.886   74.9
 4402     7.055   61.003   75.569
 4402.5     7.057   55.316   76.237
 4403     7.06   53.172   75.153
 4403.5     7.063   51.028   73.777
 4404     7.065   48.885   72.4
 4404.5     7.068   47.041   71.024
 4405     7.071   45.214   69.648
 4405.5     7.073   43.386   68.617
 4406     7.068   45.462   68.768
 4406.5     7.053   48.256   68.919
 4407     7.039   47.108   67.737
 4407.5     7.025   45.444   66.132
 4408     7.01   43.781   64.998
 4408.5     6.996   42.122   65.265
 4409     6.981   41.978   65.531
 4409.5     6.967   41.834   65.55
 4410     6.953   42.602   64.377
 4410.5     6.96   45.759   63.203
 4411     6.971   48.915   62.03
 4411.5     6.982   48.277   62.146
 4412     6.993   47.316   64.007
 4412.5     7.004   46.356   65.868
 4413     7.015   45.395   67.73
 4413.5     7.026   43.997   69.415
 4414     7.038   42.685   70.298
 4414.5     7.049   44.583   71.18
 4415     7.06   47.069   70.547
 4415.5     7.071   53.304   69.354
 4416     7.065   59.538   68.161
 4416.5     7.053   65.773   66.967
 4417     7.041   69.177   65.117
 4417.5     7.028   59.871   63.255
 4418     7.016   50.564   61.393
 4418.5     7.003   44.387   59.531
 4419     6.991   41.957   60.442
 4419.5     6.979   40.949   63.36
 4420     6.984   41.2   65.804
 4420.5     6.997   43.27   66.073
 4421     7.011   45.339   66.342
 4421.5     7.024   45.578   66.611
 4422     7.016   44.907   66.881
 4422.5     7.008   44.236   67.15
 4423     6.999   43.727   66.251
 4423.5     6.991   44.028   64.687
 4424     6.982   44.328   63.123
 4424.5     6.974   44.629   61.558
 4425     6.966   44.734   62.522
 4425.5     6.957   44.303   63.852
 4426     6.949   43.872   65.182
 4426.5     6.94   44.421   66.512
 4427     6.932   45.797   67.842
 4427.5     6.924   47.172   67.565
 4428     6.915   48.548   67.285
 4428.5     6.907   49.924   67.004
 4429     6.9   50.033   66.826
 4429.5     6.902   49.921   66.906
 4430     6.904   49.809   66.804
 4430.5     6.906   49.522   66.46
 4431     6.908   48.903   66.117
 4431.5     6.91   48.284   65.773
 4432     6.913   47.665   65.477
 4432.5     6.915   47.045   65.633
 4433     6.917   48.812   65.789
 4433.5     6.919   56.488   65.944
 4434     6.921   67.595   66.1
 4434.5     6.923   86.707   66.815
 4435     6.923   105.818   67.688
 4435.5     6.919   134.328   68.561
 4436     6.914   146.588   69.159
 4436.5     6.91   137.79   67.467
 4437     6.906   128.992   65.776
 4437.5     6.902   120.194   64.841
 4438     6.898   106.811   64.421
 4438.5     6.894   99.382   64.073
 4439     6.89   99.945   64.285
 4439.5     6.886   100.509   64.497
 4440     6.882   96.613   64.709
 4440.5     6.878   88.407   64.921
 4441     6.876   89.617   65.045
 4441.5     6.908   90.992   64.784
 4442     6.94   92.367   64.524
 4442.5     6.972   84.065   64.263
 4443     7.004   74.106   64.628
 4443.5     7.036   71.345   65.696
 4444     7.069   73.9   66.711
 4444.5     7.058   76.455   65.89
 4445     7.04   75.121   65.07
 4445.5     7.023   68.762   64.249
 4446     7.006   62.404   63.428
 4446.5     6.989   56.045   63.749
 4447     6.971   52.882   64.632
 4447.5     6.954   60.963   65.418
 4448     6.937   69.044   65.863
 4448.5     6.92   77.124   66.308
 4449     6.902   85.205   66.753
 4449.5     6.885   92.63   66.151
 4450     6.868   84.708   64.636
 4450.5     6.851   76.786   63.179
 4451     6.855   68.864   63.979
 4451.5     6.862   68.444   64.779
 4452     6.868   72.852   65.579
 4452.5     6.875   77.259   66.379
 4453     6.882   81.313   66.75
 4453.5     6.888   79.65   66.968
 4454     6.895   77.986   67.185
 4454.5     6.902   76.322   67.162
 4455     6.908   75.122   67.014
 4455.5     6.915   76.068   66.865
 4456     6.922   77.013   66.716
 4456.5     6.918   77.958   66.568
 4457     6.911   76.69   66.419
 4457.5     6.904   74.49   66.27
 4458     6.898   73.861   66.122
 4458.5     6.891   73.232   65.973
 4459     6.884   72.604   65.824
 4459.5     6.877   73.23   65.856
 4460     6.871   73.856   66.955
 4460.5     6.864   74.482   67.657
 4461     6.857   112.342   67.488
 4461.5     6.851   112.454   67.32
 4462     6.844   112.203   67.291
 4462.5     6.837   111.951   67.752
 4463     6.83   112.224   68.213
 4463.5     6.824   117.472   68.331
 4464     6.834   121.393   66.475
 4464.5     6.845   115.559   65.429
 4465     6.856   109.726   66.683
 4465.5     6.867   103.893   67.937
 4466     6.878   105.993   69.19
 4466.5     6.89   112.082   70.444
 4467     6.901   111.431   70.863
 4467.5     6.912   94.135   69.947
 4468     6.923   76.839   69.651
 4468.5     6.934   59.542   69.942
 4469     6.945   46.084   70.232
 4469.5     6.943   47.484   69.129
 4470     6.938   47.543   66.216
 4470.5     6.933   43.552   63.304
 4471     6.928   39.561   60.392
 4471.5     6.923   37.446   57.479
 4472     6.933   36.851   56.442
 4472.5     6.945   36.256   59
 4473     6.957   35.661   61.557
 4473.5     6.969   35.961   64.114
 4474     6.981   38.616   66.671
 4474.5     6.993   41.272   69.229
 4475     6.983   42.293   71.786
 4475.5     6.964   43.169   72.977
 4476     6.945   44.045   73.652
 4476.5     6.926   44.92   74.328
 4477     6.907   45.148   75.004
 4477.5     6.888   43.2   75.679
 4478     6.869   41.252   76.197
 4478.5     6.85   40.157   76.117
 4479     6.83   39.855   75.172
 4479.5     6.811   39.553   72.666
 4480     6.792   39.251   70.159
 4480.5     6.773   40.449   67.653
 4481     6.778   42.543   66.732
 4481.5     6.783   45.759   67.106
 4482     6.788   46.31   67.481
 4482.5     6.793   46.862   67.856
 4483     6.798   47.413   68.231
 4483.5     6.803   45.811   68.606
 4484     6.808   43.513   68.98
 4484.5     6.813   41.215   68.795
 4485     6.818   38.917   68.456
 4485.5     6.82   38.015   68.117
 4486     6.797   38.516   67.778
 4486.5     6.774   39.017   67.44
 4487     6.751   41.65   67.101
 4487.5     6.728   44.931   66.762
 4488     6.727   45.788   66.596
 4488.5     6.732   46.038   66.436
 4489     6.738   46.289   66.275
 4489.5     6.743   46.539   64.363
 4490     6.749   44.29   64.657
 4490.5     6.754   41.76   64.952
 4491     6.76   -999.990   65.246
 4491.5     6.765   -999.990   65.54
 4492     6.771   -999.990   66.069
 4492.5     6.776   -999.990   66.616
 4493     6.781   -999.990   67.163
 4493.5     6.787   -999.990   67.709
 4494     6.792   -999.990   -999.990
