###############################################
##         ENVERUS                           ##
##         ESS - Open Hole                   ##
##         PERMIAN / DELAWARE                ##
##         Nov 04 2023  V4.0                 ##
##         42-389-30259-00-00                ##
###############################################
## Copyright 2017-2023  ENVERUS.  All Rights Reserved. 
## Confidential - Property of ENVERUS, use governed by terms and 
## conditions found within the existing Information Services Subscription Agreement 
## (as may be amended, the “ISSA”) between Customer and ENVERUS. 
## 
~VERSION INFORMATION
# MNEM.UNIT                               DATA : DESCRIPTION OF MNEMONIC
#-----.-----     ----------------------------- : -----------------------------
VERS.                                     2.00 : CWLS LOG ASCII STANDARD - VERSION 2.00
WRAP.                                       NO : MULTIPLE LINES PER DEPTH STEP
VEND.                                  ENVERUS : VENDOR
TYPE.                          ESS - OPEN HOLE : ENVERUS ESSENTIAL CURVES – ACCESSIBLE THROUGH ENVERUS PRISM(TM)
DOC.                                  32063127 : ENVERUS HEADER RAW DOCUMENT ID
#___________________________________________________________________________________________________ 
~WELL INFORMATION 
# gPsidqVjAScFWwbHY3NvrhVb9Q0dnpAvxUas8qP1mSjKWoj7hBgJ2nw/4lW9Nf69eTG+8mlPQw3CFq6Jh/Hagw== 
# MNEM.UNIT                                              DATA : DESCRIPTION OF MNEMONIC 
#-----.-----                    ----------------------------- : ----------------------------- 
CNTY.                                                  REEVES : COUNTY 
STATE.                                                  TEXAS : STATE 
CNTRY.                                                    USA : COUNTRY 
API.                                             42-389-30259 : API (10 Digit) 
API_14.                                    42-389-30259-00-00 : API (14 Digits) 
API_14_std.                                 42-389-30259-0000 : API (14 Digits Standard) 
UWI.                                           42389302590000 : UNIQUE WELL ID 
WELL.                                         FORTUNE UNIT  1 : WELL NAME
STRT.FT                                                     0 : START DEPTH
STOP.FT                                               15675.0 : STOP DEPTH
STEP.FT                                                   0.5 : STEP BETWEEN DEPTHS
NULL.                                                 -999.25 : NULL VALUE
COMP.                          SANDRIDGE EXPL. AND PROD.  LLC : COMPANY 
DATE.                                             19-FEB-2007 : LOG DATE
#___________________________________________________________________________________________________ 
~CURVE INFORMATION 
# MNEM.UNIT           : CURVE DESCRIPTION 
#-----.-----          : ----------------------------- 
 DEPT.FT               : MEASURED DEPTH 
 CALI__B.IN            : CALIPER (CAL - CAL) 
 GR__B.API             : GAMMA RAY (GR) 
 DT__B.US/FT           : SONIC DELTA TRANSIT TIME (DT) 
 #___________________________________________________________________________________________________ 
~A         DEPT        CALI__B          GR__B          DT__B
# ...
         3894.0       -999.250         23.446       -999.250
         3894.5       -999.250         22.995       -999.250
         3895.0       -999.250         21.164       -999.250
         3895.5       -999.250         20.053       -999.250
         3896.0       -999.250         20.475       -999.250
         3896.5       -999.250         20.898       -999.250
         3897.0       -999.250         20.990       -999.250
         3897.5       -999.250         20.028       -999.250
         3898.0       -999.250         19.066       -999.250
         3898.5       -999.250         19.646       -999.250
         3899.0       -999.250         21.574       -999.250
         3899.5       -999.250         23.501       -999.250
         3900.0       -999.250         25.429       -999.250
         3900.5       -999.250         26.010       -999.250
         3901.0       -999.250         26.426       -999.250
         3901.5       -999.250         26.649       -999.250
         3902.0       -999.250         26.570       -999.250
         3902.5       -999.250         26.491       -999.250
         3903.0       -999.250         26.338       -999.250
         3903.5       -999.250         25.597       -999.250
         3904.0       -999.250         24.857       -999.250
         3904.5       -999.250         24.116       -999.250
         3905.0       -999.250         23.292       -999.250
         3905.5       -999.250         22.215       -999.250
         3906.0       -999.250         21.909       -999.250
         3906.5       -999.250         23.264       -999.250
         3907.0       -999.250         24.074       -999.250
         3907.5       -999.250         22.776       -999.250
         3908.0       -999.250         21.478       -999.250
         3908.5       -999.250         20.481       -999.250
         3909.0       -999.250         20.202       -999.250
         3909.5       -999.250         19.923       -999.250
         3910.0       -999.250         22.114       -999.250
         3910.5       -999.250         24.332       -999.250
         3911.0       -999.250         26.703       -999.250
         3911.5       -999.250         28.241       -999.250
         3912.0       -999.250         28.240       -999.250
         3912.5       -999.250         27.222       -999.250
         3913.0       -999.250         26.204       -999.250
         3913.5       -999.250         24.360       -999.250
         3914.0       -999.250         21.976       -999.250
         3914.5       -999.250         21.091         40.124
         3915.0       -999.250         21.006         40.116
         3915.5       -999.250         20.922         40.107
         3916.0       -999.250         21.030         40.099
         3916.5       -999.250         21.900         40.090
         3917.0       -999.250         22.770         40.082
         3917.5       -999.250         23.361         40.073
         3918.0       -999.250         22.744         40.065
         3918.5       -999.250         22.128         40.056
         3919.0       -999.250         21.512         40.048
         3919.5       -999.250         20.371         40.040
         3920.0       -999.250         19.255         40.031
         3920.5       -999.250         19.931         40.023
         3921.0       -999.250         20.607         40.014
         3921.5       -999.250         21.283         41.351
         3922.0       -999.250         20.992         46.301
         3922.5       -999.250         20.415         55.293
         3923.0       -999.250         19.839         54.170
         3923.5       -999.250         19.340         54.333
         3924.0       -999.250         19.087         56.330
         3924.5       -999.250         18.834         57.835
         3925.0       -999.250         20.094         62.945
         3925.5       -999.250         21.449         56.237
         3926.0       -999.250         22.803         56.430
         3926.5       -999.250         21.984         56.972
         3927.0       -999.250         21.011         57.746
         3927.5       -999.250         19.942         62.674
         3928.0       -999.250         18.314         65.865
         3928.5       -999.250         16.686         66.363
         3929.0       -999.250         16.261         66.860
         3929.5       -999.250         16.938         68.069
         3930.0       -999.250         17.615         68.584
         3930.5       -999.250         18.345         67.940
         3931.0       -999.250         19.689         67.961
         3931.5       -999.250         20.147         66.768
         3932.0       -999.250         19.473         57.318
         3932.5       -999.250         18.799         56.697
         3933.0       -999.250         19.102         57.922
         3933.5       -999.250         19.754         61.280
         3934.0       -999.250         20.407         58.850
         3934.5       -999.250         21.059         60.764
         3935.0       -999.250         21.712         63.115
         3935.5       -999.250         22.186         70.617
         3936.0       -999.250         21.697         70.736
         3936.5       -999.250         21.177         67.809
         3937.0       -999.250         19.773         62.900
         3937.5       -999.250         18.370         57.850
         3938.0       -999.250         16.966         56.384
         3938.5       -999.250         15.563         56.357
         3939.0       -999.250         16.115         57.009
         3939.5       -999.250         18.052         57.026
         3940.0       -999.250         19.990         57.464
         3940.5       -999.250         20.438         57.520
         3941.0       -999.250         20.721         57.251
         3941.5       -999.250         20.762         57.751
         3942.0       -999.250         20.578         59.062
         3942.5       -999.250         19.700         63.956
         3943.0       -999.250         20.261         63.718
         3943.5       -999.250         19.571         63.383
         3944.0       -999.250         17.482         63.559
         3944.5       -999.250         16.965         63.442
         3945.0       -999.250         16.843         63.326
         3945.5       -999.250         17.170         63.259
         3946.0       -999.250         17.710         63.436
         3946.5       -999.250         17.233         63.613
         3947.0       -999.250         16.426         63.854
         3947.5       -999.250         17.536         64.176
         3948.0       -999.250         18.431         64.402
         3948.5       -999.250         18.277         64.370
         3949.0       -999.250         19.819         64.164
         3949.5       -999.250         21.511         63.876
         3950.0       -999.250         20.719         63.199
         3950.5       -999.250         18.609         57.934
         3951.0       -999.250         18.532         57.062
         3951.5       -999.250         18.814         57.231
         3952.0       -999.250         19.997         58.086
         3952.5       -999.250         20.429         61.445
         3953.0       -999.250         20.160         59.124
         3953.5       -999.250         19.943         60.936
         3954.0       -999.250         19.819         62.300
         3954.5       -999.250         19.696         57.484
         3955.0       -999.250         19.694         56.913
         3955.5       -999.250         19.694         56.972
         3956.0       -999.250         19.396         57.646
         3956.5       -999.250         18.650         61.122
         3957.0       -999.250         18.666         61.560
         3957.5       -999.250         19.602         57.445
         3958.0       -999.250         20.538         57.139
         3958.5       -999.250         20.506         56.834
         3959.0       -999.250         19.966         54.365
         3959.5       -999.250         20.705         50.712
