###############################################
##         ENVERUS                           ##
##         ESS - Open Hole                   ##
##         PERMIAN / DELAWARE                ##
##         Nov 04 2023  V4.0                 ##
##         42-389-31391-00-00                ##
###############################################
## Copyright 2017-2023  ENVERUS.  All Rights Reserved. 
## Confidential - Property of ENVERUS, use governed by terms and 
## conditions found within the existing Information Services Subscription Agreement 
## (as may be amended, the “ISSA”) between Customer and ENVERUS. 
## 
~VERSION INFORMATION
# MNEM.UNIT                               DATA : DESCRIPTION OF MNEMONIC
#-----.-----     ----------------------------- : -----------------------------
VERS.                                     2.00 : CWLS LOG ASCII STANDARD - VERSION 2.00
WRAP.                                       NO : MULTIPLE LINES PER DEPTH STEP
VEND.                                  ENVERUS : VENDOR
TYPE.                          ESS - OPEN HOLE : ENVERUS ESSENTIAL CURVES – ACCESSIBLE THROUGH ENVERUS PRISM(TM)
DOC.                                  23866972 : ENVERUS HEADER RAW DOCUMENT ID
#___________________________________________________________________________________________________ 
~WELL INFORMATION 
# fYFWm3OWRd9IdMsmH1sgiJ8+yI47SyIf11h8n9fSv2EtxvNnkQHcFoeZabdKB/2nhpfFDZXLrBDJ+4Q2ZBaHeQ== 
# MNEM.UNIT                                              DATA : DESCRIPTION OF MNEMONIC 
#-----.-----                    ----------------------------- : ----------------------------- 
CNTY.                                                  REEVES : COUNTY 
STATE.                                                  TEXAS : STATE 
CNTRY.                                                    USA : COUNTRY 
API.                                             42-389-31391 : API (10 Digit) 
API_14.                                    42-389-31391-00-00 : API (14 Digits) 
API_14_std.                                 42-389-31391-0000 : API (14 Digits Standard) 
UWI.                                           42389313910000 : UNIQUE WELL ID 
WELL.                                       DIXIELAND # 3 - 1 : WELL NAME
STRT.FT                                                4000.0 : START DEPTH
STOP.FT                                               12000.0 : STOP DEPTH
STEP.FT                                                   0.5 : STEP BETWEEN DEPTHS
NULL.                                                 -999.25 : NULL VALUE
COMP.                             R. K. PETROLEUM CORPORATION : COMPANY 
FLD.                                                  WILDCAT : FIELD 
DATE.                                              08/13/2015 : DATE 
TVD.                                                       NO : TVD FLAG 
WSTA.                                                     LOC : WELL STATUS
#___________________________________________________________________________________________________ 
~PARAMETER INFORMATION 
# MNEM.UNIT                                              DATA : DESCRIPTION OF MNEMONIC 
#-----.-----                    ----------------------------- : ----------------------------- 
RUN.                                                      ONE : RUN NUMBER 
PDAT.                                                      GL : PERMANENT DATUM 
LMF.                                            KELLY BUSHING : LOG MEASURED FROM
#___________________________________________________________________________________________________ 
~CURVE INFORMATION 
# MNEM.UNIT           : CURVE DESCRIPTION 
#-----.-----          : ----------------------------- 
 DEPT.FT               : MEASURED DEPTH 
 CALI.IN               : CALIPER (CALIPER) 
 GR.API                : GAMMA RAY (GAMMA RAY) 
 DT.US/FT              : SONIC DELTA TRANSIT TIME (DELTA-T) 
 RESD.OHMM             : DEEP INDUCTION RESISTIVITY (ILD - DEEP INDUCTION STANDARD PROCESSED RESISTIVITY) 
 RESD_LL.OHMM          : DEEP LATEROLOG (LLD - LATERO-LOG DEEP (RESISTIVITY)) 
 NPHI.V/V              : NEUTRON POROSITY (NEUTRON POROSITY) 
 #___________________________________________________________________________________________________ 
~A         DEPT           CALI             GR             DT           RESD        RESD_LL           NPHI
# ...
         8788.0         13.060         69.559         69.902       -999.250       450.8710     -999.25000
         8788.5         13.060         66.343         70.601       -999.250       475.9978     -999.25000
         8789.0         13.059         58.048         67.517       -999.250       506.6186     -999.25000
         8789.5         13.061         49.132         64.349       -999.250       535.8237     -999.25000
         8790.0         13.063         50.911         63.747       -999.250       484.5557     -999.25000
         8790.5         13.108         63.246         67.104       -999.250       416.9495     -999.25000
         8791.0         13.153         76.869         70.334       -999.250       375.7194     -999.25000
         8791.5         13.186         82.894         73.565       -999.250       355.2408     -999.25000
         8792.0         13.154         90.263         76.796       -999.250       273.4844     -999.25000
         8792.5         13.139         91.899         77.810       -999.250       273.4844     -999.25000
         8793.0         13.139         93.594         77.692       -999.250       278.6418     -999.25000
         8793.5         13.145         90.130         77.094       -999.250       289.2500     -999.25000
         8794.0         13.107         84.057         75.336       -999.250       342.5962     -999.25000
         8794.5         13.087         80.804         73.367       -999.250       404.8723     -999.25000
         8795.0         13.071         76.514         72.400       -999.250       473.6660     -999.25000
         8795.5         13.061         73.098         69.990       -999.250       545.9281     -999.25000
         8796.0         13.058         60.850         67.579       -999.250       704.1791     -999.25000
         8796.5         13.052         50.768         64.709       -999.250       859.2775     -999.25000
         8797.0         13.046         40.608         63.280       -999.250       838.9731     -999.25000
         8797.5         13.040         39.743         61.514       -999.250       938.4899     -999.25000
         8798.0         13.034         38.110         59.900       -999.250      1003.9300     -999.25000
         8798.5         13.028         39.497         59.805       -999.250      1062.7562     -999.25000
         8799.0         13.022         40.938         59.496       -999.250      1131.2680     -999.25000
         8799.5         13.017         42.381         58.521       -999.250      1267.7290     -999.25000
         8800.0         13.011         37.237         57.326       -999.250      1338.3072     -999.25000
         8800.5         13.005         31.859         56.131       -999.250      1442.2554     -999.25000
         8801.0         12.999         26.194         54.936       -999.250      1246.4113     -999.25000
         8801.5         12.993         21.004         52.926       -999.250      1155.1316     -999.25000
         8802.0         12.987         19.682         53.888       -999.250      1038.1272     -999.25000
         8802.5         12.981         22.491         52.565       -999.250       988.8535     -999.25000
         8803.0         12.975         25.197         56.300       -999.250       937.0590     -999.25000
         8803.5         12.969         36.679         59.444       -999.250       821.6235     -999.25000
         8804.0         12.964         48.649         62.587       -999.250       667.7281     -999.25000
         8804.5         12.958         60.709         65.731       -999.250       587.0057     -999.25000
         8805.0         12.952         71.272         68.875       -999.250       555.5928     -999.25000
         8805.5         12.946         69.926         72.164       -999.250       556.3948     -999.25000
         8806.0         12.940         65.288         68.615       -999.250       560.5964     -999.25000
         8806.5         12.934         59.789         66.303       -999.250       565.7001     -999.25000
         8807.0         12.928         54.740         66.082       -999.250       527.7110     -999.25000
         8807.5         12.923         55.870         65.860       -999.250       533.8958     -999.25000
         8808.0         12.917         57.895         67.871       -999.250       497.5085     -999.25000
         8808.5         12.909         83.910         70.884       -999.250       462.8281     -999.25000
         8809.0         12.909         97.444         73.968       -999.250       444.5145     -999.25000
         8809.5         12.867         98.739         74.763       -999.250       444.5145     -999.25000
         8810.0         12.861         98.768         75.578       -999.250       453.7440     -999.25000
         8810.5         12.872         90.967         76.493       -999.250       464.6168     -999.25000
         8811.0         12.887         60.594         70.447       -999.250       488.0383     -999.25000
         8811.5         12.898         67.076         65.792       -999.250       482.3880     -999.25000
         8812.0         12.910         59.317         65.920       -999.250       477.3378     -999.25000
         8812.5         12.934         56.293         66.152       -999.250       470.1395     -999.25000
         8813.0         12.955         55.673         66.385       -999.250       476.3727     -999.25000
         8813.5         12.977         55.066         66.513       -999.250       506.6186     -999.25000
         8814.0         12.999         50.981         64.932       -999.250       517.9497     -999.25000
         8814.5         13.021         51.096         63.627       -999.250       545.9281     -999.25000
         8815.0         13.043         51.362         64.673       -999.250       543.1306     -999.25000
         8815.5         13.060         52.036         66.570       -999.250       525.9062     -999.25000
         8816.0         13.062         55.897         69.185       -999.250       474.9508     -999.25000
         8816.5         13.064         61.554         72.164       -999.250       421.1878     -999.25000
         8817.0         13.065         67.641         72.298       -999.250       428.6736     -999.25000
         8817.5         13.067         72.471         72.405       -999.250       428.1067     -999.25000
         8818.0         13.068         71.531         71.604       -999.250       409.6079     -999.25000
         8818.5         13.070         71.540         70.721       -999.250       393.4902     -999.25000
         8819.0         13.072         74.066         72.045       -999.250       358.3529     -999.25000
         8819.5         13.073         76.577         73.389       -999.250       344.4562     -999.25000
         8820.0         13.075         76.554         75.411       -999.250       326.6028     -999.25000
         8820.5         13.076         75.794         74.377       -999.250       309.6373     -999.25000
         8821.0         13.078         74.544         72.295       -999.250       300.2621     -999.25000
         8821.5         13.080         73.619         70.212       -999.250       291.0750     -999.25000
         8822.0         13.081         72.887         69.790       -999.250       300.4118     -999.25000
         8822.5         13.083         71.628         69.829       -999.250       311.6935     -999.25000
         8823.0         13.084         66.843         69.867       -999.250       361.9399     -999.25000
         8823.5         13.086         61.905         69.124       -999.250       436.2237     -999.25000
         8824.0         13.088         59.242         68.016       -999.250       521.6875     -999.25000
         8824.5         13.089         56.988         66.874       -999.250       623.8951     -999.25000
         8825.0         13.091         53.764         66.473       -999.250       736.1273     -999.25000
         8825.5         13.093         50.787         66.059       -999.250       808.2038     -999.25000
