###############################################
##         ENVERUS                           ##
##         ESS - Open Hole                   ##
##         PERMIAN / DELAWARE                ##
##         Nov 04 2023  V4.0                 ##
##         42-389-32484-00-00                ##
###############################################
## Copyright 2017-2023  ENVERUS.  All Rights Reserved. 
## Confidential - Property of ENVERUS, use governed by terms and 
## conditions found within the existing Information Services Subscription Agreement 
## (as may be amended, the “ISSA”) between Customer and ENVERUS. 
## 
~VERSION INFORMATION
# MNEM.UNIT                               DATA : DESCRIPTION OF MNEMONIC
#-----.-----     ----------------------------- : -----------------------------
VERS.                                     2.00 : CWLS LOG ASCII STANDARD - VERSION 2.00
WRAP.                                       NO : MULTIPLE LINES PER DEPTH STEP
VEND.                                  ENVERUS : VENDOR
TYPE.                          ESS - OPEN HOLE : ENVERUS ESSENTIAL CURVES – ACCESSIBLE THROUGH ENVERUS PRISM(TM)
DOC.                                  31780441 : ENVERUS HEADER RAW DOCUMENT ID
#___________________________________________________________________________________________________ 
~WELL INFORMATION 
# aTsA/KVwhIqB1dg6n/zy22zTJjsJnyaNqg27ywuj9UrTfzbM7gscpQTlR+gOLN+9jERwUBAE6KvHEXpIT+cpyg== 
# MNEM.UNIT                                              DATA : DESCRIPTION OF MNEMONIC 
#-----.-----                    ----------------------------- : ----------------------------- 
CNTY.                                                  REEVES : COUNTY 
STATE.                                                  TEXAS : STATE 
CNTRY.                                                    USA : COUNTRY 
API.                                             42-389-32484 : API (10 Digit) 
API_14.                                    42-389-32484-00-00 : API (14 Digits) 
API_14_std.                                 42-389-32484-0000 : API (14 Digits Standard) 
UWI.                                           42389324840000 : UNIQUE WELL ID 
WELL.                                        BLK 59 ST 37  1H : WELL NAME
STRT.FT                                                 236.0 : START DEPTH
STOP.FT                                               12079.0 : STOP DEPTH
STEP.FT                                                   0.5 : STEP BETWEEN DEPTHS
NULL.                                                 -999.25 : NULL VALUE
COMP.                                       SHELL WESTERN E&P : COMPANY 
DATE.                                             05-SEP-2007 : LOG DATE
#___________________________________________________________________________________________________ 
~CURVE INFORMATION 
# MNEM.UNIT           : CURVE DESCRIPTION 
#-----.-----          : ----------------------------- 
 DEPT.FT               : MEASURED DEPTH 
 CALI.IN               : CALIPER (CAL - CAL) 
 GR.API                : GAMMA RAY (GR) 
 DT.US/FT              : SONIC DELTA TRANSIT TIME (DT) 
 DPHI.V/V              : DENSITY POROSITY (DPHI) 
 NPHI.V/V              : NEUTRON POROSITY (NPHI) 
 RHOB.G/CC             : BULK DENSITY (RHOB) 
 #___________________________________________________________________________________________________ 
~A         DEPT           CALI             GR             DT           DPHI           NPHI           RHOB
# ...
         4378.0         15.883         41.895       -999.250        0.18212        0.18022         2.3970
         4378.5         15.891         42.911       -999.250        0.18374        0.16272         2.4090
         4379.0         15.899         45.833       -999.250        0.17209        0.16502         2.4300
         4379.5         15.908         49.704       -999.250        0.15873        0.17223         2.4480
         4380.0         15.916         53.575       -999.250        0.15288        0.17899         2.4430
         4380.5         15.924         51.896       -999.250        0.15748        0.18407         2.4390
         4381.0         15.933         50.009       -999.250        0.16183        0.18656         2.4340
         4381.5         15.941         48.277       -999.250        0.16286        0.18780         2.4300
         4382.0         15.949         50.902       -999.250        0.16306        0.18422         2.4250
         4382.5         15.958         55.448       -999.250        0.16557        0.18065         2.4220
         4383.0         15.966         57.841       -999.250        0.16752        0.18977         2.4210
         4383.5         15.974         59.943       -999.250        0.16701        0.19995         2.4200
         4384.0         15.983         64.102       -999.250        0.17043        0.20554         2.4190
         4384.5         15.991         66.703       -999.250        0.16858        0.20052         2.4190
         4385.0         15.988         66.858       -999.250        0.16402        0.19699         2.4330
         4385.5         15.984         64.741       -999.250        0.15072        0.20056         2.4590
         4386.0         15.980         60.761       -999.250        0.14164        0.20848         2.4790
         4386.5         15.975         60.239       -999.250        0.13541        0.21369         2.4770
         4387.0         15.971         61.790       -999.250        0.13685        0.20954         2.4750
         4387.5         15.967         63.814       -999.250        0.13552        0.20277         2.4730
         4388.0         15.962         65.838       -999.250        0.13770        0.20266         2.4710
         4388.5         15.958         67.861       -999.250        0.12856        0.20375         2.4820
         4389.0         15.954         69.885       -999.250        0.12831        0.20484         2.4890
         4389.5         15.949         72.266       -999.250        0.13112        0.20698         2.4890
         4390.0         15.958         72.711       -999.250        0.13579        0.20951         2.4890
         4390.5         15.979         69.010       -999.250        0.13437        0.21204         2.4850
         4391.0         16.000         64.008       -999.250        0.13095        0.21457         2.4790
         4391.5         16.014         59.006       -999.250        0.13138        0.21710         2.4720
         4392.0         16.014         54.595       -999.250        0.14201        0.21273         2.4660
         4392.5         16.014         51.659       -999.250        0.14690        0.20785         2.4590
         4393.0         16.013         52.628       -999.250        0.14645        0.20296         2.4530
         4393.5         16.013         52.450       -999.250        0.15004        0.20053         2.4430
         4394.0         16.013         49.252       -999.250        0.15655        0.20009         2.4290
         4394.5         16.016         44.352       -999.250        0.17099        0.19942         2.4160
         4395.0         16.019         43.471       -999.250        0.17301        0.19798         2.4020
         4395.5         16.023         44.111       -999.250        0.18022        0.19571         2.3880
         4396.0         16.026         44.750       -999.250        0.18850        0.19470         2.3760
         4396.5         16.029         44.421       -999.250        0.19453        0.19347         2.3900
         4397.0         16.032         43.336       -999.250        0.19252        0.19171         2.4040
         4397.5         16.036         42.355       -999.250        0.17617        0.18501         2.4180
         4398.0         16.052         41.373       -999.250        0.16805        0.17005         2.4260
         4398.5         16.069         40.392       -999.250        0.16760        0.17099         2.4170
         4399.0         16.085         39.600       -999.250        0.16960        0.17809         2.4080
         4399.5         16.102         39.745       -999.250        0.17992        0.18859         2.3990
         4400.0         16.119         39.889       -999.250        0.19426        0.20017         2.3910
         4400.5         16.136         40.186       -999.250        0.19934        0.20881         2.3820
         4401.0         16.140         45.449       -999.250        0.19926        0.21745         2.3730
         4401.5         16.121         50.711       -999.250        0.19033        0.22298         2.3890
         4402.0         16.102         55.974       -999.250        0.17394        0.21806         2.4260
         4402.5         16.083         68.092       -999.250        0.15754        0.20961         2.4620
         4403.0         16.086         71.823       -999.250        0.13311        0.20116         2.4990
         4403.5         16.095         76.509       -999.250        0.10334        0.19271         2.5360
         4404.0         16.103         83.313       -999.250        0.08697        0.19180         2.5570
         4404.5         16.111         84.749       -999.250        0.08514        0.19353         2.5350
         4405.0         16.120         83.689       -999.250        0.08739        0.18861         2.5140
         4405.5         16.128         76.406       -999.250        0.10194        0.18391         2.4930
         4406.0         16.136         71.739       -999.250        0.12387        0.18661         2.4710
         4406.5         16.145         67.726       -999.250        0.13899        0.19689         2.4500
         4407.0         16.153         66.527       -999.250        0.14590        0.20715         2.4590
         4407.5         16.161         67.236       -999.250        0.14638        0.20961         2.4680
         4408.0         16.170         67.944       -999.250        0.14235        0.21206         2.4780
         4408.5         16.178         65.099       -999.250        0.13599        0.21432         2.4870
         4409.0         16.186         64.423       -999.250        0.12935        0.21230         2.4960
         4409.5         16.193         65.726       -999.250        0.12769        0.21029         2.4900
         4410.0         16.198         64.332       -999.250        0.14230        0.19624         2.4430
         4410.5         16.202         59.867       -999.250        0.16978        0.18056         2.3950
         4411.0         16.207         55.216       -999.250        0.19466        0.18121         2.3470
         4411.5         16.212         50.479       -999.250        0.21209        0.18307         2.3550
         4412.0         16.206         45.742       -999.250        0.21133        0.18464         2.3680
         4412.5         16.198         42.858       -999.250        0.20096        0.18129         2.3810
         4413.0         16.190         41.432       -999.250        0.19205        0.17209         2.3930
         4413.5         16.187         39.890       -999.250        0.19024        0.15677         2.4060
         4414.0         16.183         38.109       -999.250        0.18258        0.14009         2.4190
         4414.5         16.179         36.302       -999.250        0.16054        0.13312         2.4320
         4415.0         16.176         34.547       -999.250        0.15230        0.13060         2.4450
         4415.5         16.172         34.546       -999.250        0.15450        0.13436         2.4360
