###############################################
##         ENVERUS                           ##
##         ESS - Open Hole                   ##
##         PERMIAN / DELAWARE                ##
##         Nov 04 2023  V4.0                 ##
##         42-389-30414-00-00                ##
###############################################
## Copyright 2017-2023  ENVERUS.  All Rights Reserved. 
## Confidential - Property of ENVERUS, use governed by terms and 
## conditions found within the existing Information Services Subscription Agreement 
## (as may be amended, the “ISSA”) between Customer and ENVERUS. 
## 
~VERSION INFORMATION
# MNEM.UNIT                               DATA : DESCRIPTION OF MNEMONIC
#-----.-----     ----------------------------- : -----------------------------
VERS.                                     2.00 : CWLS LOG ASCII STANDARD - VERSION 2.00
WRAP.                                       NO : MULTIPLE LINES PER DEPTH STEP
VEND.                                  ENVERUS : VENDOR
TYPE.                          ESS - OPEN HOLE : ENVERUS ESSENTIAL CURVES – ACCESSIBLE THROUGH ENVERUS PRISM(TM)
DOC.                                  31965441 : ENVERUS HEADER RAW DOCUMENT ID
#___________________________________________________________________________________________________ 
~WELL INFORMATION 
# 4Nagw4FJNzCtYOfTAudVsymR6uv0ccMrNFKiy1Vrqa1gQVNLoB6NNR/Tzdk8H0Jxf2Akv2rjPRKaT9zVNBkTiw== 
# MNEM.UNIT                                              DATA : DESCRIPTION OF MNEMONIC 
#-----.-----                    ----------------------------- : ----------------------------- 
CNTY.                                                  REEVES : COUNTY 
STATE.                                                  TEXAS : STATE 
CNTRY.                                                    USA : COUNTRY 
API.                                             42-389-30414 : API (10 Digit) 
API_14.                                    42-389-30414-00-00 : API (14 Digits) 
API_14_std.                                 42-389-30414-0000 : API (14 Digits Standard) 
UWI.                                           42389304140000 : UNIQUE WELL ID 
WELL.                                            TXL 17-39  2 : WELL NAME
STRT.FT                                                 237.0 : START DEPTH
STOP.FT                                               13872.0 : STOP DEPTH
STEP.FT                                                   0.5 : STEP BETWEEN DEPTHS
NULL.                                                 -999.25 : NULL VALUE
COMP.                          ENDEAVOR ENERGY RESOURCES L.P. : COMPANY
#___________________________________________________________________________________________________ 
~CURVE INFORMATION 
# MNEM.UNIT           : CURVE DESCRIPTION 
#-----.-----          : ----------------------------- 
 DEPT.FT               : MEASURED DEPTH 
 CALI.IN               : CALIPER (CAL - CAL) 
 GR.API                : GAMMA RAY (GR) 
 DT.US/FT              : SONIC DELTA TRANSIT TIME (DT) 
 RESS.OHMM             : SHALLOW INDUCTION RESISTIVITY (ILS - ILS) 
 RESD.OHMM             : DEEP INDUCTION RESISTIVITY (ILD - ILD) 
 #___________________________________________________________________________________________________ 
~A         DEPT           CALI             GR             DT           RESS           RESD
# ...
         4241.0         12.309         50.694         82.288          5.679          5.453
         4241.5         12.276         51.957         80.925          5.700          5.541
         4242.0         12.201         53.219         79.307          5.749          5.629
         4242.5         12.127         54.482         77.700          5.798          5.717
         4243.0         12.053         55.745         76.170          5.944          5.804
         4243.5         11.979         57.007         74.640          6.208          6.140
         4244.0         11.905         58.270         74.371          6.471          6.569
         4244.5         11.862         59.533         74.286          6.786          6.999
         4245.0         11.859         60.796         74.200          7.214          7.428
         4245.5         11.856         62.058         73.508          7.643          7.858
         4246.0         11.852         63.321         72.687          8.072          8.287
         4246.5         11.849         65.623         71.865          8.501          8.717
         4247.0         11.846         68.150         71.073          9.139          9.146
         4247.5         11.842         70.677         70.355          9.931          9.575
         4248.0         11.839         73.204         69.636         10.723         10.466
         4248.5         11.836         75.731         68.918         11.515         11.870
         4249.0         11.832         78.258         68.200         12.307         13.275
         4249.5         11.829         80.785         69.034         13.246         14.679
         4250.0         11.826         83.312         70.099         14.788         16.084
         4250.5         11.822         85.763         71.164         16.330         17.488
         4251.0         11.819         82.464         72.229         17.872         18.893
         4251.5         11.816         79.166         73.294         19.415         20.297
         4252.0         11.812         75.867         73.235         20.398         21.089
         4252.5         11.809         72.569         72.834         16.948         14.238
         4253.0         11.806         69.270         72.997         13.584          9.384
         4253.5         11.802         65.972         76.777         10.416          8.701
         4254.0         11.802         62.673         80.557          8.523          8.017
         4254.5         11.804         59.375         84.337          7.759          7.334
         4255.0         11.806         56.076         83.933          6.996          6.651
         4255.5         11.809         52.778         83.118          6.233          5.967
         4256.0         11.811         49.479         82.303          5.842          5.392
         4256.5         11.813         49.650         81.488          5.751          5.459
         4257.0         11.815         50.040         80.694          5.660          5.525
         4257.5         11.818         50.431         80.366          5.568          5.592
         4258.0         11.820         50.822         80.038          5.595          5.659
         4258.5         11.822         51.212         79.709          5.646          5.725
         4259.0         11.824         51.603         79.381          5.698          5.792
         4259.5         11.826         51.994         79.198          5.750          5.858
         4260.0         11.829         52.385         79.506          5.802          5.925
         4260.5         11.831         52.775         79.786          5.853          5.992
         4261.0         11.833         50.985         79.694          5.905          6.058
         4261.5         11.835         47.573         79.602          5.957          6.125
         4262.0         11.838         47.809         79.510          6.009          6.192
         4262.5         11.840         48.817         79.418          6.061          6.258
         4263.0         11.842         49.826         79.326          6.112          6.252
         4263.5         11.844         49.577         78.531          6.214          6.224
         4264.0         11.847         49.179         76.702          6.457          6.197
         4264.5         11.849         48.781         75.284          6.701          6.170
         4265.0         11.851         48.383         74.145          6.945          6.282
         4265.5         11.853         47.985         73.006          7.188          6.706
         4266.0         11.855         47.587         71.877          7.432          7.131
         4266.5         11.858         47.189         70.750          7.564          7.555
         4267.0         11.860         47.345         71.644          7.685          7.980
         4267.5         11.862         48.861         72.717          7.806          8.358
         4268.0         11.864         50.377         73.791          7.927          8.204
         4268.5         11.867         51.892         74.864          7.921          8.051
         4269.0         11.869         53.408         75.938          7.468          7.898
         4269.5         11.871         54.924         77.012          7.015          7.737
         4270.0         11.873         55.522         78.085          6.563          6.881
         4270.5         11.876         54.879         79.159          6.110          6.026
         4271.0         11.878         54.237         79.347          5.658          5.285
         4271.5         11.880         53.594         79.009          5.421          5.463
         4272.0         11.882         53.727         78.670          5.547          5.640
         4272.5         11.884         53.932         78.426          5.673          5.817
         4273.0         11.887         54.137         78.858          5.800          5.942
         4273.5         11.889         54.840         79.290          5.926          6.008
         4274.0         11.891         56.284         77.810          6.048          6.075
         4274.5         11.851         57.727         77.736          6.073          6.141
         4275.0         11.810         59.170         77.662          6.099          6.207
         4275.5         11.769         60.613         77.530          6.125          6.351
         4276.0         11.728         62.057         74.572          6.488          6.784
         4276.5         11.687         63.500         71.614          7.066          7.218
         4277.0         11.646         64.943         69.459          7.644          7.651
         4277.5         11.605         65.885         69.767          8.222          8.085
         4278.0         11.564         64.747         69.948          8.800          8.518
         4278.5         11.541         63.609         70.011          8.907          8.952
         4279.0         11.520         62.471         70.073          8.939          9.385
         4279.5         11.499         61.333         70.136          8.970          9.665
         4280.0         11.479         60.195         69.965          9.002          9.163
         4280.5         11.458         61.003         68.681         10.309          8.661
         4281.0         11.437         61.948         67.397         11.926         10.112
         4281.5         11.416         62.894         66.113         13.544         12.364
         4282.0         11.396         63.839         65.049         15.162         14.617
         4282.5         11.375         65.641         65.172         16.779         16.869
         4283.0         11.354         70.054         65.296         19.321         19.122
         4283.5         11.334         74.468         65.420         22.272         21.374
         4284.0         11.313         78.882         65.544         25.223         24.099
         4284.5         11.292         83.295         65.920         28.174         26.966
