#--------------------------------------------------#
#-------------------ENVERUS, INC.------------------#
#------------------WWW.ENVERUS.COM-----------------#
#------------------COPYRIGHT 2020------------------#
#--------------------------------------------------#
#THIS FILE MAY BE USED ONLY IN ACCORDANCE WITH A CURRENT SUBSCRIPTION AGREEMENT BETWEEN
#THE USER AND ENVERUS, INC. NO PART OF THIS FILE MAY BE REPRODUCED, USED, COPIED,
#MODIFIED, PROPAGATED, OR DISTRIBUTED EXCEPT IN ACCORDANCE WITH THE SUBSCRIPTION
#AGREEMENT. UNAUTHORIZED USE OR DISTRIBUTION OF ALL OR ANY PART OF THIS FILE MAY VIOLATE
#COPYRIGHT, TRADEMARK, AND/OR OTHER LAWS AND IS SUBJECT TO CIVIL AS WELL AS CRIMINAL
#SANCTIONS.
#--------------------------------------------------#
#THIS FILE IS PROVIDED "AS-IS" AND ALL WARRANTIES ARE EXPRESSLY DISCLAIMED, WHETHER
#EXPRESS, ORAL, IMPLIED, STATUTORY OR OTHERWISE, INCLUDING ANY IMPLIED WARRANTY OF FITNESS
#FOR A PARTICULAR PURPOSE, MERCHANTABILITY, TITLE OR NON-INFRINGEMENT, AND ANY WARRANTIES
#ARISING BY VIRTUE OF CUSTOM OF TRADE OR COURSE OF DEALING.  FURTHER, ENVERUS, INC.
#AND ITS LICENSORS DO NOT REPRESENT OR WARRANT THAT THIS FILE WILL MEET USER'S
#REQUIREMENTS OR ARE SUITABLE FOR USER'S NEEDS OR THAT THE DATA OR RESULTS PROVIDED IN
#CONJUNCTION THEREWITH ARE CORRECT, ACCURATE, TIMELY OR RELIABLE. THESE DISCLAIMERS SHALL
#APPLY REGARDLESS OF ANY FAILURE OF ESSENTIAL PURPOSE OF ANY LIMITED REMEDY.  SOME
#JURISDICTIONS DO NOT ALLOW THE EXCLUSION OF CERTAIN WARRANTIES SO SOME OF THE ABOVE
#EXCLUSIONS MAY NOT APPLY. IN NO EVENT SHALL ENVERUS, INC. OR ANY OF ITS AFFILIATES
#BE LIABLE UNDER ANY LEGAL THEORY, WHETHER IN TORT (INCLUDING WITHOUT LIMITATION
#NEGLIGENCE), CONTRACT, STRICT LIABILITY, STATUTORY OR OTHERWISE, FOR ANY SPECIAL,
#INCIDENTAL, CONSEQUENTIAL, EXEMPLARY, PUNITIVE OR INDIRECT DAMAGE OF ANY KIND, INCLUDING
#WITHOUT LIMITATION LOSS OF REVENUE, PROFITS, GOODWILL, USE, AND/OR DATA OR THE COST OF
#PROCUREMENT OF SUBSTITUTE GOODS OR SERVICES, EVEN IF APPRISED OF THE POSSIBILITY OF SUCH
#DAMAGES IN ADVANCE.
#--------------------------------------------------#

~VERSION INFORMATION
VERS. 2.0 : CWLS LOG ASCII STANDARD - VERSION 2.0
WRAP.  NO : ONE LINE PER DEPTH STEP
~WELL INFORMATION
#MNEMONIC     .UNIT              VALUE :DESCRIPTION
STRT       .FT                0 :START DEPTH
STOP       .FT                15761 :STOP DEPTH
STEP       .FT                   0.500 :STEP
NULL       .                  -999.250 :NULL
UWI        .              42389302550000 :UNIQUE WELL ID
API        .              42389302550000 :API NUMBER
COMP       .         COASTAL STATES GAS PROD. CO. :COMPANY
WELL       .        CHAPMAN  MCGUIRE & WYNNE  3B :WELL
DATE       .                            :LOG DATE
~CURVE INFORMATION
#MNEMONIC     .UNIT      API CODE :CURVE DESCRIPTION
DEPTH       .FT                      :MEASURED DEPTH
GR.API        UNKNOWN   :GR
DT.US/FT        UNKNOWN   :DT
CAL.INCH        UNKNOWN   :CAL
~A    DEPTH    GR    DT    CAL
# ...
 8772     49.296   68.743   13.212
 8772.5     44.978   66.927   13.21
 8773     40.66   65.381   13.207
 8773.5     39.336   65.22   13.204
 8774     38.801   64.978   13.202
 8774.5     38.265   64.377   13.199
 8775     36.792   63.776   13.196
 8775.5     34.861   63.764   13.194
 8776     34.708   63.743   13.191
 8776.5     35.006   62.768   13.188
 8777     33.786   61.993   13.186
 8777.5     32.449   61.582   13.183
 8778     31.111   61.724   13.18
 8778.5     31.516   61.226   13.177
 8779     32.342   61.734   13.175
 8779.5     33.799   61.349   13.172
 8780     40.554   62.531   13.169
 8780.5     48.045   66.393   13.167
 8781     56.412   70.254   13.164
 8781.5     64.393   73.605   13.161
 8782     70.759   76.607   13.159
 8782.5     72.375   79.448   13.163
 8783     71.61   78.012   13.166
 8783.5     65.843   75.511   13.17
 8784     59.385   71.027   13.174
 8784.5     52.926   67.642   13.177
 8785     45.474   64.258   13.181
 8785.5     46.543   66.708   13.185
 8786     50.362   69.691   13.189
 8786.5     58.873   72.757   13.192
 8787     65.479   75.823   13.196
 8787.5     64.76   75.92   13.2
 8788     58.407   72.008   13.204
 8788.5     50.817   65.852   13.207
 8789     39.675   60.087   13.211
 8789.5     33.87   60.656   13.21
 8790     37.016   64.618   13.208
 8790.5     40.574   67.278   13.206
 8791     43.845   68.924   13.204
 8791.5     41.796   67.108   13.201
 8792     39.747   65.957   13.199
 8792.5     37.698   65.814   13.197
 8793     37.546   65.671   13.195
 8793.5     36.94   65.223   13.193
 8794     36.048   63.882   13.191
 8794.5     35.156   61.598   13.189
 8795     35.261   61.643   13.187
 8795.5     35.619   61.689   13.185
 8796     34.796   62.848   13.183
 8796.5     33.972   64.211   13.181
 8797     34.364   63.994   13.179
 8797.5     35.538   62.992   13.177
 8798     34.332   60.438   13.175
 8798.5     32.995   59.014   13.173
 8799     32.661   59.456   13.171
 8799.5     34.29   62.285   13.169
 8800     38.782   68.242   13.167
 8800.5     42.191   69.224   13.165
 8801     43.282   69.834   13.163
 8801.5     42.093   68.35   13.161
 8802     39.634   64.591   13.159
 8802.5     32.826   59.616   13.157
 8803     29.903   57.731   13.155
 8803.5     31.521   56.467   13.153
 8804     34.436   58.725   13.151
 8804.5     37.406   64.548   13.148
 8805     42.502   69.21   13.146
 8805.5     47.573   68.945   13.144
 8806     47.463   66.891   13.142
 8806.5     43.18   64.61   13.141
 8807     38.897   63.515   13.14
 8807.5     37.779   64.333   13.139
 8808     38.584   66.613   13.138
 8808.5     37.181   65.941   13.137
 8809     33.941   64.473   13.136
 8809.5     30.701   61.816   13.135
 8810     29.179   59.144   13.134
 8810.5     28.692   58.252   13.133
 8811     29.104   57.948   13.132
 8811.5     31.288   57.895   13.131
 8812     36.115   59.981   13.13
 8812.5     42.194   62.887   13.129
 8813     49   65.793   13.128
 8813.5     56.257   69.685   13.127
 8814     62.859   75.438   13.126
 8814.5     63.106   76.683   13.129
 8815     57.318   73.828   13.137
 8815.5     51.531   70.59   13.144
 8816     45.743   64.752   13.152
 8816.5     37.808   62.412   13.159
 8817     35.431   61.339   13.167
 8817.5     35.221   61.224   13.174
 8818     36.221   61.499   13.182
 8818.5     35.151   60.899   13.189
 8819     34.081   60.299   13.197
 8819.5     33.372   60.672   13.204
 8820     36.174   61.858   13.212
 8820.5     38.977   65.716   13.22
 8821     40.424   66.355   13.227
 8821.5     40.265   65.201   13.228
 8822     36.102   61.065   13.225
 8822.5     28.008   55.625   13.221
 8823     26.449   54.329   13.217
 8823.5     28.221   54.542   13.213
 8824     30.776   58.377   13.209
 8824.5     39.353   61.858   13.206
 8825     49.51   65.039   13.202
 8825.5     54.716   68.219   13.198
 8826     53.887   70.475   13.194
 8826.5     49.89   69.209   13.19
 8827     45.892   68.017   13.186
 8827.5     43.322   66.999   13.183
 8828     42.064   65.731   13.179
 8828.5     40.805   64.168   13.175
 8829     39.547   62.98   13.171
 8829.5     40.76   63.339   13.167
 8830     42.019   64.138   13.164
 8830.5     43.278   65.002   13.16
 8831     42.463   64.909   13.156
 8831.5     40.592   64.002   13.152
 8832     38.722   62.843   13.148
 8832.5     36.851   61.658   13.144
 8833     36.628   62.057   13.141
 8833.5     38.083   62.544   13.137
 8834     39.51   61.111   13.133
 8834.5     36.591   60.788   13.129
 8835     33.673   60.25   13.125
 8835.5     30.754   59.344   13.122
 8836     30.109   58.726   13.118
 8836.5     30.597   58.358   13.114
 8837     30.004   57.05   13.11
 8837.5     27.667   55.779   13.112
 8838     28.763   58.109   13.115
 8838.5     31.228   60.305   13.119
 8839     33.694   61.27   13.122
 8839.5     36.16   61.365   13.126
 8840     34.872   62.066   13.129
 8840.5     33.611   60.297   13.133
 8841     32.661   58.961   13.136
 8841.5     30.99   58.756   13.14
 8842     29.32   57.09   13.144
 8842.5     27.65   55.787   13.147
 8843     27.563   55.5   13.151
 8843.5     27.722   55.979   13.154
 8844     29.791   55.954   13.158
 8844.5     31.859   55.88   13.161
 8845     35.089   58.704   13.165
 8845.5     40.189   62.404   13.168
 8846     47.13   66.103   13.172
 8846.5     55.724   70.369   13.175
 8847     63.968   72.545   13.179
 8847.5     65.894   73.238   13.183
 8848     66.297   73.421   13.188
 8848.5     67.539   73.604   13.193
 8849     70.23   74.094   13.197
 8849.5     71.268   74.33   13.202
 8850     71.634   73.247   13.207
 8850.5     71.45   73.799   13.211
 8851     70.524   74.901   13.216
 8851.5     69.598   75.301   13.221
 8852     71.977   76.327   13.226
 8852.5     74.127   77.735   13.23
 8853     72.29   77.217   13.235
 8853.5     66.962   74.315   13.24
 8854     59.376   71.102   13.245
 8854.5     51.717   68.046   13.249
 8855     43.883   64.989   13.254
 8855.5     36.05   61.932   13.259
 8856     30.922   58.876   13.263
 8856.5     33.153   59.458   13.268
 8857     35.844   62.07   13.273
 8857.5     38.535   65.414   13.278
 8858     41.231   68.759   13.282
 8858.5     46.635   70.137   13.287
 8859     50.238   68.447   13.292
 8859.5     50.536   66.757   13.296
 8860     51.861   66.695   13.301
 8860.5     54.282   68.551   13.305
 8861     58.386   71.234   13.309
 8861.5     62.559   75.079   13.312
 8862     62.019   80.449   13.316
 8862.5     55.316   79.388   13.32
 8863     48.613   75.497   13.323
 8863.5     41.91   74.96   13.327
 8864     37.386   74.465   13.33
 8864.5     36.769   73.782   13.334
 8865     36.152   73.687   13.338
 8865.5     37.217   73.894   13.341
 8866     39.172   74.102   13.345
 8866.5     40.489   72.609   13.349
 8867     40.741   69.761   13.352
 8867.5     40.992   66.382   13.356
 8868     41.399   65.448   13.359
 8868.5     44.692   66.023   13.363
 8869     47.784   75.223   13.367
 8869.5     50.026   89.679   13.37
 8870     48.371   94.854   13.374
 8870.5     46.502   93.979   13.378
 8871     45.713   87.707   13.381
 8871.5     45.096   90.176   13.385
 8872     43.965   81.103   13.389
 8872.5     40.119   79.661   13.388
 8873     37.338   84.198   13.382
 8873.5     38.23   76.891   13.375
 8874     41.974   79.271   13.368
 8874.5     45.714   64.98   13.362
 8875     49.447   70.281   13.355
 8875.5     53.18   73.453   13.347
 8876     54.559   82.938   13.339
 8876.5     54.894   92.382   13.331
 8877     56.384   90.414   13.323
 8877.5     62.472   74.275   13.315
 8878     68.788   84.94   13.307
 8878.5     72.435   83.152   13.299
 8879     71.177   87.923   13.292
 8879.5     67.478   77.425   13.277
 8880     63.779   75.022   13.251
 8880.5     60.08   81.465   13.225
 8881     59.795   83.121   13.198
 8881.5     59.716   81.788   13.172
 8882     59.511   75.495   13.146
 8882.5     59.23   71.994   13.13
 8883     58.636   74.089   13.13
 8883.5     55.319   78.984   13.13
 8884     46.245   71.736   13.13
