###############################################
##         ENVERUS                           ##
##         ESS - Open Hole                   ##
##         PERMIAN / DELAWARE                ##
##         Nov 04 2023  V4.0                 ##
##         42-389-30297-00-00                ##
###############################################
## Copyright 2017-2023  ENVERUS.  All Rights Reserved. 
## Confidential - Property of ENVERUS, use governed by terms and 
## conditions found within the existing Information Services Subscription Agreement 
## (as may be amended, the “ISSA”) between Customer and ENVERUS. 
## 
~VERSION INFORMATION
# MNEM.UNIT                               DATA : DESCRIPTION OF MNEMONIC
#-----.-----     ----------------------------- : -----------------------------
VERS.                                     2.00 : CWLS LOG ASCII STANDARD - VERSION 2.00
WRAP.                                       NO : MULTIPLE LINES PER DEPTH STEP
VEND.                                  ENVERUS : VENDOR
TYPE.                          ESS - OPEN HOLE : ENVERUS ESSENTIAL CURVES – ACCESSIBLE THROUGH ENVERUS PRISM(TM)
DOC.                                  32306493 : ENVERUS HEADER RAW DOCUMENT ID
#___________________________________________________________________________________________________ 
~WELL INFORMATION 
# rQStLE5sYsP+YdYw4QOWpp6z6mWwFJBvCxgTqRv2Ioz+qyoYLl+79qTOna8BSHgUk5jTgp49hkgrAQ1kFKyHCg== 
# MNEM.UNIT                                              DATA : DESCRIPTION OF MNEMONIC 
#-----.-----                    ----------------------------- : ----------------------------- 
CNTY.                                                  REEVES : COUNTY 
STATE.                                                  TEXAS : STATE 
CNTRY.                                                    USA : COUNTRY 
API.                                             42-389-30297 : API (10 Digit) 
API_14.                                    42-389-30297-00-00 : API (14 Digits) 
API_14_std.                                 42-389-30297-0000 : API (14 Digits Standard) 
UWI.                                           42389302970000 : UNIQUE WELL ID 
WELL.                              R.S. BRENNAND, JR. ET AL 1 : WELL NAME
STRT.FT                                                   3.0 : START DEPTH
STOP.FT                                               13007.0 : STOP DEPTH
STEP.FT                                                   0.5 : STEP BETWEEN DEPTHS
NULL.                                                 -999.25 : NULL VALUE
#___________________________________________________________________________________________________ 
~CURVE INFORMATION 
# MNEM.UNIT           : CURVE DESCRIPTION 
#-----.-----          : ----------------------------- 
 DEPT.FT               : MEASURED DEPTH 
 CALI.IN               : CALIPER (CAL - CAL) 
 GR.API                : GAMMA RAY (GR) 
 DT.US/FT              : SONIC DELTA TRANSIT TIME (DT) 
 NPHI.V/V              : NEUTRON POROSITY (NPHI) 
 RHOB.G/CC             : BULK DENSITY (RHOB) 
 #___________________________________________________________________________________________________ 
~A         DEPT           CALI             GR             DT           NPHI           RHOB
# ...
        12983.0          7.043         16.220         47.690     -999.25000         2.8182
        12983.5          7.040         11.563         48.152     -999.25000         2.8061
        12984.0          7.037          6.900         48.614     -999.25000         2.7941
        12984.5          7.033       -999.250         49.076     -999.25000         2.8090
        12985.0          7.030       -999.250         49.188     -999.25000         2.8241
        12985.5          7.027       -999.250         48.754     -999.25000         2.8085
        12986.0          7.024       -999.250         48.320     -999.25000         2.7925
        12986.5          7.020       -999.250         47.886     -999.25000         2.7828
        12987.0          7.017       -999.250         47.451     -999.25000         2.7934
        12987.5          7.014       -999.250         47.017     -999.25000         2.8040
        12988.0          7.011       -999.250         46.406     -999.25000         2.8147
        12988.5          7.008       -999.250         45.481     -999.25000         2.8253
        12989.0          7.004       -999.250         44.751     -999.25000         2.8360
        12989.5          7.001       -999.250         44.796     -999.25000         2.8466
        12990.0          6.998       -999.250         44.841     -999.25000         2.8467
        12990.5          6.995       -999.250         44.886     -999.25000         2.8366
        12991.0          6.991       -999.250         44.931     -999.25000         2.8266
        12991.5          6.988       -999.250         44.976     -999.25000         2.8165
        12992.0          6.985       -999.250         45.018     -999.25000         2.8064
        12992.5          6.982       -999.250         45.027     -999.25000         2.7982
        12993.0          6.979       -999.250         45.036     -999.25000         2.8322
        12993.5          6.975       -999.250         45.045     -999.25000         2.8631
        12994.0          6.972       -999.250         45.054     -999.25000         2.8433
        12994.5          6.969       -999.250         45.063     -999.25000         2.8236
        12995.0          6.966       -999.250         45.072     -999.25000         2.8038
        12995.5          6.962       -999.250         45.080     -999.25000         2.7840
        12996.0          6.959       -999.250         45.089     -999.25000         2.7643
        12996.5          6.956       -999.250         45.098     -999.25000         2.7833
        12997.0          6.953       -999.250         45.107     -999.25000         2.8200
        12997.5          6.950       -999.250         45.116     -999.25000         2.8137
        12998.0          6.946       -999.250         45.125     -999.25000         2.8074
        12998.5          6.943       -999.250         45.134     -999.25000         2.8010
        12999.0          6.940       -999.250         45.143     -999.25000         2.7947
        12999.5       -999.250       -999.250         45.152     -999.25000         2.7884
        13000.0       -999.250       -999.250         45.162     -999.25000         2.8194
        13000.5       -999.250       -999.250         45.175     -999.25000         2.8602
        13001.0       -999.250       -999.250         45.187     -999.25000         2.8938
        13001.5       -999.250       -999.250         45.200     -999.25000         2.8891
        13002.0       -999.250       -999.250         45.212     -999.25000         2.8843
        13002.5       -999.250       -999.250         45.225     -999.25000         2.8796
        13003.0       -999.250       -999.250         45.237     -999.25000         2.8758
        13003.5       -999.250       -999.250         45.250     -999.25000         2.8829
        13004.0       -999.250       -999.250         45.262     -999.25000         2.8901
        13004.5       -999.250       -999.250         45.275     -999.25000      -999.2500
        13005.0       -999.250       -999.250         45.287     -999.25000      -999.2500
        13005.5       -999.250       -999.250         45.325     -999.25000      -999.2500
        13006.0       -999.250       -999.250         45.404     -999.25000      -999.2500
        13006.5       -999.250       -999.250         45.484     -999.25000      -999.2500
        13007.0       -999.250       -999.250         45.563     -999.25000      -999.2500
