#--------------------------------------------------#
#-------------------ENVERUS, INC.------------------#
#------------------WWW.ENVERUS.COM-----------------#
#------------------COPYRIGHT 2020------------------#
#--------------------------------------------------#
#THIS FILE MAY BE USED ONLY IN ACCORDANCE WITH A CURRENT SUBSCRIPTION AGREEMENT BETWEEN
#THE USER AND ENVERUS, INC. NO PART OF THIS FILE MAY BE REPRODUCED, USED, COPIED,
#MODIFIED, PROPAGATED, OR DISTRIBUTED EXCEPT IN ACCORDANCE WITH THE SUBSCRIPTION
#AGREEMENT. UNAUTHORIZED USE OR DISTRIBUTION OF ALL OR ANY PART OF THIS FILE MAY VIOLATE
#COPYRIGHT, TRADEMARK, AND/OR OTHER LAWS AND IS SUBJECT TO CIVIL AS WELL AS CRIMINAL
#SANCTIONS.
#--------------------------------------------------#
#THIS FILE IS PROVIDED "AS-IS" AND ALL WARRANTIES ARE EXPRESSLY DISCLAIMED, WHETHER
#EXPRESS, ORAL, IMPLIED, STATUTORY OR OTHERWISE, INCLUDING ANY IMPLIED WARRANTY OF FITNESS
#FOR A PARTICULAR PURPOSE, MERCHANTABILITY, TITLE OR NON-INFRINGEMENT, AND ANY WARRANTIES
#ARISING BY VIRTUE OF CUSTOM OF TRADE OR COURSE OF DEALING.  FURTHER, ENVERUS, INC.
#AND ITS LICENSORS DO NOT REPRESENT OR WARRANT THAT THIS FILE WILL MEET USER'S
#REQUIREMENTS OR ARE SUITABLE FOR USER'S NEEDS OR THAT THE DATA OR RESULTS PROVIDED IN
#CONJUNCTION THEREWITH ARE CORRECT, ACCURATE, TIMELY OR RELIABLE. THESE DISCLAIMERS SHALL
#APPLY REGARDLESS OF ANY FAILURE OF ESSENTIAL PURPOSE OF ANY LIMITED REMEDY.  SOME
#JURISDICTIONS DO NOT ALLOW THE EXCLUSION OF CERTAIN WARRANTIES SO SOME OF THE ABOVE
#EXCLUSIONS MAY NOT APPLY. IN NO EVENT SHALL ENVERUS, INC. OR ANY OF ITS AFFILIATES
#BE LIABLE UNDER ANY LEGAL THEORY, WHETHER IN TORT (INCLUDING WITHOUT LIMITATION
#NEGLIGENCE), CONTRACT, STRICT LIABILITY, STATUTORY OR OTHERWISE, FOR ANY SPECIAL,
#INCIDENTAL, CONSEQUENTIAL, EXEMPLARY, PUNITIVE OR INDIRECT DAMAGE OF ANY KIND, INCLUDING
#WITHOUT LIMITATION LOSS OF REVENUE, PROFITS, GOODWILL, USE, AND/OR DATA OR THE COST OF
#PROCUREMENT OF SUBSTITUTE GOODS OR SERVICES, EVEN IF APPRISED OF THE POSSIBILITY OF SUCH
#DAMAGES IN ADVANCE.
#--------------------------------------------------#

# EXPORTED FROM DI TRANSFORM
# DI TRANSFORM - A PRODUCT OF DRILLINGINFO, INC. - WWW.DRILLINGINFO.COM
#
~VERSION INFORMATION
 VERS.        2.0 : LAS ASCII STANDARD - VERSION 2.0
 WRAP.         NO : ONE LINE PER DEPTH STEP

~WELL INFORMATION
#MNEM.UNIT       DATA TYPE       INFORMATION
#---------       ---------       -----------
 STRT.FT          3310 : START DEPTH
 STOP.FT         11910 : STOP DEPTH
 STEP.FT           0.5 : STEP LENGTH
 NULL.         -999.25 : NULL VALUE
 UWI.   42389328760000 : UNIQUE WELL ID
 API.   42389328760000 : WELL IDENTIFIER
 COMP.                 : COMPANY
 WELL.          DRD_55 : WELL NAME
 FLD.                  : FIELD NAME
 LOC.                  : WELL LOCATION
 CNTY.                 : COUNTY
 STAT.                 : STATE OR PROVINCE
 CTRY.                 : COUNTRY
 SRVC.                 : SERVICE COMPANY
 DATE.                 : DATE

~CURVE INFORMATION
#MNEM.UNIT       API CODE       CURVE DESCRIPTION
#---------       --------       -----------------
 DEPT.FT        : <MEASURED DEPTH>
 CAL.IN         : CALIPER
 DT.US/FT       : SONIC
 GR.GAPI        : GAMMA RAY
 ILD.OHMM       : DEEP RESISTIVITY
 ILS.OHMM       : SHALLOW RESISTIVITY

~PARAMETER INFORMATION
#MNEM.UNIT       VALUE       DESCRIPTION
#---------       -----       -----------
 EKB.FT      3168.5 : ELEVATION ABOVE MSL

~A       DEPT         CAL          DT          GR         ILD         ILS
# ...
       4999.5      8.4303     64.4113     63.5243     11.2441     10.8321
         5000      8.4401     66.2376     58.3445     10.7282     10.7528
       5000.5      8.4701     67.7375       55.23     10.0886     10.1845
         5001      8.4701     68.8852     54.5827      9.1297      9.0035
       5001.5      8.4701     69.4854     56.1031      8.3415      8.1208
         5002      8.4701     69.4854     57.3705      8.4778      7.7407
       5002.5      8.4701     69.1853     58.5463      8.6306      8.1819
         5003      8.4303     67.4774     62.6237      9.9331      9.0716
       5003.5      8.4303     66.5179     70.3194     12.7267     10.7871
         5004      8.4303      66.355     91.6714     16.2863     16.0425
       5004.5       8.436     67.0047    118.8469     16.1325     15.9039
         5005      8.4701        68.4    126.8154     15.3927     13.7804
       5005.5      8.4701     68.9115    107.2071      9.6389      8.6011
         5006      8.4701     69.3143     75.9797      7.2844      5.9834
       5006.5      8.4701     68.8571     59.1025      7.1339       5.995
         5007      8.4701        68.4     54.0278      8.1861      7.1272
       5007.5      8.4701     67.9429     50.1317      8.9664      8.4777
         5008      8.4701     67.0286     50.4556      9.8183      9.7352
       5008.5      8.4701     66.5714     53.4823      9.8741      9.5144
         5009      8.4701     66.2433     55.5777      8.5469      8.3801
       5009.5      8.4701     67.0846      56.525      8.4135      7.7051
         5010      8.4701     68.5407     60.8219      8.8285      8.1892
       5010.5      8.4701     69.4854     70.4502       9.561      8.8386
         5011      8.4701     70.6859     82.2885     10.0099      9.4909
       5011.5      8.4701     70.3421     86.5109     10.0543      9.5005
         5012      8.4701     68.8159     81.0752      9.4177      7.8741
       5012.5      8.4701     66.9895     70.8473      8.9856      7.4129
         5013      8.4701     65.4633     66.0992     10.2957       9.553
       5013.5      8.4303     64.2372     67.1756     12.9967     12.4298
         5014      8.4701     64.7429     71.3824     17.5648      16.177
       5014.5      8.4701     63.8286     77.1545     22.3722     19.2326
         5015      8.4701     63.8286     82.1271     23.8332     18.6997
       5015.5      8.4701     64.2857     83.5969     23.3973      18.968
         5016      8.4701     64.7429     82.4701     24.1256     20.6477
       5016.5      8.4701     64.2857     81.0325     24.1871       20.32
         5017      8.4404     64.2857     78.4381     23.0777     18.9582
       5017.5      8.4303     64.2857     78.4608     22.5494     18.1041
         5018      8.4303     64.2857     82.3749     23.3268     18.5025
       5018.5      8.4303     64.7429      90.105     24.9411     19.3687
         5019      8.4303        65.2    100.6069     29.7961     20.5413
       5019.5      8.4303     65.6571    112.4941     37.2197     29.7925
         5020      8.4303     64.4686    114.4074      41.486     35.2096
       5020.5      8.4303     64.7429    104.6139     42.4128      34.919
         5021      8.4303     64.2857     95.3788      34.936     30.4856
       5021.5      8.4303     64.2857     92.0319     32.6178     27.6511
         5022      8.4303     64.2857     97.4311     35.4274     30.5036
       5022.5      8.4303     63.8286    108.3813     43.5923     38.7012
         5023      8.4303     63.8286    115.1735     47.4248      51.586
       5023.5      8.4303     63.8286    109.7074     56.5455     57.2426
         5024      8.4303     64.4157     99.3234     66.0648      59.401
       5024.5      8.4303     64.2857    119.2729     73.8545     60.8292
         5025      8.4303     64.7429    179.4692     97.4236     89.1101
       5025.5      8.4303     64.7429    293.0407    135.0416     121.356
         5026      8.4303     64.7429    313.2293    187.3185    136.4057
       5026.5      8.4735     64.7429    196.9858    202.1616     140.585
         5027      8.4701      63.921    154.5458    186.1874    166.9134
       5027.5      8.4701     60.6819      76.485     177.365    172.1334
         5028      8.4701     59.7143     64.8794    127.4931    148.6716
       5028.5      8.4701     59.2571      65.315    115.4575    104.1923
         5029      8.4701     59.2571     71.5478     96.0405      85.763
       5029.5      8.4701     59.2571     80.2587     85.3879     80.5562
         5030      8.4701     59.7143     89.9542     74.7144     72.7223
       5030.5      8.4701     60.3528     96.4971     65.6769     64.2804
         5031      8.4701     64.2857    105.1053     59.4655     55.7641
       5031.5      8.4701     65.0024    116.3298     53.3676     51.9649
         5032      8.4701        65.2    119.4798     45.1093     45.0872
       5032.5      8.4701     65.6571    115.5936     35.3692     36.9367
         5033      8.4701     66.1143    108.7791     33.7461      34.543
       5033.5      8.4701     65.6571    105.2356     32.1985     32.9074
         5034      8.4701     64.7449    103.3865     31.5803     33.5121
       5034.5      8.4701     64.2857    103.5113     32.4932     33.6297
         5035      8.4701     64.2857     98.6988     34.4797     36.4423
       5035.5      8.4701     63.8286     92.2121     35.7713     37.3708
         5036      8.4701     62.6055      92.285     36.7252     37.0818
       5036.5      8.4701     60.6286     93.8054     38.4895     36.6215
         5037      8.4701      63.155     99.8711     40.5346     36.6798
       5037.5      8.4701     64.7429    119.4753     47.6584     41.8119
         5038      8.4701     66.4251    170.6175     69.8349     68.5955
       5038.5      8.4701        68.4    211.7277    101.9256    111.9319
         5039      8.4701      68.522    226.9205    135.9852    132.2167
       5039.5      8.4701     68.5036    191.1136    105.8355     99.8237
         5040      8.4701     67.9429    156.7528     81.0136     59.7147
       5040.5      8.4701     67.4857     142.238     52.3984     44.3225
         5041      8.4701     66.0259    126.1447     53.5151     49.3267
       5041.5      8.4701     65.5297    118.0824     68.6489     69.3995
         5042      8.4701     65.3666     116.562     76.1761     89.5335
       5042.5      8.4701     64.7429    113.1037      91.355     86.7579
         5043      8.4701     64.2857    109.3379     83.6769     71.9867
       5043.5      8.4701     61.2348     111.551     84.2586     82.6539
         5044      8.4701     60.1714    119.0017     80.7987     80.1641
       5044.5      8.4701        58.8    120.5221     88.3975     87.0423
         5045      8.4701     58.3429    122.5364     92.8892     96.7052
       5045.5      8.4701     59.2571    126.6362     84.5536     81.0236
         5046      8.4701     62.4907    129.2665     65.9731     65.1158
       5046.5      8.4701     64.7429    130.7869     48.1576      52.389
         5047      8.4701     65.7577    133.6203     41.1643     42.9877
       5047.5      8.4701     68.0825    135.6205     35.9404      35.652
         5048      8.4303     69.9502    135.6574      30.227      30.207
       5048.5      8.4303     71.1429    137.2069     27.0781     27.6414
         5049      8.4303     71.1429    147.1761     29.3936     28.2313
       5049.5      8.4303     71.1429    167.3993     30.9268     33.5492
         5050      8.4303     71.1429    168.9197      33.638      44.209
       5050.5      8.4303     70.7685    256.1243     82.6905     74.1381
         5051      8.4303     70.2286    245.9098     86.6419      84.998
       5051.5      8.4303     69.3189    180.2922     27.0291     32.7808
         5052      8.4303     69.3143    120.2757     12.5999     13.5269
       5052.5      8.4303     67.4121      78.593     10.0503      7.9886
         5053      8.4303        65.2      56.862      8.1789       8.086
       5053.5      8.4303     61.3933      48.681      8.9121     11.6443
