#--------------------------------------------------#
#-------------------ENVERUS, INC.------------------#
#------------------WWW.ENVERUS.COM-----------------#
#------------------COPYRIGHT 2020------------------#
#--------------------------------------------------#
#THIS FILE MAY BE USED ONLY IN ACCORDANCE WITH A CURRENT SUBSCRIPTION AGREEMENT BETWEEN
#THE USER AND ENVERUS, INC. NO PART OF THIS FILE MAY BE REPRODUCED, USED, COPIED,
#MODIFIED, PROPAGATED, OR DISTRIBUTED EXCEPT IN ACCORDANCE WITH THE SUBSCRIPTION
#AGREEMENT. UNAUTHORIZED USE OR DISTRIBUTION OF ALL OR ANY PART OF THIS FILE MAY VIOLATE
#COPYRIGHT, TRADEMARK, AND/OR OTHER LAWS AND IS SUBJECT TO CIVIL AS WELL AS CRIMINAL
#SANCTIONS.
#--------------------------------------------------#
#THIS FILE IS PROVIDED "AS-IS" AND ALL WARRANTIES ARE EXPRESSLY DISCLAIMED, WHETHER
#EXPRESS, ORAL, IMPLIED, STATUTORY OR OTHERWISE, INCLUDING ANY IMPLIED WARRANTY OF FITNESS
#FOR A PARTICULAR PURPOSE, MERCHANTABILITY, TITLE OR NON-INFRINGEMENT, AND ANY WARRANTIES
#ARISING BY VIRTUE OF CUSTOM OF TRADE OR COURSE OF DEALING.  FURTHER, ENVERUS, INC.
#AND ITS LICENSORS DO NOT REPRESENT OR WARRANT THAT THIS FILE WILL MEET USER'S
#REQUIREMENTS OR ARE SUITABLE FOR USER'S NEEDS OR THAT THE DATA OR RESULTS PROVIDED IN
#CONJUNCTION THEREWITH ARE CORRECT, ACCURATE, TIMELY OR RELIABLE. THESE DISCLAIMERS SHALL
#APPLY REGARDLESS OF ANY FAILURE OF ESSENTIAL PURPOSE OF ANY LIMITED REMEDY.  SOME
#JURISDICTIONS DO NOT ALLOW THE EXCLUSION OF CERTAIN WARRANTIES SO SOME OF THE ABOVE
#EXCLUSIONS MAY NOT APPLY. IN NO EVENT SHALL ENVERUS, INC. OR ANY OF ITS AFFILIATES
#BE LIABLE UNDER ANY LEGAL THEORY, WHETHER IN TORT (INCLUDING WITHOUT LIMITATION
#NEGLIGENCE), CONTRACT, STRICT LIABILITY, STATUTORY OR OTHERWISE, FOR ANY SPECIAL,
#INCIDENTAL, CONSEQUENTIAL, EXEMPLARY, PUNITIVE OR INDIRECT DAMAGE OF ANY KIND, INCLUDING
#WITHOUT LIMITATION LOSS OF REVENUE, PROFITS, GOODWILL, USE, AND/OR DATA OR THE COST OF
#PROCUREMENT OF SUBSTITUTE GOODS OR SERVICES, EVEN IF APPRISED OF THE POSSIBILITY OF SUCH
#DAMAGES IN ADVANCE.
#--------------------------------------------------#

~VERSION INFORMATION
VERS. 2.0 : CWLS LOG ASCII STANDARD - VERSION 2.0
WRAP.  NO : ONE LINE PER DEPTH STEP
~WELL INFORMATION
#MNEMONIC     .UNIT              VALUE :DESCRIPTION
STRT       .FT                145 :START DEPTH
STOP       .FT                15608 :STOP DEPTH
STEP       .FT                   0.500 :STEP
NULL       .                  -999.250 :NULL
UWI        .              42389304120000 :UNIQUE WELL ID
API        .              42389304120000 :API NUMBER
COMP       .         BTA OIL PRODUCERS :COMPANY
WELL       .        7607 JV-P ORLA  1 :WELL
DATE       .                            :LOG DATE
~CURVE INFORMATION
#MNEMONIC     .UNIT      API CODE :CURVE DESCRIPTION
DEPTH       .FT                      :MEASURED DEPTH
DT.US/FT        UNKNOWN   :DT
CAL.INCH        UNKNOWN   :CAL
GR.API        UNKNOWN   :GR
~A    DEPTH    DT    CAL    GR
# ...
 12176.5     74.48   9.18   72.246
 12177     72.978   9.179   70.765
 12177.5     71.476   9.179   69.379
 12178     70.381   9.178   69.797
 12178.5     70.355   9.177   70.215
 12179     70.329   9.176   70.633
 12179.5     70.303   9.175   68.961
 12180     69.989   9.175   67.195
 12180.5     69.397   9.174   65.43
 12181     69.393   9.173   63.665
 12181.5     69.586   9.172   61.9
 12182     70.061   9.172   60.656
 12182.5     71.159   9.171   61.848
 12183     71.856   9.16   63.04
 12183.5     68.903   9.147   64.232
 12184     65.361   9.134   65.424
 12184.5     62.883   9.121   66.807
 12185     62.213   9.108   69.212
 12185.5     65.728   9.095   71.617
 12186     69.244   9.082   74.022
 12186.5     72.206   9.069   74.186
 12187     71.637   9.075   73.741
 12187.5     70.652   9.081   73.296
 12188     69.667   9.087   72.851
 12188.5     68.682   9.094   72.477
 12189     69.247   9.1   73.798
 12189.5     69.918   9.107   75.12
 12190     70.588   9.113   76.441
 12190.5     69.996   9.12   76.263
 12191     69.372   9.118   75.258
 12191.5     69.135   9.107   74.252
 12192     68.929   9.096   74.97
 12192.5     69.179   9.084   76.469
 12193     69.952   9.073   77.228
 12193.5     70.177   9.062   75.938
 12194     69.732   9.051   74.648
 12194.5     68.843   9.039   73.357
 12195     68.348   9.028   72.067
 12195.5     67.938   9.017   70.777
 12196     68.389   9.005   68.587
 12196.5     68.84   8.997   65.95
 12197     68.601   8.99   63.313
 12197.5     67.585   8.982   60.676
 12198     66.568   8.975   58.039
 12198.5     65.735   8.967   55.822
 12199     65.325   8.96   55.5
 12199.5     64.915   8.952   55.178
 12200     64.505   8.945   54.199
 12200.5     62.325   8.937   52.718
 12201     60.779   8.93   51.236
 12201.5     60.667   8.922   49.755
 12202     60.556   8.915   48.273
 12202.5     59.707   8.907   46.792
 12203     58.265   8.9   45.31
 12203.5     57.609   8.892   43.829
 12204     57.266   8.885   47.731
 12204.5     60.908   8.877   52.828
 12205     65.639   8.87   55.092
 12205.5     69.272   8.893   56.504
 12206     68.601   8.917   54.622
 12206.5     65.117   8.94   47.808
 12207     61.633   8.963   49.13
 12207.5     58.935   8.986   50.451
 12208     64.164   9.006   51.773
 12208.5     67.782   9.025   51.838
 12209     66.791   9.044   48.233
 12209.5     64.546   9.063   44.782
 12210     62.301   9.082   41.802
 12210.5     60.056   9.101   38.822
 12211     56.987   9.12   40.118
 12211.5     56.108   9.132   42.849
 12212     56.346   9.109   45.581
 12212.5     59.269   9.087   47.33
 12213     63.438   9.064   48.261
 12213.5     67.607   9.041   49.193
 12214     71.126   9.019   44.811
 12214.5     68.459   8.996   39.035
 12215     60.226   8.969   33.26
 12215.5     55.642   8.933   32.593
 12216     53.9   8.896   33.79
 12216.5     55.875   8.909   34.987
 12217     57.85   8.979   36.184
 12217.5     58.718   9.049   37.381
 12218     58.159   9.12   38.128
 12218.5     56.226   9.154   38.514
 12219     56.091   9.187   38.9
 12219.5     55.957   9.206   39.287
 12220     55.823   9.194   43.274
 12220.5     58.181   9.181   49.19
 12221     63.95   9.169   55.105
 12221.5     69.244   9.157   60.733
 12222     71.083   9.144   60.592
 12222.5     70.094   9.132   60.451
 12223     64.833   9.108   59.587
 12223.5     63.505   9.07   58.377
 12224     65.264   9.033   57.166
 12224.5     66.208   8.995   55.242
 12225     66.363   8.981   53.138
 12225.5     65.381   8.974   51.033
 12226     63.566   8.967   49.141
 12226.5     62.788   8.96   48.367
 12227     62.1   8.953   47.592
 12227.5     58.927   8.99   44.586
 12228     55.753   9.03   43.315
 12228.5     53.009   9.071   46.889
 12229     55.83   9.111   50.462
 12229.5     60.939   9.151   54.036
 12230     66.048   9.177   57.393
 12230.5     66.991   9.159   56.612
 12231     65.276   9.141   53.383
 12231.5     63.581   9.123   50.155
 12232     62.411   9.105   49.635
 12232.5     61.241   9.087   53.042
 12233     60.975   9.069   56.449
 12233.5     62.766   9.066   59.855
 12234     65.408   9.075   63.262
 12234.5     68.182   9.083   65.647
 12235     70.96   9.092   62.178
 12235.5     70.008   9.102   58.71
 12236     65.316   9.115   55.311
 12236.5     60.625   9.127   52.333
 12237     59.839   9.14   52.113
 12237.5     60.808   9.153   53.435
 12238     62.019   9.165   54.757
 12238.5     60.811   9.178   54.507
 12239     61.041   9.19   53.682
 12239.5     61.625   9.203   52.856
 12240     61.055   9.19   52.03
 12240.5     60.885   9.172   51.204
 12241     60.91   9.155   50.378
 12241.5     59.81   9.138   49.552
 12242     58.529   9.121   48.839
 12242.5     58.734   9.104   52.674
 12243     59.22   9.087   56.509
 12243.5     62.104   9.07   60.343
 12244     64.987   9.053   64.178
 12244.5     67.871   9.036   68.012
 12245     70.755   9.035   70.501
 12245.5     71.49   9.037   71.427
 12246     71.19   9.039   69.113
 12246.5     70.528   9.041   66.198
 12247     67.718   9.043   63.283
 12247.5     65.251   9.045   60.368
 12248     63.686   9.047   57.453
 12248.5     62.122   9.049   55.373
 12249     61.731   9.051   54.08
 12249.5     61.685   9.053   54.918
 12250     62.346   9.054   56.075
 12250.5     62.233   9.054   56.624
 12251     62.045   9.054   55.617
 12251.5     60.415   9.055   54.611
 12252     60.137   9.055   54.651
 12252.5     62.201   9.052   56.848
 12253     64.264   9.044   59.046
 12253.5     64.944   9.035   61.244
 12254     65.413   9.027   62.84
 12254.5     65.054   9.018   61.038
 12255     64.031   9.009   59.236
 12255.5     63.009   9.015   59.758
 12256     68.388   9.037   61.413
 12256.5     68.923   9.06   62.646
 12257     69.36   9.082   59.695
 12257.5     67.309   9.105   56.744
 12258     63.696   9.127   54.939
 12258.5     61.409   9.15   53.222
 12259     60.63   9.172   51.505
 12259.5     58.657   9.195   55.296
 12260     62.711   9.191   56.552
 12260.5     65.529   9.181   56.556
 12261     66.707   9.171   53.652
 12261.5     65.133   9.161   48.537
 12262     60.627   9.151   43.423
 12262.5     56.121   9.14   40.261
 12263     52.354   9.131   38.257
 12263.5     54.752   9.127   44.193
 12264     58.364   9.124   50.128
 12264.5     61.976   9.12   56.064
 12265     63.367   9.116   61.565
 12265.5     64.509   9.134   63.928
 12266     67.572   9.158   66.292
 12266.5     71.716   9.182   67.46
 12267     77.365   9.207   64.704
 12267.5     74.121   9.231   61.948
 12268     71.898   9.255   59.191
 12268.5     71.117   9.28   56.435
 12269     63.528   9.304   52.454
 12269.5     59.576   9.31   48.354
 12270     59.28   9.31   49.805
 12270.5     60.839   9.31   53.303
 12271     62.259   9.311   56.8
 12271.5     63.443   9.303   58.02
 12272     64.035   9.272   58.884
 12272.5     64.627   9.246   59.747
 12273     67.884   9.224   60.611
 12273.5     70.329   9.203   56.771
 12274     67.236   9.181   50.405
 12274.5     61.828   9.159   44.04
 12275     56.419   9.14   38.814
 12275.5     55.583   9.167   37.232
 12276     55.528   9.194   35.65
 12276.5     55.616   9.221   34.068
 12277     56.546   9.248   34.823
 12277.5     57.256   9.275   37.067
 12278     57.256   9.302   39.31
 12278.5     57.65   9.329   41.553
 12279     59.304   9.356   43.797
 12279.5     60.958   9.37   46.04
 12280     62.277   9.375   48.283
 12280.5     63.212   9.379   50.527
 12281     64.147   9.383   51.937
 12281.5     67.826   9.374   53.259
 12282     71.867   9.32   54.582
 12282.5     71.866   9.266   55.904
 12283     68.047   9.212   53.796
 12283.5     63.712   9.196   50.246
 12284     56.667   9.196   48.304
 12284.5     52.756   9.196   49.151
 12285     53.601   9.197   49.729
 12285.5     57.508   9.197   47.742
 12286     62.033   9.197   45.754
 12286.5     65.777   9.198   43.767
 12287     65.618   9.205   42.436
 12287.5     62.655   9.226   41.882
 12288     59.602   9.247   41.328
 12288.5     57.57   9.267   40.774
