###############################################
##         ENVERUS                           ##
##         ESS - Open Hole                   ##
##         PERMIAN / DELAWARE                ##
##         Nov 04 2023  V4.0                 ##
##         42-389-30414-00-00                ##
###############################################
## Copyright 2017-2023  ENVERUS.  All Rights Reserved. 
## Confidential - Property of ENVERUS, use governed by terms and 
## conditions found within the existing Information Services Subscription Agreement 
## (as may be amended, the “ISSA”) between Customer and ENVERUS. 
## 
~VERSION INFORMATION
# MNEM.UNIT                               DATA : DESCRIPTION OF MNEMONIC
#-----.-----     ----------------------------- : -----------------------------
VERS.                                     2.00 : CWLS LOG ASCII STANDARD - VERSION 2.00
WRAP.                                       NO : MULTIPLE LINES PER DEPTH STEP
VEND.                                  ENVERUS : VENDOR
TYPE.                          ESS - OPEN HOLE : ENVERUS ESSENTIAL CURVES – ACCESSIBLE THROUGH ENVERUS PRISM(TM)
DOC.                                  31965441 : ENVERUS HEADER RAW DOCUMENT ID
#___________________________________________________________________________________________________ 
~WELL INFORMATION 
# 4Nagw4FJNzCtYOfTAudVsymR6uv0ccMrNFKiy1Vrqa1gQVNLoB6NNR/Tzdk8H0Jxf2Akv2rjPRKaT9zVNBkTiw== 
# MNEM.UNIT                                              DATA : DESCRIPTION OF MNEMONIC 
#-----.-----                    ----------------------------- : ----------------------------- 
CNTY.                                                  REEVES : COUNTY 
STATE.                                                  TEXAS : STATE 
CNTRY.                                                    USA : COUNTRY 
API.                                             42-389-30414 : API (10 Digit) 
API_14.                                    42-389-30414-00-00 : API (14 Digits) 
API_14_std.                                 42-389-30414-0000 : API (14 Digits Standard) 
UWI.                                           42389304140000 : UNIQUE WELL ID 
WELL.                                            TXL 17-39  2 : WELL NAME
STRT.FT                                                 237.0 : START DEPTH
STOP.FT                                               13872.0 : STOP DEPTH
STEP.FT                                                   0.5 : STEP BETWEEN DEPTHS
NULL.                                                 -999.25 : NULL VALUE
COMP.                          ENDEAVOR ENERGY RESOURCES L.P. : COMPANY
#___________________________________________________________________________________________________ 
~CURVE INFORMATION 
# MNEM.UNIT           : CURVE DESCRIPTION 
#-----.-----          : ----------------------------- 
 DEPT.FT               : MEASURED DEPTH 
 CALI.IN               : CALIPER (CAL - CAL) 
 GR.API                : GAMMA RAY (GR) 
 DT.US/FT              : SONIC DELTA TRANSIT TIME (DT) 
 RESS.OHMM             : SHALLOW INDUCTION RESISTIVITY (ILS - ILS) 
 RESD.OHMM             : DEEP INDUCTION RESISTIVITY (ILD - ILD) 
 #___________________________________________________________________________________________________ 
~A         DEPT           CALI             GR             DT           RESS           RESD
# ...
         7673.0          9.815        116.140         68.012         30.317        972.583
         7673.5          9.813        111.700         66.488         46.118       1276.113
         7674.0          9.811        107.259         64.964        168.557        673.630
         7674.5          9.809        102.819         64.155        154.024        392.098
         7675.0          9.807         98.378         63.951        139.491        307.047
         7675.5          9.805         93.938         63.746        124.958        221.997
         7676.0          9.803         89.498         62.986        118.244        170.279
         7676.5          9.800         85.141         62.184        111.629        166.338
         7677.0          9.798         80.999         60.826        109.677        162.397
         7677.5          9.796         76.858         59.307        132.073        228.767
         7678.0          9.794         72.717         57.787        154.470        286.004
         7678.5          9.792         68.576         57.042        176.866        330.483
         7679.0          9.790         64.434         57.643        192.219        354.330
         7679.5          9.788         70.336         58.243        201.418        290.840
         7680.0          9.786         91.091         64.842        189.893        227.350
         7680.5          9.783         99.404         66.615        173.549        201.278
         7681.0          9.781        101.299         65.831        157.204        176.273
         7681.5          9.779         99.900         64.544        140.860        151.267
         7682.0          9.777         91.374         63.257        124.515        126.262
         7682.5          9.775         82.849         63.608        100.260        101.256
         7683.0          9.773         76.933         64.269         73.892         78.935
         7683.5          9.771         75.401         64.929         51.397         62.755
         7684.0          9.769         73.870         65.589         36.354         46.575
         7684.5          9.766         72.338         65.401         21.311         30.395
         7685.0          9.764         70.806         64.068         12.104         14.215
         7685.5          9.762         65.327         62.736         11.847         13.014
         7686.0          9.760         43.106         62.663         11.589         13.014
         7686.5          9.758         45.173         64.233         11.282         13.014
         7687.0          9.756         47.240         65.802         10.682         11.735
         7687.5          9.754         49.308         67.372         10.082          9.825
         7688.0          9.751         51.375         68.941          9.087          7.915
         7688.5          9.749         53.442         68.376          8.080          7.384
         7689.0          9.747         55.337         67.709          7.073          7.814
         7689.5          9.745         53.455         67.043          7.330          8.244
         7690.0          9.743         51.573         66.376          7.712          8.944
         7690.5          9.741         53.153         65.709          8.093          9.713
         7691.0          9.739         56.246         65.671          8.855         10.481
         7691.5          9.737         59.340         65.821          9.796         11.249
         7692.0          9.734         62.434         65.972         10.738         14.616
         7692.5          9.732         65.528         66.122         11.679         18.435
         7693.0          9.730         68.622         66.273         14.704         22.253
         7693.5          9.728         71.716         65.963         27.677         42.066
         7694.0          9.726         74.809         65.224         37.693         78.955
         7694.5          9.724         77.903         65.420         47.547        112.743
         7695.0          9.722         80.997         67.264         57.401        135.103
         7695.5          9.720         84.091         66.376         66.131        157.464
         7696.0          9.717         87.185         65.488         72.695        157.526
         7696.5          9.715         85.392         64.600         77.245        155.727
         7697.0          9.713         80.257         63.997         80.583        153.928
         7697.5          9.711         74.345         63.614         83.158        152.128
         7698.0          9.709         68.433         63.230         84.871        150.329
         7698.5          9.707         62.522         62.847         86.585        148.530
         7699.0          9.705         60.864         62.464         90.685        146.730
         7699.5          9.702         61.121         60.612         97.738        144.931
         7700.0          9.700         61.379         56.095        104.791        239.771
         7700.5          9.698         58.595         51.578        134.902        366.914
         7701.0          9.696         54.828         51.792        177.327        408.780
         7701.5          9.698         51.062         52.442        219.752        369.740
         7702.0          9.700         60.544         63.827        262.177        283.750
         7702.5          9.701         72.958         62.585        260.714        197.759
         7703.0          9.703         85.372         61.344        195.983        134.794
         7703.5          9.705         81.664         60.102        131.253        166.330
         7704.0          9.706         76.230         58.860        143.655        197.867
         7704.5          9.708         70.797         57.619        159.137        229.404
         7705.0          9.710         65.363         57.682        174.619        246.628
         7705.5          9.711         59.930         57.811        178.229        240.869
         7706.0          9.713         58.767         57.940        171.323        219.656
         7706.5          9.715         60.347         63.466        164.417        193.047
         7707.0          9.716         62.992         64.290        165.424        206.883
         7707.5          9.718         68.588         65.113        187.409        240.544
         7708.0          9.720         74.184         65.936        209.395        199.693
         7708.5          9.722         79.779         66.011        208.219        166.884
         7709.0          9.723         83.968         64.882        182.875        150.779
         7709.5          9.725         81.363         63.753        157.531        134.673
         7710.0          9.727         78.757         62.625        142.621        118.567
         7710.5          9.728         76.152         61.496        133.517        102.462
         7711.0          9.730         73.546         60.367        124.413         86.356
         7711.5          9.732         70.941         59.668         95.195         80.668
         7712.0          9.733         68.335         59.666         74.131         78.455
         7712.5          9.735         65.730         59.665         71.488         76.242
         7713.0          9.737         64.101         59.664         68.846         74.029
         7713.5          9.739         63.319         59.647         68.974         71.816
         7714.0          9.740         62.537         58.596         70.577         75.459
         7714.5          9.742         61.755         57.545         72.179         87.860
         7715.0          9.744         60.973         58.638         73.782         89.676
         7715.5          9.745         63.974         60.063         74.443         79.985
         7716.0          9.747         67.684         61.488         68.027         70.294
         7716.5          9.749         71.394         62.912         61.611         60.603
