#--------------------------------------------------#
#-------------------ENVERUS, INC.------------------#
#------------------WWW.ENVERUS.COM-----------------#
#------------------COPYRIGHT 2020------------------#
#--------------------------------------------------#
#THIS FILE MAY BE USED ONLY IN ACCORDANCE WITH A CURRENT SUBSCRIPTION AGREEMENT BETWEEN
#THE USER AND ENVERUS, INC. NO PART OF THIS FILE MAY BE REPRODUCED, USED, COPIED,
#MODIFIED, PROPAGATED, OR DISTRIBUTED EXCEPT IN ACCORDANCE WITH THE SUBSCRIPTION
#AGREEMENT. UNAUTHORIZED USE OR DISTRIBUTION OF ALL OR ANY PART OF THIS FILE MAY VIOLATE
#COPYRIGHT, TRADEMARK, AND/OR OTHER LAWS AND IS SUBJECT TO CIVIL AS WELL AS CRIMINAL
#SANCTIONS.
#--------------------------------------------------#
#THIS FILE IS PROVIDED "AS-IS" AND ALL WARRANTIES ARE EXPRESSLY DISCLAIMED, WHETHER
#EXPRESS, ORAL, IMPLIED, STATUTORY OR OTHERWISE, INCLUDING ANY IMPLIED WARRANTY OF FITNESS
#FOR A PARTICULAR PURPOSE, MERCHANTABILITY, TITLE OR NON-INFRINGEMENT, AND ANY WARRANTIES
#ARISING BY VIRTUE OF CUSTOM OF TRADE OR COURSE OF DEALING.  FURTHER, ENVERUS, INC.
#AND ITS LICENSORS DO NOT REPRESENT OR WARRANT THAT THIS FILE WILL MEET USER'S
#REQUIREMENTS OR ARE SUITABLE FOR USER'S NEEDS OR THAT THE DATA OR RESULTS PROVIDED IN
#CONJUNCTION THEREWITH ARE CORRECT, ACCURATE, TIMELY OR RELIABLE. THESE DISCLAIMERS SHALL
#APPLY REGARDLESS OF ANY FAILURE OF ESSENTIAL PURPOSE OF ANY LIMITED REMEDY.  SOME
#JURISDICTIONS DO NOT ALLOW THE EXCLUSION OF CERTAIN WARRANTIES SO SOME OF THE ABOVE
#EXCLUSIONS MAY NOT APPLY. IN NO EVENT SHALL ENVERUS, INC. OR ANY OF ITS AFFILIATES
#BE LIABLE UNDER ANY LEGAL THEORY, WHETHER IN TORT (INCLUDING WITHOUT LIMITATION
#NEGLIGENCE), CONTRACT, STRICT LIABILITY, STATUTORY OR OTHERWISE, FOR ANY SPECIAL,
#INCIDENTAL, CONSEQUENTIAL, EXEMPLARY, PUNITIVE OR INDIRECT DAMAGE OF ANY KIND, INCLUDING
#WITHOUT LIMITATION LOSS OF REVENUE, PROFITS, GOODWILL, USE, AND/OR DATA OR THE COST OF
#PROCUREMENT OF SUBSTITUTE GOODS OR SERVICES, EVEN IF APPRISED OF THE POSSIBILITY OF SUCH
#DAMAGES IN ADVANCE.
#--------------------------------------------------#

~VERSION INFORMATION
VERS. 2.0 : CWLS LOG ASCII STANDARD - VERSION 2.0
WRAP.  NO : ONE LINE PER DEPTH STEP
~WELL INFORMATION
#MNEMONIC     .UNIT              VALUE :DESCRIPTION
STRT       .FT                25 :START DEPTH
STOP       .FT                17136 :STOP DEPTH
STEP       .FT                   0.500 :STEP
NULL       .                  -999.250 :NULL
UWI        .              42389302310000 :UNIQUE WELL ID
API        .              42389302310000 :API NUMBER
COMP       .         EDISTO RESOURCES CORPORATION :COMPANY
WELL       .        WIGGINS  ORLA  1 :WELL
DATE       .                            :LOG DATE
~CURVE INFORMATION
#MNEMONIC     .UNIT      API CODE :CURVE DESCRIPTION
DEPTH       .FT                      :MEASURED DEPTH
CAL.INCH        UNKNOWN   :CAL
ILS.OHM        UNKNOWN   :ILS
SP.MV        UNKNOWN   :SP
DT.US/FT        UNKNOWN   :DT
GR.API        UNKNOWN   :GR
ILD.OHM        UNKNOWN   :ILD
~A    DEPTH    CAL    ILS    SP    DT    GR    ILD
# ...
 4945     12.819   127.782   -10.706   57.13   38.121   1178.361
 4945.5     12.814   129.959   -10.491   56.38   35.74   1233.308
 4946     12.809   132.136   -10.276   55.63   33.806   1126.631
 4946.5     12.804   134.313   -10.062   54.881   33.806   1019.686
 4947     12.799   136.49   -9.847   55.209   33.806   904.425
 4947.5     12.795   138.667   -9.632   55.875   36.329   789.163
 4948     12.797   140.844   -9.417   56.542   39.714   673.902
 4948.5     12.8   142.873   -9.202   57.209   43.099   558.641
 4949     12.803   141.452   -8.988   57.875   45.55   446.538
 4949.5     12.805   140.031   -8.773   58.542   45.285   386.16
 4950     12.808   138.609   -8.558   59.208   42.744   354.619
 4950.5     12.81   137.188   -8.343   59.875   40.203   400.513
 4951     12.813   135.767   -8.128   60.185   37.663   449.064
 4951.5     12.816   138.474   -7.914   59.627   35.2   697.71
 4952     12.818   141.186   -7.699   59.069   34.559   829.94
 4952.5     12.821   143.898   -7.484   58.511   33.918   881.602
 4953     12.823   146.61   -7.269   57.953   33.277   933.264
 4953.5     12.83   149.323   -7.054   57.395   32.275   984.925
 4954     12.845   144.871   -6.84   56.837   30.188   847.276
 4954.5     12.861   136.116   -6.625   55.344   29.9   705.477
 4955     12.876   127.361   -6.41   53.377   29.611   589.35
 4955.5     12.891   118.606   -5.938   53.621   35.434   479.26
 4956     12.907   109.852   -5.382   56.296   41.911   370.684
 4956.5     12.922   101.097   -4.826   58.972   45.816   262.108
 4957     12.937   92.342   -4.27   61.648   49.321   153.531
 4957.5     12.964   83.587   -3.714   63.156   50.624   95.027
 4958     13.008   73.598   -3.159   62.305   50.589   78.375
 4958.5     13.053   62.745   -2.603   62.203   50.554   69.22
 4959     13.097   51.892   -2.047   63.073   50.519   59.981
 4959.5     13.142   41.039   -1.491   63.536   50.484   48.267
 4960     13.18   30.185   -0.936   63.242   49.853   36.553
 4960.5     13.213   25.501   -0.38   62.948   47.872   24.839
 4961     13.247   23.555   0.022   62.653   45.891   22.168
 4961.5     13.28   22.052   0.373   62.348   45.345   21.418
 4962     13.314   23.335   0.723   60.993   45.659   23.119
 4962.5     13.347   24.618   1.074   60.424   45.381   24.82
 4963     13.38   23.637   1.424   61.179   44.084   24.39
 4963.5     13.414   21.421   1.774   61.933   43.557   22.209
 4964     13.447   19.205   2.125   63.351   43.557   19.122
 4964.5     13.48   16.988   2.475   65.193   43.557   15.407
 4965     13.48   15.213   2.859   65.24   43.454   14.771
 4965.5     13.48   14.902   3.249   64.275   42.45   14.189
 4966     13.48   14.591   3.639   64.752   41.446   13.964
 4966.5     13.48   14.28   4.03   65.276   40.861   14.156
 4967     13.48   14.773   4.42   64.352   40.777   14.347
 4967.5     13.48   15.28   4.811   63.302   39.971   17.273
 4968     13.48   15.786   5.201   62.251   37.87   21.019
 4968.5     13.482   15.945   5.259   61.201   35.77   23.192
 4969     13.483   15.611   5.184   60.696   35.036   22.229
 4969.5     13.485   15.277   5.109   60.363   35.719   20.996
 4970     13.487   14.943   5.034   60.03   36.402   18.897
 4970.5     13.489   14.608   4.959   63.401   37.085   16.938
 4971     13.491   14.274   4.884   63.011   37.768   16.741
 4971.5     13.492   13.94   4.809   63.938   38.451   16.544
 4972     13.494   14.349   4.734   65.232   39.362   16.347
 4972.5     13.502   15.366   4.659   64.957   40.336   16.808
 4973     13.514   16.382   4.583   64.682   41.31   19.647
 4973.5     13.527   17.398   4.508   64.407   41.092   20.658
 4974     13.539   17.498   4.433   65.013   40.065   18.306
 4974.5     13.552   15.42   4.358   66.102   42.651   15.953
 4975     13.564   13.343   4.283   67.192   45.237   13.601
 4975.5     13.576   11.265   4.208   68.282   46.554   11.248
 4976     13.589   9.187   4.133   67.768   46.13   9.371
 4976.5     13.6   9.091   4.058   66.473   44.281   9.433
 4977     13.612   9.382   3.983   64.333   42.432   9.507
 4977.5     13.623   11.398   3.908   62.193   40.583   10.081
 4978     13.635   14.17   3.576   60.053   39.486   14.041
 4978.5     13.647   16.943   3.008   57.914   39.487   20.606
 4979     13.658   18.564   2.44   58.594   39.487   23.261
 4979.5     13.685   16.536   2.273   60.836   39.487   24.848
 4980     13.721   14.755   2.41   63.696   39.487   22.026
 4980.5     13.758   13.049   2.547   65.798   39.693   17.146
 4981     13.795   11.344   2.684   66.426   40.283   12.265
 4981.5     13.832   9.638   2.821   67.054   40.874   9.626
 4982     13.869   7.932   2.958   67.683   41.464   8.328
 4982.5     13.905   7.845   3.095   68.311   42.055   7.929
 4983     13.926   7.845   3.232   68.985   42.148   8.03
 4983.5     13.934   7.844   3.369   69.764   42.148   8.131
 4984     13.943   7.844   3.506   70.543   42.81   7.949
 4984.5     13.951   7.972   3.643   71.31   43.96   7.679
 4985     13.959   8.1   3.78   69.837   45.11   7.765
 4985.5     13.968   8.229   3.917   68.365   45.199   8.056
 4986     13.992   8.357   4.054   67.065   44.714   8.267
 4986.5     14.016   8.08   4.191   67.736   44.23   8.033
 4987     14.041   7.627   4.328   69.789   43.746   7.799
 4987.5     14.065   7.175   4.47   71.599   43.023   7.546
 4988     14.089   7.18   4.614   71.238   41.624   7.263
 4988.5     14.114   7.31   4.758   70.878   40.719   7.315
 4989     14.138   7.439   4.902   70.518   40.332   7.367
 4989.5     14.156   7.104   5.046   70.157   39.75   7.419
 4990     14.167   6.73   5.191   71.984   38.418   7.215
 4990.5     14.178   6.511   5.335   72.041   37.96   6.858
 4991     14.189   6.545   5.479   72.097   38.06   6.589
 4991.5     14.2   6.579   5.185   72.154   40.154   6.531
 4992     14.211   6.69   4.866   71.535   42.554   6.603
 4992.5     14.222   7.235   4.546   70.608   44.955   7.277
 4993     14.233   7.4   4.227   70.22   45.905   7.315
 4993.5     14.238   6.941   3.908   69.966   46.572   7.03
 4994     14.225   6.481   3.588   69.42   44.522   6.691
 4994.5     14.213   6.268   3.269   66.297   42.472   6.286
 4995     14.2   8.323   2.949   63.173   41.423   7.195
 4995.5     14.187   10.378   2.63   60.05   41.076   10.07
 4996     14.175   12.414   2.311   57.813   38.037   13.945
 4996.5     14.174   12.33   1.991   58.194   35.809   17.54
 4997     14.211   12.245   1.672   58.575   34.948   18.559
 4997.5     14.248   11.745   1.352   58.956   34.088   16.007
 4998     14.285   10.817   1.033   59.762   36.733   13.454
 4998.5     14.309   9.89   0.714   62.345   38.076   11.335
 4999     14.333   8.962   0.394   64.928   38.077   9.843
 4999.5     14.356   8.034   0.075   67.512   38.364   8.351
 5000     14.38   7.107   -0.245   70.095   40.915   6.859
 5000.5     14.403   6.179   -0.564   72.678   42.999   5.855
 5001     14.427   5.366   -0.883   72.587   45.048   5.45
 5001.5     14.45   5.273   -1.164   72.506   47.097   5.219
 5002     14.467   5.179   -1.427   73.314   49.146   5.046
 5002.5     14.45   5.174   -1.69   73.827   51.195   5.305
 5003     14.433   5.428   -1.953   73.927   51.926   5.563
 5003.5     14.416   5.682   -2.216   74.028   52.391   5.822
 5004     14.398   5.936   -2.479   73.038   51.927   6.081
 5004.5     14.381   6.191   -2.742   71.697   46.719   6.339
 5005     14.364   7.359   -3.005   65.094   41.511   6.626
 5005.5     14.347   11.047   -3.268   61.746   39.326   8.655
 5006     14.33   14.735   -3.526   60.113   33.992   13.594
 5006.5     14.318   16.957   -3.529   59.425   33.503   28.416
 5007     14.32   18.114   -3.532   59.952   33.166   32.964
 5007.5     14.322   19.272   -3.535   60.48   34.678   32.134
 5008     14.324   19.159   -3.538   61.051   36.473   27.329
 5008.5     14.326   17.028   -3.518   61.752   38.267   23.5
 5009     14.328   14.897   -3.488   62.453   40.118   19.671
 5009.5     14.33   12.766   -3.459   66.588   42.395   15.843
 5010     14.332   10.635   -3.429   70.187   43.642   12.014
