~Version Information
 VERS.                  2.0:   CWLS log ASCII Standard -VERSION 2.0
 WRAP.                   NO:   One line per depth step
~Well Information Block
#MNEM.UNIT     VALUE/NAME     DESCRIPTION
#---------     -----------    ---------------------------
 STRT.F              8800.0000: START DEPTH
 STOP.F             14300.0000: STOP DEPTH
 STEP.F                 0.5000: STEP DEPTH
 NULL.                 -999.25: NULL VALUE
 LOC .     336'' FSL & 729' FWL:  LOCATION
 FL6 .        API 42-389-36322:  LOCATIONLINE6
 FL4 .           ABSTRACT 3622:  LOCATIONLINE4
 FL3 .        T&P RR CO SURVEY:  LOCATIONLINE3
 FL2 .     SECTION 36, BLOCK 58 T2:  LOCATIONLINE2
 FL1 .     336'' FSL & 729' FWL:  LOCATIONLINE1
 DMF .                      KB:  DRILL MEAS FROM
 PDAT.                      GL:  PERMANENT DATUM
 CNTY.                  REEVES:  COUNTY NAME
 FLD .     FORD, WEST (WOLFCAMP):  FIELD NAME
 WELL.        AVA STATE 36 #2H:  WELL NAME
 COMP.     CAPITAN ENERGY INC.:  COMPANY
 DATE.             01-Nov-2017:  DATE
 SVCO.             Halliburton:  SERVICECONAME
 PROV.                   TEXAS:  PROVINCE
 STAT.                   TEXAS:  STATE NAME
 CTRY.           UNITED STATES:  COUNTRY NAME
 HIDE.                        :  WELLNAMEOPERAT
 BASI.                 PERMIAN:  BASIN
 UWI .            42-389-36322LAT:  UNIQUE WELL IDENTIFIER
 API .            42-389-36322LAT:  API NUMBER
 RANG.                     N/A:  RANGE
 TOWN.                     N/A:  TOWNSHIP
 SECT.                     N/A:  SECTION
 SON .               904399722:  JOB NUMBER
 SRVC.             Halliburton:  SERVICE COMPANY
 LMF .                      KB:  LOG MEASURED FROM
 EGL .ft             3011.0000:  GROUND ELEVATION
 BAP .ft                0.0000:  GL ELEV ONSHORE
 GVFD.g                 1.0000:  GRAVITY FIELD
 EKB .ft             3037.0000:  KB ELEVATION
 EDF .ft             3036.0000:  DF ELEVATION
~Curve Information Block
#MNEM.UNIT                 API CODE     Curve Description
#---------               -----------    ---------------------------
 DEPT.F                 00 000 000 000:  Depth
 CCL .V                 00 000 000 000:  Casing Collar Locator
 NPHI_OH.pu             00 000 000 000:  NPHI_OH
 NPHI_CHI.pu            00 000 000 000:  NPHI_CHI
 GR_CHI.api             00 000 000 000:  GR_CHI
 GR_OH.api              00 000 000 000:  GR_OH
 RHOB_OH.g/cc           00 000 000 000:  RHOB_OH
 RHOB_CHI.g/cc          00 000 000 000:  RHOB_CHI
 PE_CHI.b/e             00 000 000 000:  PE_CHI
 PE_OH.b/e              00 000 000 000:  PE_OH
 DTC_OH.uspf            00 000 000 000:  DTC_OH
 DTC_CHI.uspf           00 000 000 000:  DTC_CHI
 SPHI_CHI.pu            00 000 000 000:  Acou Porosity CHI
 RT10_OH.ohmm           00 000 000 000:  RT10_OH
 RT10_CHI.ohmm          00 000 000 000:  RT10_CHI
 RT30_OH.ohmm           00 000 000 000:  RT30_OH
 RT30_CHI.ohmm          00 000 000 000:  RT30_CHI
 RT90_OH.ohmm           00 000 000 000:  RT90_OH
 RT90_CHI.ohmm          00 000 000 000:  RT90_CHI
 SGF .cu                00 000 000 000:  Formation Sigma
 CRNF.NONE              00 000 000 000:  CM GrsCaptRatio
 RIN .NONE              00 000 000 000:  CM GrsInelRatio
#Other Information
#
#WARRANTY: Halliburton will use its best efforts to furnish customers with 
#accurate information and interpretations that are part of, and incident to, the services 
#provided.  However, Halliburton cannot and does not warrant the accuracy 
#or correctness of such information and interpretations.  Under no circumstances should any 
#such information or interpretation be relied upon as the sole basis for any drilling, 
#completion, production, or financial decision or any procedure involving any risk to the 
#safety of any drilling venture, drilling rig or its crew or any other third party.  The 
#Customer has full responsibility for all drilling, completion and production operation.  
#Halliburton makes no representations or warranties, either expressed or 
#implied, including, but not limited to, the implied warranties of merchantability or fitness 
#for a particular purpose, with respect to the services rendered.  In no event will 
#Halliburton be liable for failure to obtain any particular results or for 
#any damages, including, but not limited to, indirect, special or consequential damages, 
#resulting from the use of any information or interpretation provided by Halliburton.
#
~A    DEPT      CCL   NPHI_OH NPHI_CHI   GR_CHI   GR_OH   RHOB_OH RHOB_CHI  PE_CHI   PE_OH  DTC_OH  DTC_CHI SPHI_CHI RT10_OH  RT10_CHI RT30_OH  RT30_CHI RT90_OH  RT90_CHI   SGF    CRNF   RIN   
# ...
   11362.0000  0.0000 -999.25   11.1833  96.9643  -999.25 -999.25    2.5639  3.9880 -999.25 -999.25 65.7617  12.8400  -999.25  41.8595  -999.25  42.2644  -999.25  45.8654 22.7947 0.9799 1.0426
   11362.5000  0.0000 -999.25   11.4282 105.1266  -999.25 -999.25    2.5623  3.9658 -999.25 -999.25 65.9057  12.9500  -999.25  42.1950  -999.25  43.0628  -999.25  46.7776 22.6432 0.9748 1.0425
   11363.0000  0.0000 -999.25   11.6333 113.2267  -999.25 -999.25    2.5612  3.9496 -999.25 -999.25 66.0399  13.0400  -999.25  42.4073  -999.25  43.6956  -999.25  47.4911 22.4954 0.9708 1.0435
   11363.5000  0.0000 -999.25   11.3593 106.5974  -999.25 -999.25    2.5638  3.9994 -999.25 -999.25 65.6820  12.7900  -999.25  42.2008  -999.25  43.2035  -999.25  46.9322 22.2586 0.9658 1.0458
   11364.0000  0.0000 -999.25   11.4452 113.3910  -999.25 -999.25    2.5637  3.9847 -999.25 -999.25 65.5276  12.6800  -999.25  42.4979  -999.25  43.8946  -999.25  47.7293 21.9575 0.9591 1.0466
   11364.5000  0.0000 -999.25   11.2332 109.0091  -999.25 -999.25    2.5657  4.0223 -999.25 -999.25 65.1593  12.4200  -999.25  42.4912  -999.25  43.7957  -999.25  47.6355 21.7309 0.9543 1.0476
   11365.0000  0.0000 -999.25   11.4608 115.9693  -999.25 -999.25    2.5634  3.9781 -999.25 -999.25 65.1425  12.4100  -999.25  43.1915  -999.25  45.1572  -999.25  49.2527 21.6161 0.9462 1.0428
   11365.5000  0.0000 -999.25   10.9601 100.0338  -999.25 -999.25    2.5665  4.0438 -999.25 -999.25 64.5520  11.9900  -999.25  43.4840  -999.25  45.1266  -999.25  49.3245 21.4710 0.9428 1.0367
   11366.0000  0.0000 -999.25   10.6747  91.4480  -999.25 -999.25    2.5679  4.0737 -999.25 -999.25 64.2903  11.8000  -999.25  43.8259  -999.25  45.4410  -999.25  49.7805 21.3921 0.9376 1.0298
   11366.5000  0.0000 -999.25   10.7327  94.9094  -999.25 -999.25    2.5670  4.0484 -999.25 -999.25 64.0429  11.6300  -999.25  44.5631  -999.25  46.7356  -999.25  51.3578 21.3197 0.9350 1.0240
   11367.0000  0.0000 -999.25   10.6637  94.8966  -999.25 -999.25    2.5677  4.0572 -999.25 -999.25 63.8589  11.5000  -999.25  44.7291  -999.25  47.0000  -999.25  51.6834 21.4430 0.9354 1.0236
   11367.5000  0.0000 -999.25   10.7065  98.6626  -999.25 -999.25    2.5676  4.0448 -999.25 -999.25 63.6417  11.3400  -999.25  45.0812  -999.25  47.6577  -999.25  52.4653 21.7114 0.9393 1.0233
   11368.0000  0.0000 -999.25   10.3638  93.2573  -999.25 -999.25    2.5711  4.0963 -999.25 -999.25 63.3110  11.1100  -999.25  44.7512  -999.25  46.9189  -999.25  51.5892 21.9699 0.9470 1.0272
   11368.5000  0.0000 -999.25   10.3207  92.8448  -999.25 -999.25    2.5715  4.0943 -999.25 -999.25 63.2891  11.1000  -999.25  44.5241  -999.25  46.4898  -999.25  51.0638 22.1202 0.9591 1.0294
   11369.0000  0.0000 -999.25   10.4041  92.1144  -999.25 -999.25    2.5702  4.0720 -999.25 -999.25 63.5489  11.2800  -999.25  44.3446  -999.25  46.1797  -999.25  50.6964 22.3176 0.9680 1.0279
   11369.5000  0.0000 -999.25   10.7642  96.7946  -999.25 -999.25    2.5668  4.0189 -999.25 -999.25 64.0791  11.6500  -999.25  44.2059  -999.25  46.0991  -999.25  50.5651 22.4854 0.9753 1.0275
   11370.0000  0.0000 -999.25   11.1252  98.7731  -999.25 -999.25    2.5629  3.9686 -999.25 -999.25 64.8463  12.2000  -999.25  43.8621  -999.25  45.6493  -999.25  50.0051 22.7942 0.9846 1.0258
   11370.5000  0.0000 -999.25   11.2831  98.4830  -999.25 -999.25    2.5613  3.9523 -999.25 -999.25 65.3239  12.5300  -999.25  43.4513  -999.25  44.9999  -999.25  49.2116 23.0717 0.9890 1.0266
   11371.0000  0.0000 -999.25   11.6793 106.6349  -999.25 -999.25    2.5579  3.8893 -999.25 -999.25 65.9025  12.9400  -999.25  43.3457  -999.25  45.0235  -999.25  49.1839 23.1503 0.9899 1.0273
   11371.5000  0.0000 -999.25   11.5997  97.7176  -999.25 -999.25    2.5576  3.9028 -999.25 -999.25 66.2649  13.2000  -999.25  42.6550  -999.25  43.7480  -999.25  47.7004 23.0861 0.9895 1.0260
   11372.0000  0.0000 -999.25   11.8091 100.5931  -999.25 -999.25    2.5555  3.8705 -999.25 -999.25 66.6063  13.4400  -999.25  42.6401  -999.25  43.8253  -999.25  47.7800 22.8415 0.9813 1.0244
   11372.5000  0.0000 -999.25   12.1826 110.4454  -999.25 -999.25    2.5522  3.8094 -999.25 -999.25 66.9467  13.6800  -999.25  43.1059  -999.25  44.8355  -999.25  48.9467 22.6561 0.9763 1.0217
   11373.0000  0.0000 -999.25   12.0240 106.4170  -999.25 -999.25    2.5538  3.8493 -999.25 -999.25 66.7699  13.5600  -999.25  43.0071  -999.25  44.5800  -999.25  48.6532 22.6523 0.9740 1.0234
   11373.5000  0.0000 -999.25   11.4841  96.1059  -999.25 -999.25    2.5589  3.9348 -999.25 -999.25 66.0219  13.0300  -999.25  42.8747  -999.25  44.0757  -999.25  48.1020 22.9206 0.9840 1.0261
   11374.0000  0.0000 -999.25   11.7366 108.9030  -999.25 -999.25    2.5578  3.8920 -999.25 -999.25 65.9597  12.9800  -999.25  43.3598  -999.25  45.1144  -999.25  49.2717 23.2286 0.9908 1.0289
   11374.5000  0.0000 -999.25   11.4356 100.2504  -999.25 -999.25    2.5598  3.9209 -999.25 -999.25 65.6896  12.7900  -999.25  43.0948  -999.25  44.4446  -999.25  48.5248 23.6172 0.9901 1.0278
   11375.0000  0.0000 -999.25   11.8710 105.4333  -999.25 -999.25    2.5551  3.8468 -999.25 -999.25 66.4649  13.3400  -999.25  42.9706  -999.25  44.4385  -999.25  48.4971 23.7567 0.9813 1.0239
   11375.5000  0.0000 -999.25   12.3095 112.0856  -999.25 -999.25    2.5503  3.7580 -999.25 -999.25 67.1545  13.8300  -999.25  42.9954  -999.25  44.7351  -999.25  48.8400 23.8203 0.9727 1.0182
   11376.0000  0.0000 -999.25   12.0770 103.2307  -999.25 -999.25    2.5514  3.7809 -999.25 -999.25 66.9728  13.7000  -999.25  42.5869  -999.25  43.9755  -999.25  47.9983 23.7716 0.9691 1.0159
   11376.5000  0.0000 -999.25   12.0713 108.1286  -999.25 -999.25    2.5518  3.7614 -999.25 -999.25 66.6288  13.4600  -999.25  43.0581  -999.25  44.8003  -999.25  48.9750 23.8228 0.9772 1.0153
   11377.0000  0.0000 -999.25   11.9668 110.5523  -999.25 -999.25    2.5532  3.7671 -999.25 -999.25 66.1831  13.1400  -999.25  43.4604  -999.25  45.4319  -999.25  49.7245 23.9365 0.9829 1.0162
   11377.5000  0.0000 -999.25   11.4948  99.0518  -999.25 -999.25    2.5569  3.8345 -999.25 -999.25 65.7317  12.8200  -999.25  42.9817  -999.25  44.4446  -999.25  48.6111 23.9953 0.9857 1.0168
   11378.0000  0.0000 -999.25   11.7265 101.7821  -999.25 -999.25    2.5550  3.8096 -999.25 -999.25 66.2074  13.1600  -999.25  42.7751  -999.25  44.1587  -999.25  48.2349 24.0712 0.9888 1.0180
   11378.5000  0.0000 -999.25   11.6714  97.7070  -999.25 -999.25    2.5554  3.8295 -999.25 -999.25 66.3927  13.2900  -999.25  42.3485  -999.25  43.3902  -999.25  47.3213 24.0624 0.9902 1.0197
   11379.0000  0.0000 -999.25   11.5910  94.6053  -999.25 -999.25    2.5561  3.8475 -999.25 -999.25 66.4415  13.3200  -999.25  42.0489  -999.25  42.8344  -999.25  46.6619 24.0178 0.9906 1.0214
   11379.5000  0.0000 -999.25   11.6713  96.0203  -999.25 -999.25    2.5557  3.8447 -999.25 -999.25 66.5988  13.4400  -999.25  42.0083  -999.25  42.7653  -999.25  46.5587 23.9710 0.9906 1.0228
   11380.0000  0.0000 -999.25   11.7799  98.0187  -999.25 -999.25    2.5547  3.8306 -999.25 -999.25 66.7312  13.5300  -999.25  42.0950  -999.25  42.9589  -999.25  46.7806 24.0302 0.9860 1.0220
   11380.5000  0.0000 -999.25   11.8562  99.5690  -999.25 -999.25    2.5540  3.8195 -999.25 -999.25 66.8047  13.5800  -999.25  42.1950  -999.25  43.1656  -999.25  47.0226 23.9663 0.9863 1.0211
   11381.0000  0.0000 -999.25   11.7382  94.6973  -999.25 -999.25    2.5544  3.8299 -999.25 -999.25 66.7490  13.5400  -999.25  41.9524  -999.25  42.7571  -999.25  46.5742 24.0280 0.9935 1.0193
   11381.5000  0.0000 -999.25   11.6239  93.6246  -999.25 -999.25    2.5554  3.8407 -999.25 -999.25 66.4995  13.3700  -999.25  42.0879  -999.25  42.9558  -999.25  46.8274 24.0253 0.9985 1.0186
   11382.0000  0.0000 -999.25   11.6799  95.3122  -999.25 -999.25    2.5550  3.8302 -999.25 -999.25 66.5486  13.4000  -999.25  42.1169  -999.25  43.0268  -999.25  46.9020 24.0416 1.0051 1.0188
   11382.5000  0.0000 -999.25   11.8637  97.1341  -999.25 -999.25    2.5534  3.8174 -999.25 -999.25 66.9387  13.6800  -999.25  41.9782  -999.25  42.8303  -999.25  46.6406 24.0453 1.0034 1.0198
