###############################################
##         ENVERUS                           ##
##         ESS - Open Hole                   ##
##         PERMIAN / DELAWARE                ##
##         Nov 04 2023  V4.0                 ##
##         42-389-32421-01-00                ##
###############################################
## Copyright 2017-2023  ENVERUS.  All Rights Reserved. 
## Confidential - Property of ENVERUS, use governed by terms and 
## conditions found within the existing Information Services Subscription Agreement 
## (as may be amended, the “ISSA”) between Customer and ENVERUS. 
## 
~VERSION INFORMATION
# MNEM.UNIT                               DATA : DESCRIPTION OF MNEMONIC
#-----.-----     ----------------------------- : -----------------------------
VERS.                                     2.00 : CWLS LOG ASCII STANDARD - VERSION 2.00
WRAP.                                       NO : MULTIPLE LINES PER DEPTH STEP
VEND.                                  ENVERUS : VENDOR
TYPE.                          ESS - OPEN HOLE : ENVERUS ESSENTIAL CURVES – ACCESSIBLE THROUGH ENVERUS PRISM(TM)
DOC.                                  51227099 : ENVERUS HEADER RAW DOCUMENT ID
#___________________________________________________________________________________________________ 
~WELL INFORMATION 
# zrraAS4ibxVPgm4F4FjILRFQbgMcjf5VKWH9QXz9oP+5l3DBeEvHFHP9dTNjNwXm2+WMaTXZz7qhRLDoyN0AVg== 
# MNEM.UNIT                                              DATA : DESCRIPTION OF MNEMONIC 
#-----.-----                    ----------------------------- : ----------------------------- 
CNTY.                                                  REEVES : COUNTY 
STATE.                                                  TEXAS : STATE 
CNTRY.                                                    USA : COUNTRY 
API.                                             42-389-32421 : API (10 Digit) 
API_14.                                    42-389-32421-01-00 : API (14 Digits) 
API_14_std.                                 42-389-32421-0100 : API (14 Digits Standard) 
UWI.                                           42389324210100 : UNIQUE WELL ID 
WELL.                                      ARMSTRONG STATE #1 : WELL NAME
STRT.FT                                                2000.0 : START DEPTH
STOP.FT                                               14700.0 : STOP DEPTH
STEP.FT                                                   0.5 : STEP BETWEEN DEPTHS
NULL.                                                 -999.25 : NULL VALUE
COMP.                                   BULLDOG OPERATING CO. : COMPANY 
FLD.                                                  WILDCAT : FIELD 
LOC.                                                3-59-2778 : LOCATION 
SRVC.                                            SCHLUMBERGER : SERVICE COMPANY 
DATE.                                              08/28/2006 : DATE 
PREV_APII.                                       423893242100 : API NUMBER 
PREV_UWI.                                        423893242100 : UWI NUMBER 
TVD.                                                       NO : TVD FLAG
#___________________________________________________________________________________________________ 
~PARAMETER INFORMATION 
# MNEM.UNIT                                              DATA : DESCRIPTION OF MNEMONIC 
#-----.-----                    ----------------------------- : ----------------------------- 
RUN.                                                      ONE : RUN NUMBER 
PDAT.                                                      GL : PERMANENT DATUM 
EPD.FT                                              3134.8000 : ELEVATION OF PERM. DATUM 
LMF.                                            KELLY BUSHING : LOG MEASURED FROM 
EKB.FT                                              3157.8000 : ELEVATION OF KELLY BUSHING 
DF.FT                                               3156.8000 : ELEVATION OF DERRICK FLOOR 
GL.FT                                               3134.8000 : ELEVATION OF GROUND LEVEL 
TD.FT                                              14700.0000 : TOTAL DEPTH 
BHT.DEGF                                               230.00 : BOTTOM HOLE TEMPERATURE 
BLI.FT                                             14700.0000 : BOTTOM LOG INTERVAL 
CSGSIZE.IN                                             9.6250 : CASING SIZE 
BITSIZE.IN                                              8.750 : BITSIZE 
CSGD.FT                                                  2014 : CASING BOTTOM (DRILLER) 1 
CSGL.FT                                                  2014 : CASING BOTTOM (LOGGER) 1 
MUD.                                                    BRINE : DRILLING FLUID TYPE 
MUDV.CP                                               31.0000 : DRILLING FLUID VISCOSITY 
MUDD.LB/USG                                            9.3000 : DRILLING FLUID DENSITY 
FL.ML/30MIN                                           13.0000 : DRILLING FLUID LOSS 
PH.                                                   10.0000 : DRILLING FLUID PH 
MUDS.                                        CIRCULATION TANK : MUD SAMPLE SOURCE 
RM.OHMM                                                0.0540 : RESISTIVITY OF MUD SAMPLE 
RMT.DEGF                                              90.0000 : MUD SAMPLE TEMPERATURE 
RMF.OHMM                                               0.0640 : MUD FILTRATE RESISTIVITY 
RMFT.DEGF                                             80.0000 : MUD FILTRATE SAMPLE TEMPERATURE
#___________________________________________________________________________________________________ 
~CURVE INFORMATION 
# MNEM.UNIT           : CURVE DESCRIPTION 
#-----.-----          : ----------------------------- 
 DEPT.FT               : MEASURED DEPTH 
 DT.US/FT              : SONIC DELTA TRANSIT TIME (DELTA T) 
 SPHI.V/V              : SONIC POROSITY (SONIC POROSITY) 
 #___________________________________________________________________________________________________ 
~A         DEPT             DT           SPHI
# ...
         5393.0         64.849        0.13300
         5393.5         67.022        0.14200
         5394.0         68.471        0.15300
         5394.5         66.660        0.14400
         5395.0         65.453        0.13300
         5395.5         66.056        0.13700
         5396.0         66.069        0.13600
         5396.5         65.755        0.13300
         5397.0         65.440        0.13100
         5397.5         65.305        0.13200
         5398.0         65.439        0.13300
         5398.5         65.573        0.13400
         5399.0         65.708        0.13500
         5399.5         65.842        0.13600
         5400.0         65.976        0.13700
         5400.5         65.965        0.13600
         5401.0         65.736        0.13400
         5401.5         65.508        0.13300
         5402.0         65.284        0.13100
         5402.5         65.054        0.13100
         5403.0         65.304        0.13200
         5403.5         65.557        0.13300
         5404.0         65.708        0.13300
         5404.5         65.790        0.13400
         5405.0         65.869        0.13500
         5405.5         65.946        0.13500
         5406.0         66.056        0.13500
         5406.5         68.873        0.16000
         5407.0         71.690        0.17700
         5407.5         68.672        0.15200
         5408.0         65.654        0.13600
         5408.5         65.691        0.13500
         5409.0         65.736        0.13400
         5409.5         65.782        0.13300
         5410.0         65.828        0.13500
         5410.5         65.805        0.13500
         5411.0         65.679        0.13400
         5411.5         65.553        0.13300
         5412.0         65.453        0.13400
         5412.5         65.884        0.13600
         5413.0         66.243        0.13700
         5413.5         66.291        0.13800
         5414.0         65.872        0.13600
         5414.5         65.453        0.13400
         5415.0         66.207        0.13900
         5415.5         66.373        0.14300
         5416.0         65.654        0.13500
         5416.5         64.935        0.12700
         5417.0         64.889        0.12900
         5417.5         65.292        0.13100
         5418.0         65.343        0.13000
         5418.5         65.160        0.13000
         5419.0         64.977        0.13000
         5419.5         64.794        0.12900
         5420.0         64.648        0.12900
         5420.5         66.861        0.14400
         5421.0         68.706        0.15700
         5421.5         70.550        0.17000
         5422.0         71.288        0.17400
         5422.5         71.288        0.17400
         5423.0         69.276        0.16200
         5423.5         67.264        0.14900
         5424.0         65.654        0.13400
         5424.5         65.654        0.13000
         5425.0         66.962        0.14000
         5425.5         69.063        0.15000
         5426.0         68.132        0.15700
         5426.5         66.535        0.14300
         5427.0         64.934        0.13100
         5427.5         63.332        0.11900
         5428.0         62.051        0.10900
         5428.5         62.320        0.10700
         5429.0         62.544        0.10900
         5429.5         62.748        0.11200
         5430.0         62.052        0.11500
         5430.5         60.744        0.10100
         5431.0         59.437        0.09000
         5431.5         58.129        0.08000
         5432.0         57.706        0.07500
         5432.5         58.410        0.08600
         5433.0         59.899        0.09600
         5433.5         61.409        0.10500
         5434.0         62.921        0.11500
         5434.5         64.433        0.12400
         5435.0         64.488        0.12800
         5435.5         64.544        0.12700
         5436.0         64.599        0.12700
         5436.5         64.654        0.12700
         5437.0         64.707        0.12600
         5437.5         64.759        0.12600
         5438.0         64.811        0.12700
         5438.5         64.863        0.12800
         5439.0         64.915        0.12800
         5439.5         64.967        0.12900
         5440.0         65.019        0.13000
         5440.5         65.117        0.13100
         5441.0         65.279        0.13100
         5441.5         65.446        0.13100
         5442.0         65.027        0.13000
         5442.5         64.608        0.12900
         5443.0         64.473        0.12700
         5443.5         64.526        0.12600
         5444.0         64.579        0.12500
         5444.5         64.630        0.12500
         5445.0         64.467        0.12400
         5445.5         64.165        0.12200
         5446.0         63.863        0.12000
         5446.5         63.561        0.11800
         5447.0         63.260        0.11600
         5447.5         62.958        0.11400
         5448.0         63.702        0.12300
         5448.5         65.144        0.13200
         5449.0         66.586        0.14100
         5449.5         68.028        0.15000
         5450.0         69.470        0.16000
         5450.5         70.912        0.16900
         5451.0         71.338        0.17600
         5451.5         71.087        0.17300
         5452.0         68.446        0.15500
         5452.5         65.805        0.13700
         5453.0         62.636        0.11900
         5453.5         62.233        0.10700
         5454.0         61.730        0.10300
         5454.5         61.227        0.10100
         5455.0         60.825        0.10000
         5455.5         61.429        0.11200
         5456.0         63.541        0.12700
         5456.5         65.654        0.13500
         5457.0         66.056        0.13400
         5457.5         65.108        0.13200
         5458.0         64.317        0.12700
         5458.5         64.044        0.12100
         5459.0         64.547        0.12500
         5459.5         65.050        0.12900
         5460.0         64.994        0.12900
         5460.5         64.938        0.12800
         5461.0         64.885        0.12600
         5461.5         64.507        0.12300
         5462.0         63.644        0.11900
         5462.5         62.779        0.11400
         5463.0         62.249        0.11100
         5463.5         61.942        0.10700
         5464.0         61.650        0.10300
         5464.5         61.348        0.10200
         5465.0         61.659        0.10500
         5465.5         62.377        0.11100
         5466.0         63.239        0.11600
         5466.5         63.105        0.11400
         5467.0         62.938        0.11300
         5467.5         62.978        0.11500
         5468.0         63.322        0.11600
         5468.5         63.676        0.11800
         5469.0         64.027        0.11900
         5469.5         64.639        0.12700
         5470.0         65.642        0.13400
         5470.5         66.648        0.14000
         5471.0         67.455        0.14400
         5471.5         67.056        0.14400
         5472.0         66.559        0.14100
         5472.5         65.788        0.13600
         5473.0         64.614        0.12900
         5473.5         63.441        0.12300
         5474.0         63.642        0.11500
         5474.5         62.377        0.10800
         5475.0         60.796        0.09900
         5475.5         59.215        0.08800
         5476.0         59.618        0.09400
         5476.5         61.093        0.10500
         5477.0         62.938        0.11500
         5477.5         64.547        0.12600
         5478.0         65.805        0.13700
         5478.5         67.062        0.14700
         5479.0         68.320        0.15600
         5479.5         69.024        0.15800
