#--------------------------------------------------#
#-------------------ENVERUS, INC.------------------#
#------------------WWW.ENVERUS.COM-----------------#
#------------------COPYRIGHT 2020------------------#
#--------------------------------------------------#
#THIS FILE MAY BE USED ONLY IN ACCORDANCE WITH A CURRENT SUBSCRIPTION AGREEMENT BETWEEN
#THE USER AND ENVERUS, INC. NO PART OF THIS FILE MAY BE REPRODUCED, USED, COPIED,
#MODIFIED, PROPAGATED, OR DISTRIBUTED EXCEPT IN ACCORDANCE WITH THE SUBSCRIPTION
#AGREEMENT. UNAUTHORIZED USE OR DISTRIBUTION OF ALL OR ANY PART OF THIS FILE MAY VIOLATE
#COPYRIGHT, TRADEMARK, AND/OR OTHER LAWS AND IS SUBJECT TO CIVIL AS WELL AS CRIMINAL
#SANCTIONS.
#--------------------------------------------------#
#THIS FILE IS PROVIDED "AS-IS" AND ALL WARRANTIES ARE EXPRESSLY DISCLAIMED, WHETHER
#EXPRESS, ORAL, IMPLIED, STATUTORY OR OTHERWISE, INCLUDING ANY IMPLIED WARRANTY OF FITNESS
#FOR A PARTICULAR PURPOSE, MERCHANTABILITY, TITLE OR NON-INFRINGEMENT, AND ANY WARRANTIES
#ARISING BY VIRTUE OF CUSTOM OF TRADE OR COURSE OF DEALING.  FURTHER, ENVERUS, INC.
#AND ITS LICENSORS DO NOT REPRESENT OR WARRANT THAT THIS FILE WILL MEET USER'S
#REQUIREMENTS OR ARE SUITABLE FOR USER'S NEEDS OR THAT THE DATA OR RESULTS PROVIDED IN
#CONJUNCTION THEREWITH ARE CORRECT, ACCURATE, TIMELY OR RELIABLE. THESE DISCLAIMERS SHALL
#APPLY REGARDLESS OF ANY FAILURE OF ESSENTIAL PURPOSE OF ANY LIMITED REMEDY.  SOME
#JURISDICTIONS DO NOT ALLOW THE EXCLUSION OF CERTAIN WARRANTIES SO SOME OF THE ABOVE
#EXCLUSIONS MAY NOT APPLY. IN NO EVENT SHALL ENVERUS, INC. OR ANY OF ITS AFFILIATES
#BE LIABLE UNDER ANY LEGAL THEORY, WHETHER IN TORT (INCLUDING WITHOUT LIMITATION
#NEGLIGENCE), CONTRACT, STRICT LIABILITY, STATUTORY OR OTHERWISE, FOR ANY SPECIAL,
#INCIDENTAL, CONSEQUENTIAL, EXEMPLARY, PUNITIVE OR INDIRECT DAMAGE OF ANY KIND, INCLUDING
#WITHOUT LIMITATION LOSS OF REVENUE, PROFITS, GOODWILL, USE, AND/OR DATA OR THE COST OF
#PROCUREMENT OF SUBSTITUTE GOODS OR SERVICES, EVEN IF APPRISED OF THE POSSIBILITY OF SUCH
#DAMAGES IN ADVANCE.
#--------------------------------------------------#

~VERSION INFORMATION
VERS. 2.0 : CWLS LOG ASCII STANDARD - VERSION 2.0
WRAP.  NO : ONE LINE PER DEPTH STEP
~WELL INFORMATION
#MNEMONIC     .UNIT              VALUE :DESCRIPTION
STRT       .FT                0 :START DEPTH
STOP       .FT                3396 :STOP DEPTH
STEP       .FT                   0.500 :STEP
NULL       .                  -999.250 :NULL
UWI        .              42389305140000 :UNIQUE WELL ID
API        .              42389305140000 :API NUMBER
COMP       .         SLEDGE BROS. OIL CO. :COMPANY
WELL       .        BOLLINGER  5 :WELL
DATE       .                            :LOG DATE
~CURVE INFORMATION
#MNEMONIC     .UNIT      API CODE :CURVE DESCRIPTION
DEPTH       .FT                      :MEASURED DEPTH
ILS.OHM        UNKNOWN   :ILS
GR.API        UNKNOWN   :GR
DT.US/FT        UNKNOWN   :DT
CAL.INCH        UNKNOWN   :CAL
ILD.OHM        UNKNOWN   :ILD
~A    DEPTH    ILS    GR    DT    CAL    ILD
# ...
 2633     -999.250   7.27   49.81   7.036   -999.250
 2633.5     -999.250   6.644   49.541   7.04   -999.250
 2634     -999.250   6.152   49.273   7.045   -999.250
 2634.5     -999.250   6.768   48.874   7.049   -999.250
 2635     -999.250   7.384   48.472   7.053   -999.250
 2635.5     -999.250   8.001   48.07   7.058   -999.250
 2636     -999.250   8.617   47.667   7.062   -999.250
 2636.5     -999.250   9.233   47.869   7.066   -999.250
 2637     -999.250   9.223   48.165   7.071   -999.250
 2637.5     -999.250   8.849   48.35   7.075   -999.250
 2638     -999.250   8.475   48.247   7.079   -999.250
 2638.5     -999.250   8.101   48.144   7.084   -999.250
 2639     -999.250   7.727   48.042   7.088   -999.250
 2639.5     -999.250   7.353   48.25   7.092   -999.250
 2640     -999.250   6.827   48.459   7.097   -999.250
 2640.5     -999.250   6.267   48.667   7.1   -999.250
 2641     -999.250   6.43   48.952   7.1   -999.250
 2641.5     -999.250   7.004   49.265   7.1   -999.250
 2642     -999.250   7.535   49.31   7.1   -999.250
 2642.5     -999.250   7.289   49.237   7.1   -999.250
 2643     -999.250   7.043   49.165   7.1   -999.250
 2643.5     -999.250   6.797   49.092   7.099   -999.250
 2644     -999.250   7.103   49.02   7.107   -999.250
 2644.5     -999.250   7.61   48.948   7.114   -999.250
 2645     -999.250   7.589   48.876   7.121   -999.250
 2645.5     -999.250   7.491   48.804   7.128   -999.250
 2646     -999.250   7.442   48.732   7.135   -999.250
 2646.5     -999.250   8.016   48.846   7.142   -999.250
 2647     -999.250   8.591   48.968   7.15   -999.250
 2647.5     -999.250   8.883   49.09   7.157   -999.250
 2648     -999.250   8.882   49.212   7.164   -999.250
 2648.5     -999.250   8.371   49.335   7.171   -999.250
 2649     -999.250   7.796   49.302   7.178   -999.250
 2649.5     -999.250   7.795   49.01   7.185   -999.250
 2650     -999.250   8.946   48.717   7.193   -999.250
 2650.5     -999.250   10.192   48.711   7.2   -999.250
 2651     -999.250   10.057   48.733   7.207   -999.250
 2651.5     -999.250   9.704   48.755   7.214   -999.250
 2652     -999.250   9.506   48.777   7.221   -999.250
 2652.5     -999.250   10.086   48.983   7.228   -999.250
 2653     -999.250   10.666   48.81   7.236   -999.250
 2653.5     -999.250   10.635   48.545   7.243   -999.250
 2654     -999.250   9.584   48.279   7.25   -999.250
 2654.5     -999.250   8.534   48.085   7.256   -999.250
 2655     -999.250   8.059   48.235   7.262   -999.250
 2655.5     -999.250   8.9   48.384   7.267   -999.250
 2656     -999.250   9.806   48.53   7.273   -999.250
 2656.5     -999.250   10.371   48.578   7.279   -999.250
 2657     -999.250   9.958   48.626   7.284   -999.250
 2657.5     -999.250   9.694   48.673   7.29   -999.250
 2658     -999.250   9.801   48.721   7.296   -999.250
 2658.5     -999.250   9.908   48.763   7.301   -999.250
 2659     -999.250   8.977   48.801   7.307   -999.250
 2659.5     -999.250   7.786   48.838   7.313   -999.250
 2660     -999.250   6.917   48.875   7.318   -999.250
 2660.5     -999.250   6.906   48.912   7.324   -999.250
 2661     -999.250   8.62   48.949   7.329   -999.250
 2661.5     -999.250   10.335   48.987   7.335   -999.250
 2662     -999.250   10.736   49.025   7.341   -999.250
 2662.5     -999.250   8.813   49.065   7.346   -999.250
 2663     -999.250   6.891   49.104   7.352   -999.250
 2663.5     -999.250   4.968   49.144   7.358   -999.250
 2664     -999.250   4.558   49.127   7.363   -999.250
 2664.5     -999.250   6.169   48.91   7.369   -999.250
 2665     -999.250   7.779   48.693   7.375   -999.250
 2665.5     -999.250   9.362   48.51   7.38   -999.250
 2666     -999.250   9.062   48.362   7.386   -999.250
 2666.5     -999.250   8.762   48.214   7.391   -999.250
 2667     -999.250   8.462   48.167   7.397   -999.250
 2667.5     -999.250   8.161   48.314   7.403   -999.250
 2668     -999.250   7.899   48.458   7.408   -999.250
 2668.5     -999.250   8.759   48.458   7.414   -999.250
 2669     -999.250   9.618   48.459   7.42   -999.250
 2669.5     -999.250   10.478   48.459   7.431   -999.250
 2670     -999.250   10.819   48.46   7.444   -999.250
 2670.5     -999.250   10.445   48.461   7.457   -999.250
 2671     -999.250   10.071   48.461   7.47   -999.250
 2671.5     -999.250   9.697   48.514   7.483   -999.250
 2672     -999.250   9.673   48.573   7.496   -999.250
 2672.5     -999.250   9.744   48.632   7.509   -999.250
 2673     -999.250   9.18   48.691   7.522   -999.250
 2673.5     -999.250   8.561   48.75   7.534   -999.250
 2674     -999.250   9.384   48.809   7.547   -999.250
 2674.5     -999.250   10.286   48.857   7.56   -999.250
 2675     -999.250   11.189   48.885   7.573   -999.250
 2675.5     -999.250   11.505   48.912   7.586   -999.250
 2676     -999.250   11.767   48.953   7.606   -999.250
 2676.5     -999.250   11.559   49.047   7.631   -999.250
 2677     -999.250   10.26   49.14   7.655   -999.250
 2677.5     -999.250   8.961   49.233   7.68   -999.250
 2678     -999.250   9.001   49.326   7.704   -999.250
 2678.5     -999.250   10.532   49.485   7.729   -999.250
 2679     -999.250   11.622   49.975   7.753   -999.250
 2679.5     -999.250   11.553   50.464   7.777   -999.250
 2680     -999.250   10.015   50.159   7.802   -999.250
 2680.5     -999.250   8.478   50.34   7.826   -999.250
 2681     -999.250   7.452   50.674   7.851   -999.250
 2681.5     -999.250   8.172   50.734   7.875   -999.250
 2682     -999.250   8.893   50.69   7.9   -999.250
 2682.5     -999.250   9.205   50.624   7.924   -999.250
 2683     -999.250   8.157   50.572   7.949   -999.250
 2683.5     -999.250   7.11   50.774   7.985   -999.250
 2684     -999.250   6.062   50.553   8.041   -999.250
 2684.5     -999.250   5.903   50.645   8.097   -999.250
 2685     -999.250   6.696   51.129   8.153   -999.250
 2685.5     -999.250   7.49   50.316   8.209   -999.250
 2686     -999.250   7.523   48.702   8.265   -999.250
 2686.5     -999.250   7.03   47.079   8.365   -999.250
 2687     -999.250   6.537   46.126   8.594   -999.250
 2687.5     -999.250   6.044   40.865   8.824   -999.250
 2688     -999.250   5.551   40.085   9.788   -999.250
 2688.5     -999.250   5.108   45.246   11.014   -999.250
 2689     -999.250   5.194   54.655   11.567   -999.250
 2689.5     -999.250   5.595   67.073   11.596   -999.250
 2690     -999.250   6.274   72.689   12.211   -999.250
 2690.5     -999.250   6.953   68.15   13.087   -999.250
 2691     -999.250   6.986   67.265   13.826   -999.250
 2691.5     -999.250   6.462   69.483   13.945   -999.250
 2692     -999.250   5.721   67.804   13.688   -999.250
 2692.5     -999.250   4.981   66.67   13.442   -999.250
 2693     -999.250   4.24   68.28   13.448   -999.250
 2693.5     -999.250   3.566   66.661   13.684   -999.250
 2694     -999.250   3.327   64.299   13.826   -999.250
 2694.5     -999.250   4.922   65.561   13.728   -999.250
 2695     -999.250   6.532   65.306   13.63   -999.250
 2695.5     -999.250   6.701   66.099   13.639   -999.250
 2696     -999.250   6.327   66.834   13.67   -999.250
 2696.5     -999.250   5.953   67.435   13.597   -999.250
 2697     -999.250   6.302   76.079   13.603   -999.250
 2697.5     -999.250   6.809   69.506   13.716   -999.250
 2698     -999.250   6.356   68.255   13.538   -999.250
 2698.5     -999.250   5.861   68.638   13.05   -999.250
 2699     -999.250   5.367   65.941   12.901   -999.250
 2699.5     -999.250   4.99   64.593   12.797   -999.250
 2700     -999.250   5.5   61.91   12.853   -999.250
 2700.5     -999.250   6.01   66.365   13.093   -999.250
 2701     -999.250   5.775   71.632   13.523   -999.250
 2701.5     -999.250   5.275   74.419   13.475   -999.250
 2702     -999.250   4.776   70.813   12.751   -999.250
 2702.5     -999.250   4.652   65.47   11.69   -999.250
 2703     -999.250   5.963   64.272   11.393   -999.250
 2703.5     -999.250   6.81   60.541   11.805   -999.250
 2704     -999.250   6.18   56.533   12.31   -999.250
 2704.5     -999.250   5.177   60.65   12.816   -999.250
