###############################################
##         ENVERUS                           ##
##         ESS - Open Hole                   ##
##         PERMIAN / DELAWARE                ##
##         Nov 04 2023  V4.0                 ##
##         42-389-30422-00-00                ##
###############################################
## Copyright 2017-2023  ENVERUS.  All Rights Reserved. 
## Confidential - Property of ENVERUS, use governed by terms and 
## conditions found within the existing Information Services Subscription Agreement 
## (as may be amended, the “ISSA”) between Customer and ENVERUS. 
## 
~VERSION INFORMATION
# MNEM.UNIT                               DATA : DESCRIPTION OF MNEMONIC
#-----.-----     ----------------------------- : -----------------------------
VERS.                                     2.00 : CWLS LOG ASCII STANDARD - VERSION 2.00
WRAP.                                       NO : MULTIPLE LINES PER DEPTH STEP
VEND.                                  ENVERUS : VENDOR
TYPE.                          ESS - OPEN HOLE : ENVERUS ESSENTIAL CURVES – ACCESSIBLE THROUGH ENVERUS PRISM(TM)
DOC.                                  31749874 : ENVERUS HEADER RAW DOCUMENT ID
#___________________________________________________________________________________________________ 
~WELL INFORMATION 
# u82sU1u0B8de5w9HEAjaYOtqLlVzfD+KUeD2ZoqivGgiUzwSeb1LYInaR9MNeJxDUIxxjb7EPbXz9g+KH10l6Q== 
# MNEM.UNIT                                              DATA : DESCRIPTION OF MNEMONIC 
#-----.-----                    ----------------------------- : ----------------------------- 
CNTY.                                                  REEVES : COUNTY 
STATE.                                                  TEXAS : STATE 
CNTRY.                                                    USA : COUNTRY 
API.                                             42-389-30422 : API (10 Digit) 
API_14.                                    42-389-30422-00-00 : API (14 Digits) 
API_14_std.                                 42-389-30422-0000 : API (14 Digits Standard) 
UWI.                                           42389304220000 : UNIQUE WELL ID 
WELL.                                    BECKHAM  AGNES 26  1 : WELL NAME
STRT.FT                                                  89.0 : START DEPTH
STOP.FT                                               15719.0 : STOP DEPTH
STEP.FT                                                   0.5 : STEP BETWEEN DEPTHS
NULL.                                                 -999.25 : NULL VALUE
COMP.                                     WALSH & WATTS  INC. : COMPANY
#___________________________________________________________________________________________________ 
~CURVE INFORMATION 
# MNEM.UNIT           : CURVE DESCRIPTION 
#-----.-----          : ----------------------------- 
 DEPT.FT               : MEASURED DEPTH 
 CALI.IN               : CALIPER (CAL - CAL) 
 GR.API                : GAMMA RAY (GR) 
 DT.US/FT              : SONIC DELTA TRANSIT TIME (DT) 
 #___________________________________________________________________________________________________ 
~A         DEPT           CALI             GR             DT
# ...
         7415.0         12.796         32.513         56.670
         7415.5         12.830         34.378         55.986
         7416.0         12.865         36.004         57.094
         7416.5         12.899         37.081         58.202
         7417.0         12.934         38.158         59.309
         7417.5         12.970         39.235         60.417
         7418.0         13.012         51.118         61.525
         7418.5         13.054         90.210         63.247
         7419.0         13.013         85.657         66.076
         7419.5         12.962         78.891         68.906
         7420.0         12.912         72.124         71.736
         7420.5         12.862         65.358         74.565
         7421.0         12.811         58.592         75.258
         7421.5         12.769         51.826         73.335
         7422.0         12.790         45.060         71.413
         7422.5         12.811         38.294         69.490
         7423.0         12.832         31.527         67.568
         7423.5         12.853         24.761         57.119
         7424.0         12.874         18.451         56.154
         7424.5         12.895         19.248         55.189
         7425.0         12.916         20.046         54.224
         7425.5         12.937         20.843         53.259
         7426.0         12.938         21.640         52.294
         7426.5         12.938         24.148         51.847
         7427.0         12.939         27.526         52.819
         7427.5         12.939         30.905         53.791
         7428.0         13.082         34.283         54.763
         7428.5         13.241         39.001         55.735
         7429.0         13.401         43.896         56.707
         7429.5         13.430         48.791         57.679
         7430.0         13.247         53.686         59.005
         7430.5         13.063         58.582         61.227
         7431.0         12.879         63.477         63.448
         7431.5         12.940         68.372         66.648
         7432.0         13.018         69.622         70.835
         7432.5         13.097         67.522         75.023
         7433.0         13.175         65.422         76.980
         7433.5         13.219         65.292         75.008
         7434.0         13.166         67.264         73.035
         7434.5         13.112         69.235         73.687
         7435.0         13.059         71.207         75.170
         7435.5         13.005         73.179         76.653
         7436.0         12.952         68.449         78.136
         7436.5         12.899         58.731         78.769
         7437.0         12.944         49.012         75.559
         7437.5         13.002         39.294         72.348
         7438.0         13.060         29.575         69.137
         7438.5         13.117         30.568         65.926
         7439.0         13.152         32.856         62.715
         7439.5         13.110         35.144         59.504
         7440.0         13.068         37.432         57.876
         7440.5         13.026         39.720         59.324
         7441.0         12.984         41.688         60.773
         7441.5         12.942         41.515         62.221
         7442.0         12.955         41.342         63.670
         7442.5         13.039         41.168         65.118
         7443.0         13.122         40.051         65.292
         7443.5         13.206         38.287         64.650
         7444.0         13.290         36.523         64.008
         7444.5         13.373         34.759         63.367
         7445.0         13.457         33.780         62.725
         7445.5         13.442         34.004         61.546
         7446.0         13.294         34.228         60.097
         7446.5         13.145         33.130         58.647
         7447.0         12.997         31.239         57.198
         7447.5         12.994         29.348         55.749
         7448.0         12.994         27.457         54.299
         7448.5         12.994         28.508         54.501
         7449.0         12.994         30.216         54.817
         7449.5         12.994         31.924         55.133
         7450.0         12.994         32.593         55.597
         7450.5         12.995         32.449         56.328
         7451.0         12.995         32.305         57.060
         7451.5         13.040         32.161         57.791
         7452.0         13.093         32.017         58.522
         7452.5         13.146         31.872         59.254
         7453.0         13.200         31.728         59.152
         7453.5         13.253         35.848         58.147
         7454.0         13.306         44.521         57.141
         7454.5         13.292         53.193         56.135
         7455.0         13.186         58.247         58.108
         7455.5         13.099         61.423         61.210
         7456.0         13.141         64.600         64.312
         7456.5         13.183         67.776         66.872
         7457.0         13.224         70.953         68.810
         7457.5         13.134         74.129         70.748
         7458.0         13.038         77.306         72.686
         7458.5         13.023         76.976         74.625
         7459.0         13.008         73.499         80.038
         7459.5         12.993         70.023         79.816
         7460.0         12.978         66.546         79.595
         7460.5         12.963         63.675         79.374
         7461.0         12.959         67.092         79.153
         7461.5         13.063         70.510         78.669
         7462.0         13.167         73.928         74.301
         7462.5         13.271         77.345         69.932
         7463.0         13.376         80.763         71.203
         7463.5         13.415         79.273         72.958
         7464.0         13.360         74.574         74.714
         7464.5         13.305         69.876         76.469
         7465.0         13.251         65.177         78.224
         7465.5         13.196         60.478         75.892
         7466.0         13.142         55.780         72.576
         7466.5         12.969         51.081         69.260
         7467.0         12.727         57.308         65.944
         7467.5         12.699         67.616         62.628
         7468.0         12.691         77.925         62.000
         7468.5         12.682         83.908         66.527
         7469.0         12.673         79.448         71.054
         7469.5         12.665         74.987         75.581
         7470.0         12.656         70.527         78.934
         7470.5         12.648         66.067         76.762
         7471.0         12.639         61.607         74.590
         7471.5         12.630         59.297         72.418
         7472.0         12.622         59.326         73.551
         7472.5         12.613         59.354         75.019
         7473.0         12.605         59.383         76.486
         7473.5         12.596         59.412         76.495
         7474.0         12.587         59.440         74.816
         7474.5         12.675         59.469         73.137
         7475.0         12.764         59.498         71.458
         7475.5         12.852         61.475         69.779
         7476.0         12.941         63.024         69.224
         7476.5         12.990         63.692         70.875
         7477.0         12.951         64.360         72.526
         7477.5         12.911         65.028         74.178
         7478.0         12.871         65.696         75.829
         7478.5         12.832         66.364         75.393
         7479.0         12.792         67.032         74.328
         7479.5         12.752         68.016         73.264
         7480.0         12.713         69.254         72.221
         7480.5         12.673         70.492         73.460
