###############################################
##         ENVERUS                           ##
##         ESS - Open Hole                   ##
##         PERMIAN / DELAWARE                ##
##         Nov 02 2023  V4.0                 ##
##         42-301-31112-00-00                ##
###############################################
## Copyright 2017-2023  ENVERUS.  All Rights Reserved. 
## Confidential - Property of ENVERUS, use governed by terms and 
## conditions found within the existing Information Services Subscription Agreement 
## (as may be amended, the “ISSA”) between Customer and ENVERUS. 
## 
~VERSION INFORMATION
# MNEM.UNIT                               DATA : DESCRIPTION OF MNEMONIC
#-----.-----     ----------------------------- : -----------------------------
VERS.                                     2.00 : CWLS LOG ASCII STANDARD - VERSION 2.00
WRAP.                                       NO : MULTIPLE LINES PER DEPTH STEP
VEND.                                  ENVERUS : VENDOR
TYPE.                          ESS - OPEN HOLE : ENVERUS ESSENTIAL CURVES – ACCESSIBLE THROUGH ENVERUS PRISM(TM)
DOC.                                  31879965 : ENVERUS HEADER RAW DOCUMENT ID
#___________________________________________________________________________________________________ 
~WELL INFORMATION 
# p11foxtE5QnwhaJbtzBz2LJF4p4dkL7jzyXNzohJvMqLCglFSJK87xuVm3WB3m+8huK6qzS+fp5X73xeHrMy5w== 
# MNEM.UNIT                                              DATA : DESCRIPTION OF MNEMONIC 
#-----.-----                    ----------------------------- : ----------------------------- 
CNTY.                                                  LOVING : COUNTY 
STATE.                                                  TEXAS : STATE 
CNTRY.                                                    USA : COUNTRY 
API.                                             42-301-31112 : API (10 Digit) 
API_14.                                    42-301-31112-00-00 : API (14 Digits) 
API_14_std.                                 42-301-31112-0000 : API (14 Digits Standard) 
UWI.                                           42301311120000 : UNIQUE WELL ID 
WELL.                                                    JR 1 : WELL NAME
STRT.FT                                                3102.0 : START DEPTH
STOP.FT                                               15993.0 : STOP DEPTH
STEP.FT                                                   0.5 : STEP BETWEEN DEPTHS
NULL.                                                 -999.25 : NULL VALUE
LOC.                                                      UNK : LOCATION 
SRVC.                                                     UNK : SERVICE COMPANY
#___________________________________________________________________________________________________ 
~CURVE INFORMATION 
# MNEM.UNIT           : CURVE DESCRIPTION 
#-----.-----          : ----------------------------- 
 DEPT.FT               : MEASURED DEPTH 
 CALI.IN               : CALIPER (CAL - CAL) 
 GR.API                : GAMMA RAY (GR) 
 DT.US/FT              : SONIC DELTA TRANSIT TIME (DT) 
 #___________________________________________________________________________________________________ 
~A         DEPT           CALI             GR             DT
# ...
         5742.0         13.908         47.909         64.998
         5742.5         13.910         45.045         65.546
         5743.0         13.911         44.281         66.094
         5743.5         13.913         44.887         66.642
         5744.0         13.916         46.194         67.064
         5744.5         13.919         49.302         67.230
         5745.0         13.922         52.410         67.397
         5745.5         13.924         57.545         67.848
         5746.0         13.927         63.431         69.542
         5746.5         13.930         76.378         71.836
         5747.0         13.933         89.583         74.129
         5747.5         13.936        102.212         75.056
         5748.0         13.938        111.908         74.392
         5748.5         13.941        108.509         73.157
         5749.0         13.944         94.151         71.923
         5749.5         13.947         83.345         70.689
         5750.0         13.951         75.645         70.426
         5750.5         13.956         62.540         70.226
         5751.0         13.962         47.431         68.717
         5751.5         13.967         34.951         65.845
         5752.0         13.973         30.125         62.972
         5752.5         13.978         27.275         60.442
         5753.0         13.984         27.660         59.859
         5753.5         13.985         28.310         62.103
         5754.0         13.985         28.400         64.347
         5754.5         13.985         28.360         65.840
         5755.0         13.985         28.496         65.737
         5755.5         13.984         28.848         65.169
         5756.0         13.984         29.200         64.441
         5756.5         13.984         29.552         63.713
         5757.0         13.984         29.903         63.030
         5757.5         13.984         29.675         62.892
         5758.0         13.984         28.016         62.635
         5758.5         13.984         26.358         62.259
         5759.0         14.006         26.798         61.883
         5759.5         14.028         27.906         61.508
         5760.0         14.051         29.014         61.132
         5760.5         14.074         30.123         61.336
         5761.0         14.097         29.728         62.324
         5761.5         14.119         28.996         63.311
         5762.0         14.142         28.264         63.821
         5762.5         14.154         27.532         63.725
         5763.0         14.153         26.800         63.660
         5763.5         14.152         26.068         63.750
         5764.0         14.151         25.336         63.601
         5764.5         14.150         25.474         63.436
         5765.0         14.150         25.789         63.272
         5765.5         14.149         25.255         63.154
         5766.0         14.148         24.531         63.037
         5766.5         14.147         24.263         62.834
         5767.0         14.146         24.373         62.175
         5767.5         14.146         24.483         61.517
         5768.0         14.145         24.592         60.859
         5768.5         14.144         25.025         60.201
         5769.0         14.143         25.873         59.765
         5769.5         14.142         26.721         59.610
         5770.0         14.142         27.442         59.592
         5770.5         14.141         27.142         59.842
         5771.0         14.140         27.111         60.939
         5771.5         14.139         27.794         62.628
         5772.0         14.138         28.476         64.316
         5772.5         14.137         30.145         66.005
         5773.0         14.137         32.909         67.694
         5773.5         14.136         35.673         67.078
         5774.0         14.135         36.150         65.214
         5774.5         14.134         34.917         62.326
         5775.0         14.133         29.965         59.437
         5775.5         14.133         25.013         56.943
         5776.0         14.132         24.702         56.899
         5776.5         14.131         24.777         57.973
         5777.0         14.152         24.851         59.172
         5777.5         14.179         25.226         60.468
         5778.0         14.206         26.194         61.764
         5778.5         14.233         27.162         63.060
         5779.0         14.259         26.307         64.222
         5779.5         14.286         24.988         64.361
         5780.0         14.313         25.559         64.016
         5780.5         14.340         26.632         60.620
         5781.0         14.367         27.845         51.506
         5781.5         14.383         30.802         42.392
         5782.0         14.392         35.341         36.174
         5782.5         14.401         43.263         38.729
         5783.0         14.410         58.372         40.757
         5783.5         14.419         75.148         42.274
         5784.0         14.428         91.733         41.986
         5784.5         14.438         97.411         41.461
         5785.0         14.447         94.815         40.937
         5785.5         14.478         84.725         49.572
         5786.0         14.541         76.917         63.255
         5786.5         14.605         69.109         71.128
         5787.0         14.661         61.519         69.837
         5787.5         14.661         54.729         68.545
         5788.0         14.661         47.964         67.253
         5788.5         14.661         41.650         65.961
         5789.0         14.661         41.862         65.561
         5789.5         14.674         42.595         67.022
         5790.0         14.710         43.328         68.483
         5790.5         14.746         42.282         68.774
         5791.0         14.783         38.036         66.757
         5791.5         14.797         35.148         64.740
         5792.0         14.802         32.485         63.127
         5792.5         14.806         31.854         63.127
         5793.0         14.811         31.824         62.861
         5793.5         14.839         31.795         62.598
         5794.0         14.869         33.008         58.736
         5794.5         14.900         35.302         51.059
         5795.0         14.931         37.596         48.589
         5795.5         14.962         39.889         57.154
         5796.0         14.993         38.363         71.073
         5796.5         15.020         35.647         71.346
         5797.0         15.015         33.188         70.491
         5797.5         15.009         31.095         69.208
         5798.0         15.004         29.773         67.924
         5798.5         14.999         29.573         66.641
         5799.0         14.993         30.695         65.425
         5799.5         14.988         32.806         71.120
         5800.0         14.983         34.917        100.156
         5800.5         15.005         33.262        113.166
         5801.0         15.035         31.369        128.935
         5801.5         15.065         29.475        144.704
         5802.0         15.095         29.337        159.504
         5802.5         15.124         29.904        146.629
         5803.0         15.154         30.471        133.754
         5803.5         15.184         31.038        137.974
         5804.0         15.214         34.541        131.772
         5804.5         15.244         38.510        124.751
         5805.0         15.266         42.478        128.007
         5805.5         15.266         46.028        136.017
         5806.0         15.265         47.210        144.027
         5806.5         15.265         46.163        152.036
         5807.0         15.265         44.501        150.058
         5807.5         15.265         40.302         55.882
