#--------------------------------------------------#
#-------------------ENVERUS, INC.------------------#
#------------------WWW.ENVERUS.COM-----------------#
#------------------COPYRIGHT 2020------------------#
#--------------------------------------------------#
#THIS FILE MAY BE USED ONLY IN ACCORDANCE WITH A CURRENT SUBSCRIPTION AGREEMENT BETWEEN
#THE USER AND ENVERUS, INC. NO PART OF THIS FILE MAY BE REPRODUCED, USED, COPIED,
#MODIFIED, PROPAGATED, OR DISTRIBUTED EXCEPT IN ACCORDANCE WITH THE SUBSCRIPTION
#AGREEMENT. UNAUTHORIZED USE OR DISTRIBUTION OF ALL OR ANY PART OF THIS FILE MAY VIOLATE
#COPYRIGHT, TRADEMARK, AND/OR OTHER LAWS AND IS SUBJECT TO CIVIL AS WELL AS CRIMINAL
#SANCTIONS.
#--------------------------------------------------#
#THIS FILE IS PROVIDED "AS-IS" AND ALL WARRANTIES ARE EXPRESSLY DISCLAIMED, WHETHER
#EXPRESS, ORAL, IMPLIED, STATUTORY OR OTHERWISE, INCLUDING ANY IMPLIED WARRANTY OF FITNESS
#FOR A PARTICULAR PURPOSE, MERCHANTABILITY, TITLE OR NON-INFRINGEMENT, AND ANY WARRANTIES
#ARISING BY VIRTUE OF CUSTOM OF TRADE OR COURSE OF DEALING.  FURTHER, ENVERUS, INC.
#AND ITS LICENSORS DO NOT REPRESENT OR WARRANT THAT THIS FILE WILL MEET USER'S
#REQUIREMENTS OR ARE SUITABLE FOR USER'S NEEDS OR THAT THE DATA OR RESULTS PROVIDED IN
#CONJUNCTION THEREWITH ARE CORRECT, ACCURATE, TIMELY OR RELIABLE. THESE DISCLAIMERS SHALL
#APPLY REGARDLESS OF ANY FAILURE OF ESSENTIAL PURPOSE OF ANY LIMITED REMEDY.  SOME
#JURISDICTIONS DO NOT ALLOW THE EXCLUSION OF CERTAIN WARRANTIES SO SOME OF THE ABOVE
#EXCLUSIONS MAY NOT APPLY. IN NO EVENT SHALL ENVERUS, INC. OR ANY OF ITS AFFILIATES
#BE LIABLE UNDER ANY LEGAL THEORY, WHETHER IN TORT (INCLUDING WITHOUT LIMITATION
#NEGLIGENCE), CONTRACT, STRICT LIABILITY, STATUTORY OR OTHERWISE, FOR ANY SPECIAL,
#INCIDENTAL, CONSEQUENTIAL, EXEMPLARY, PUNITIVE OR INDIRECT DAMAGE OF ANY KIND, INCLUDING
#WITHOUT LIMITATION LOSS OF REVENUE, PROFITS, GOODWILL, USE, AND/OR DATA OR THE COST OF
#PROCUREMENT OF SUBSTITUTE GOODS OR SERVICES, EVEN IF APPRISED OF THE POSSIBILITY OF SUCH
#DAMAGES IN ADVANCE.
#--------------------------------------------------#

# EXPORTED FROM DI TRANSFORM
# DI TRANSFORM - A PRODUCT OF DRILLINGINFO, INC. - WWW.DRILLINGINFO.COM
#
~VERSION INFORMATION
 VERS.        2.0 : LAS ASCII STANDARD - VERSION 2.0
 WRAP.         NO : ONE LINE PER DEPTH STEP

~WELL INFORMATION
#MNEM.UNIT       DATA TYPE       INFORMATION
#---------       ---------       -----------
 STRT.FT          3310 : START DEPTH
 STOP.FT         11910 : STOP DEPTH
 STEP.FT           0.5 : STEP LENGTH
 NULL.         -999.25 : NULL VALUE
 UWI.   42389328760000 : UNIQUE WELL ID
 API.   42389328760000 : WELL IDENTIFIER
 COMP.                 : COMPANY
 WELL.          DRD_55 : WELL NAME
 FLD.                  : FIELD NAME
 LOC.                  : WELL LOCATION
 CNTY.                 : COUNTY
 STAT.                 : STATE OR PROVINCE
 CTRY.                 : COUNTRY
 SRVC.                 : SERVICE COMPANY
 DATE.                 : DATE

~CURVE INFORMATION
#MNEM.UNIT       API CODE       CURVE DESCRIPTION
#---------       --------       -----------------
 DEPT.FT        : <MEASURED DEPTH>
 CAL.IN         : CALIPER
 DT.US/FT       : SONIC
 GR.GAPI        : GAMMA RAY
 ILD.OHMM       : DEEP RESISTIVITY
 ILS.OHMM       : SHALLOW RESISTIVITY

~PARAMETER INFORMATION
#MNEM.UNIT       VALUE       DESCRIPTION
#---------       -----       -----------
 EKB.FT      3168.5 : ELEVATION ABOVE MSL

~A       DEPT         CAL          DT          GR         ILD         ILS
# ...
         3855      9.3466     79.2365     62.1657      6.5858      4.5274
       3855.5      9.3466     77.9812     67.2398       7.814      5.3783
         3856      9.3466     77.5238     75.8008     10.0761      7.4401
       3856.5      9.3466     77.0664      79.938     12.5812      9.1112
         3857      9.3711     77.0664      79.136     11.9557      8.3425
       3857.5      9.3466     77.0664     75.1461      9.2808      7.0646
         3858      9.3466     77.9812      67.308      7.3237      5.2442
       3858.5      9.3466     79.2868     62.1019      5.9113      3.8775
         3859      9.3466     80.7119     54.3638      5.5452      3.7235
       3859.5      9.3466     80.7256     50.1456      5.7651       3.866
         3860      9.3725     80.7256     50.5881      6.1729      4.3955
       3860.5      9.4185     80.7256      51.992      6.6441      4.7153
         3861      9.3865     80.7256     51.3944        6.92      4.8536
       3861.5      9.3466     80.7256     51.5636      6.9565       4.873
         3862      9.4194     80.7256     53.8772      6.9423      4.7929
       3862.5      9.3466     80.7256     58.0022      6.6692      4.6331
         3863      9.3466     80.7256     59.7104      6.5576      4.4773
       3863.5      9.3466     80.7256     58.2911      6.3735      4.3768
         3864      9.3466     80.7256     57.3705        6.31      4.3329
       3864.5      9.3466     80.7256     57.3705        6.31      4.2989
         3865      9.3466     80.7256     56.7179        6.31       4.333
       3865.5      9.3466     80.7256     56.1753      6.2366      4.2774
         3866      9.3466     81.1831     54.8724      6.0613      4.1922
       3866.5      9.3466     81.1831     53.9496      5.7833      4.0738
         3867      9.3573     81.1244     52.5896      5.7537       3.944
       3867.5      9.3865     80.9952     51.5064      5.8408      3.9225
         3868      9.3466     80.8659     51.3944      5.9311      4.2423
       3868.5      9.3466     80.7367     51.3944      5.7643      4.0101
         3869      9.3466     80.6074     51.0627      5.9341      4.0665
       3869.5       9.386     80.4782     54.3596      6.4256      4.1955
         3870      9.3466      80.349     63.0273      6.7355      4.7855
       3870.5      9.3466     80.0501     66.8861      7.0591      5.0558
         3871      9.3466     80.2667     63.8397      7.3987      5.2443
       3871.5      9.3466     81.1831     56.7749      6.8484       4.705
         3872      9.3749     81.1831     53.3608      6.2281      4.2903
       3872.5      9.3966     80.6685     52.7413      6.1946      4.5118
         3873      9.3945     79.3534     53.7849      6.1946        4.48
       3873.5      9.3466     78.4386     52.3852      6.1946      4.2903
         3874      9.3466     78.4386     50.8649       6.467      4.7689
       3874.5      9.3638     78.4386     51.6516      6.7935      4.8324
         3875      9.3865      78.896     53.4631      6.9168      5.0501
       3875.5      9.3466      78.896     55.4449        6.92      4.9168
         3876      9.3466     79.8108     57.4079      6.8014      4.8731
       3876.5      9.3466     80.7256     57.6055        6.92      4.8731
         3877      9.3466     81.1831     57.3705      6.9395      5.0705
       3877.5      9.3466     81.1831     58.3835      7.1402      5.3144
         3878      9.3466     80.6382     59.9039      7.1489      5.3208
       3878.5      9.3466     81.0507     60.9562      6.8209      5.0768
         3879      9.3466     81.0792     62.8415      6.5473      4.9639
       3879.5      9.3466     80.6232     64.5418      6.5473      4.9522
         3880      9.3466     79.5669     60.4361      6.6692      5.1114
       3880.5      9.3466      78.896     57.3946      6.6692      5.1505
         3881      9.3466     79.5145      57.074      6.6692      5.1989
       3881.5      9.3485     80.2682     57.3705      6.3601      5.0519
         3882      9.3466     79.3534     56.4191      6.0154      4.6291
       3882.5      9.3466     79.3534     53.9616      6.2183       4.853
         3883      9.3466     79.3534     52.1831      6.7342      5.2976
       3883.5      9.3865      79.172     52.7288      7.7742      6.0464
         3884      9.3558     77.5953     56.0592      9.7862      7.6637
       3884.5      9.3466     76.7683     62.4881     10.6727      8.2182
         3885      9.3466     75.2176     69.2364     11.4511      8.6817
       3885.5      9.3466      73.756      76.377     13.1355     10.4639
         3886      9.3843     73.4071     83.2352     14.2003     11.0628
       3886.5      9.3865     73.7023     84.8606     14.6172     11.9232
         3887      9.3865     74.3602     84.2431     13.3132     10.7544
       3887.5      9.3865     74.4726     82.0788     12.3437      9.5452
         3888      9.3865     74.5851     78.2142     10.9293      8.7579
       3888.5      9.3865     75.1875     77.4894     10.2599      8.3144
         3889      9.3865     74.5763     78.1615     10.6632      8.7039
       3889.5      9.3865     73.7351     75.6665     11.9054      9.7178
         3890      9.3865     73.1416     71.1788     13.0334     10.6001
       3890.5      9.3865      72.548     67.6714     14.1134     11.7347
         3891      9.3865     71.9545     66.3347     14.9177     12.9707
       3891.5      9.3865     71.8863     67.4883      14.233     12.5079
         3892      9.4054     72.2672     69.6063     13.5805     11.4834
       3892.5      9.4263     73.4882     72.0342     13.9594     11.3944
         3893      9.4263     74.7092     77.1485     14.3303     11.9427
       3893.5      9.3865     75.9302     85.7456     13.6726     11.4515
         3894      9.3865     77.1511     86.8734      12.773     10.5853
       3894.5      9.3865     78.2915      76.873     11.7828      9.2643
         3895      9.3865     78.4887       68.53     10.4368      8.6959
       3895.5      9.3865     77.8346     64.9701     10.2502      9.0078
         3896      9.3865     76.7903     63.9442     11.0101      9.4408
       3896.5      9.3865     75.7461     66.8131     13.7047     12.0596
         3897      9.3865     74.7018     75.5438     16.2389     15.5476
       3897.5      9.3865      74.358     87.3818     20.9977     18.9645
         3898      9.3865     73.6869     96.1401     22.1346     19.8816
       3898.5      9.3865     73.9569      90.693     19.4736     13.9875
         3899      9.3865     74.4657     81.8958     14.4192     11.7329
       3899.5      9.3865     74.9744     76.3311     13.0938     10.4615
         3900      9.4263     75.4832     74.7012     12.4505      9.9157
       3900.5      9.4263     75.4876     76.4636     11.8794      9.5682
         3901      9.4263     75.8705     78.4474     11.7607      9.5267
       3901.5      9.4263     76.0238     78.2869     11.3905      8.8869
         3902      9.4263     75.1869     77.6892     11.4662       8.886
       3902.5      9.4263     74.3499     76.5532     12.3325      9.6642
         3903      9.4263      73.513     73.1397     13.7316     10.7634
       3903.5      9.4263      72.676     69.3355     14.7462     11.6581
         3904      9.4263     71.8391     65.5178     14.6052     11.4695
       3904.5      9.4263     71.4038     61.0928     12.8986      8.7148
         3905      9.4263     71.7506     57.5966     11.6182      8.6844
       3905.5      9.4329     72.0975     57.8691     10.7442       7.764
         3906      9.4944     72.4444     56.3487     10.2515      7.4582
       3906.5       9.506     72.7994     53.3295     10.6299      7.9907
         3907      9.4343     73.7604     50.3198     10.6196      8.0531
       3907.5       9.506     74.7213     49.6016      9.9468      7.4425
         3908       9.506     75.6823     51.2926      8.7722       6.561
       3908.5       9.506     76.6432     52.5896      7.3847      5.5744
         3909       9.506     77.6042     52.5896      6.5519      4.7878
