###############################################
##         ENVERUS                           ##
##         ESS - Open Hole                   ##
##         PERMIAN / DELAWARE                ##
##         Nov 04 2023  V4.0                 ##
##         42-389-32245-00-00                ##
###############################################
## Copyright 2017-2023  ENVERUS.  All Rights Reserved. 
## Confidential - Property of ENVERUS, use governed by terms and 
## conditions found within the existing Information Services Subscription Agreement 
## (as may be amended, the “ISSA”) between Customer and ENVERUS. 
## 
~VERSION INFORMATION
# MNEM.UNIT                               DATA : DESCRIPTION OF MNEMONIC
#-----.-----     ----------------------------- : -----------------------------
VERS.                                     2.00 : CWLS LOG ASCII STANDARD - VERSION 2.00
WRAP.                                       NO : MULTIPLE LINES PER DEPTH STEP
VEND.                                  ENVERUS : VENDOR
TYPE.                          ESS - OPEN HOLE : ENVERUS ESSENTIAL CURVES – ACCESSIBLE THROUGH ENVERUS PRISM(TM)
DOC.                                  31784178 : ENVERUS HEADER RAW DOCUMENT ID
#___________________________________________________________________________________________________ 
~WELL INFORMATION 
# v5kOeJgG8V8Fdrn76qwaaSXPAkEfLGq57aawfXlCwOXh55ROPeN2VCvB7JmY2/dENYnWxxZwl4Ma/Wu+4c2YGQ== 
# MNEM.UNIT                                              DATA : DESCRIPTION OF MNEMONIC 
#-----.-----                    ----------------------------- : ----------------------------- 
CNTY.                                                  REEVES : COUNTY 
STATE.                                                  TEXAS : STATE 
CNTRY.                                                    USA : COUNTRY 
API.                                             42-389-32245 : API (10 Digit) 
API_14.                                    42-389-32245-00-00 : API (14 Digits) 
API_14_std.                                 42-389-32245-0000 : API (14 Digits Standard) 
UWI.                                           42389322450000 : UNIQUE WELL ID 
WELL.                          TEXAS PACIFIC LAND TRUST 25 1H : WELL NAME
STRT.FT                                                2519.0 : START DEPTH
STOP.FT                                               10624.0 : STOP DEPTH
STEP.FT                                                   0.5 : STEP BETWEEN DEPTHS
NULL.                                                 -999.25 : NULL VALUE
#___________________________________________________________________________________________________ 
~CURVE INFORMATION 
# MNEM.UNIT           : CURVE DESCRIPTION 
#-----.-----          : ----------------------------- 
 DEPT.FT               : MEASURED DEPTH 
 CALI__B.IN            : CALIPER (CAL - CAL) 
 GR__B.API             : GAMMA RAY (GR) 
 DT__B.US/FT           : SONIC DELTA TRANSIT TIME (DT) 
 #___________________________________________________________________________________________________ 
~A         DEPT        CALI__B          GR__B          DT__B
# ...
        10043.0         12.775         75.090         75.007
        10043.5         12.777         79.415         76.279
        10044.0         12.779         83.235         76.912
        10044.5         12.781         87.055         77.074
        10045.0         12.783         88.794         76.368
        10045.5         12.785         88.919         75.385
        10046.0         12.787         87.177         74.747
        10046.5         12.789         85.434         75.232
        10047.0         12.791         83.691         76.556
        10047.5         12.793         85.856         77.881
        10048.0         12.796         88.452         79.205
        10048.5         12.798         87.231         80.529
        10049.0         12.800         84.650         81.343
        10049.5         12.802         82.068         81.032
        10050.0         12.804         82.340         80.587
        10050.5         12.806         83.484         80.226
        10051.0         12.808         88.385         80.084
        10051.5         12.810         93.285         79.974
        10052.0         12.812         92.998         80.327
        10052.5         12.814         90.490         80.681
        10053.0         12.816         87.981         81.035
        10053.5         12.819         85.902         80.738
        10054.0         12.823         85.368         78.487
        10054.5         12.826         81.759         73.041
        10055.0         12.830         69.845         67.438
        10055.5         12.833         57.932         65.535
        10056.0         12.837         57.798         65.041
        10056.5         12.840         64.669         68.275
        10057.0         12.843         71.539         72.238
        10057.5         12.847         76.179         75.460
        10058.0         12.850         78.542         77.247
        10058.5         12.854         80.732         79.035
        10059.0         12.857         82.922         81.018
        10059.5         12.860         83.473         82.621
        10060.0         12.856         81.950         82.949
        10060.5         12.853         76.915         82.405
        10061.0         12.849         71.880         81.440
        10061.5         12.845         67.488         80.760
        10062.0         12.841         70.207         81.037
        10062.5         12.837         82.371         81.963
        10063.0         12.833         89.383         82.890
        10063.5         12.829         89.783         83.436
        10064.0         12.825         86.054         83.649
        10064.5         12.821         82.951         83.863
        10065.0         12.817         80.516         84.003
        10065.5         12.813         78.081         83.897
        10066.0         12.809         74.374         82.108
        10066.5         12.806         70.050         79.767
        10067.0         12.802         65.727         78.335
        10067.5         12.798         68.116         79.289
        10068.0         12.794         75.407         80.949
        10068.5         12.792         82.710         82.610
        10069.0         12.789         87.676         84.270
        10069.5         12.787         86.507         84.493
        10070.0         12.785         85.337         84.533
        10070.5         12.783         86.399         84.605
        10071.0         12.781         87.781         84.342
        10071.5         12.779         86.354         83.394
        10072.0         12.777         84.668         82.446
        10072.5         12.775         83.985         81.587
        10073.0         12.772         87.317         81.061
        10073.5         12.771         90.649         81.297
        10074.0         12.771         91.404         81.633
        10074.5         12.771         90.704         82.108
        10075.0         12.771         90.004         82.907
        10075.5         12.771         89.303         83.707
        10076.0         12.771         88.603         84.400
        10076.5         12.771         87.903         84.302
        10077.0         12.771         89.150         83.941
        10077.5         12.771         90.405         83.172
        10078.0         12.771         93.460         82.299
        10078.5         12.771         96.854         81.426
        10079.0         12.771        100.444         80.647
        10079.5         12.771        106.207         80.233
        10080.0         12.771        104.192         80.132
        10080.5         12.771        101.231         80.041
        10081.0         12.771         94.159         79.214
        10081.5         12.771         84.026         76.956
        10082.0         12.772         73.893         74.269
        10082.5         12.772         67.433         72.263
        10083.0         12.772         61.271         72.924
        10083.5         12.772         63.088         75.269
        10084.0         12.772         69.621         77.973
        10084.5         12.772         76.603         80.676
        10085.0         12.772         85.011         83.002
        10085.5         12.772         93.419         83.765
        10086.0         12.772         95.958         83.009
        10086.5         12.772         95.247         82.012
        10087.0         12.772         93.459         81.014
        10087.5         12.772         94.128         80.488
        10088.0         12.772         95.015         80.117
        10088.5         12.772         94.869         79.465
        10089.0         12.772         93.062         78.609
        10089.5         12.772         87.913         78.582
        10090.0         12.772         82.764         78.968
        10090.5         12.772         81.511         79.662
        10091.0         12.772         85.016         80.820
        10091.5         12.772         88.827         81.982
        10092.0         12.772         91.471         81.950
        10092.5         12.772         90.406         80.375
        10093.0         12.772         86.637         78.836
        10093.5         12.772         81.217         79.715
        10094.0         12.772         82.369         81.013
        10094.5         12.772         84.327         81.610
        10095.0         12.772         85.252         80.972
        10095.5         12.772         80.559         78.496
        10096.0         12.772         75.637         74.131
        10096.5         12.772         69.113         72.813
        10097.0         12.772         68.351         73.255
        10097.5         12.772         68.351         74.576
        10098.0         12.772         70.997         76.756
        10098.5         12.772         74.585         78.935
        10099.0         12.772         81.380         81.115
        10099.5         12.772         89.156         83.294
        10100.0         12.772         96.370         85.796
        10100.5         12.772         98.854         86.126
        10101.0         12.772         98.006         85.933
        10101.5         12.772         92.829         84.512
        10102.0         12.772         88.428         83.092
        10102.5         12.772         85.759         81.964
        10103.0         12.772         86.911         81.902
        10103.5         12.772         89.766         82.890
        10104.0         12.772         99.973         84.003
        10104.5         12.772        101.203         85.031
        10105.0         12.772         99.090         84.899
        10105.5         12.772         97.422         84.767
        10106.0         12.770         97.307         84.635
        10106.5         12.768         97.985         84.251
        10107.0         12.767         97.584         83.616
        10107.5         12.765         97.431         83.044
        10108.0         12.763         99.667         83.069
        10108.5         12.762        106.455         83.713
