#--------------------------------------------------#
#-------------------ENVERUS, INC.------------------#
#------------------WWW.ENVERUS.COM-----------------#
#------------------COPYRIGHT 2020------------------#
#--------------------------------------------------#
#THIS FILE MAY BE USED ONLY IN ACCORDANCE WITH A CURRENT SUBSCRIPTION AGREEMENT BETWEEN
#THE USER AND ENVERUS, INC. NO PART OF THIS FILE MAY BE REPRODUCED, USED, COPIED,
#MODIFIED, PROPAGATED, OR DISTRIBUTED EXCEPT IN ACCORDANCE WITH THE SUBSCRIPTION
#AGREEMENT. UNAUTHORIZED USE OR DISTRIBUTION OF ALL OR ANY PART OF THIS FILE MAY VIOLATE
#COPYRIGHT, TRADEMARK, AND/OR OTHER LAWS AND IS SUBJECT TO CIVIL AS WELL AS CRIMINAL
#SANCTIONS.
#--------------------------------------------------#
#THIS FILE IS PROVIDED "AS-IS" AND ALL WARRANTIES ARE EXPRESSLY DISCLAIMED, WHETHER
#EXPRESS, ORAL, IMPLIED, STATUTORY OR OTHERWISE, INCLUDING ANY IMPLIED WARRANTY OF FITNESS
#FOR A PARTICULAR PURPOSE, MERCHANTABILITY, TITLE OR NON-INFRINGEMENT, AND ANY WARRANTIES
#ARISING BY VIRTUE OF CUSTOM OF TRADE OR COURSE OF DEALING.  FURTHER, ENVERUS, INC.
#AND ITS LICENSORS DO NOT REPRESENT OR WARRANT THAT THIS FILE WILL MEET USER'S
#REQUIREMENTS OR ARE SUITABLE FOR USER'S NEEDS OR THAT THE DATA OR RESULTS PROVIDED IN
#CONJUNCTION THEREWITH ARE CORRECT, ACCURATE, TIMELY OR RELIABLE. THESE DISCLAIMERS SHALL
#APPLY REGARDLESS OF ANY FAILURE OF ESSENTIAL PURPOSE OF ANY LIMITED REMEDY.  SOME
#JURISDICTIONS DO NOT ALLOW THE EXCLUSION OF CERTAIN WARRANTIES SO SOME OF THE ABOVE
#EXCLUSIONS MAY NOT APPLY. IN NO EVENT SHALL ENVERUS, INC. OR ANY OF ITS AFFILIATES
#BE LIABLE UNDER ANY LEGAL THEORY, WHETHER IN TORT (INCLUDING WITHOUT LIMITATION
#NEGLIGENCE), CONTRACT, STRICT LIABILITY, STATUTORY OR OTHERWISE, FOR ANY SPECIAL,
#INCIDENTAL, CONSEQUENTIAL, EXEMPLARY, PUNITIVE OR INDIRECT DAMAGE OF ANY KIND, INCLUDING
#WITHOUT LIMITATION LOSS OF REVENUE, PROFITS, GOODWILL, USE, AND/OR DATA OR THE COST OF
#PROCUREMENT OF SUBSTITUTE GOODS OR SERVICES, EVEN IF APPRISED OF THE POSSIBILITY OF SUCH
#DAMAGES IN ADVANCE.
#--------------------------------------------------#

~VERSION INFORMATION
VERS. 2.0 : CWLS LOG ASCII STANDARD - VERSION 2.0
WRAP.  NO : ONE LINE PER DEPTH STEP
~WELL INFORMATION
#MNEMONIC     .UNIT              VALUE :DESCRIPTION
STRT       .FT                0 :START DEPTH
STOP       .FT                13134 :STOP DEPTH
STEP       .FT                   0.500 :STEP
NULL       .                  -999.250 :NULL
UWI        .              42389303540000 :UNIQUE WELL ID
API        .              42389303540000 :API NUMBER
COMP       .         SMC OIL & GAS  INC. :COMPANY
WELL       .        TIFFANY STATE  1 :WELL
DATE       .                18-OCT-1995 :LOG DATE
~CURVE INFORMATION
#MNEMONIC     .UNIT      API CODE :CURVE DESCRIPTION
DEPTH       .FT                      :MEASURED DEPTH
DT.US/FT        UNKNOWN   :DT
CAL.INCH        UNKNOWN   :CAL
GR.API        UNKNOWN   :GR
~A    DEPTH    DT    CAL    GR
# ...
 2738     49.44   10.967   6.834
 2738.5     49.448   10.972   6.892
 2739     49.455   10.976   6.951
 2739.5     49.462   10.981   7.034
 2740     49.469   10.985   7.659
 2740.5     49.475   10.99   7.935
 2741     49.475   10.995   7.756
 2741.5     49.475   10.999   7.576
 2742     49.474   11.004   7.397
 2742.5     49.474   11.009   7.217
 2743     49.474   11.013   7.038
 2743.5     49.474   11.018   7.339
 2744     49.557   11.022   7.74
 2744.5     49.747   11.027   8.14
 2745     49.936   11.032   8.541
 2745.5     50.038   11.036   8.596
 2746     49.896   11.041   8.568
 2746.5     49.755   11.045   8.541
 2747     49.613   11.05   8.513
 2747.5     49.472   11.055   8.485
 2748     49.33   11.059   8.457
 2748.5     49.188   11.064   8.429
 2749     49.047   11.069   8.291
 2749.5     49.245   11.073   8.075
 2750     50.091   11.078   7.86
 2750.5     50.673   11.082   7.416
 2751     50.666   11.087   6.912
 2751.5     50.659   11.092   6.407
 2752     50.652   11.094   5.903
 2752.5     50.645   11.092   5.4
 2753     50.638   11.091   5.701
 2753.5     50.631   11.089   6.002
 2754     50.609   11.088   6.302
 2754.5     50.585   11.086   6.603
 2755     50.561   11.084   6.485
 2755.5     50.536   11.083   6.359
 2756     50.512   11.081   6.234
 2756.5     50.487   11.08   6.108
 2757     50.463   11.078   6.037
 2757.5     50.283   11.075   6.22
 2758     50.045   11.071   6.402
 2758.5     49.807   11.066   6.584
 2759     49.569   11.061   6.767
 2759.5     49.331   11.057   7.34
 2760     49.094   11.052   8.038
 2760.5     50.196   11.047   7.991
 2761     49.899   11.043   7.681
 2761.5     49.603   11.038   7.371
 2762     49.307   11.033   7.062
 2762.5     49.217   11.029   6.752
 2763     49.234   11.024   7.031
 2763.5     49.251   11.019   7.806
 2764     49.268   11.015   8.582
 2764.5     49.285   11.01   9.357
 2765     49.572   11.005   9.103
 2765.5     49.997   11   8.743
 2766     50.28   10.996   8.383
 2766.5     50.094   10.991   8.023
 2767     49.907   10.986   7.664
 2767.5     49.721   10.982   7.591
 2768     49.534   10.977   8.145
 2768.5     49.348   10.972   8.7
 2769     49.404   10.968   9.255
 2769.5     49.756   10.963   9.806
 2770     50.101   10.958   10.356
 2770.5     49.41   10.954   10.905
 2771     49.227   10.949   11.455
 2771.5     49.528   10.944   14.201
 2772     49.829   10.94   15.685
 2772.5     50.131   10.935   17.169
 2773     50.436   10.93   18.653
 2773.5     50.575   10.925   18.045
 2774     50.232   10.921   15.847
 2774.5     49.889   10.916   13.649
 2775     49.545   10.911   11.451
 2775.5     49.303   10.907   9.253
 2776     49.373   10.907   7.174
 2776.5     49.443   10.912   6.597
 2777     49.514   10.916   6.021
 2777.5     49.584   10.921   5.701
 2778     49.477   10.926   6.035
 2778.5     49.367   10.93   6.369
 2779     49.256   10.935   6.702
 2779.5     49.145   10.939   6.603
 2780     49.834   10.944   6.282
 2780.5     49.785   10.948   5.962
 2781     49.727   10.953   5.641
 2781.5     49.668   10.957   5.524
 2782     49.61   10.962   5.968
 2782.5     49.552   10.966   6.412
 2783     49.494   10.971   6.857
 2783.5     49.435   10.976   7.301
 2784     49.377   10.979   7.746
 2784.5     49.319   10.982   8.19
 2785     49.261   10.985   8.62
 2785.5     49.517   10.988   8.192
 2786     49.98   10.991   7.763
 2786.5     50.442   10.994   7.335
 2787     50.905   10.998   6.907
 2787.5     50.916   11.001   6.478
 2788     50.808   11.004   6.05
 2788.5     50.7   11.007   5.621
 2789     50.653   11.01   5.227
 2789.5     50.79   11.013   5.96
 2790     50.508   11.016   6.693
 2790.5     50.227   11.019   7.426
 2791     50.026   11.022   8.159
 2791.5     50.095   11.025   8.892
 2792     50.165   11.028   9.625
 2792.5     50.235   11.032   10.039
 2793     50.305   11.035   8.833
 2793.5     50.375   11.038   7.627
 2794     50.445   11.041   6.421
 2794.5     50.441   11.044   6.38
 2795     50.356   11.047   6.347
 2795.5     50.272   11.05   6.314
 2796     50.187   11.053   6.28
 2796.5     50.102   11.056   6.247
 2797     50.017   11.059   6.213
 2797.5     50.044   11.063   6.175
 2798     50.26   11.066   6.136
 2798.5     50.476   11.069   6.097
 2799     50.692   11.072   6.059
 2799.5     50.908   11.075   6.02
 2800     51.078   11.078   7.079
 2800.5     51.236   11.081   8.465
 2801     51.394   11.084   8.287
 2801.5     51.477   11.085   7.552
 2802     51.348   11.086   6.817
 2802.5     51.218   11.086   6.082
 2803     51.088   11.086   5.676
 2803.5     50.959   11.086   5.864
 2804     50.829   11.086   6.052
 2804.5     50.699   11.086   6.189
 2805     50.57   11.086   6.021
 2805.5     50.44   11.086   5.854
 2806     50.346   11.086   5.686
 2806.5     50.273   11.086   5.519
 2807     50.201   11.086   5.351
 2807.5     50.129   11.087   5.183
 2808     50.057   11.087   5.016
 2808.5     49.985   11.087   5.519
 2809     49.912   11.087   6.068
 2809.5     49.84   11.087   6.617
 2810     49.768   11.087   7.166
 2810.5     49.742   11.087   7.115
 2811     49.742   11.087   7.001
 2811.5     49.742   11.088   6.887
 2812     49.742   11.089   6.773
 2812.5     49.742   11.089   6.659
 2813     49.741   11.09   6.545
 2813.5     49.741   11.091   6.43
 2814     49.913   11.091   6.316
 2814.5     50.252   11.092   6.238
 2815     50.59   11.093   6.516
 2815.5     53.457   11.093   6.794
 2816     50.777   11.094   7.072
 2816.5     49.315   11.095   7.35
 2817     49.147   11.095   7.628
 2817.5     49.299   11.096   7.906
 2818     49.602   11.097   8.184
 2818.5     49.904   11.097   8.462
 2819     50.207   11.098   8.74
 2819.5     50.826   11.099   9.018
 2820     53.609   11.099   8.632
 2820.5     52.656   11.1   6.057
 2821     51.386   11.101   4.261
 2821.5     50.116   11.101   4.487
 2822     49.65   11.102   4.712
 2822.5     49.381   11.102   4.937
 2823     49.112   11.103   5.163
 2823.5     48.843   11.104   5.388
 2824     49.173   11.104   5.613
 2824.5     49.649   11.105   5.838
 2825     51.541   11.106   5.992
 2825.5     51.254   11.106   5.917
 2826     50.305   11.107   5.841
 2826.5     50.542   11.099   5.766
 2827     56.169   11.089   5.69
 2827.5     52.916   11.08   5.615
 2828     49.662   11.071   5.54
 2828.5     49.184   11.062   5.464
 2829     48.958   11.053   5.463
 2829.5     48.732   11.044   5.722
 2830     50.201   11.035   5.98
 2830.5     50.046   11.026   6.238
 2831     49.89   11.016   6.497
 2831.5     49.735   11.007   6.755
 2832     49.671   10.998   7.013
 2832.5     49.728   10.989   7.272
 2833     49.784   10.98   7.53
 2833.5     49.84   10.971   7.788
 2834     49.896   10.962   8.047
 2834.5     49.938   10.953   8.305
 2835     49.844   10.943   8.564
 2835.5     49.749   10.934   8.47
 2836     49.655   10.925   8.264
 2836.5     49.561   10.916   8.058
 2837     49.467   10.927   7.853
 2837.5     49.372   10.941   7.647
 2838     49.278   10.956   7.441
 2838.5     49.184   10.97   7.235
 2839     49.089   10.984   7.03
 2839.5     49.005   10.998   6.824
 2840     49.205   11.013   6.814
 2840.5     49.404   11.027   6.814
 2841     49.604   11.041   6.813
 2841.5     49.816   11.055   6.944
 2842     50.092   11.069   7.326
 2842.5     50.367   11.084   7.708
 2843     50.643   11.098   8.09
 2843.5     50.919   11.112   8.472
 2844     50.814   11.126   8.855
 2844.5     50.688   11.122   9.237
 2845     50.562   11.115   9.412
 2845.5     50.436   11.109   9.379
 2846     50.31   11.103   9.345
 2846.5     50.184   11.096   9.312
 2847     50.083   11.09   9.278
 2847.5     50.194   11.083   9.245
 2848     50.305   11.077   9.12
 2848.5     50.416   11.071   8.896
 2849     50.527   11.064   8.672
 2849.5     50.227   11.058   8.448
 2850     49.854   11.051   8.861
 2850.5     50.765   11.045   9.36
 2851     50.535   11.039   9.341
 2851.5     50.306   11.032   8.717
 2852     50.076   11.026   8.093
 2852.5     49.846   11.019   7.47
 2853     47.309   11.013   6.846
