###############################################
##         ENVERUS                           ##
##         ESS - Open Hole                   ##
##         PERMIAN / DELAWARE                ##
##         Nov 04 2023  V4.0                 ##
##         42-389-32421-01-00                ##
###############################################
## Copyright 2017-2023  ENVERUS.  All Rights Reserved. 
## Confidential - Property of ENVERUS, use governed by terms and 
## conditions found within the existing Information Services Subscription Agreement 
## (as may be amended, the “ISSA”) between Customer and ENVERUS. 
## 
~VERSION INFORMATION
# MNEM.UNIT                               DATA : DESCRIPTION OF MNEMONIC
#-----.-----     ----------------------------- : -----------------------------
VERS.                                     2.00 : CWLS LOG ASCII STANDARD - VERSION 2.00
WRAP.                                       NO : MULTIPLE LINES PER DEPTH STEP
VEND.                                  ENVERUS : VENDOR
TYPE.                          ESS - OPEN HOLE : ENVERUS ESSENTIAL CURVES – ACCESSIBLE THROUGH ENVERUS PRISM(TM)
DOC.                                  51227099 : ENVERUS HEADER RAW DOCUMENT ID
#___________________________________________________________________________________________________ 
~WELL INFORMATION 
# zrraAS4ibxVPgm4F4FjILRFQbgMcjf5VKWH9QXz9oP+5l3DBeEvHFHP9dTNjNwXm2+WMaTXZz7qhRLDoyN0AVg== 
# MNEM.UNIT                                              DATA : DESCRIPTION OF MNEMONIC 
#-----.-----                    ----------------------------- : ----------------------------- 
CNTY.                                                  REEVES : COUNTY 
STATE.                                                  TEXAS : STATE 
CNTRY.                                                    USA : COUNTRY 
API.                                             42-389-32421 : API (10 Digit) 
API_14.                                    42-389-32421-01-00 : API (14 Digits) 
API_14_std.                                 42-389-32421-0100 : API (14 Digits Standard) 
UWI.                                           42389324210100 : UNIQUE WELL ID 
WELL.                                      ARMSTRONG STATE #1 : WELL NAME
STRT.FT                                                2000.0 : START DEPTH
STOP.FT                                               14700.0 : STOP DEPTH
STEP.FT                                                   0.5 : STEP BETWEEN DEPTHS
NULL.                                                 -999.25 : NULL VALUE
COMP.                                   BULLDOG OPERATING CO. : COMPANY 
FLD.                                                  WILDCAT : FIELD 
LOC.                                                3-59-2778 : LOCATION 
SRVC.                                            SCHLUMBERGER : SERVICE COMPANY 
DATE.                                              08/28/2006 : DATE 
PREV_APII.                                       423893242100 : API NUMBER 
PREV_UWI.                                        423893242100 : UWI NUMBER 
TVD.                                                       NO : TVD FLAG
#___________________________________________________________________________________________________ 
~PARAMETER INFORMATION 
# MNEM.UNIT                                              DATA : DESCRIPTION OF MNEMONIC 
#-----.-----                    ----------------------------- : ----------------------------- 
RUN.                                                      ONE : RUN NUMBER 
PDAT.                                                      GL : PERMANENT DATUM 
EPD.FT                                              3134.8000 : ELEVATION OF PERM. DATUM 
LMF.                                            KELLY BUSHING : LOG MEASURED FROM 
EKB.FT                                              3157.8000 : ELEVATION OF KELLY BUSHING 
DF.FT                                               3156.8000 : ELEVATION OF DERRICK FLOOR 
GL.FT                                               3134.8000 : ELEVATION OF GROUND LEVEL 
TD.FT                                              14700.0000 : TOTAL DEPTH 
BHT.DEGF                                               230.00 : BOTTOM HOLE TEMPERATURE 
BLI.FT                                             14700.0000 : BOTTOM LOG INTERVAL 
CSGSIZE.IN                                             9.6250 : CASING SIZE 
BITSIZE.IN                                              8.750 : BITSIZE 
CSGD.FT                                                  2014 : CASING BOTTOM (DRILLER) 1 
CSGL.FT                                                  2014 : CASING BOTTOM (LOGGER) 1 
MUD.                                                    BRINE : DRILLING FLUID TYPE 
MUDV.CP                                               31.0000 : DRILLING FLUID VISCOSITY 
MUDD.LB/USG                                            9.3000 : DRILLING FLUID DENSITY 
FL.ML/30MIN                                           13.0000 : DRILLING FLUID LOSS 
PH.                                                   10.0000 : DRILLING FLUID PH 
MUDS.                                        CIRCULATION TANK : MUD SAMPLE SOURCE 
RM.OHMM                                                0.0540 : RESISTIVITY OF MUD SAMPLE 
RMT.DEGF                                              90.0000 : MUD SAMPLE TEMPERATURE 
RMF.OHMM                                               0.0640 : MUD FILTRATE RESISTIVITY 
RMFT.DEGF                                             80.0000 : MUD FILTRATE SAMPLE TEMPERATURE
#___________________________________________________________________________________________________ 
~CURVE INFORMATION 
# MNEM.UNIT           : CURVE DESCRIPTION 
#-----.-----          : ----------------------------- 
 DEPT.FT               : MEASURED DEPTH 
 DT.US/FT              : SONIC DELTA TRANSIT TIME (DELTA T) 
 SPHI.V/V              : SONIC POROSITY (SONIC POROSITY) 
 #___________________________________________________________________________________________________ 
~A         DEPT             DT           SPHI
# ...
         9569.0         69.201        0.15700
         9569.5         68.241        0.14200
         9570.0         66.861        0.14500
         9570.5         67.769        0.15300
         9571.0         69.385        0.16000
         9571.5         69.753        0.16700
         9572.0         69.153        0.16000
         9572.5         68.554        0.15400
         9573.0         67.951        0.14800
         9573.5         66.102        0.13000
         9574.0         63.372        0.10500
         9574.5         61.961        0.11500
         9575.0         62.666        0.13000
         9575.5         65.592        0.14600
         9576.0         68.515        0.16200
         9576.5         71.437        0.17700
         9577.0         73.202        0.19200
         9577.5         73.356        0.18900
         9578.0         72.742        0.18600
         9578.5         71.036        0.15300
         9579.0         66.072        0.12100
         9579.5         60.394        0.09700
         9580.0         60.864        0.10100
         9580.5         61.663        0.10400
         9581.0         61.475        0.10500
         9581.5         61.234        0.10300
         9582.0         59.727        0.09100
         9582.5         57.964        0.07000
         9583.0         56.814        0.08200
         9583.5         60.185        0.10700
         9584.0         63.367        0.13300
         9584.5         66.549        0.16100
         9585.0         69.477        0.16100
         9585.5         67.816        0.15200
         9586.0         64.079        0.12300
         9586.5         61.567        0.10500
         9587.0         62.029        0.11200
         9587.5         62.508        0.11200
         9588.0         62.983        0.11400
         9588.5         63.457        0.11700
         9589.0         63.928        0.12000
         9589.5         64.399        0.12400
         9590.0         65.580        0.13500
         9590.5         67.418        0.14700
         9591.0         69.074        0.15800
         9591.5         69.188        0.16200
         9592.0         69.276        0.15100
         9592.5         65.507        0.12900
         9593.0         60.020        0.09200
         9593.5         60.545        0.10100
         9594.0         61.831        0.12700
         9594.5         66.580        0.15300
         9595.0         70.708        0.17500
         9595.5         71.906        0.18100
         9596.0         69.065        0.15700
         9596.5         66.122        0.12100
         9597.0         63.694        0.12600
         9597.5         66.709        0.14300
         9598.0         70.937        0.17400
         9598.5         73.771        0.19300
         9599.0         74.306        0.19300
         9599.5         68.908        0.16100
         9600.0         64.377        0.12000
         9600.5         59.846        0.08000
         9601.0         57.909        0.07600
         9601.5         58.636        0.08800
         9602.0         60.766        0.10400
         9602.5         62.895        0.11900
         9603.0         65.024        0.13500
         9603.5         67.153        0.15100
         9604.0         68.211        0.15300
         9604.5         66.604        0.14000
         9605.0         64.433        0.12200
         9605.5         62.262        0.09600
         9606.0         60.423        0.09900
         9606.5         61.000        0.10400
         9607.0         61.814        0.10900
         9607.5         62.887        0.12000
         9608.0         63.961        0.13200
         9608.5         65.994        0.14400
         9609.0         68.068        0.15600
         9609.5         68.916        0.15700
         9610.0         69.014        0.15500
         9610.5         68.513        0.15300
         9611.0         68.068        0.16600
         9611.5         70.885        0.19200
         9612.0         75.563        0.21900
         9612.5         80.716        0.24800
         9613.0         85.372        0.27900
         9613.5         85.775        0.28000
         9614.0         82.722        0.26700
         9614.5         79.299        0.23900
         9615.0         75.875        0.21100
         9615.5         72.452        0.18300
         9616.0         69.276        0.15500
         9616.5         66.129        0.12700
         9617.0         63.195        0.10000
         9617.5         61.288        0.11000
         9618.0         63.142        0.13300
         9618.5         66.005        0.15900
         9619.0         69.879        0.16500
         9619.5         68.907        0.15300
         9620.0         67.404        0.14300
         9620.5         65.050        0.13000
         9621.0         65.746        0.14100
         9621.5         67.349        0.15400
         9622.0         68.952        0.16700
         9622.5         70.555        0.18600
         9623.0         74.070        0.22300
         9623.5         80.249        0.26000
         9624.0         86.428        0.29700
         9624.5         93.823        0.29800
         9625.0         92.616        0.29900
         9625.5         86.353        0.27500
         9626.0         80.030        0.23300
         9626.5         73.793        0.19100
         9627.0         71.369        0.17100
         9627.5         69.965        0.15800
         9628.0         66.372        0.12000
         9628.5         62.159        0.08800
         9629.0         57.953        0.06700
         9629.5         56.228        0.06600
         9630.0         57.867        0.08800
         9630.5         61.931        0.11700
         9631.0         65.995        0.14600
         9631.5         70.058        0.17100
         9632.0         71.489        0.17800
         9632.5         70.858        0.17100
         9633.0         67.722        0.13400
         9633.5         63.714        0.10200
         9634.0         59.706        0.07800
         9634.5         57.491        0.07200
         9635.0         56.889        0.07100
         9635.5         56.946        0.07300
         9636.0         58.911        0.09700
         9636.5         63.721        0.12900
         9637.0         68.082        0.16100
         9637.5         71.422        0.19000
         9638.0         74.762        0.20900
         9638.5         78.102        0.22700
         9639.0         79.135        0.23200
         9639.5         79.135        0.23100
         9640.0         75.999        0.21000
         9640.5         71.407        0.17900
         9641.0         63.642        0.13600
         9641.5         59.276        0.09300
         9642.0         53.581        0.05600
         9642.5         53.437        0.04600
         9643.0         53.600        0.04800
         9643.5         53.934        0.05000
         9644.0         53.998        0.04700
         9644.5         53.246        0.04400
         9645.0         52.374        0.04000
         9645.5         55.085        0.07100
         9646.0         58.975        0.10800
         9646.5         64.816        0.12900
         9647.0         65.617        0.13000
         9647.5         62.553        0.11700
         9648.0         58.138        0.08000
         9648.5         58.518        0.08500
         9649.0         62.615        0.10900
         9649.5         68.844        0.14500
         9650.0         76.318        0.18900
         9650.5         76.479        0.21500
         9651.0         76.720        0.21200
         9651.5         75.946        0.20900
         9652.0         74.979        0.20200
         9652.5         74.012        0.19500
         9653.0         73.044        0.18800
         9653.5         72.077        0.17800
         9654.0         71.891        0.18200
         9654.5         72.811        0.18800
         9655.0         73.961        0.19500
         9655.5         75.111        0.20300
