#--------------------------------------------------#
#-------------------ENVERUS, INC.------------------#
#------------------WWW.ENVERUS.COM-----------------#
#------------------COPYRIGHT 2020------------------#
#--------------------------------------------------#
#THIS FILE MAY BE USED ONLY IN ACCORDANCE WITH A CURRENT SUBSCRIPTION AGREEMENT BETWEEN
#THE USER AND ENVERUS, INC. NO PART OF THIS FILE MAY BE REPRODUCED, USED, COPIED,
#MODIFIED, PROPAGATED, OR DISTRIBUTED EXCEPT IN ACCORDANCE WITH THE SUBSCRIPTION
#AGREEMENT. UNAUTHORIZED USE OR DISTRIBUTION OF ALL OR ANY PART OF THIS FILE MAY VIOLATE
#COPYRIGHT, TRADEMARK, AND/OR OTHER LAWS AND IS SUBJECT TO CIVIL AS WELL AS CRIMINAL
#SANCTIONS.
#--------------------------------------------------#
#THIS FILE IS PROVIDED "AS-IS" AND ALL WARRANTIES ARE EXPRESSLY DISCLAIMED, WHETHER
#EXPRESS, ORAL, IMPLIED, STATUTORY OR OTHERWISE, INCLUDING ANY IMPLIED WARRANTY OF FITNESS
#FOR A PARTICULAR PURPOSE, MERCHANTABILITY, TITLE OR NON-INFRINGEMENT, AND ANY WARRANTIES
#ARISING BY VIRTUE OF CUSTOM OF TRADE OR COURSE OF DEALING.  FURTHER, ENVERUS, INC.
#AND ITS LICENSORS DO NOT REPRESENT OR WARRANT THAT THIS FILE WILL MEET USER'S
#REQUIREMENTS OR ARE SUITABLE FOR USER'S NEEDS OR THAT THE DATA OR RESULTS PROVIDED IN
#CONJUNCTION THEREWITH ARE CORRECT, ACCURATE, TIMELY OR RELIABLE. THESE DISCLAIMERS SHALL
#APPLY REGARDLESS OF ANY FAILURE OF ESSENTIAL PURPOSE OF ANY LIMITED REMEDY.  SOME
#JURISDICTIONS DO NOT ALLOW THE EXCLUSION OF CERTAIN WARRANTIES SO SOME OF THE ABOVE
#EXCLUSIONS MAY NOT APPLY. IN NO EVENT SHALL ENVERUS, INC. OR ANY OF ITS AFFILIATES
#BE LIABLE UNDER ANY LEGAL THEORY, WHETHER IN TORT (INCLUDING WITHOUT LIMITATION
#NEGLIGENCE), CONTRACT, STRICT LIABILITY, STATUTORY OR OTHERWISE, FOR ANY SPECIAL,
#INCIDENTAL, CONSEQUENTIAL, EXEMPLARY, PUNITIVE OR INDIRECT DAMAGE OF ANY KIND, INCLUDING
#WITHOUT LIMITATION LOSS OF REVENUE, PROFITS, GOODWILL, USE, AND/OR DATA OR THE COST OF
#PROCUREMENT OF SUBSTITUTE GOODS OR SERVICES, EVEN IF APPRISED OF THE POSSIBILITY OF SUCH
#DAMAGES IN ADVANCE.
#--------------------------------------------------#

~VERSION INFORMATION
VERS. 2.0 : CWLS LOG ASCII STANDARD - VERSION 2.0
WRAP.  NO : ONE LINE PER DEPTH STEP
~WELL INFORMATION
#MNEMONIC     .UNIT              VALUE :DESCRIPTION
STRT       .FT                0 :START DEPTH
STOP       .FT                15770 :STOP DEPTH
STEP       .FT                   0.500 :STEP
NULL       .                  -999.250 :NULL
UWI        .              42389309020000 :UNIQUE WELL ID
API        .              42389309020000 :API NUMBER
COMP       .         WALSH & WATTS  INC. :COMPANY
WELL       .        SABRE  1WS :WELL
DATE       .                28-JAN-1987 :LOG DATE
~CURVE INFORMATION
#MNEMONIC     .UNIT      API CODE :CURVE DESCRIPTION
DEPTH       .FT                      :MEASURED DEPTH
CAL.INCH        UNKNOWN   :CAL
DT.US/FT        UNKNOWN   :DT
GR.API        UNKNOWN   :GR
~A    DEPTH    CAL    DT    GR
# ...
 5255.5     12.869   65.745   63.943
 5256     12.871   66.121   65.124
 5256.5     12.859   65.692   65.681
 5257     12.848   63.988   64.272
 5257.5     12.836   62.648   62.862
 5258     12.824   62.582   63.473
 5258.5     12.813   62.646   65.376
 5259     12.801   62.869   66.817
 5259.5     12.789   64.212   68.117
 5260     12.778   65.636   70.65
 5260.5     12.766   65.91   74.123
 5261     12.754   65.543   73.84
 5261.5     12.743   65.608   73.264
 5262     12.731   66.042   75.433
 5262.5     12.719   68.063   83.376
 5263     12.708   68.126   89.878
 5263.5     12.696   68.157   93.206
 5264     12.686   67.885   98.147
 5264.5     12.705   67.024   103.894
 5265     12.725   68.612   129.04
 5265.5     12.744   69.265   137.27
 5266     12.764   69.734   131.96
 5266.5     12.783   70.606   123.628
 5267     12.803   69.842   118.112
 5267.5     12.822   68.13   106.625
 5268     12.838   66.024   85.442
 5268.5     12.835   64.021   67.487
 5269     12.832   62.953   63.996
 5269.5     12.829   62.845   65.18
 5270     12.826   63.004   69.315
 5270.5     12.823   64.077   72.842
 5271     12.82   65.201   72.009
 5271.5     12.818   65.627   71.177
 5272     12.815   66.025   70.345
 5272.5     12.812   66.128   73.997
 5273     12.809   66.054   77.7
 5273.5     12.806   66.21   81.499
 5274     12.803   66.392   85.662
 5274.5     12.8   66.717   99.332
 5275     12.798   67.661   123.322
 5275.5     12.795   69.646   137.606
 5276     12.792   72.05   152.064
 5276.5     12.789   73.844   142.973
 5277     12.786   74.036   131.016
 5277.5     12.783   71.953   118.542
 5278     12.781   68.263   107.244
 5278.5     12.778   67.876   101.733
 5279     12.775   67.49   99.388
 5279.5     12.772   66.638   92.655
 5280     12.769   65.748   86.476
 5280.5     12.766   65.048   80.352
 5281     12.763   64.556   76.192
 5281.5     12.761   63.872   81.919
 5282     12.758   63.147   86.774
 5282.5     12.755   63.727   89.073
 5283     12.752   64.354   92.968
 5283.5     12.761   65.251   94.01
 5284     12.777   66.683   91.439
 5284.5     12.793   67.189   90.088
 5285     12.81   66.99   91.332
 5285.5     12.826   66.517   109.18
 5286     12.842   67.515   124.689
 5286.5     12.858   68.76   135.613
 5287     12.875   69.962   134.541
 5287.5     12.891   69.056   129.595
 5288     12.907   67.421   112.438
 5288.5     12.923   66.27   102.962
 5289     12.94   65.453   93.486
 5289.5     12.956   65.29   86.065
 5290     12.972   65.126   80.76
 5290.5     12.988   64.963   75.117
 5291     13.005   64.136   69.473
 5291.5     13.021   62.767   63.829
 5292     13.037   60.903   55.183
 5292.5     13.053   59.965   53.362
 5293     13.066   60.998   55.528
 5293.5     13.076   62.775   57.694
 5294     13.087   64.462   58.013
 5294.5     13.097   65.253   54.219
 5295     13.107   63.75   50.424
 5295.5     13.118   61.136   46.63
 5296     13.128   61.094   42.835
 5296.5     13.139   62.143   40.425
 5297     13.149   63.814   40.448
 5297.5     13.16   65.485   41.748
 5298     13.17   66.278   43.048
 5298.5     13.181   66.098   42.574
 5299     13.191   66.774   41.425
 5299.5     13.202   67.495   39.4
 5300     13.212   68.22   37.374
 5300.5     13.223   68.172   36.382
 5301     13.233   67.617   35.668
 5301.5     13.244   65.309   35.16
 5302     13.254   63.001   35.023
 5302.5     13.265   62.897   37.537
 5303     13.275   63.871   39.279
 5303.5     13.286   66.174   39.524
 5304     13.298   68.62   39.77
 5304.5     13.313   69.839   40.983
 5305     13.328   69.385   42.124
 5305.5     13.343   68.931   43.264
 5306     13.359   68.854   44.405
 5306.5     13.374   68.904   45.546
 5307     13.389   68.955   46.686
 5307.5     13.404   69.005   46.183
 5308     13.42   69.055   44.797
 5308.5     13.435   68.602   43.412
 5309     13.45   67.981   42.026
 5309.5     13.465   67.173   40.827
 5310     13.481   67.677   41.471
 5310.5     13.496   68.705   44.194
 5311     13.511   69.732   47.7
 5311.5     13.526   69.822   50.774
 5312     13.542   69.85   49.882
 5312.5     13.557   70.226   48.521
 5313     13.572   70.68   47.16
 5313.5     13.587   71.056   45.798
 5314     13.603   70.629   45.617
 5314.5     13.618   70.323   46.396
 5315     13.633   70.536   47.616
 5315.5     13.648   70.614   48.928
 5316     13.663   70.524   50.312
 5316.5     13.677   70.72   51.695
 5317     13.691   71.49   52.381
 5317.5     13.705   71.515   52.244
 5318     13.719   70.956   50.33
 5318.5     13.734   70.617   48.235
 5319     13.748   70.389   46.14
 5319.5     13.762   70.16   43.842
 5320     13.776   69.931   41.192
 5320.5     13.79   68.055   38.767
 5321     13.805   66.51   37.117
 5321.5     13.819   66.445   36.729
 5322     13.833   68.027   40.392
 5322.5     13.847   70.544   44.213
 5323     13.861   70.624   48.034
 5323.5     13.875   70.165   48.742
 5324     13.89   69.97   47.28
 5324.5     13.904   69.712   45.119
 5325     13.915   69.31   45.658
 5325.5     13.924   69.956   46.197
 5326     13.932   69.609   45.106
 5326.5     13.941   68.679   43.984
 5327     13.95   67.28   42.842
 5327.5     13.958   66.093   43.253
 5328     13.967   66.686   45.173
 5328.5     13.976   67.698   47.093
 5329     13.984   68.84   46.28
 5329.5     13.993   69.687   45.447
 5330     14.002   70.444   43.338
 5330.5     14.01   70.859   41.097
 5331     14.019   71.275   38.855
 5331.5     14.028   71.237   38.553
 5332     14.036   69.034   38.495
 5332.5     14.045   66.939   38.436
 5333     14.054   67.557   38.488
 5333.5     14.062   68.203   39.13
 5334     14.071   70.354   41.169
 5334.5     14.08   77.147   41.268
 5335     14.088   77.679   40.679
 5335.5     14.097   77.677   40.091
 5336     14.106   77.676   40.225
 5336.5     14.114   76.303   41.133
 5337     14.123   75.871   42.844
 5337.5     14.132   76.488   46.174
 5338     14.14   75.863   51.725
 5338.5     14.149   72.918   54.909
 5339     14.157   71.606   52.756
 5339.5     14.166   70.709   48.247
 5340     14.175   71.164   43.737
 5340.5     14.183   73.654   41.052
 5341     14.192   74.012   39.113
 5341.5     14.201   74.982   37.397
 5342     14.209   75.569   37.327
 5342.5     14.218   74.175   38.893
 5343     14.227   71.823   40.458
 5343.5     14.235   70.345   42.024
 5344     14.244   69.231   40.056
 5344.5     14.253   70.266   38.074
 5345     14.252   70.314   36.093
 5345.5     14.25   70.362   34.112
 5346     14.247   69.572   32.163
 5346.5     14.245   65.359   33.132
 5347     14.243   63.558   38.315
 5347.5     14.241   62.737   43.499
 5348     14.239   63.615   47.876
 5348.5     14.237   67.837   47.03
 5349     14.235   69.135   46.185
 5349.5     14.233   69.602   45.339
 5350     14.231   69.56   44.493
 5350.5     14.229   69.873   43.647
 5351     14.226   70.191   42.735
 5351.5     14.224   69.972   41.801
 5352     14.222   69.23   41.111
 5352.5     14.22   69.14   40.627
 5353     14.218   69.05   40.889
 5353.5     14.216   68.961   41.417
 5354     14.214   68.871   42.39
 5354.5     14.212   68.396   43.363
 5355     14.21   67.89   44.336
 5355.5     14.208   67.051   41.132
 5356     14.206   66.867   40.079
 5356.5     14.203   66.972   41.23
 5357     14.201   68.08   43.645
 5357.5     14.199   69.192   43.988
 5358     14.197   70.06   42.378
 5358.5     14.195   69.873   40.001
 5359     14.193   69.979   38.236
 5359.5     14.191   70.139   38.949
 5360     14.189   70.041   40.048
 5360.5     14.187   69.711   39.173
 5361     14.185   68.247   37.018
 5361.5     14.183   66.85   35.124
 5362     14.18   66.112   33.512
 5362.5     14.178   66.578   32.986
 5363     14.176   68.181   32.877
 5363.5     14.174   69.92   35.996
 5364     14.172   73.45   40.293
 5364.5     14.181   74.007   44.684
 5365     14.191   74.351   48.301
 5365.5     14.201   73.808   49.045
 5366     14.21   72.916   47.738
 5366.5     14.22   72.478   45.286
 5367     14.23   72.304   41.812
