###############################################
##         ENVERUS                           ##
##         ESS - Open Hole                   ##
##         PERMIAN / DELAWARE                ##
##         Nov 04 2023  V4.0                 ##
##         42-389-32484-00-00                ##
###############################################
## Copyright 2017-2023  ENVERUS.  All Rights Reserved. 
## Confidential - Property of ENVERUS, use governed by terms and 
## conditions found within the existing Information Services Subscription Agreement 
## (as may be amended, the “ISSA”) between Customer and ENVERUS. 
## 
~VERSION INFORMATION
# MNEM.UNIT                               DATA : DESCRIPTION OF MNEMONIC
#-----.-----     ----------------------------- : -----------------------------
VERS.                                     2.00 : CWLS LOG ASCII STANDARD - VERSION 2.00
WRAP.                                       NO : MULTIPLE LINES PER DEPTH STEP
VEND.                                  ENVERUS : VENDOR
TYPE.                          ESS - OPEN HOLE : ENVERUS ESSENTIAL CURVES – ACCESSIBLE THROUGH ENVERUS PRISM(TM)
DOC.                                  31780441 : ENVERUS HEADER RAW DOCUMENT ID
#___________________________________________________________________________________________________ 
~WELL INFORMATION 
# aTsA/KVwhIqB1dg6n/zy22zTJjsJnyaNqg27ywuj9UrTfzbM7gscpQTlR+gOLN+9jERwUBAE6KvHEXpIT+cpyg== 
# MNEM.UNIT                                              DATA : DESCRIPTION OF MNEMONIC 
#-----.-----                    ----------------------------- : ----------------------------- 
CNTY.                                                  REEVES : COUNTY 
STATE.                                                  TEXAS : STATE 
CNTRY.                                                    USA : COUNTRY 
API.                                             42-389-32484 : API (10 Digit) 
API_14.                                    42-389-32484-00-00 : API (14 Digits) 
API_14_std.                                 42-389-32484-0000 : API (14 Digits Standard) 
UWI.                                           42389324840000 : UNIQUE WELL ID 
WELL.                                        BLK 59 ST 37  1H : WELL NAME
STRT.FT                                                 236.0 : START DEPTH
STOP.FT                                               12079.0 : STOP DEPTH
STEP.FT                                                   0.5 : STEP BETWEEN DEPTHS
NULL.                                                 -999.25 : NULL VALUE
COMP.                                       SHELL WESTERN E&P : COMPANY 
DATE.                                             05-SEP-2007 : LOG DATE
#___________________________________________________________________________________________________ 
~CURVE INFORMATION 
# MNEM.UNIT           : CURVE DESCRIPTION 
#-----.-----          : ----------------------------- 
 DEPT.FT               : MEASURED DEPTH 
 CALI.IN               : CALIPER (CAL - CAL) 
 GR.API                : GAMMA RAY (GR) 
 DT.US/FT              : SONIC DELTA TRANSIT TIME (DT) 
 DPHI.V/V              : DENSITY POROSITY (DPHI) 
 NPHI.V/V              : NEUTRON POROSITY (NPHI) 
 RHOB.G/CC             : BULK DENSITY (RHOB) 
 #___________________________________________________________________________________________________ 
~A         DEPT           CALI             GR             DT           DPHI           NPHI           RHOB
# ...
         1604.0         11.275         15.432       -999.250       -0.09957        0.24876      -999.2500
         1604.5         11.295         16.255       -999.250       -0.06501        0.24390      -999.2500
         1605.0         11.316         16.429       -999.250       -0.01311        0.24520      -999.2500
         1605.5         11.335         16.430       -999.250        0.03878        0.24650      -999.2500
         1606.0         11.338         16.352       -999.250        0.10407        0.24807      -999.2500
         1606.5         11.341         15.791       -999.250        0.17339        0.25212      -999.2500
         1607.0         11.344         15.229       -999.250        0.23225        0.27297         1.9430
         1607.5         11.361         14.667       -999.250        0.26863        0.28354         1.8950
         1608.0         11.379         15.863       -999.250        0.30501        0.27859         1.8470
         1608.5         11.376         17.086       -999.250        0.34140        0.25840         1.7990
         1609.0         11.367         16.934       -999.250        0.36942        0.24129         1.7500
         1609.5         11.358         15.409       -999.250        0.39479        0.22424         1.6990
         1610.0         11.349         13.914       -999.250        0.42016        0.21496         1.6620
         1610.5         11.357         15.103       -999.250        0.42680        0.21258         1.6540
         1611.0         11.379         15.147       -999.250        0.43068        0.21021         1.6300
         1611.5         11.400         13.922       -999.250        0.43712        0.20783         1.6060
         1612.0         11.411         12.505       -999.250        0.45372        0.20466         1.5910
         1612.5         11.420         11.471       -999.250        0.47032        0.20122         1.5830
         1613.0         11.429         11.982       -999.250        0.47986        0.19778         1.5830
         1613.5         11.439         12.797       -999.250        0.47721        0.19434         1.6020
         1614.0         11.448         13.737       -999.250        0.45858        0.18702         1.6210
         1614.5         11.458         13.674       -999.250        0.43172        0.17955         1.6390
         1615.0         11.467         12.803       -999.250        0.39062        0.15994         1.9450
         1615.5         11.476         11.932       -999.250        0.33661        0.13596         1.9690
         1616.0         11.486         11.061       -999.250        0.27174        0.12242         2.0570
         1616.5         11.495         10.190       -999.250       -0.02361        0.11275         2.1840
         1617.0         11.557          9.764       -999.250        0.01479        0.10308         2.3100
         1617.5         11.638          9.383       -999.250        0.09370        0.09694         2.4370
         1618.0         11.720          9.384       -999.250        0.18067        0.09302         1.9860
         1618.5         11.801         10.514       -999.250        0.26763        0.08909         1.9650
         1619.0         11.883         11.644       -999.250        0.21717        0.08516         1.9450
         1619.5         11.964         12.774       -999.250        0.22810        0.07652         1.9240
         1620.0         11.986         12.928       -999.250        0.25322        0.06026         1.9130
         1620.5         11.989         11.860       -999.250        0.27833        0.04400         1.9240
         1621.0         12.016         10.899       -999.250        0.27452        0.02774         1.9350
         1621.5         12.050          9.967       -999.250        0.25927        0.01492         1.9460
         1622.0         12.084          9.035       -999.250        0.25401        0.00832         1.9540
         1622.5         12.111          9.118       -999.250        0.25277        0.01343         1.9500
         1623.0         12.139          9.736       -999.250        0.25153        0.01854         1.9460
         1623.5         12.166         10.986       -999.250        0.25277        0.02365         1.9540
         1624.0         12.194         11.357       -999.250        0.25457        0.02735         1.9620
         1624.5         12.221         10.786       -999.250        0.25161        0.02660         1.9640
         1625.0         12.249         10.215       -999.250        0.24991        0.02362         1.9630
         1625.5         12.276          8.992       -999.250        0.25310        0.02065         1.9620
         1626.0         12.304          8.456       -999.250        0.25372        0.01767         1.9610
         1626.5         12.331          9.524       -999.250        0.25585        0.01470         1.9600
         1627.0         12.383         10.464       -999.250        0.25616        0.01198         1.9620
         1627.5         12.452         11.369       -999.250        0.25647        0.00929         1.9670
         1628.0         12.520         10.573       -999.250        0.25521        0.00660         1.9720
         1628.5         12.571          9.777       -999.250        0.24915        0.00660         1.8870
         1629.0         12.574          8.981       -999.250        0.25344        0.00862         1.7530
         1629.5         12.593          8.625       -999.250        0.28980        0.02412         1.6190
         1630.0         12.863          9.961       -999.250        0.40780        0.06541         1.4840
         1630.5         13.582         12.298       -999.250        0.56315        0.09443         1.4920
         1631.0         14.130         14.774       -999.250        0.48876        0.11173         1.6510
         1631.5         14.496         15.027       -999.250        0.39940        0.09784         1.8090
         1632.0         13.686         13.603       -999.250        0.31091        0.06138         1.8940
         1632.5         13.082         10.903       -999.250        0.29499        0.02492         1.9170
         1633.0         12.954          8.103       -999.250        0.27915        0.00139         1.9270
         1633.5         12.991          8.487       -999.250        0.27343       -0.00578         1.9310
         1634.0         13.027          9.452       -999.250        0.27291       -0.01097         1.9280
         1634.5         13.063         10.417       -999.250        0.27547       -0.01359         1.9130
         1635.0         13.099         10.350       -999.250        0.28221       -0.01497         1.9090
         1635.5         13.135         10.013       -999.250        0.28795       -0.01169         1.9050
         1636.0         13.171         10.037       -999.250        0.28594       -0.00649         1.8730
         1636.5         13.219         13.208       -999.250        0.29666        0.00128         1.8620
         1637.0         13.275         16.332       -999.250        0.31860        0.00904         1.8700
         1637.5         13.331         16.665       -999.250        0.31994        0.01680         1.8780
         1638.0         13.387         16.999       -999.250        0.31665        0.02566         1.8520
         1638.5         13.464         17.332       -999.250        0.29644        0.03890         1.8070
         1639.0         13.671         16.987       -999.250        0.31463        0.04821         1.7610
         1639.5         15.029         13.305       -999.250        0.35659        0.04155         1.7820
         1640.0         15.280         10.664       -999.250        0.39855        0.03489         1.8490
         1640.5         14.360         10.099       -999.250        0.35610        0.02196         1.9150
         1641.0         13.701          9.534       -999.250        0.31323        0.00886         1.9730
         1641.5         13.632          8.970       -999.250        0.27036       -0.00425         1.9560
