###############################################
##         ENVERUS                           ##
##         ESS - Open Hole                   ##
##         PERMIAN / DELAWARE                ##
##         Nov 04 2023  V4.0                 ##
##         42-389-32484-00-00                ##
###############################################
## Copyright 2017-2023  ENVERUS.  All Rights Reserved. 
## Confidential - Property of ENVERUS, use governed by terms and 
## conditions found within the existing Information Services Subscription Agreement 
## (as may be amended, the “ISSA”) between Customer and ENVERUS. 
## 
~VERSION INFORMATION
# MNEM.UNIT                               DATA : DESCRIPTION OF MNEMONIC
#-----.-----     ----------------------------- : -----------------------------
VERS.                                     2.00 : CWLS LOG ASCII STANDARD - VERSION 2.00
WRAP.                                       NO : MULTIPLE LINES PER DEPTH STEP
VEND.                                  ENVERUS : VENDOR
TYPE.                          ESS - OPEN HOLE : ENVERUS ESSENTIAL CURVES – ACCESSIBLE THROUGH ENVERUS PRISM(TM)
DOC.                                  31780441 : ENVERUS HEADER RAW DOCUMENT ID
#___________________________________________________________________________________________________ 
~WELL INFORMATION 
# aTsA/KVwhIqB1dg6n/zy22zTJjsJnyaNqg27ywuj9UrTfzbM7gscpQTlR+gOLN+9jERwUBAE6KvHEXpIT+cpyg== 
# MNEM.UNIT                                              DATA : DESCRIPTION OF MNEMONIC 
#-----.-----                    ----------------------------- : ----------------------------- 
CNTY.                                                  REEVES : COUNTY 
STATE.                                                  TEXAS : STATE 
CNTRY.                                                    USA : COUNTRY 
API.                                             42-389-32484 : API (10 Digit) 
API_14.                                    42-389-32484-00-00 : API (14 Digits) 
API_14_std.                                 42-389-32484-0000 : API (14 Digits Standard) 
UWI.                                           42389324840000 : UNIQUE WELL ID 
WELL.                                        BLK 59 ST 37  1H : WELL NAME
STRT.FT                                                 236.0 : START DEPTH
STOP.FT                                               12079.0 : STOP DEPTH
STEP.FT                                                   0.5 : STEP BETWEEN DEPTHS
NULL.                                                 -999.25 : NULL VALUE
COMP.                                       SHELL WESTERN E&P : COMPANY 
DATE.                                             05-SEP-2007 : LOG DATE
#___________________________________________________________________________________________________ 
~CURVE INFORMATION 
# MNEM.UNIT           : CURVE DESCRIPTION 
#-----.-----          : ----------------------------- 
 DEPT.FT               : MEASURED DEPTH 
 CALI.IN               : CALIPER (CAL - CAL) 
 GR.API                : GAMMA RAY (GR) 
 DT.US/FT              : SONIC DELTA TRANSIT TIME (DT) 
 DPHI.V/V              : DENSITY POROSITY (DPHI) 
 NPHI.V/V              : NEUTRON POROSITY (NPHI) 
 RHOB.G/CC             : BULK DENSITY (RHOB) 
 #___________________________________________________________________________________________________ 
~A         DEPT           CALI             GR             DT           DPHI           NPHI           RHOB
# ...
         2288.0         15.430          7.083       -999.250       -0.16738       -0.03951         2.9970
         2288.5         15.445          7.165       -999.250       -0.16607       -0.03957         2.9830
         2289.0         15.460          7.071       -999.250       -0.17282       -0.03934         2.9880
         2289.5         15.475          7.189       -999.250       -0.17958       -0.03816         3.0010
         2290.0         15.490          7.994       -999.250       -0.18473       -0.03698         3.0420
         2290.5         15.505          9.596       -999.250       -0.19435       -0.03665         3.0310
         2291.0         15.519         11.197       -999.250       -0.18828       -0.03776         3.0200
         2291.5         15.534         12.693       -999.250       -0.18130       -0.03834         3.0090
         2292.0         15.549         11.412       -999.250       -0.16939       -0.03892         2.9860
         2292.5         15.564          9.335       -999.250       -0.15826       -0.03949         2.9730
         2293.0         15.579          9.906       -999.250       -0.15472       -0.04015         2.9780
         2293.5         15.594         10.559       -999.250       -0.16237       -0.04082         2.9880
         2294.0         15.608         11.211       -999.250       -0.16497       -0.04149         2.9960
         2294.5         15.623         11.178       -999.250       -0.16527       -0.04116         2.9870
         2295.0         15.638         10.347       -999.250       -0.15908       -0.04073         2.9770
         2295.5         15.653          8.824       -999.250       -0.15529       -0.04030         2.9680
         2296.0         15.668          7.398       -999.250       -0.15149       -0.03907         2.9650
         2296.5         15.683          6.115       -999.250       -0.15279       -0.03719         2.9660
         2297.0         15.697          6.961       -999.250       -0.15423       -0.03530         2.9660
         2297.5         15.712          7.807       -999.250       -0.15257       -0.03341         2.9640
         2298.0         15.727          8.654       -999.250       -0.14546       -0.03331         2.9620
         2298.5         15.742          9.500       -999.250       -0.14848       -0.03331         2.9600
         2299.0         15.757         10.346       -999.250       -0.15122       -0.03331         2.9570
         2299.5         15.770         10.148       -999.250       -0.14676       -0.03331         2.9550
         2300.0         15.782          9.425       -999.250       -0.14536       -0.03329         2.9530
         2300.5         15.793          8.703       -999.250       -0.14637       -0.03323         2.9510
         2301.0         15.805          7.769       -999.250       -0.14615       -0.03318         2.9490
         2301.5         15.816          6.790       -999.250       -0.14048       -0.03313         2.9500
         2302.0         15.828          7.160       -999.250       -0.14164       -0.03308         2.9560
         2302.5         15.839          8.651       -999.250       -0.14567       -0.03303         2.9700
         2303.0         15.851         10.431       -999.250       -0.15343       -0.03298         2.9830
         2303.5         15.862         11.031       -999.250       -0.16346       -0.03293         2.9960
         2304.0         15.874         10.851       -999.250       -0.17349       -0.03288         3.0130
         2304.5         15.885          9.708       -999.250       -0.17068       -0.03282         3.0000
         2305.0         15.897          8.564       -999.250       -0.16053       -0.03320         2.9870
         2305.5         15.909          7.886       -999.250       -0.15037       -0.03370         2.9730
         2306.0         15.920          8.005       -999.250       -0.15331       -0.03421         2.9610
         2306.5         15.932          8.339       -999.250       -0.18071       -0.03471         3.0380
         2307.0         15.943          8.672       -999.250       -0.19540       -0.03522         3.0370
         2307.5         15.955          9.005       -999.250       -0.19881       -0.03468         3.0110
         2308.0         15.966          9.339       -999.250       -0.18079       -0.03410         2.9980
         2308.5         15.978          9.362       -999.250       -0.16835       -0.03352         2.9980
         2309.0         15.989          9.158       -999.250       -0.16714       -0.03294         2.9970
         2309.5         16.001          9.531       -999.250       -0.17123       -0.03237         2.9960
         2310.0         16.012         11.056       -999.250       -0.16989       -0.03292         2.9910
         2310.5         16.024         10.598       -999.250       -0.16527       -0.03356         2.9860
         2311.0         16.035          9.766       -999.250       -0.16128       -0.03421         2.9810
         2311.5         16.047          8.935       -999.250       -0.15774       -0.03486         2.9760
         2312.0         16.059          7.722       -999.250       -0.15483       -0.03551         2.9710
         2312.5         16.070          8.336       -999.250       -0.15415       -0.03616         2.9790
         2313.0         16.077          9.059       -999.250       -0.15949       -0.03651         2.9880
         2313.5         16.083          9.650       -999.250       -0.16935       -0.03559         2.9970
         2314.0         16.090          9.197       -999.250       -0.16935       -0.03467         3.0380
         2314.5         16.096          8.744       -999.250       -0.16935       -0.03381         3.0770
         2315.0         16.103          8.291       -999.250       -0.18132       -0.03300         3.0590
         2315.5         16.109          7.898       -999.250       -0.20226       -0.03233         3.0410
         2316.0         16.116          8.236       -999.250       -0.21546       -0.03244         3.0230
         2316.5         16.122          9.513       -999.250       -0.19060       -0.03254         3.0060
         2317.0         16.129         11.140       -999.250       -0.16890       -0.03265         2.9990
         2317.5         16.135         11.682       -999.250       -0.17020       -0.03275         3.0030
         2318.0         16.142         11.087       -999.250       -0.17150       -0.03149         3.0060
         2318.5         16.148         10.493       -999.250       -0.17279       -0.02924         3.0070
         2319.0         16.155         11.068       -999.250       -0.17409       -0.02700         3.0070
         2319.5         16.161         13.119       -999.250       -0.17245       -0.02475         3.0060
         2320.0         16.168         14.678       -999.250       -0.17069       -0.02386         3.0040
         2320.5         16.174         13.702       -999.250       -0.16894       -0.02672         2.9980
         2321.0         16.181         12.726       -999.250       -0.16719       -0.02958         2.9910
         2321.5         16.187         11.751       -999.250       -0.16425       -0.03244         2.9850
         2322.0         16.194         11.856       -999.250       -0.16020       -0.03531         2.9780
         2322.5         16.200         12.964       -999.250       -0.15683       -0.03619         2.9930
         2323.0         16.207         11.933       -999.250       -0.15746       -0.03618         3.0180
         2323.5         16.213         10.601       -999.250       -0.16698       -0.03618         3.0030
         2324.0         16.220          9.268       -999.250       -0.17651       -0.03618         2.9930
         2324.5         16.226          8.341       -999.250       -0.17088       -0.03629         2.9860
         2325.0         16.233          8.430       -999.250       -0.15874       -0.03656         2.9790
         2325.5         16.238          8.519       -999.250       -0.15447       -0.03684         2.9720
