###############################################
##         ENVERUS                           ##
##         ESS - Open Hole                   ##
##         PERMIAN / DELAWARE                ##
##         Nov 04 2023  V4.0                 ##
##         42-389-32398-00-00                ##
###############################################
## Copyright 2017-2023  ENVERUS.  All Rights Reserved. 
## Confidential - Property of ENVERUS, use governed by terms and 
## conditions found within the existing Information Services Subscription Agreement 
## (as may be amended, the “ISSA”) between Customer and ENVERUS. 
## 
~VERSION INFORMATION
# MNEM.UNIT                               DATA : DESCRIPTION OF MNEMONIC
#-----.-----     ----------------------------- : -----------------------------
VERS.                                     2.00 : CWLS LOG ASCII STANDARD - VERSION 2.00
WRAP.                                       NO : MULTIPLE LINES PER DEPTH STEP
VEND.                                  ENVERUS : VENDOR
TYPE.                          ESS - OPEN HOLE : ENVERUS ESSENTIAL CURVES – ACCESSIBLE THROUGH ENVERUS PRISM(TM)
DOC.                                  31812117 : ENVERUS HEADER RAW DOCUMENT ID
#___________________________________________________________________________________________________ 
~WELL INFORMATION 
# uAwnbjLw6pKN5CeTb7gwROLhNOHLu74gercCwdGpUdKCBCGOTLsJuzWIBCYkU6KzQxtC+uHRBloynRtd0Ulspg== 
# MNEM.UNIT                                              DATA : DESCRIPTION OF MNEMONIC 
#-----.-----                    ----------------------------- : ----------------------------- 
CNTY.                                                  REEVES : COUNTY 
STATE.                                                  TEXAS : STATE 
CNTRY.                                                    USA : COUNTRY 
API.                                             42-389-32398 : API (10 Digit) 
API_14.                                    42-389-32398-00-00 : API (14 Digits) 
API_14_std.                                 42-389-32398-0000 : API (14 Digits Standard) 
UWI.                                           42389323980000 : UNIQUE WELL ID 
WELL.                                    BLOCK 58 STATE 32  1 : WELL NAME
STRT.FT                                                8311.0 : START DEPTH
STOP.FT                                               12834.0 : STOP DEPTH
STEP.FT                                                   0.5 : STEP BETWEEN DEPTHS
NULL.                                                 -999.25 : NULL VALUE
COMP.                                       SHELL WESTERN E&P : COMPANY 
DATE.                                             08-FEB-2006 : LOG DATE
#___________________________________________________________________________________________________ 
~CURVE INFORMATION 
# MNEM.UNIT           : CURVE DESCRIPTION 
#-----.-----          : ----------------------------- 
 DEPT.FT               : MEASURED DEPTH 
 CALI__B.IN            : CALIPER (CAL - CAL) 
 GR__B.API             : GAMMA RAY (GR) 
 DT__B.US/FT           : SONIC DELTA TRANSIT TIME (DT) 
 RESS__B.OHMM          : SHALLOW INDUCTION RESISTIVITY (ILS - ILS) 
 RESD__B.OHMM          : DEEP INDUCTION RESISTIVITY (ILD - ILD) 
 #___________________________________________________________________________________________________ 
~A         DEPT        CALI__B          GR__B          DT__B        RESS__B        RESD__B
# ...
        10247.0          8.398        112.449         77.204         20.714         21.947
        10247.5          8.399        106.023         77.238         22.274         21.706
        10248.0          8.397         98.892         77.318         21.389         21.466
        10248.5          8.396         98.119         77.304         20.504         21.225
        10249.0          8.395        105.323         77.268         19.619         21.518
        10249.5          8.393        113.696         77.317         20.391         22.602
        10250.0          8.392        115.151         77.443         21.776         23.685
        10250.5          8.391        106.729         77.012         23.161         24.202
        10251.0          8.390        107.454         76.757         23.719         24.622
        10251.5          8.388        113.606         76.934         24.166         24.765
        10252.0          8.387        119.759         78.277         22.922         24.847
        10252.5          8.386        125.288         77.949         22.456         24.929
        10253.0          8.384        125.791         77.232         24.387         26.543
        10253.5          8.383        123.556         76.452         26.317         32.305
        10254.0          8.382        119.516         76.328         28.247         38.066
        10254.5          8.380        115.476         76.631         28.302         38.311
        10255.0          8.379        111.436         76.592         26.842         34.070
        10255.5          8.378        107.395         74.108         25.382         29.828
        10256.0          8.377        100.783         70.312         23.921         26.866
        10256.5          8.375         87.487         69.404         26.042         29.796
        10257.0          8.374         76.790         69.524         28.629         32.726
        10257.5          8.373         68.687         70.072         31.215         35.656
        10258.0          8.371         72.709         71.460         28.550         31.630
        10258.5          8.370         83.940         73.577         23.956         27.418
        10259.0          8.369         95.170         75.624         19.868         23.206
        10259.5          8.367         99.738         76.500         18.162         19.809
        10260.0          8.366        102.169         76.036         17.347         19.009
        10260.5          8.365        103.038         74.614         16.531         18.210
        10261.0          8.364        102.736         72.917         16.232         17.410
        10261.5          8.362         95.653         72.748         18.098         17.782
        10262.0          8.362         87.799         73.131         19.406         20.553
        10262.5          8.362         83.531         73.585         23.578         23.324
        10263.0          8.363         85.014         74.890         23.583         25.102
        10263.5          8.364         95.508         76.883         22.333         23.705
        10264.0          8.364        106.003         78.918         19.508         21.766
        10264.5          8.365        114.869         79.162         16.504         17.937
        10265.0          8.365        116.377         78.271         13.017         14.107
        10265.5          8.366        116.194         76.489          9.958         10.740
        10266.0          8.366        114.330         72.890          8.819         10.252
        10266.5          8.367         95.923         68.357         10.910         16.682
        10267.0          8.367         77.517         63.845         16.105         24.082
        10267.5          8.368         59.110         62.548         25.791         31.482
        10268.0          8.368         51.907         63.414         35.395         38.882
        10268.5          8.369         48.592         64.716         38.997         40.503
        10269.0          8.369         58.426         69.065         32.874         36.688
        10269.5          8.370         73.685         74.923         23.800         30.207
        10270.0          8.370        104.795         78.710         17.716         23.726
        10270.5          8.371        135.904         81.839         15.047         17.698
        10271.0          8.371        148.410         82.075         14.024         17.902
        10271.5          8.372        147.982         81.699         13.530         18.106
        10272.0          8.372        136.451         78.358         13.701         18.310
        10272.5          8.373        117.302         76.323         14.963         18.514
        10273.0          8.373         98.152         76.352         17.871         20.730
        10273.5          8.374         93.495         76.971         20.880         26.357
        10274.0          8.375         92.583         77.727         22.351         27.671
        10274.5          8.375         98.916         79.075         21.081         27.826
        10275.0          8.376        109.586         80.849         18.403         23.978
        10275.5          8.376        120.255         80.778         15.074         20.130
        10276.0          8.377        123.610         79.332         12.819         16.283
        10276.5          8.377        111.290         75.031         11.239         12.435
        10277.0          8.378         95.205         72.507         10.352         13.691
        10277.5          8.378         79.120         71.594         13.408         17.190
        10278.0          8.379         78.119         71.748         17.585         20.690
        10278.5          8.379         85.602         73.253         17.088         20.721
        10279.0          8.380         98.640         74.439         13.319         16.469
        10279.5          8.380        111.679         75.579         11.831         12.659
        10280.0          8.381        112.284         75.166         11.367         12.634
        10280.5          8.381        111.094         72.420         11.292         12.608
        10281.0          8.382         98.425         68.637         12.483         13.330
        10281.5          8.382         75.697         67.643         15.792         17.254
        10282.0          8.383         64.985         66.849         20.145         21.179
        10282.5          8.383         58.244         66.040         21.638         25.103
        10283.0          8.384         63.455         67.477         20.556         23.878
        10283.5          8.384         73.002         69.692         18.328         20.258
        10284.0          8.385         84.498         72.958         16.516         18.045
        10284.5          8.386         95.995         73.812         15.994         18.848
        10285.0          8.386        107.491         74.666         14.955         18.409
        10285.5          8.387        118.987         74.200         13.269         14.776
        10286.0          8.387        121.906         71.803         11.916         13.428
        10286.5          8.388        117.832         69.041         12.329         13.193
        10287.0          8.388        100.151         67.860         13.329         13.001
        10287.5          8.389         82.231         67.558         14.991         15.568
        10288.0          8.389         64.073         67.907         16.098         17.218
        10288.5          8.390         68.007         69.705         14.844         16.609
        10289.0          8.390         78.187         71.553         12.841         14.229
        10289.5          8.391         89.719         73.354         10.630         11.849
        10290.0          8.391        101.251         74.061          9.567          9.469
        10290.5          8.392        104.211         73.809         11.266         12.164
