#--------------------------------------------------#
#-------------------ENVERUS, INC.------------------#
#------------------WWW.ENVERUS.COM-----------------#
#------------------COPYRIGHT 2020------------------#
#--------------------------------------------------#
#THIS FILE MAY BE USED ONLY IN ACCORDANCE WITH A CURRENT SUBSCRIPTION AGREEMENT BETWEEN
#THE USER AND ENVERUS, INC. NO PART OF THIS FILE MAY BE REPRODUCED, USED, COPIED,
#MODIFIED, PROPAGATED, OR DISTRIBUTED EXCEPT IN ACCORDANCE WITH THE SUBSCRIPTION
#AGREEMENT. UNAUTHORIZED USE OR DISTRIBUTION OF ALL OR ANY PART OF THIS FILE MAY VIOLATE
#COPYRIGHT, TRADEMARK, AND/OR OTHER LAWS AND IS SUBJECT TO CIVIL AS WELL AS CRIMINAL
#SANCTIONS.
#--------------------------------------------------#
#THIS FILE IS PROVIDED "AS-IS" AND ALL WARRANTIES ARE EXPRESSLY DISCLAIMED, WHETHER
#EXPRESS, ORAL, IMPLIED, STATUTORY OR OTHERWISE, INCLUDING ANY IMPLIED WARRANTY OF FITNESS
#FOR A PARTICULAR PURPOSE, MERCHANTABILITY, TITLE OR NON-INFRINGEMENT, AND ANY WARRANTIES
#ARISING BY VIRTUE OF CUSTOM OF TRADE OR COURSE OF DEALING.  FURTHER, ENVERUS, INC.
#AND ITS LICENSORS DO NOT REPRESENT OR WARRANT THAT THIS FILE WILL MEET USER'S
#REQUIREMENTS OR ARE SUITABLE FOR USER'S NEEDS OR THAT THE DATA OR RESULTS PROVIDED IN
#CONJUNCTION THEREWITH ARE CORRECT, ACCURATE, TIMELY OR RELIABLE. THESE DISCLAIMERS SHALL
#APPLY REGARDLESS OF ANY FAILURE OF ESSENTIAL PURPOSE OF ANY LIMITED REMEDY.  SOME
#JURISDICTIONS DO NOT ALLOW THE EXCLUSION OF CERTAIN WARRANTIES SO SOME OF THE ABOVE
#EXCLUSIONS MAY NOT APPLY. IN NO EVENT SHALL ENVERUS, INC. OR ANY OF ITS AFFILIATES
#BE LIABLE UNDER ANY LEGAL THEORY, WHETHER IN TORT (INCLUDING WITHOUT LIMITATION
#NEGLIGENCE), CONTRACT, STRICT LIABILITY, STATUTORY OR OTHERWISE, FOR ANY SPECIAL,
#INCIDENTAL, CONSEQUENTIAL, EXEMPLARY, PUNITIVE OR INDIRECT DAMAGE OF ANY KIND, INCLUDING
#WITHOUT LIMITATION LOSS OF REVENUE, PROFITS, GOODWILL, USE, AND/OR DATA OR THE COST OF
#PROCUREMENT OF SUBSTITUTE GOODS OR SERVICES, EVEN IF APPRISED OF THE POSSIBILITY OF SUCH
#DAMAGES IN ADVANCE.
#--------------------------------------------------#

~VERSION INFORMATION
VERS. 2.0 : CWLS LOG ASCII STANDARD - VERSION 2.0
WRAP. NO : ONE LINE PER DEPTH STEP
~WELL INFORMATION
#MNEMONIC     .UNIT              VALUE :DESCRIPTION
STRT       .FT                2834.00000 :START DEPTH
STOP       .FT                7010.00000 :STOP DEPTH
STEP       .FT                0.50000 :STEP
NULL       .                -999.25000 :NULL VALUE
UWI       .                42389304120000 :UNIQUE WELL ID
API       .                42389304120000 :API NUMBER
COMP       .                 :COMPANY
WELL       .                 :WELL
FLD       .                 :FIELD
LOC       .                 :LOCATION
CNTY       .                 :COUNTY
STAT       .                 :STATE
CTRY       .                 :COUNTRY
SRVC       .                 :SERVICE COMPANY
DATE       .                 :DATE
~CURVE INFORMATION
#MNEMONIC     .UNIT      API CODE :CURVE DESCRIPTION
DEPTH       .FT                      :MEASURED DEPTH
CAL       .IN        UNKNOWN   :CAL
DT       .US/FT        UNKNOWN   :DT
GR       .GAPI        UNKNOWN   :GR
~A    DEPTH    CAL    DT    GR
# ...
5339.50000    15.68272    77.84137    30.25374
5340.00000    15.66921    79.08812    29.27086
5340.50000    15.65570    80.33487    28.33704
5341.00000    15.64219    81.58161    28.01373
5341.50000    15.62869    80.17050    27.69042
5342.00000    15.61518    77.43758    27.36710
5342.50000    15.60167    74.70466    27.04379
5343.00000    15.58816    71.97174    26.72048
5343.50000    15.57465    69.23882    26.77472
5344.00000    15.56114    66.50590    28.38043
5344.50000    15.54763    64.46588    29.98614
5345.00000    15.53412    66.12339    31.59184
5345.50000    15.52061    67.78090    33.19755
5346.00000    15.52560    69.43841    34.80326
5346.50000    15.53373    71.09592    34.82839
5347.00000    15.54186    72.75342    33.31766
5347.50000    15.54998    74.41093    31.80692
5348.00000    15.55811    76.06844    30.29619
5348.50000    15.56624    77.72595    28.78545
5349.00000    15.57436    79.38346    27.27472
5349.50000    15.58249    81.04097    27.02155
5350.00000    15.59062    82.69848    26.81112
5350.50000    15.59874    82.99171    26.60068
5351.00000    15.60687    76.31378    26.39025
5351.50000    15.60260    74.86763    26.68214
5352.00000    15.59035    73.42148    27.57781
5352.50000    15.57810    71.97532    28.47348
5353.00000    15.56584    70.52917    29.36915
5353.50000    15.55359    70.55933    30.26482
5354.00000    15.54134    71.88918    30.94090
5354.50000    15.52909    73.21904    30.28397
5355.00000    15.51684    74.53339    29.62705
5355.50000    15.50459    73.72740    28.97012
5356.00000    15.49233    72.92142    28.31320
5356.50000    15.48008    72.11544    27.65627
5357.00000    15.46783    71.30946    26.99935
5357.50000    15.45558    70.50347    26.72031
5358.00000    15.44332    69.69749    26.55192
5358.50000    15.43107    68.89151    26.38354
5359.00000    15.41882    68.08553    26.21515
5359.50000    15.40657    67.27954    26.04677
5360.00000    15.43161    66.47356    25.87839
5360.50000    15.46015    65.66758    25.71157
5361.00000    15.48870    65.27466    25.71199
5361.50000    15.51725    67.06104    25.71241
5362.00000    15.54579    68.84742    25.71282
5362.50000    15.57434    70.63381    25.71324
5363.00000    15.60289    72.42019    25.71366
5363.50000    15.63143    74.20657    25.71407
5364.00000    15.65998    75.80544    25.71449
5364.50000    15.68853    75.64571    25.71491
5365.00000    15.71707    75.48599    25.71532
5365.50000    15.74562    75.32627    25.78633
5366.00000    15.77007    75.16655    26.38561
5366.50000    15.76718    75.00683    26.98490
5367.00000    15.76430    74.84710    27.58418
5367.50000    15.76141    74.68738    28.18347
5368.00000    15.75852    74.52766    28.78275
5368.50000    15.75563    74.36794    29.38203
5369.00000    15.75275    74.20822    31.23206
5369.50000    15.74986    74.75772    34.64003
5370.00000    15.74697    75.36202    38.04800
5370.50000    15.74408    75.96633    41.45597
5371.00000    15.74120    76.57064    44.86394
5371.50000    15.73831    77.17494    48.27190
5372.00000    15.73542    76.19743    51.67988
5372.50000    15.73253    71.77657    53.21616
5373.00000    15.72964    68.19450    48.85620
5373.50000    15.72676    68.12700    44.49624
5374.00000    15.70347    68.05949    39.87468
5374.50000    15.66361    67.99198    34.68890
5375.00000    15.62375    67.92448    31.05193
5375.50000    15.58389    67.85698    30.48380
5376.00000    15.54403    67.78947    29.91566
5376.50000    15.50417    67.72196    29.34753
5377.00000    15.46431    67.65446    28.77939
5377.50000    15.42445    67.58695    28.21125
5378.00000    15.38459    67.54172    27.64312
5378.50000    15.34473    67.51794    27.34906
5379.00000    15.30487    67.49416    27.06142
5379.50000    15.27527    67.47037    26.77378
5380.00000    15.25001    67.44659    26.48614
5380.50000    15.22475    67.42281    26.19850
5381.00000    15.19950    67.39903    25.91087
5381.50000    15.17424    62.71608    25.62323
5382.00000    15.14898    62.79377    25.33559
5382.50000    15.12372    62.87146    25.14435
5383.00000    15.09846    62.94915    25.10258
5383.50000    15.07320    63.02684    25.06081
5384.00000    15.04794    63.10453    25.01904
5384.50000    15.02269    63.18222    24.97727
5385.00000    15.01026    63.25991    24.93550
5385.50000    14.99930    63.33760    24.89373
5386.00000    14.98835    63.41529    24.85196
5386.50000    14.97739    63.49298    24.81019
5387.00000    14.96643    62.00564    25.10438
5387.50000    14.95547    60.41454    25.91369
5388.00000    14.94451    58.82344    26.72299
5388.50000    14.93355    57.23234    27.53229
5389.00000    14.92259    55.64124    28.34160
5389.50000    14.91163    54.05014    29.15090
5390.00000    14.90067    52.45904    29.96020
5390.50000    14.88971    50.86794    30.76951
5391.00000    14.87875    53.39841    30.36164
5391.50000    14.86779    58.69673    29.76399
5392.00000    14.85683    63.09633    29.16634
5392.50000    14.84587    62.64752    28.56868
5393.00000    14.83491    62.19870    27.97103
5393.50000    14.82395    61.74989    27.37338
5394.00000    14.81300    61.30108    27.07662
5394.50000    14.80204    60.85226    27.07721
5395.00000    14.79108    61.17417    27.07780
5395.50000    14.78012    62.75104    27.07839
5396.00000    14.76916    64.32792    27.07898
5396.50000    14.75820    65.90479    27.07957
5397.00000    14.74724    67.07517    27.08016
5397.50000    14.73628    66.35398    27.08075
5398.00000    14.72532    65.63279    27.08134
5398.50000    14.73495    64.91160    27.08193
5399.00000    14.74483    64.19041    27.08252
5399.50000    14.75471    63.51378    27.08311
5400.00000    14.76458    66.12899    27.08370
5400.50000    14.77446    68.74420    27.50947
5401.00000    14.78433    71.35940    27.97275
5401.50000    14.79421    73.97462    28.43604
5402.00000    14.80408    76.58983    28.89933
5402.50000    14.81396    78.54249    29.36261
5403.00000    14.82383    80.34920    29.64220
5403.50000    14.83371    82.15592    29.78439
5404.00000    14.84358    83.35827    29.92658
5404.50000    14.85346    81.14597    30.06876
5405.00000    14.85909    78.93368    30.86207
5405.50000    14.80792    76.72139    32.21344
5406.00000    14.75674    74.50910    33.56481
5406.50000    14.70556    72.29680    34.91618
5407.00000    14.65439    70.08451    36.91116
5407.50000    14.60321    67.87222    39.34750
5408.00000    14.55204    65.65992    41.78385
5408.50000    14.50086    63.44763    44.19108
5409.00000    14.44968    61.23534    46.43945
5409.50000    14.39851    59.02305    48.68783
5410.00000    14.34871    56.81075    50.93620
5410.50000    14.30236    57.00459    53.18457
5411.00000    14.25602    57.58046    54.03599
5411.50000    14.20969    58.15633    52.89620
5412.00000    14.16334    58.73219    51.75640
5412.50000    14.11701    59.30806    50.61661
5413.00000    14.07066    58.62734    48.54706
5413.50000    14.02432    57.65867    46.15147
5414.00000    13.97799    56.68999    43.75588
5414.50000    13.93164    55.72132    41.36030
5415.00000    13.88530    54.75265    38.96471
5415.50000    13.88655    53.78397    36.56912
5416.00000    13.88919    52.81529    34.55607
5416.50000    13.89182    51.84662    32.77344
5417.00000    13.89446    50.87795    30.99082
5417.50000    13.89710    49.90927    29.20819
5418.00000    13.89973    48.94060    27.42557
5418.50000    13.90236    47.97192    25.64295
5419.00000    13.90500    47.00325    24.13237
5419.50000    13.90764    46.34919    24.74194
5420.00000    13.91027    48.26765    25.35151
5420.50000    13.91291    50.18612    25.96109
5421.00000    13.91554    52.10459    26.57066
5421.50000    13.91818    54.02306    27.18024
5422.00000    13.92081    55.94152    27.78981
5422.50000    13.92345    36.70307    28.39939
5423.00000    13.92608    39.24418    29.00896
5423.50000    13.92872    41.78528    28.95055
5424.00000    13.92383    44.32639    28.56895
5424.50000    13.89927    46.66410    28.18735
