#--------------------------------------------------#
#-------------------ENVERUS, INC.------------------#
#------------------WWW.ENVERUS.COM-----------------#
#------------------COPYRIGHT 2020------------------#
#--------------------------------------------------#
#THIS FILE MAY BE USED ONLY IN ACCORDANCE WITH A CURRENT SUBSCRIPTION AGREEMENT BETWEEN
#THE USER AND ENVERUS, INC. NO PART OF THIS FILE MAY BE REPRODUCED, USED, COPIED,
#MODIFIED, PROPAGATED, OR DISTRIBUTED EXCEPT IN ACCORDANCE WITH THE SUBSCRIPTION
#AGREEMENT. UNAUTHORIZED USE OR DISTRIBUTION OF ALL OR ANY PART OF THIS FILE MAY VIOLATE
#COPYRIGHT, TRADEMARK, AND/OR OTHER LAWS AND IS SUBJECT TO CIVIL AS WELL AS CRIMINAL
#SANCTIONS.
#--------------------------------------------------#
#THIS FILE IS PROVIDED "AS-IS" AND ALL WARRANTIES ARE EXPRESSLY DISCLAIMED, WHETHER
#EXPRESS, ORAL, IMPLIED, STATUTORY OR OTHERWISE, INCLUDING ANY IMPLIED WARRANTY OF FITNESS
#FOR A PARTICULAR PURPOSE, MERCHANTABILITY, TITLE OR NON-INFRINGEMENT, AND ANY WARRANTIES
#ARISING BY VIRTUE OF CUSTOM OF TRADE OR COURSE OF DEALING.  FURTHER, ENVERUS, INC.
#AND ITS LICENSORS DO NOT REPRESENT OR WARRANT THAT THIS FILE WILL MEET USER'S
#REQUIREMENTS OR ARE SUITABLE FOR USER'S NEEDS OR THAT THE DATA OR RESULTS PROVIDED IN
#CONJUNCTION THEREWITH ARE CORRECT, ACCURATE, TIMELY OR RELIABLE. THESE DISCLAIMERS SHALL
#APPLY REGARDLESS OF ANY FAILURE OF ESSENTIAL PURPOSE OF ANY LIMITED REMEDY.  SOME
#JURISDICTIONS DO NOT ALLOW THE EXCLUSION OF CERTAIN WARRANTIES SO SOME OF THE ABOVE
#EXCLUSIONS MAY NOT APPLY. IN NO EVENT SHALL ENVERUS, INC. OR ANY OF ITS AFFILIATES
#BE LIABLE UNDER ANY LEGAL THEORY, WHETHER IN TORT (INCLUDING WITHOUT LIMITATION
#NEGLIGENCE), CONTRACT, STRICT LIABILITY, STATUTORY OR OTHERWISE, FOR ANY SPECIAL,
#INCIDENTAL, CONSEQUENTIAL, EXEMPLARY, PUNITIVE OR INDIRECT DAMAGE OF ANY KIND, INCLUDING
#WITHOUT LIMITATION LOSS OF REVENUE, PROFITS, GOODWILL, USE, AND/OR DATA OR THE COST OF
#PROCUREMENT OF SUBSTITUTE GOODS OR SERVICES, EVEN IF APPRISED OF THE POSSIBILITY OF SUCH
#DAMAGES IN ADVANCE.
#--------------------------------------------------#

# EXPORTED FROM TRANSFORM SOFTWARE 5.2.0 ON 31-MAY-2019 BY USER BRIAN.UMLANG
# DI TRANSFORM - A PRODUCT OF DRILLINGINFO, INC. - WWW.DRILLINGINFO.COM
#
~VERSION INFORMATION
 VERS.        2.0 : LAS ASCII STANDARD - VERSION 2.0
 WRAP.         NO : ONE LINE PER DEPTH STEP

~WELL INFORMATION
#MNEM.UNIT       DATA TYPE       INFORMATION
#---------       ---------       -----------
 STRT.FT                 256 : START DEPTH
 STOP.FT                4706 : STOP DEPTH
 STEP.FT                 0.5 : STEP LENGTH
 NULL.               -999.25 : NULL VALUE
 UWI.         42301312890000 : UNIQUE WELL ID
 API.         42301312890000 : WELL IDENTIFIER
 COMP.                       : COMPANY
 WELL.  42301312890000_API14 : WELL NAME
 FLD.                        : FIELD NAME
 LOC.                        : WELL LOCATION
 CNTY.                       : COUNTY
 STAT.                       : STATE OR PROVINCE
 CTRY.                       : COUNTRY
 SRVC.                       : SERVICE COMPANY
 DATE.                       : DATE

~CURVE INFORMATION
#MNEM.UNIT       API CODE       CURVE DESCRIPTION
#---------       --------       -----------------
 DEPT.FT          : <MEASURED DEPTH>
 CAL.IN           : CALIPER
 DPHI.%           : DENSITY POROSITY
 DT.US/FT         : SONIC
 GR.GAPI          : GAMMA RAY
 ILD.OHMM         : DEEP RESISTIVITY
 ILS.OHMM         : SHALLOW RESISTIVITY
 NPHI.%           : NEUTRON POROSITY
 PE.B/ELEC        : PHOTOELECTRIC FACTOR
 RHOB.G/CM3       : DENSITY

~PARAMETER INFORMATION
#MNEM.UNIT       VALUE       DESCRIPTION
#---------       -----       -----------
 EKB.FT      2822 : ELEVATION ABOVE MSL

~A      DEPT         CAL        DPHI          DT          GR         ILD         ILS        NPHI          PE        RHOB
# ...
      3773.5        9.02     13.4372     71.1884     76.3794      10.875     10.2444     16.7189      2.8197      2.4939
        3774        9.02      13.062     70.6298      74.255     10.3882      9.4558     15.7758      2.7655      2.4991
      3774.5        9.02     12.7538     70.9688     72.4551      9.6416      8.6957     15.1528      2.7569      2.5035
        3775        9.02     13.1809     71.9837      73.268      9.1705      8.2986     15.7093      2.7355      2.4937
      3775.5      9.0522     14.3908     72.9744     75.1998      8.3819      6.4117      16.707       2.654      2.4757
        3776      9.0735     15.1476     73.7129     76.1159      8.0955      5.9399      17.376      2.5525      2.4674
      3776.5         9.1     15.1775     73.8194     76.3473      6.8863      5.7249      17.725      2.4509      2.4638
        3777         9.1     14.4534      72.978     75.9442       6.764      5.6663     17.2419      2.4248      2.4778
      3777.5      9.0916     13.7601     72.7455     74.4293      6.7016      5.4657      16.296      2.4248      2.4865
        3778        9.16      13.871     72.9022     72.9145      6.6398      5.3555     15.5588      2.4449      2.4833
      3778.5        9.18     15.0668     73.3648     72.1557      6.5032      5.0171     15.3241       2.485      2.4635
        3779        9.22     15.6959      73.794     72.6303      6.2228      4.8455     15.6892      2.4649      2.4586
      3779.5      9.3021     16.2965     74.2685     73.9521      6.2228      4.9361     16.1991      2.4649      2.4545
        3780      9.4033     15.8521     74.2235     73.9521      6.3615      4.8455     17.2055      2.4649      2.4543
      3780.5      9.5046      15.336     73.7373     73.0101      6.5435      4.9821     18.1808      2.4248      2.4633
        3781      9.6058     15.1437     73.2049     68.5008      6.6398      4.9575     18.2566      2.4248      2.4636
      3781.5        9.62     15.3279     72.8953     63.4454      6.4578      4.8117     17.6244      2.4248      2.4602
        3782      9.6683     15.7151     73.0769     59.2984      6.1026       4.435     17.0445      2.4248      2.4557
      3782.5        9.74     16.6391     73.6826     57.4841       5.568      4.1518     16.8409      2.4048      2.4427
        3783        9.74     17.1931      74.633     56.5868       5.062      3.8081     17.1693      2.3848      2.4324
      3783.5        9.74     17.5357     75.1859     56.5868      4.7565       3.536     18.2578       2.352      2.4283
        3784        9.74     17.6985      75.221     56.2874      4.6261      3.4711     18.2422      2.3447       2.428
      3784.5        9.74     17.5666     74.8869     56.2874      4.6261      3.4711     17.6569      2.3447       2.429
        3785        9.74     16.9569      74.853     56.2874      4.6614      3.4711     17.2013      2.3647      2.4288
      3785.5        9.74     17.5276     75.2332     56.2874      4.6692      3.4711     17.4681      2.3647      2.4243
        3786        9.74     18.0027     75.7719     56.2874       4.545      3.3167     17.9825      2.3647      2.4197
      3786.5      9.7794     18.1244      76.101     56.7307      4.3374      3.1947     19.7065      2.3647      2.4181
        3787         9.9     18.2461     76.1122     58.0838      4.0634      2.9653     21.2051      2.3848      2.4161
      3787.5      9.9218     18.4871     76.3852     58.0838       3.842      2.8152     20.5956      2.3848       2.411
        3788        9.94     18.8389     77.6207     58.0838      3.6328      2.6266     19.7924      2.4096      2.3997
      3788.5     10.0043     19.1853     79.4676     58.0838      3.5034      2.5804      20.007      2.4248      2.3832
        3789       10.06     19.5505      80.229     56.9524      3.5748      2.5763     20.5903      2.3974      2.3791
      3789.5       10.08     19.9173     79.2794     56.2874      3.8317      2.6752     21.0664      2.3447      2.3842
        3790        10.1      16.576     77.6637     56.0185       4.401      3.1593     20.3461      2.3447      2.4542
      3790.5       10.14     17.1029     75.5924      55.988       4.979       3.469     16.6542      2.3762      2.4553
        3791     10.2047     17.0891     75.3116      55.988      5.3159      3.7037      16.076      2.4777      2.4532
      3791.5      10.259     17.7738     76.5602      55.988      5.2476      3.6901     17.7697      2.5793      2.4512
        3792     10.3132     18.4107     79.0137      55.988      4.7812      3.3312     18.0723      2.5451      2.4043
      3792.5     10.3674      20.833     79.8911     56.8678      4.2763      3.0149      20.949      2.4481      2.3719
        3793     10.4217     20.7076     80.7741     61.1201      3.9887      2.7399     22.0642      2.3848      2.3734
      3793.5     10.4578     19.6559     80.6269     67.4445       4.085      2.7426     22.5141      2.3848      2.3942
        3794     10.4797      18.713     78.9681     71.5388      4.3857      3.0101     22.2585      2.3848      2.4125
      3794.5     10.5016     18.1986     78.3095     74.6813      4.8155      3.1492     22.2509      2.3848      2.4178
        3795     10.5234     17.7406     78.1162     76.0479      5.1562      3.3668     22.8566      2.4083      2.4224
      3795.5     10.5835     17.6731     78.2892     75.5824      5.3531      3.4391     23.6149      2.4497      2.4231
        3796     10.6509     17.8768      78.517     72.8012      5.3654      3.4777     23.8972       2.505      2.4231
      3796.5     10.6509     17.8593     78.1239      66.509      5.3238      3.4711     22.4277      2.5451      2.4245
        3797     10.6509     17.3415     77.2793     60.3183      5.3159      3.4391     20.7094      2.5162      2.4265
      3797.5     10.6509     17.2013      76.994     55.1516      5.2669      3.3759      20.335      2.4649      2.4261
        3798     10.6509     17.9092     77.3045     55.0898      5.0297      3.2842     20.2959      2.4649      2.4134
      3798.5     10.6509     19.5017     79.0761     55.0898         4.8      3.1342     20.7698      2.4248      2.4096
        3799     10.6509     20.5859     80.0219     55.0898      4.5808      3.0488     20.4802      2.3848         2.4
      3799.5     10.6509     21.0712     81.1988     55.0898      4.4578      3.0237     21.1125      2.3647      2.3724
        3800     10.6509     21.0754     81.3226     54.3531      4.4167      2.9887     21.5932      2.3647      2.3705
      3800.5     10.6509     20.6704     81.2023     50.8982      4.4167      2.9108     21.8898      2.3647      2.3747
        3801     10.6509     20.2675     80.7788     50.8982      4.3759      2.8903     21.7377      2.3452      2.3807
      3801.5     10.6224     20.3713      80.747     51.2788      4.3759      2.9032     20.8949      2.3447      2.3845
        3802     10.5846     20.3782     81.0159     51.7964      4.3893       2.831     20.5299      2.3425      2.3892
      3802.5     10.5285     19.1753     80.8596     52.8116       4.432      2.8772     20.2616      2.3246       2.398
        3803     10.4934     17.7202     79.0153     54.8955       4.644      3.0324     20.3199      2.3496      2.4193
      3803.5     10.4752     17.2391      77.853     59.6691        5.05      3.1192     20.7247      2.3848      2.4286
        3804     10.4611     17.4357     77.2738     63.5148      5.2917      3.2684     21.0748      2.4524      2.4308
      3804.5     10.4469     18.5858     77.8512     64.1828      5.3654      3.3139     21.5344       2.485      2.4233
        3805     10.4327     19.5301     79.0407     60.4589      5.2669      3.2054     21.3606      2.4649      2.4101
      3805.5     10.4185     19.8569     79.7378     56.0264      5.0923      3.1058      21.524      2.4048      2.4021
        3806     10.4044     19.8237     79.8195     53.9496      4.9968      3.0488     21.7428      2.3848      2.3914
      3806.5     10.3902     19.6352      79.504     53.2934      5.0625       3.098     22.0043      2.3848       2.392
