###############################################
##         ENVERUS                           ##
##         ESS - Open Hole                   ##
##         PERMIAN / DELAWARE                ##
##         Nov 04 2023  V4.0                 ##
##         42-389-31391-00-00                ##
###############################################
## Copyright 2017-2023  ENVERUS.  All Rights Reserved. 
## Confidential - Property of ENVERUS, use governed by terms and 
## conditions found within the existing Information Services Subscription Agreement 
## (as may be amended, the “ISSA”) between Customer and ENVERUS. 
## 
~VERSION INFORMATION
# MNEM.UNIT                               DATA : DESCRIPTION OF MNEMONIC
#-----.-----     ----------------------------- : -----------------------------
VERS.                                     2.00 : CWLS LOG ASCII STANDARD - VERSION 2.00
WRAP.                                       NO : MULTIPLE LINES PER DEPTH STEP
VEND.                                  ENVERUS : VENDOR
TYPE.                          ESS - OPEN HOLE : ENVERUS ESSENTIAL CURVES – ACCESSIBLE THROUGH ENVERUS PRISM(TM)
DOC.                                  23866972 : ENVERUS HEADER RAW DOCUMENT ID
#___________________________________________________________________________________________________ 
~WELL INFORMATION 
# fYFWm3OWRd9IdMsmH1sgiJ8+yI47SyIf11h8n9fSv2EtxvNnkQHcFoeZabdKB/2nhpfFDZXLrBDJ+4Q2ZBaHeQ== 
# MNEM.UNIT                                              DATA : DESCRIPTION OF MNEMONIC 
#-----.-----                    ----------------------------- : ----------------------------- 
CNTY.                                                  REEVES : COUNTY 
STATE.                                                  TEXAS : STATE 
CNTRY.                                                    USA : COUNTRY 
API.                                             42-389-31391 : API (10 Digit) 
API_14.                                    42-389-31391-00-00 : API (14 Digits) 
API_14_std.                                 42-389-31391-0000 : API (14 Digits Standard) 
UWI.                                           42389313910000 : UNIQUE WELL ID 
WELL.                                       DIXIELAND # 3 - 1 : WELL NAME
STRT.FT                                                4000.0 : START DEPTH
STOP.FT                                               12000.0 : STOP DEPTH
STEP.FT                                                   0.5 : STEP BETWEEN DEPTHS
NULL.                                                 -999.25 : NULL VALUE
COMP.                             R. K. PETROLEUM CORPORATION : COMPANY 
FLD.                                                  WILDCAT : FIELD 
DATE.                                              08/13/2015 : DATE 
TVD.                                                       NO : TVD FLAG 
WSTA.                                                     LOC : WELL STATUS
#___________________________________________________________________________________________________ 
~PARAMETER INFORMATION 
# MNEM.UNIT                                              DATA : DESCRIPTION OF MNEMONIC 
#-----.-----                    ----------------------------- : ----------------------------- 
RUN.                                                      ONE : RUN NUMBER 
PDAT.                                                      GL : PERMANENT DATUM 
LMF.                                            KELLY BUSHING : LOG MEASURED FROM
#___________________________________________________________________________________________________ 
~CURVE INFORMATION 
# MNEM.UNIT           : CURVE DESCRIPTION 
#-----.-----          : ----------------------------- 
 DEPT.FT               : MEASURED DEPTH 
 CALI.IN               : CALIPER (CALIPER) 
 GR.API                : GAMMA RAY (GAMMA RAY) 
 DT.US/FT              : SONIC DELTA TRANSIT TIME (DELTA-T) 
 RESD.OHMM             : DEEP INDUCTION RESISTIVITY (ILD - DEEP INDUCTION STANDARD PROCESSED RESISTIVITY) 
 RESD_LL.OHMM          : DEEP LATEROLOG (LLD - LATERO-LOG DEEP (RESISTIVITY)) 
 NPHI.V/V              : NEUTRON POROSITY (NEUTRON POROSITY) 
 #___________________________________________________________________________________________________ 
~A         DEPT           CALI             GR             DT           RESD        RESD_LL           NPHI
# ...
         5596.0         14.679         39.776         68.798       -999.250         9.5463     -999.25000
         5596.5         14.677         40.974         68.312       -999.250        10.7663     -999.25000
         5597.0         14.675         42.331         67.595       -999.250        12.1422     -999.25000
         5597.5         14.674         43.582         66.633       -999.250        13.6939     -999.25000
         5598.0         14.672         50.684         65.912       -999.250        15.4439     -999.25000
         5598.5         14.670         63.527         65.519       -999.250        17.4175     -999.25000
         5599.0         14.669         64.035         65.642       -999.250        19.2665     -999.25000
         5599.5         14.667         65.717         66.032       -999.250        22.9280     -999.25000
         5600.0         14.665         66.018         66.796       -999.250        24.4770     -999.25000
         5600.5         14.664         65.927         66.399       -999.250        26.1307     -999.25000
         5601.0         14.664         67.155         66.002       -999.250        27.4765     -999.25000
         5601.5         14.656         65.434         65.311       -999.250        27.4765     -999.25000
         5602.0         14.692         73.025         64.228       -999.250        39.2273     -999.25000
         5602.5         14.680        131.167         64.943       -999.250        55.0080     -999.25000
         5603.0         14.662        129.211         66.302       -999.250        77.1372     -999.25000
         5603.5         14.639        182.937         67.956       -999.250        92.5432     -999.25000
         5604.0         14.619        166.607         70.120       -999.250        58.7629     -999.25000
         5604.5         14.588        171.076         70.410       -999.250        39.2271     -999.25000
         5605.0         14.558        127.237         70.481       -999.250        26.1860     -999.25000
         5605.5         14.527         93.412         69.519       -999.250        13.7644     -999.25000
         5606.0         14.497         71.218         68.557       -999.250        14.4028     -999.25000
         5606.5         14.467         55.152         66.682       -999.250        16.0927     -999.25000
         5607.0         14.436         36.596         65.291       -999.250        17.8792     -999.25000
         5607.5         14.406         37.923         62.906       -999.250        35.6904     -999.25000
         5608.0         14.376         36.367         61.222       -999.250        37.2018     -999.25000
         5608.5         14.345         37.771         61.170       -999.250        39.0133     -999.25000
         5609.0         14.315         63.049         61.102       -999.250        40.6768     -999.25000
         5609.5         14.284         61.509         62.184       -999.250        23.2241     -999.25000
         5610.0         14.254         66.162         63.723       -999.250        20.5300     -999.25000
         5610.5         14.224         66.188         64.312       -999.250        18.0137     -999.25000
         5611.0         14.193         66.003         64.879       -999.250        15.3971     -999.25000
         5611.5         14.163         66.129         65.431       -999.250        15.6875     -999.25000
         5612.0         14.133         65.054         65.431       -999.250        16.6415     -999.25000
         5612.5         14.102         64.223         65.689       -999.250        18.3017     -999.25000
         5613.0         14.073         63.502         65.751       -999.250        20.3772     -999.25000
         5613.5         14.041         62.886         65.792       -999.250        21.9583     -999.25000
         5614.0         14.017         62.964         65.912       -999.250        23.8613     -999.25000
         5614.5         13.970         67.429         66.032       -999.250        27.8119     -999.25000
         5615.0         13.908         73.047         66.025       -999.250        32.4165     -999.25000
         5615.5         13.838         76.653         66.025       -999.250        37.7835     -999.25000
         5616.0         13.723         93.045         66.391       -999.250        73.4712     -999.25000
         5616.5         13.635        123.931         67.181       -999.250       142.7035     -999.25000
         5617.0         13.533        154.123         68.490       -999.250       178.7292     -999.25000
         5617.5         13.430        152.033         69.789       -999.250       164.7759     -999.25000
         5618.0         13.372        156.932         71.894       -999.250       116.3704     -999.25000
         5618.5         13.325        133.554         71.391       -999.250        82.2599     -999.25000
         5619.0         13.313        120.896         70.519       -999.250        54.2088     -999.25000
         5619.5         13.301        104.943         68.227       -999.250        59.1042     -999.25000
         5620.0         13.300         91.337         65.693       -999.250        62.1288     -999.25000
         5620.5         13.298         90.427         63.283       -999.250        66.0453     -999.25000
         5621.0         13.300         89.450         60.802       -999.250        70.2087     -999.25000
         5621.5         13.307         88.400         59.293       -999.250        79.6958     -999.25000
         5622.0         13.343         89.950         59.046       -999.250        87.4991     -999.25000
         5622.5         13.355         87.324         59.543       -999.250        92.5864     -999.25000
         5623.0         13.387         85.009         60.501       -999.250        97.8780     -999.25000
         5623.5         13.418         82.458         60.741       -999.250        89.3995     -999.25000
         5624.0         13.419         82.886         60.621       -999.250        77.8829     -999.25000
         5624.5         13.399         87.770         60.501       -999.250        65.4225     -999.25000
         5625.0         13.368         92.563         60.501       -999.250        53.9640     -999.25000
         5625.5         13.340         96.644         61.222       -999.250        46.3763     -999.25000
         5626.0         13.355        106.017         62.305       -999.250        55.4273     -999.25000
         5626.5         13.388        122.364         63.943       -999.250        69.1963     -999.25000
         5627.0         13.402        148.513         66.017       -999.250        86.9877     -999.25000
         5627.5         13.416        150.869         68.188       -999.250        81.1987     -999.25000
         5628.0         13.454        149.331         69.650       -999.250        69.9394     -999.25000
         5628.5         13.490        126.563         70.119       -999.250        48.1915     -999.25000
         5629.0         13.554        134.488         69.678       -999.250        33.7451     -999.25000
         5629.5         13.611        102.697         69.084       -999.250        25.1790     -999.25000
         5630.0         13.668         77.382         67.523       -999.250        22.2982     -999.25000
         5630.5         13.727         66.043         67.317       -999.250        19.7469     -999.25000
         5631.0         13.784         61.868         67.083       -999.250        16.9214     -999.25000
         5631.5         13.842         62.150         66.851       -999.250        17.1902     -999.25000
         5632.0         13.900         58.800         66.920       -999.250        17.5186     -999.25000
         5632.5         13.958         53.935         66.215       -999.250        17.6838     -999.25000
         5633.0         14.016         48.999         65.043       -999.250        17.8274     -999.25000
         5633.5         14.074         43.742         63.556       -999.250        16.9322     -999.25000
