###############################################
##         ENVERUS                           ##
##         ESS - Open Hole                   ##
##         PERMIAN / DELAWARE                ##
##         Nov 04 2023  V4.0                 ##
##         42-389-31270-00-00                ##
###############################################
## Copyright 2017-2023  ENVERUS.  All Rights Reserved. 
## Confidential - Property of ENVERUS, use governed by terms and 
## conditions found within the existing Information Services Subscription Agreement 
## (as may be amended, the “ISSA”) between Customer and ENVERUS. 
## 
~VERSION INFORMATION
# MNEM.UNIT                               DATA : DESCRIPTION OF MNEMONIC
#-----.-----     ----------------------------- : -----------------------------
VERS.                                     2.00 : CWLS LOG ASCII STANDARD - VERSION 2.00
WRAP.                                       NO : MULTIPLE LINES PER DEPTH STEP
VEND.                                  ENVERUS : VENDOR
TYPE.                          ESS - OPEN HOLE : ENVERUS ESSENTIAL CURVES – ACCESSIBLE THROUGH ENVERUS PRISM(TM)
DOC.                                  31950282 : ENVERUS HEADER RAW DOCUMENT ID
#___________________________________________________________________________________________________ 
~WELL INFORMATION 
# 0CODbT4LMl4UGLa7W4QP9cEC157HhgZEtdKI2U+cm8ET/zLKkJfEe4mvdgudHboWMGmWziBYTrzgVEWtCsCjWg== 
# MNEM.UNIT                                              DATA : DESCRIPTION OF MNEMONIC 
#-----.-----                    ----------------------------- : ----------------------------- 
CNTY.                                                  REEVES : COUNTY 
STATE.                                                  TEXAS : STATE 
CNTRY.                                                    USA : COUNTRY 
API.                                             42-389-31270 : API (10 Digit) 
API_14.                                    42-389-31270-00-00 : API (14 Digits) 
API_14_std.                                 42-389-31270-0000 : API (14 Digits Standard) 
UWI.                                           42389312700000 : UNIQUE WELL ID 
WELL.                                        FORTUNE UNIT  2R : WELL NAME
STRT.FT                                                3825.0 : START DEPTH
STOP.FT                                               13654.0 : STOP DEPTH
STEP.FT                                                   0.5 : STEP BETWEEN DEPTHS
NULL.                                                 -999.25 : NULL VALUE
COMP.                          SANDRIDGE EXPL. AND PROD.  LLC : COMPANY 
DATE.                                             19-AUG-2004 : LOG DATE
#___________________________________________________________________________________________________ 
~CURVE INFORMATION 
# MNEM.UNIT           : CURVE DESCRIPTION 
#-----.-----          : ----------------------------- 
 DEPT.FT               : MEASURED DEPTH 
 CALI__B.IN            : CALIPER (CAL - CAL) 
 GR__B.API             : GAMMA RAY (GR) 
 DT__B.US/FT           : SONIC DELTA TRANSIT TIME (DT) 
 #___________________________________________________________________________________________________ 
~A         DEPT        CALI__B          GR__B          DT__B
# ...
        11613.0          6.564         80.965         78.355
        11613.5          6.564         68.770         77.432
        11614.0          6.564         74.945         76.509
        11614.5          6.564         81.120         75.586
        11615.0          6.564         87.294         74.664
        11615.5          6.565         93.469         73.741
        11616.0          6.565         97.517         72.818
        11616.5          6.565         93.951         71.895
        11617.0          6.565         90.386         71.189
        11617.5          6.565         86.820         70.568
        11618.0          6.565         84.248         69.948
        11618.5          6.565         85.362         69.327
        11619.0          6.565         86.476         68.706
        11619.5          6.565         87.590         68.086
        11620.0          6.566         88.703         77.108
        11620.5          6.566         86.576         76.665
        11621.0          6.566         73.267         76.221
        11621.5          6.566         76.519         75.778
        11622.0          6.566         80.188         75.335
        11622.5          6.566         83.912         76.182
        11623.0          6.566         89.363         77.176
        11623.5          6.566         94.815         76.476
        11624.0          6.566        100.266         75.082
        11624.5          6.567        105.717         73.687
        11625.0          6.567        108.992         72.293
        11625.5          6.567         93.807         70.899
        11626.0          6.567         70.088         69.504
        11626.5          6.567         45.372         69.546
        11627.0          6.567         46.288         72.629
        11627.5          6.567         52.911         75.712
        11628.0          6.567         59.534         78.795
        11628.5          6.567         66.157         78.089
        11629.0          6.567         71.628         76.117
        11629.5          6.567         75.110         74.144
        11630.0          6.567         78.592         72.172
        11630.5          6.566         82.074         70.199
        11631.0          6.566         77.677         68.226
        11631.5          6.566         53.140         66.254
        11632.0          6.566         57.516         64.281
        11632.5          6.566         61.892         62.309
        11633.0          6.565         66.268         60.336
        11633.5          6.565         71.250         65.289
        11634.0          6.565         76.387         71.966
        11634.5          6.565         81.524         71.703
        11635.0          6.565         86.661         69.866
        11635.5          6.565         91.798         68.029
        11636.0          6.564         93.641         66.192
        11636.5          6.564         87.161         64.356
        11637.0          6.564         80.682         62.519
        11637.5          6.564         74.202         60.682
        11638.0          6.564         68.297         60.542
        11638.5          6.563         72.866         69.035
        11639.0          6.563         77.434         74.747
        11639.5          6.563         82.003         75.732
        11640.0          6.563         86.571         76.716
        11640.5          6.563         91.140         76.825
        11641.0          6.563         95.709         75.893
        11641.5          6.562         91.571         74.961
        11642.0          6.562         84.761         74.028
        11642.5          6.562         83.912         73.096
        11643.0          6.562         83.063         72.164
        11643.5          6.562         82.214         71.231
        11644.0          6.561         81.366         70.299
        11644.5          6.561         80.517         77.604
        11645.0          6.561         83.953         78.514
        11645.5          6.561         88.465         77.817
        11646.0          6.561         92.978         77.121
        11646.5          6.561         97.490         76.424
        11647.0          6.560        102.003         75.728
        11647.5          6.560         84.901         75.031
        11648.0          6.560         78.972         74.335
        11648.5          6.560         79.051         73.638
        11649.0          6.560         79.130         72.942
        11649.5          6.559         76.558         74.012
        11650.0          6.559         63.466         76.862
        11650.5          6.559         67.567         77.534
        11651.0          6.559         71.669         76.893
        11651.5          6.559         73.316         76.251
        11652.0          6.559         71.865         75.609
        11652.5          6.558         70.414         74.967
        11653.0          6.558         76.714         74.053
        11653.5          6.558         80.784         72.899
        11654.0          6.558         84.855         71.746
        11654.5          6.558         88.925         70.593
        11655.0          6.557         92.995         69.439
        11655.5          6.557         90.067         68.286
        11656.0          6.557         75.048         67.357
        11656.5          6.557         73.852         67.043
        11657.0          6.557         76.707         66.729
        11657.5          6.557         79.563         66.416
        11658.0          6.556         82.418         67.447
        11658.5          6.556         85.274         75.305
        11659.0          6.556         86.904         75.486
        11659.5          6.556         87.556         73.805
        11660.0          6.556         88.209         72.124
        11660.5          6.555         88.861         70.443
        11661.0          6.555         89.513         68.762
        11661.5          6.555         87.204         67.081
        11662.0          6.555         83.048         66.975
        11662.5          6.555         78.893         75.675
        11663.0          6.555         79.363         76.829
        11663.5          6.554         82.138         76.578
        11664.0          6.554         84.914         75.937
        11664.5          6.554         87.689         75.296
        11665.0          6.554         90.464         74.655
        11665.5          6.554         93.239         74.014
        11666.0          6.553         91.164         73.373
        11666.5          6.553         88.415         72.732
        11667.0          6.553         85.665         72.943
        11667.5          6.553         82.915         74.201
        11668.0          6.553         81.612         75.458
        11668.5          6.553         83.422         76.715
        11669.0          6.552         85.232         76.365
        11669.5          6.552         87.042         75.853
        11670.0          6.552         88.852         75.341
        11670.5          6.552         90.662         74.829
        11671.0          6.552         92.472         74.318
        11671.5          6.551         83.637         73.460
        11672.0          6.551         84.692         72.554
        11672.5          6.551         85.747         71.647
        11673.0          6.551         86.803         71.556
        11673.5          6.551         87.858         72.783
        11674.0          6.551         88.461         74.009
        11674.5          6.550         87.668         75.236
        11675.0          6.550         86.874         75.125
        11675.5          6.550         86.081         74.749
        11676.0          6.550         85.287         74.372
        11676.5          6.550         86.654         73.996
        11677.0          6.549         90.417         73.619
        11677.5          6.549         94.179         73.295
        11678.0          6.549         97.941         74.060
        11678.5          6.549         96.200         74.825
