###############################################
##         ENVERUS                           ##
##         ESS - Open Hole                   ##
##         PERMIAN / DELAWARE                ##
##         Nov 04 2023  V4.0                 ##
##         42-389-30422-00-00                ##
###############################################
## Copyright 2017-2023  ENVERUS.  All Rights Reserved. 
## Confidential - Property of ENVERUS, use governed by terms and 
## conditions found within the existing Information Services Subscription Agreement 
## (as may be amended, the “ISSA”) between Customer and ENVERUS. 
## 
~VERSION INFORMATION
# MNEM.UNIT                               DATA : DESCRIPTION OF MNEMONIC
#-----.-----     ----------------------------- : -----------------------------
VERS.                                     2.00 : CWLS LOG ASCII STANDARD - VERSION 2.00
WRAP.                                       NO : MULTIPLE LINES PER DEPTH STEP
VEND.                                  ENVERUS : VENDOR
TYPE.                          ESS - OPEN HOLE : ENVERUS ESSENTIAL CURVES – ACCESSIBLE THROUGH ENVERUS PRISM(TM)
DOC.                                  31749874 : ENVERUS HEADER RAW DOCUMENT ID
#___________________________________________________________________________________________________ 
~WELL INFORMATION 
# u82sU1u0B8de5w9HEAjaYOtqLlVzfD+KUeD2ZoqivGgiUzwSeb1LYInaR9MNeJxDUIxxjb7EPbXz9g+KH10l6Q== 
# MNEM.UNIT                                              DATA : DESCRIPTION OF MNEMONIC 
#-----.-----                    ----------------------------- : ----------------------------- 
CNTY.                                                  REEVES : COUNTY 
STATE.                                                  TEXAS : STATE 
CNTRY.                                                    USA : COUNTRY 
API.                                             42-389-30422 : API (10 Digit) 
API_14.                                    42-389-30422-00-00 : API (14 Digits) 
API_14_std.                                 42-389-30422-0000 : API (14 Digits Standard) 
UWI.                                           42389304220000 : UNIQUE WELL ID 
WELL.                                    BECKHAM  AGNES 26  1 : WELL NAME
STRT.FT                                                  89.0 : START DEPTH
STOP.FT                                               15719.0 : STOP DEPTH
STEP.FT                                                   0.5 : STEP BETWEEN DEPTHS
NULL.                                                 -999.25 : NULL VALUE
COMP.                                     WALSH & WATTS  INC. : COMPANY
#___________________________________________________________________________________________________ 
~CURVE INFORMATION 
# MNEM.UNIT           : CURVE DESCRIPTION 
#-----.-----          : ----------------------------- 
 DEPT.FT               : MEASURED DEPTH 
 CALI.IN               : CALIPER (CAL - CAL) 
 GR.API                : GAMMA RAY (GR) 
 DT.US/FT              : SONIC DELTA TRANSIT TIME (DT) 
 #___________________________________________________________________________________________________ 
~A         DEPT           CALI             GR             DT
# ...
         6623.0         13.173         19.793         53.505
         6623.5         13.356         19.968         53.238
         6624.0         13.494         20.143         52.971
         6624.5         13.460         20.318         52.705
         6625.0         13.426         20.493         52.438
         6625.5         13.392         21.904         52.172
         6626.0         13.358         24.215         51.905
         6626.5         13.325         26.527         51.639
         6627.0         13.291         26.645         51.512
         6627.5         13.257         26.266         51.659
         6628.0         13.223         25.887         51.806
         6628.5         13.378         25.508         51.952
         6629.0         13.362         25.129         52.199
         6629.5         13.346         25.079         52.847
         6630.0         13.330         25.605         53.494
         6630.5         13.314         26.131         54.142
         6631.0         13.334         26.657         54.532
         6631.5         13.409         27.183         54.022
         6632.0         13.483         27.709         53.513
         6632.5         13.558         28.235         53.004
         6633.0         13.632         28.761         52.494
         6633.5         13.619         28.892         51.985
         6634.0         13.587         26.709         51.475
         6634.5         13.556         24.526         52.158
         6635.0         13.524         22.343         52.861
         6635.5         13.511         20.160         53.563
         6636.0         13.567         19.187         54.266
         6636.5         13.624         19.345         54.969
         6637.0         13.681         19.502         55.671
         6637.5         13.737         19.660         55.993
         6638.0         13.794         23.621         54.707
         6638.5         13.851         23.541         53.421
         6639.0         13.907         23.461         52.136
         6639.5         13.964         23.381         51.250
         6640.0         14.021         23.301         52.095
         6640.5         14.077         23.221         52.941
         6641.0         13.977         23.141         52.648
         6641.5         13.861         23.061         52.291
         6642.0         13.746         23.158         51.935
         6642.5         13.630         23.522         51.579
         6643.0         13.525         23.886         51.223
         6643.5         13.447         24.250         50.866
         6644.0         13.370         24.614         51.276
         6644.5         13.292         25.337         51.891
         6645.0         13.296         26.832         52.505
         6645.5         13.320         28.328         53.120
         6646.0         13.343         28.327         53.625
         6646.5         13.367         27.156         53.763
         6647.0         13.390         28.028         53.900
         6647.5         12.841         30.137         54.037
         6648.0         12.765         32.247         54.175
         6648.5         12.689         34.356         54.312
         6649.0         12.656         36.466         54.450
         6649.5         12.639         38.575         54.587
         6650.0         12.623         40.685         54.724
         6650.5         12.607         42.794         54.080
         6651.0         12.591         44.904         55.127
         6651.5         12.574         46.427         56.173
         6652.0         12.558         44.559         57.220
         6652.5         12.542         42.690         58.267
         6653.0         12.525         40.822         59.313
         6653.5         12.509         38.954         60.360
         6654.0         12.493         37.086         61.407
         6654.5         12.477         35.218         62.453
         6655.0         12.460         33.349         63.500
         6655.5         12.444         31.481         63.716
         6656.0         12.428         31.672         62.276
         6656.5         12.411         32.983         60.836
         6657.0         12.395         34.293         59.396
         6657.5         12.379         37.839         57.956
         6658.0         12.363         43.588         55.289
         6658.5         12.349         49.337         55.286
         6659.0         12.356         53.493         56.289
         6659.5         12.363         53.493         57.291
         6660.0         12.370         53.492         58.293
         6660.5         12.377         53.790         59.296
         6661.0         12.384         55.722         60.375
         6661.5         12.391         57.653         61.476
         6662.0         12.398         59.585         62.578
         6662.5         12.405         61.052         63.723
         6663.0         12.412         60.749         64.869
         6663.5         12.419         60.446         66.015
         6664.0         12.407         58.929         67.161
         6664.5         12.390         56.100         68.307
         6665.0         12.373         53.270         69.453
         6665.5         12.356         50.441         70.599
         6666.0         12.339         49.017         69.672
         6666.5         12.322         51.732         68.522
         6667.0         12.305         54.447         67.373
         6667.5         12.288         57.162         65.769
         6668.0         12.271         59.992         63.878
         6668.5         12.254         62.876         61.988
         6669.0         12.237         65.760         60.097
         6669.5         12.224         68.574         58.206
         6670.0         12.223         70.830         62.803
         6670.5         12.222         73.086         65.775
         6671.0         12.221         75.341         65.204
         6671.5         12.220         83.981         64.633
         6672.0         12.219         97.856         64.063
         6672.5         12.218        111.731         63.492
         6673.0         12.217        113.915         62.921
         6673.5         12.216        107.023         62.350
         6674.0         12.215        100.130         63.492
         6674.5         12.214         93.237         65.479
         6675.0         12.213         86.344         67.466
         6675.5         12.212         79.451         69.453
         6676.0         12.211         72.559         71.440
         6676.5         12.210         70.487         71.791
         6677.0         12.209         74.464         70.434
         6677.5         12.208         78.442         69.077
         6678.0         12.207         82.419         67.793
         6678.5         12.206         86.396         66.948
         6679.0         12.205         90.374         66.102
         6679.5         12.204         94.351         65.256
         6680.0         12.203         98.328         65.008
         6680.5         12.202        102.306         66.171
         6681.0         12.201        106.283         67.334
         6681.5         12.200        110.260         68.497
         6682.0         12.199        114.237         69.660
         6682.5         12.198        102.569         70.823
         6683.0         12.217         87.796         71.987
         6683.5         12.242         73.024         73.150
         6684.0         12.266         58.251         74.313
         6684.5         12.290         43.479         73.560
         6685.0         12.314         28.706         70.992
         6685.5         12.338         26.289         68.424
         6686.0         12.362         28.311         65.856
         6686.5         12.387         30.332         63.288
         6687.0         12.389         32.353         60.721
         6687.5         12.385         34.375         58.045
         6688.0         12.382         36.396         55.276
         6688.5         12.378         38.106         53.458
