#--------------------------------------------------#
#-------------------ENVERUS, INC.------------------#
#------------------WWW.ENVERUS.COM-----------------#
#------------------COPYRIGHT 2020------------------#
#--------------------------------------------------#
#THIS FILE MAY BE USED ONLY IN ACCORDANCE WITH A CURRENT SUBSCRIPTION AGREEMENT BETWEEN
#THE USER AND ENVERUS, INC. NO PART OF THIS FILE MAY BE REPRODUCED, USED, COPIED,
#MODIFIED, PROPAGATED, OR DISTRIBUTED EXCEPT IN ACCORDANCE WITH THE SUBSCRIPTION
#AGREEMENT. UNAUTHORIZED USE OR DISTRIBUTION OF ALL OR ANY PART OF THIS FILE MAY VIOLATE
#COPYRIGHT, TRADEMARK, AND/OR OTHER LAWS AND IS SUBJECT TO CIVIL AS WELL AS CRIMINAL
#SANCTIONS.
#--------------------------------------------------#
#THIS FILE IS PROVIDED "AS-IS" AND ALL WARRANTIES ARE EXPRESSLY DISCLAIMED, WHETHER
#EXPRESS, ORAL, IMPLIED, STATUTORY OR OTHERWISE, INCLUDING ANY IMPLIED WARRANTY OF FITNESS
#FOR A PARTICULAR PURPOSE, MERCHANTABILITY, TITLE OR NON-INFRINGEMENT, AND ANY WARRANTIES
#ARISING BY VIRTUE OF CUSTOM OF TRADE OR COURSE OF DEALING.  FURTHER, ENVERUS, INC.
#AND ITS LICENSORS DO NOT REPRESENT OR WARRANT THAT THIS FILE WILL MEET USER'S
#REQUIREMENTS OR ARE SUITABLE FOR USER'S NEEDS OR THAT THE DATA OR RESULTS PROVIDED IN
#CONJUNCTION THEREWITH ARE CORRECT, ACCURATE, TIMELY OR RELIABLE. THESE DISCLAIMERS SHALL
#APPLY REGARDLESS OF ANY FAILURE OF ESSENTIAL PURPOSE OF ANY LIMITED REMEDY.  SOME
#JURISDICTIONS DO NOT ALLOW THE EXCLUSION OF CERTAIN WARRANTIES SO SOME OF THE ABOVE
#EXCLUSIONS MAY NOT APPLY. IN NO EVENT SHALL ENVERUS, INC. OR ANY OF ITS AFFILIATES
#BE LIABLE UNDER ANY LEGAL THEORY, WHETHER IN TORT (INCLUDING WITHOUT LIMITATION
#NEGLIGENCE), CONTRACT, STRICT LIABILITY, STATUTORY OR OTHERWISE, FOR ANY SPECIAL,
#INCIDENTAL, CONSEQUENTIAL, EXEMPLARY, PUNITIVE OR INDIRECT DAMAGE OF ANY KIND, INCLUDING
#WITHOUT LIMITATION LOSS OF REVENUE, PROFITS, GOODWILL, USE, AND/OR DATA OR THE COST OF
#PROCUREMENT OF SUBSTITUTE GOODS OR SERVICES, EVEN IF APPRISED OF THE POSSIBILITY OF SUCH
#DAMAGES IN ADVANCE.
#--------------------------------------------------#

# EXPORTED FROM DI TRANSFORM
# DI TRANSFORM - A PRODUCT OF DRILLINGINFO, INC. - WWW.DRILLINGINFO.COM
#
~VERSION INFORMATION
 VERS.        2.0 : LAS ASCII STANDARD - VERSION 2.0
 WRAP.         NO : ONE LINE PER DEPTH STEP

~WELL INFORMATION
#MNEM.UNIT       DATA TYPE       INFORMATION
#---------       ---------       -----------
 STRT.FT          3310 : START DEPTH
 STOP.FT         11910 : STOP DEPTH
 STEP.FT           0.5 : STEP LENGTH
 NULL.         -999.25 : NULL VALUE
 UWI.   42389328760000 : UNIQUE WELL ID
 API.   42389328760000 : WELL IDENTIFIER
 COMP.                 : COMPANY
 WELL.          DRD_55 : WELL NAME
 FLD.                  : FIELD NAME
 LOC.                  : WELL LOCATION
 CNTY.                 : COUNTY
 STAT.                 : STATE OR PROVINCE
 CTRY.                 : COUNTRY
 SRVC.                 : SERVICE COMPANY
 DATE.                 : DATE

~CURVE INFORMATION
#MNEM.UNIT       API CODE       CURVE DESCRIPTION
#---------       --------       -----------------
 DEPT.FT        : <MEASURED DEPTH>
 CAL.IN         : CALIPER
 DT.US/FT       : SONIC
 GR.GAPI        : GAMMA RAY
 ILD.OHMM       : DEEP RESISTIVITY
 ILS.OHMM       : SHALLOW RESISTIVITY

~PARAMETER INFORMATION
#MNEM.UNIT       VALUE       DESCRIPTION
#---------       -----       -----------
 EKB.FT      3168.5 : ELEVATION ABOVE MSL

~A       DEPT         CAL          DT          GR         ILD         ILS
# ...
         6144      8.4701     60.5961    151.6695    111.3554    108.0529
       6144.5      8.4701     59.7077    132.4069     79.1856     76.6876
         6145      8.4701     59.7143      86.372     60.6739     51.8099
       6145.5      8.4701     59.2571     72.2656     51.9931     43.4899
         6146      8.4701     59.2571     79.7395     48.1343     44.5948
       6146.5      8.4701     59.7143     87.8234     41.7288     40.0748
         6147      8.4701     60.6286     78.5699     28.6855     32.9077
       6147.5      8.4701     61.0857     62.1263      19.268     22.1418
         6148      8.4701     63.5482     50.2757     14.8862      14.985
       6148.5      8.4701     65.5195     49.1277     10.7171     11.4225
         6149      8.4701     66.0157     51.6401     10.5096     10.5444
       6149.5      8.4773     66.1143     57.8317     11.4029     11.5259
         6150      8.4811     66.1143     79.4195     20.2169     17.8033
       6150.5      8.4701     65.6759     94.2357     19.2578     17.9006
         6151      8.4701     66.1143     80.7583     14.3491     13.7922
       6151.5      8.4701     66.1143      67.281      11.518       11.53
         6152      8.4701     66.1143      63.878     10.3614     10.0889
       6152.5      8.4701     65.3752     85.4373     11.8888     11.2285
         6153      8.4701     64.9857     92.6592     13.3217     13.4461
       6153.5      8.4701     64.9465     77.6211     15.9153     15.8637
         6154      8.4701     64.7429     55.7671     14.2761     14.5483
       6154.5      8.4701     64.2857      55.352     12.8139      12.937
         6155      8.4701     63.8286     59.9596     12.2259     12.5146
       6155.5      8.4701     63.8286     68.6232     11.7168     13.0974
         6156      8.4701     63.8286     87.2735      23.854     19.5143
       6156.5      8.4701     63.8286    103.2593     27.3262     41.2643
         6157      8.4701     63.5832    111.4101     43.7604     45.1879
       6157.5      8.4701     60.6286    102.8612     55.5365     43.6579
         6158      8.4701     60.1714     97.7503      57.433     43.0251
       6158.5      8.4701     59.5269     96.8127     64.4867     46.5702
         6159      8.4701        58.8     95.2839     79.0015     57.0614
       6159.5      8.4701     59.2571     85.9177     94.4389     73.5808
         6160      8.4701     59.2571     75.3402     98.6818     73.2031
       6160.5      8.4701        58.8      76.278     83.4762       59.74
         6161      8.4701      59.183     88.0968     67.0872     48.4659
       6161.5      8.4701     59.2922     91.8884     53.7551     39.3032
         6162      8.4701     59.2531     88.2356     48.2541     33.0355
       6162.5      8.4701     58.7568     86.4572     48.3548     33.3041
         6163      8.4701     59.7143     85.9795     49.8682     36.3903
       6163.5      8.4701     59.8357     86.6365     48.5833     37.1947
         6164      8.4701     60.1714     83.1265     43.1861     32.9564
       6164.5      8.4701     61.0857     78.8731     31.5419     27.0353
         6165      8.4701     61.0857      71.239     21.6384     18.5023
       6165.5      8.4465     61.0857     62.0055     18.6162     13.7517
         6166      8.4701     61.0857      51.963     17.6944     13.7783
       6166.5      8.4701     60.1714     48.5969      17.096     13.9911
         6167      8.4701     60.1714     47.8088     17.4876     14.2658
       6167.5      8.4701     60.1714     47.8088     17.1694     14.2878
         6168      8.4701     61.0695     49.1914     15.3684     12.3469
       6168.5      8.4701     61.0857     51.2244     14.9848     11.3729
         6169      8.4701     61.0857     60.4283     16.9182     13.0936
       6169.5      8.4701     60.6286     70.6553     20.4729     15.6099
         6170      8.4701     61.3702     79.3158     26.9906     19.8635
       6170.5      8.4701     60.6286     79.1082     32.4251     25.1813
         6171      8.4701     60.6286     79.4912     36.7156      27.383
       6171.5      8.4701     60.6286     82.6128     29.2433     26.3519
         6172      8.4967     62.3291     79.0974     21.1822     17.1226
       6172.5        8.51     63.8286     69.8254     16.5621     12.3482
         6173        8.51     64.7429     60.4878     14.3791     10.4975
       6173.5        8.51     64.7429     53.4567     13.1307     10.4982
         6174        8.51     64.7429     57.2767     15.3164      12.315
       6174.5        8.51     65.2676     65.3134     18.1997     14.1688
         6175        8.51     65.6571     80.2873     17.0613     13.8136
       6175.5        8.51     65.6571     85.2164     15.0878     11.4267
         6176        8.51     64.9277     73.3891     11.0603       8.325
       6176.5        8.51     63.8286      58.897      9.4114        6.47
         6177        8.51     64.2857     52.6952      8.9785      6.3802
       6177.5        8.51     63.8286     49.1212      9.4104      7.3105
         6178        8.51     65.0842     46.4964     10.5022      8.7849
       6178.5        8.51     66.4947     46.0159      11.816     10.1765
         6179        8.51     64.3609      45.846     12.4029     10.4901
       6179.5       8.543     64.2857     44.3257      11.236      9.7149
         6180      8.5498     64.7429     43.6255     10.4722      8.5494
       6180.5      8.5498     65.6571     43.6255      8.9497      7.5119
         6181      8.5314     66.1143     46.6809      7.8361      6.6031
       6181.5        8.51     66.5714      51.409      8.4023      6.0328
         6182      8.5498     66.7685     63.1474       9.354      6.6149
       6182.5      8.5498     66.1143     72.9992      9.8439      7.2856
         6183      8.5498        65.2     76.5161      10.475      8.5705
       6183.5      8.5498     64.7429     67.0963     11.0122      8.6057
         6184      8.5498     65.5535     61.6464     10.9606      8.3278
       6184.5      8.5498        65.2     68.9566     10.1213      7.9318
         6185      8.5498        65.2     71.2438      9.5035      7.4172
       6185.5      8.5498     65.6571     65.6931      8.5207      6.9522
         6186      8.5498     66.1143     55.1792      6.9856      5.9659
       6186.5        8.51     66.1143     50.8612      6.0317      5.0768
         6187      8.4705     66.1143     48.4122      5.9701      5.0345
       6187.5      8.4303     65.6571     46.2942      6.5499      5.4035
         6188      8.4303        65.2     41.9908      8.4902      6.8994
       6188.5      8.4303     64.7429     39.0702      8.8475      8.3002
         6189      8.4303     64.7429     39.9901      8.5175      7.3818
       6189.5      8.4303     64.4163     42.8551      7.2667      6.0082
         6190      8.4303     63.7371     53.1288      6.1879      5.2156
       6190.5      8.4303        65.2      70.807      8.0821      6.7002
         6191      8.4303        65.2     93.5029     10.1529      9.6861
       6191.5      8.4303     65.4674    100.1695     12.1768     10.8846
         6192      8.4701        65.2     88.2934     12.6081      9.9723
       6192.5      8.4701        65.2     66.2696      8.6605      8.6181
         6193      8.4701        65.2      51.658      7.5152      7.4532
       6193.5      8.4701        65.2     49.6016      6.8367      6.6294
         6194      8.4701        65.2     49.6016      6.2398      6.1409
       6194.5      8.4701        65.2     48.2247      6.0799      5.9955
         6195      8.4701        65.2     47.9354      6.9791        6.53
       6195.5      8.4303     64.7429     54.7784      9.6711      8.3422
         6196      8.4303     63.3714     66.3525     11.7722     12.0111
       6196.5      8.4303     61.0857     64.8622      19.689     19.3805
         6197      8.4303     60.6286     52.2316     38.7306     34.3247
       6197.5      8.4303     60.1714     44.0336     37.5198     34.1731
         6198      8.4303     59.7143     45.0845     36.2648     30.3576
