#--------------------------------------------------#
#-------------------ENVERUS, INC.------------------#
#------------------WWW.ENVERUS.COM-----------------#
#------------------COPYRIGHT 2020------------------#
#--------------------------------------------------#
#THIS FILE MAY BE USED ONLY IN ACCORDANCE WITH A CURRENT SUBSCRIPTION AGREEMENT BETWEEN
#THE USER AND ENVERUS, INC. NO PART OF THIS FILE MAY BE REPRODUCED, USED, COPIED,
#MODIFIED, PROPAGATED, OR DISTRIBUTED EXCEPT IN ACCORDANCE WITH THE SUBSCRIPTION
#AGREEMENT. UNAUTHORIZED USE OR DISTRIBUTION OF ALL OR ANY PART OF THIS FILE MAY VIOLATE
#COPYRIGHT, TRADEMARK, AND/OR OTHER LAWS AND IS SUBJECT TO CIVIL AS WELL AS CRIMINAL
#SANCTIONS.
#--------------------------------------------------#
#THIS FILE IS PROVIDED "AS-IS" AND ALL WARRANTIES ARE EXPRESSLY DISCLAIMED, WHETHER
#EXPRESS, ORAL, IMPLIED, STATUTORY OR OTHERWISE, INCLUDING ANY IMPLIED WARRANTY OF FITNESS
#FOR A PARTICULAR PURPOSE, MERCHANTABILITY, TITLE OR NON-INFRINGEMENT, AND ANY WARRANTIES
#ARISING BY VIRTUE OF CUSTOM OF TRADE OR COURSE OF DEALING.  FURTHER, ENVERUS, INC.
#AND ITS LICENSORS DO NOT REPRESENT OR WARRANT THAT THIS FILE WILL MEET USER'S
#REQUIREMENTS OR ARE SUITABLE FOR USER'S NEEDS OR THAT THE DATA OR RESULTS PROVIDED IN
#CONJUNCTION THEREWITH ARE CORRECT, ACCURATE, TIMELY OR RELIABLE. THESE DISCLAIMERS SHALL
#APPLY REGARDLESS OF ANY FAILURE OF ESSENTIAL PURPOSE OF ANY LIMITED REMEDY.  SOME
#JURISDICTIONS DO NOT ALLOW THE EXCLUSION OF CERTAIN WARRANTIES SO SOME OF THE ABOVE
#EXCLUSIONS MAY NOT APPLY. IN NO EVENT SHALL ENVERUS, INC. OR ANY OF ITS AFFILIATES
#BE LIABLE UNDER ANY LEGAL THEORY, WHETHER IN TORT (INCLUDING WITHOUT LIMITATION
#NEGLIGENCE), CONTRACT, STRICT LIABILITY, STATUTORY OR OTHERWISE, FOR ANY SPECIAL,
#INCIDENTAL, CONSEQUENTIAL, EXEMPLARY, PUNITIVE OR INDIRECT DAMAGE OF ANY KIND, INCLUDING
#WITHOUT LIMITATION LOSS OF REVENUE, PROFITS, GOODWILL, USE, AND/OR DATA OR THE COST OF
#PROCUREMENT OF SUBSTITUTE GOODS OR SERVICES, EVEN IF APPRISED OF THE POSSIBILITY OF SUCH
#DAMAGES IN ADVANCE.
#--------------------------------------------------#

~VERSION INFORMATION
VERS. 2.0 : CWLS LOG ASCII STANDARD - VERSION 2.0
WRAP.  NO : ONE LINE PER DEPTH STEP
~WELL INFORMATION
#MNEMONIC     .UNIT              VALUE :DESCRIPTION
STRT       .FT                51 :START DEPTH
STOP       .FT                4494 :STOP DEPTH
STEP       .FT                   0.500 :STEP
NULL       .                  -999.990 :NULL
UWI        .              42389102200000 :UNIQUE WELL ID
API        .              42389102200000 :API NUMBER
COMP       .         GRUY PETROLEUM MANAGEMENT CO. :COMPANY
WELL       .        REEVES -AQ- FEE  2 :WELL
DATE       .                30-NOV-1992 :LOG DATE
~CURVE INFORMATION
#MNEMONIC     .UNIT      API CODE :CURVE DESCRIPTION
DEPTH       .FT                      :MEASURED DEPTH
CAL.INCH        UNKNOWN   :CAL
GR.API        UNKNOWN   :GR
DT.US/FT        UNKNOWN   :DT
~A    DEPTH    CAL    GR    DT
# ...
 2669.5     9.437   49.479   87.917
 2670     9.374   48.554   86.52
 2670.5     9.312   49.586   85.644
 2671     9.295   51.251   84.769
 2671.5     9.302   52.965   83.773
 2672     9.31   55.573   82.742
 2672.5     9.317   58.182   81.71
 2673     9.325   60.791   81.669
 2673.5     9.332   61.313   81.867
 2674     9.34   61.785   82.066
 2674.5     9.387   62.257   82.264
 2675     9.441   62.73   82.463
 2675.5     9.495   63.202   82.611
 2676     9.549   63.476   82.55
 2676.5     9.603   62.606   82.489
 2677     9.657   61.735   82.427
 2677.5     9.711   60.84   81.58
 2678     9.745   58.365   79.937
 2678.5     9.757   55.89   78.701
 2679     9.768   58.748   79.289
 2679.5     9.78   64.487   79.876
 2680     9.792   70.226   79.294
 2680.5     9.803   74.16   78.08
 2681     9.815   72.45   76.866
 2681.5     9.827   70.74   75.652
 2682     9.838   69.03   76.396
 2682.5     9.85   65.507   78.851
 2683     9.862   61.226   81.306
 2683.5     9.874   56.945   83.761
 2684     9.885   52.665   86.216
 2684.5     9.897   49.595   88.671
 2685     9.909   49.036   91.126
 2685.5     9.92   48.476   91.763
 2686     9.932   48.157   91.395
 2686.5     9.942   48.807   91.296
 2687     9.942   49.457   92.223
 2687.5     9.942   50.107   93.15
 2688     9.942   50.757   94.077
 2688.5     9.943   51.407   94.577
 2689     9.943   49.392   94.286
 2689.5     9.943   47.062   93.996
 2690     9.943   47.014   93.706
 2690.5     9.944   46.967   93.415
 2691     9.944   46.92   91.665
 2691.5     9.944   47.175   91.532
 2692     9.944   48.187   91.681
 2692.5     9.944   49.199   91.83
 2693     9.945   50.93   91.979
 2693.5     9.945   53.193   92.128
 2694     9.945   55.455   91.819
 2694.5     9.945   57.718   91.482
 2695     9.946   58.426   91.45
 2695.5     9.946   56.074   91.718
 2696     9.946   53.722   91.982
 2696.5     9.946   52.221   91.362
 2697     9.946   54.507   90.743
 2697.5     9.947   56.793   90.506
 2698     9.947   59.079   90.529
 2698.5     9.947   61.365   90.552
 2699     9.947   61.315   90.576
 2699.5     9.948   59.44   90.599
 2700     9.948   57.565   90.622
 2700.5     9.948   55.763   86.697
 2701     9.948   57.078   83.433
 2701.5     9.949   58.394   85.873
 2702     9.937   59.709   88.314
 2702.5     9.897   60.517   88.044
 2703     9.857   58.483   83.905
 2703.5     9.818   56.449   85.89
 2704     9.778   54.415   87.875
 2704.5     9.738   53.163   89.861
 2705     9.702   54.729   89.634
 2705.5     9.698   56.294   88.718
 2706     9.695   57.86   87.803
 2706.5     9.692   59.425   86.888
 2707     9.688   58.664   85.973
 2707.5     9.685   57.818   85.058
 2708     9.681   56.971   85.773
 2708.5     9.663   56.006   86.865
 2709     9.612   52.945   87.956
 2709.5     9.56   50.241   89.048
 2710     9.509   51.888   88.476
 2710.5     9.457   52.397   87.766
 2711     9.405   51.9   87.055
 2711.5     9.354   51.402   86.344
 2712     9.302   50.905   86.539
 2712.5     9.251   51.487   87.08
 2713     9.199   55.584   87.621
 2713.5     9.148   59.682   87.242
 2714     9.14   63.208   86.136
 2714.5     9.147   64.135   85.029
 2715     9.153   65.062   83.923
 2715.5     9.159   66.692   82.817
 2716     9.165   68.444   82.544
 2716.5     9.172   70.195   82.432
 2717     9.178   71.947   82.319
 2717.5     9.184   69.935   82.206
 2718     9.19   65.472   82.094
 2718.5     9.197   61.009   81.981
 2719     9.203   56.546   81.869
 2719.5     9.209   57.533   81.756
 2720     9.205   61.82   80.436
 2720.5     9.185   66.108   78.889
 2721     9.165   70.396   77.343
 2721.5     9.145   70.006   75.796
 2722     9.125   63.318   74.249
 2722.5     9.105   56.629   75.249
 2723     9.086   49.941   77.711
 2723.5     9.066   49.783   80.174
 2724     9.046   51.217   82.636
 2724.5     9.043   51.342   85.098
 2725     9.044   50.062   87.56
 2725.5     9.046   48.782   90.023
 2726     9.048   47.805   88.55
 2726.5     9.049   47.074   85.433
 2727     9.051   47.015   84.497
 2727.5     9.053   46.955   85.505
 2728     9.055   47.111   86.513
 2728.5     9.056   50.827   87.521
 2729     9.058   54.544   88.529
 2729.5     9.06   58.26   87.903
 2730     9.061   61.976   84.319
 2730.5     9.063   59.164   80.735
 2731     9.065   55.166   77.646
 2731.5     9.066   51.169   77.308
 2732     9.068   51.708   76.971
 2732.5     9.068   54.48   77.151
 2733     9.053   57.251   77.536
 2733.5     9.037   59.36   77.92
 2734     9.021   58.987   78.304
 2734.5     9.005   58.614   78.689
 2735     8.989   58.305   78.676
 2735.5     8.974   58.643   78.48
 2736     8.958   58.981   78.285
 2736.5     8.942   58.06   79.057
 2737     8.926   56.733   80.415
 2737.5     8.91   55.406   81.773
 2738     8.894   54.601   81.397
 2738.5     8.879   55.561   81.004
 2739     8.827   56.522   80.61
 2739.5     8.76   57.482   81.014
 2740     8.694   51.389   81.457
 2740.5     8.627   50.889   81.478
 2741     8.618   51.964   80.942
 2741.5     8.61   53.038   80.406
 2742     8.601   51.417   79.87
 2742.5     8.592   49.212   80.037
 2743     8.583   47.007   80.369
 2743.5     8.501   45.77   80.701
 2744     8.356   47.011   81.032
 2744.5     8.356   48.253   81.364
 2745     8.356   49.495   81.696
 2745.5     8.356   50.763   81.109
 2746     8.357   53.306   79.724
 2746.5     8.359   54.65   78.339
 2747     8.366   54.703   77.223
 2747.5     8.374   54.756   76.266
 2748     8.382   54.809   75.309
 2748.5     8.39   58.064   75.423
 2749     8.397   63.575   76.074
 2749.5     8.405   69.086   76.725
 2750     8.413   74.597   77.377
 2750.5     8.421   73.48   77.676
 2751     8.428   70.595   76.633
 2751.5     8.407   68.95   75.591
 2752     8.336   69.016   75.87
 2752.5     8.266   69.081   76.387
 2753     8.195   68.09   76.905
 2753.5     8.124   64.696   75.818
 2754     8.053   61.302   73.988
 2754.5     7.996   58.826   72.158
 2755     7.943   61.976   73.816
 2755.5     7.89   65.126   76.182
 2756     7.836   68.275   78.548
 2756.5     7.783   71.425   80.18
 2757     7.73   77.859   80.544
 2757.5     7.677   84.322   80.909
 2758     7.635   81.619   81.274
 2758.5     7.614   78.915   81.639
 2759     7.593   76.211   82.004
 2759.5     7.572   73.508   82.369
 2760     7.55   70.804   82.734
 2760.5     7.529   78.439   81.336
 2761     7.508   87.18   79.562
 2761.5     7.487   94.865   77.787
 2762     7.466   102.55   77.432
 2762.5     7.446   110.235   77.125
 2763     7.441   120.962   76.819
 2763.5     7.436   107.017   75.887
 2764     7.431   93.071   73.557
 2764.5     7.427   79.125   71.227
 2765     7.428   65.991   68.896
 2765.5     7.468   57.541   67.804
 2766     7.509   53.562   68.526
 2766.5     7.549   53.565   69.248
 2767     7.59   54.453   69.699
 2767.5     7.63   59.065   69.12
 2768     7.671   64.992   68.541
 2768.5     7.711   72.952   67.962
 2769     7.752   74.302   67.858
 2769.5     7.792   75.651   68.072
 2770     7.833   77   68.287
 2770.5     7.873   92.43   70.433
 2771     7.913   114.566   72.552
 2771.5     7.954   132.146   73.789
 2772     7.994   146.113   75.026
 2772.5     8.047   160.081   76.263
 2773     8.121   166.573   77.5
 2773.5     8.196   152.694   78.737
 2774     8.271   138.815   77.186
 2774.5     8.345   124.936   74.962
 2775     8.42   109.276   72.737
 2775.5     8.495   77.672   70.512
 2776     8.569   55.304   68.288
 2776.5     8.641   56.432   66.769
 2777     8.707   57.56   67.931
 2777.5     8.772   58.688   69.093
 2778     8.838   59.816   70.256
 2778.5     8.904   59.825   71.418
 2779     8.936   56.367   72.58
 2779.5     8.923   52.909   73.743
 2780     8.91   49.45   73.596
 2780.5     8.896   47.21   72.809
 2781     8.86   47.952   72.022
 2781.5     8.814   48.693   71.236
 2782     8.769   49.434   74.074
 2782.5     8.723   50.176   77.271
 2783     8.678   50.917   78.398
 2783.5     8.632   51.164   79.525
 2784     8.587   50.848   80.652
 2784.5     8.541   50.532   81.779
