###############################################
##         ENVERUS                           ##
##         ESS - Open Hole                   ##
##         PERMIAN / DELAWARE                ##
##         Nov 04 2023  V4.0                 ##
##         42-389-32353-00-00                ##
###############################################
## Copyright 2017-2023  ENVERUS.  All Rights Reserved. 
## Confidential - Property of ENVERUS, use governed by terms and 
## conditions found within the existing Information Services Subscription Agreement 
## (as may be amended, the “ISSA”) between Customer and ENVERUS. 
## 
~VERSION INFORMATION
# MNEM.UNIT                               DATA : DESCRIPTION OF MNEMONIC
#-----.-----     ----------------------------- : -----------------------------
VERS.                                     2.00 : CWLS LOG ASCII STANDARD - VERSION 2.00
WRAP.                                       NO : MULTIPLE LINES PER DEPTH STEP
VEND.                                  ENVERUS : VENDOR
TYPE.                          ESS - OPEN HOLE : ENVERUS ESSENTIAL CURVES – ACCESSIBLE THROUGH ENVERUS PRISM(TM)
DOC.                                  31816014 : ENVERUS HEADER RAW DOCUMENT ID
#___________________________________________________________________________________________________ 
~WELL INFORMATION 
# N6wmpYeOPIEODBGNmaSz+o1WStwpnSM+Mr70h4S2k9wmNhpeTZrfoFyYX6I24xyp8IiB7B51j2C/wpla6NseZQ== 
# MNEM.UNIT                                              DATA : DESCRIPTION OF MNEMONIC 
#-----.-----                    ----------------------------- : ----------------------------- 
CNTY.                                                  REEVES : COUNTY 
STATE.                                                  TEXAS : STATE 
CNTRY.                                                    USA : COUNTRY 
API.                                             42-389-32353 : API (10 Digit) 
API_14.                                    42-389-32353-00-00 : API (14 Digits) 
API_14_std.                                 42-389-32353-0000 : API (14 Digits Standard) 
UWI.                                           42389323530000 : UNIQUE WELL ID 
WELL.                                             DORNFIELD 1 : WELL NAME
STRT.FT                                                 210.0 : START DEPTH
STOP.FT                                               13522.0 : STOP DEPTH
STEP.FT                                                   0.5 : STEP BETWEEN DEPTHS
NULL.                                                 -999.25 : NULL VALUE
LOC.                                                      UNK : LOCATION 
SRVC.                                                     UNK : SERVICE COMPANY
#___________________________________________________________________________________________________ 
~CURVE INFORMATION 
# MNEM.UNIT           : CURVE DESCRIPTION 
#-----.-----          : ----------------------------- 
 DEPT.FT               : MEASURED DEPTH 
 CALI.IN               : CALIPER (CAL - CAL) 
 GR.API                : GAMMA RAY (GR) 
 DT.US/FT              : SONIC DELTA TRANSIT TIME (DT) 
 RESS.OHMM             : SHALLOW INDUCTION RESISTIVITY (ILS - ILS) 
 RESD.OHMM             : DEEP INDUCTION RESISTIVITY (ILD - ILD) 
 DPHI.V/V              : DENSITY POROSITY (DPHI) 
 NPHI.V/V              : NEUTRON POROSITY (NPHI) 
 RHOB.G/CC             : BULK DENSITY (RHOB) 
 #___________________________________________________________________________________________________ 
~A         DEPT           CALI             GR             DT           RESS           RESD           DPHI           NPHI           RHOB
# ...
         7673.5          9.843         80.957         65.136         27.039         24.225        0.01037        0.14218         2.6235
         7674.0          9.769         91.863         64.587         33.388         26.084        0.01348        0.15005         2.6320
         7674.5          9.694        102.769         64.136         39.737         27.942        0.01679        0.15864         2.6286
         7675.0          9.621        115.938         64.136         46.086         46.905        0.01734        0.16723         2.6276
         7675.5          9.596        120.808         64.137         52.161         67.854        0.01700        0.17375         2.6317
         7676.0          9.572        115.329         64.138         50.187         72.184        0.01054        0.16647         2.6358
         7676.5          9.548        106.937         64.138         47.062         63.427        0.00917        0.15679         2.6390
         7677.0          9.523         98.818         63.754         43.937         54.336        0.01029        0.12260         2.6370
         7677.5          9.499         94.002         63.273         40.812         45.246        0.01058        0.11485         2.6372
         7678.0          9.474         92.098         62.792         54.918         43.596        0.00972        0.10710         2.6409
         7678.5          9.450        104.794         62.527         68.725         59.649        0.00583        0.12103         2.6442
         7679.0          9.438        124.917         62.909         65.178         69.019        0.00194        0.13565         2.6476
         7679.5          9.434        144.381         63.917         74.915         71.099       -0.00021        0.15027         2.6414
         7680.0          9.429        149.622         64.565        101.870         73.214        0.01119        0.16489         2.6276
         7680.5          9.425        150.592         65.001        128.826        148.874        0.02260        0.16142         2.6138
         7681.0          9.420        133.394         64.059        197.920        311.808        0.03970        0.12712         2.6000
         7681.5          9.415        105.430         62.953        512.291        474.743        0.03337        0.09270         2.5862
         7682.0          9.411         92.115         61.847        826.662        860.400        0.00037        0.08623         2.6231
         7682.5          9.406         92.516         62.063        561.468        346.055       -0.01417        0.08239         2.6533
         7683.0          9.449        113.271         62.864         26.311         53.793        0.00011        0.12007         2.6718
         7683.5          9.528        125.606         65.414          8.471         15.078        0.02788        0.14937         2.6071
         7684.0          9.606        117.323         67.388          5.443          6.689        0.05565        0.17682         2.5109
         7684.5          9.685         98.195         68.693          5.158          6.956        0.08342        0.18113         2.5033
         7685.0          9.763         79.089         69.290          5.516          7.224        0.09525        0.17247         2.5033
         7685.5          9.842         68.623         69.859          5.874          7.491        0.09761        0.16453         2.5033
         7686.0          9.921         64.058         69.703          6.232          7.758        0.09660        0.16703         2.5033
         7686.5          9.999         62.023         69.529          6.591          7.726        0.09559        0.16953         2.5121
         7687.0          9.973         61.255         69.355          6.866          7.660        0.08725        0.17196         2.5215
         7687.5          9.973         62.164         69.181          7.036          7.733        0.07899        0.16943         2.5309
         7688.0          9.970         63.459         69.007          6.907          8.009        0.07358        0.16689         2.5403
         7688.5          9.966         64.753         68.997          6.777          8.285        0.07007        0.16435         2.5351
         7689.0          9.963         64.864         69.026          6.608          8.561        0.07517        0.16182         2.5293
         7689.5          9.960         64.351         69.056          6.430          8.694        0.08028        0.15928         2.5235
         7690.0          9.957         63.838         69.086          6.252          8.498        0.08538        0.16239         2.5177
         7690.5          9.954         63.326         69.115          5.597          8.301        0.09048        0.16992         2.5119
         7691.0          9.951         68.671         69.536          4.877          8.105        0.08942        0.17744         2.5163
         7691.5          9.947         75.721         70.093          5.285         11.328        0.08768        0.18497         2.5385
         7692.0          9.944         97.560         69.992         21.539         32.839        0.07062        0.19249         2.5607
         7692.5          9.941        116.467         69.238         35.904         75.413        0.05112        0.19627         2.5828
         7693.0          9.938        126.583         68.139         43.369         91.049        0.03416        0.18796         2.5922
         7693.5          9.921        123.755         67.039         41.889         91.049        0.03314        0.17773         2.5837
         7694.0          9.845        113.995         65.940         39.777         86.724        0.05102        0.16751         2.5752
         7694.5          9.769        104.234         65.338         30.188         79.961        0.06307        0.15728         2.5668
         7695.0          9.730         94.474         64.922         20.599         51.759        0.06409        0.14705         2.5583
         7695.5          9.753         84.713         65.177         11.236         23.557        0.07212        0.14153         2.5498
         7696.0          9.776         75.552         65.530          8.532         15.338        0.07587        0.13834         2.5413
         7696.5          9.799         66.859         65.965          9.263         13.909        0.07486        0.13644         2.5328
         7697.0          9.823         60.778         66.399         10.618         12.682        0.07539        0.13780         2.5319
         7697.5          9.813         59.080         66.834          9.901         11.466        0.07366        0.13916         2.5390
         7698.0          9.796         58.908         67.269          9.044         10.947        0.07533        0.13952         2.5441
         7698.5          9.779         58.284         67.525          9.318         11.188        0.07042        0.13648         2.5492
         7699.0          9.762         57.030         67.438          9.592         11.429        0.06995        0.13343         2.5446
         7699.5          9.770         55.776         67.080          9.866         11.592        0.08253        0.13039         2.5271
         7700.0          9.796         55.836         66.554         10.140         11.794        0.09512        0.12771         2.5100
         7700.5          9.821         56.369         66.439         10.030         12.009        0.09351        0.12730         2.5079
         7701.0          9.846         56.902         66.370          9.782         11.442        0.09149        0.12797         2.5068
         7701.5          9.871         57.435         66.300          9.534         10.678        0.09342        0.12594         2.5068
         7702.0          9.897         57.968         65.922          9.286          9.913        0.09586        0.12261         2.5068
         7702.5          9.922         60.174         65.411          9.038         10.459        0.09441        0.11927         2.5105
