###############################################
##         ENVERUS                           ##
##         ESS - Open Hole                   ##
##         PERMIAN / DELAWARE                ##
##         Nov 04 2023  V4.0                 ##
##         42-389-32245-00-00                ##
###############################################
## Copyright 2017-2023  ENVERUS.  All Rights Reserved. 
## Confidential - Property of ENVERUS, use governed by terms and 
## conditions found within the existing Information Services Subscription Agreement 
## (as may be amended, the “ISSA”) between Customer and ENVERUS. 
## 
~VERSION INFORMATION
# MNEM.UNIT                               DATA : DESCRIPTION OF MNEMONIC
#-----.-----     ----------------------------- : -----------------------------
VERS.                                     2.00 : CWLS LOG ASCII STANDARD - VERSION 2.00
WRAP.                                       NO : MULTIPLE LINES PER DEPTH STEP
VEND.                                  ENVERUS : VENDOR
TYPE.                          ESS - OPEN HOLE : ENVERUS ESSENTIAL CURVES – ACCESSIBLE THROUGH ENVERUS PRISM(TM)
DOC.                                  24742630 : ENVERUS HEADER RAW DOCUMENT ID
#___________________________________________________________________________________________________ 
~WELL INFORMATION 
# u9Wg0OWXiPz858M7Kubpm0lpDPxjGuyhH3tqBPDGtvBYDDDqGrwiIchrhDPbdkpmsDZNCKsM7+2eKUVstoQO7Q== 
# MNEM.UNIT                                              DATA : DESCRIPTION OF MNEMONIC 
#-----.-----                    ----------------------------- : ----------------------------- 
CNTY.                                                  REEVES : COUNTY 
STATE.                                                  TEXAS : STATE 
CNTRY.                                                    USA : COUNTRY 
API.                                             42-389-32245 : API (10 Digit) 
API_14.                                    42-389-32245-00-00 : API (14 Digits) 
API_14_std.                                 42-389-32245-0000 : API (14 Digits Standard) 
UWI.                                           42389322450000 : UNIQUE WELL ID 
WELL.                          TEXAS PACIFIC LAND TRUST #25-1 : WELL NAME
STRT.FT                                                2530.0 : START DEPTH
STOP.FT                                               10610.0 : STOP DEPTH
STEP.FT                                                   0.5 : STEP BETWEEN DEPTHS
NULL.                                                 -999.25 : NULL VALUE
COMP.                                             CONOCO INC. : COMPANY 
FLD.                                            FORD WOLFCAMP : FIELD 
LOC.                                                 25-2S-58 : LOCATION 
SRVC.                                            SCHLUMBERGER : SERVICE COMPANY 
DATE.                                              03/21/2002 : DATE 
TVD.                                                       NO : TVD FLAG
#___________________________________________________________________________________________________ 
~PARAMETER INFORMATION 
# MNEM.UNIT                                              DATA : DESCRIPTION OF MNEMONIC 
#-----.-----                    ----------------------------- : ----------------------------- 
RUN.                                                      ONE : RUN NUMBER 
PDAT.                                                      GL : PERMANENT DATUM 
EPD.FT                                              2993.0000 : ELEVATION OF PERM. DATUM 
LMF.                                            KELLY BUSHING : LOG MEASURED FROM 
EKB.FT                                              3021.0000 : ELEVATION OF KELLY BUSHING 
DF.FT                                               3020.0000 : ELEVATION OF DERRICK FLOOR 
GL.FT                                               2993.0000 : ELEVATION OF GROUND LEVEL 
TD.FT                                              10610.0000 : TOTAL DEPTH 
BHT.DEGF                                               130.00 : BOTTOM HOLE TEMPERATURE 
BLI.FT                                             10610.0000 : BOTTOM LOG INTERVAL 
CSGSIZE.IN                                             9.6250 : CASING SIZE 
BITSIZE.IN                                              8.750 : BITSIZE 
CSGD.FT                                                  2642 : CASING BOTTOM (DRILLER) 1 
CSGL.FT                                                  2538 : CASING BOTTOM (LOGGER) 1 
MUD.                                                CUT BRINE : DRILLING FLUID TYPE 
MUDV.CP                                               28.0000 : DRILLING FLUID VISCOSITY 
MUDD.LB/USG                                           10.0000 : DRILLING FLUID DENSITY 
PH.                                                    8.5000 : DRILLING FLUID PH 
MUDS.                                        CIRCULATION TANK : MUD SAMPLE SOURCE 
RM.OHMM                                                0.0610 : RESISTIVITY OF MUD SAMPLE 
RMT.DEGF                                              75.0000 : MUD SAMPLE TEMPERATURE 
RMF.OHMM                                               0.0610 : MUD FILTRATE RESISTIVITY 
RMFT.DEGF                                             75.0000 : MUD FILTRATE SAMPLE TEMPERATURE
#___________________________________________________________________________________________________ 
~CURVE INFORMATION 
# MNEM.UNIT           : CURVE DESCRIPTION 
#-----.-----          : ----------------------------- 
 DEPT.FT               : MEASURED DEPTH 
 CALI.IN               : CALIPER (CALIPER) 
 GR.API                : GAMMA RAY (GAMMA RAY) 
 DT.US/FT              : SONIC DELTA TRANSIT TIME (DELTA T) 
 SPHI.V/V              : SONIC POROSITY (SONIC POROSITY) 
 #___________________________________________________________________________________________________ 
~A         DEPT           CALI             GR             DT           SPHI
# ...
         7883.0          9.130         39.880         61.410        0.11000
         7883.5          9.130         42.740         64.600        0.13000
         7884.0          9.130         53.280         67.800        0.16000
         7884.5          9.140         68.320         71.000        0.18000
         7885.0          9.140         83.360         74.190        0.20000
         7885.5          9.130         97.890         76.210        0.20000
         7886.0          9.130         97.660         74.290        0.16000
         7886.5          9.120         82.690         69.340        0.13000
         7887.0          9.110         68.390         64.390        0.10000
         7887.5          9.100         53.960         59.470        0.08000
         7888.0          9.090         42.420         58.490        0.08000
         7888.5          9.080         34.040         58.970        0.09000
         7889.0          9.070         33.570         60.130        0.09000
         7889.5          9.080         37.430         62.530        0.10000
         7890.0          9.080         45.830         66.130        0.14000
         7890.5          9.080         56.270         69.720        0.18000
         7891.0          9.080         66.600         73.720        0.19000
         7891.5          9.080         76.260         72.150        0.17000
         7892.0          9.080         82.180         69.960        0.15000
         7892.5          9.080         75.030         67.750        0.13000
         7893.0          9.090         64.860         65.550        0.12000
         7893.5          9.090         54.530         64.360        0.12000
         7894.0          9.090         51.030         64.490        0.12000
         7894.5          9.090         55.740         64.190        0.12000
         7895.0          9.090         54.090         63.900        0.11000
         7895.5          9.090         49.880         65.090        0.13000
         7896.0          9.090         48.200         67.590        0.15000
         7896.5          9.090         58.260         70.090        0.17000
         7897.0          9.100         69.460         72.580        0.19000
         7897.5          9.080         76.010         74.660        0.19000
         7898.0          9.060         71.490         71.560        0.17000
         7898.5          9.040         62.900         68.730        0.15000
         7899.0          9.020         61.800         68.080        0.14000
         7899.5          9.010         64.420         69.690        0.15000
         7900.0          8.990         69.500         71.290        0.17000
         7900.5          9.000         76.460         72.880        0.18000
         7901.0          9.010         83.450         74.470        0.20000
         7901.5          9.030         90.410         76.180        0.20000
         7902.0          9.040         93.760         76.170        0.18000
         7902.5          9.050         82.510         72.290        0.16000
         7903.0          9.070         69.390         68.120        0.13000
         7903.5          9.080         55.930         64.770        0.11000
         7904.0          9.100         45.230         62.790        0.11000
         7904.5          9.110         39.460         63.900        0.12000
         7905.0          9.130         43.800         65.560        0.13000
         7905.5          9.140         49.690         67.220        0.14000
         7906.0          9.150         54.630         68.400        0.15000
         7906.5          9.170         55.450         67.920        0.14000
         7907.0          9.180         52.710         67.670        0.14000
         7907.5          9.210         51.340         68.530        0.15000
         7908.0          9.230         57.920         70.650        0.17000
         7908.5          9.260         65.510         72.760        0.18000
         7909.0          9.290         72.790         73.620        0.18000
         7909.5          9.320         71.510         73.090        0.18000
         7910.0          9.340         68.830         72.510        0.18000
         7910.5          9.370         67.990         72.680        0.18000
         7911.0          9.400         72.180         72.840        0.18000
         7911.5          9.400         76.070         72.240        0.17000
         7912.0          9.410         74.360         71.120        0.16000
         7912.5          9.410         70.930         70.000        0.16000
         7913.0          9.410         68.080         69.010        0.15000
         7913.5          9.410         68.160         68.790        0.15000
         7914.0          9.410         68.190         69.250        0.16000
         7914.5          9.420         69.240         69.660        0.16000
         7915.0          9.420         72.180         69.510        0.15000
         7915.5          9.420         75.210         68.920        0.15000
         7916.0          9.420         76.280         68.340        0.14000
         7916.5          9.420         73.340         67.750        0.14000
         7917.0          9.420         69.920         67.760        0.14000
         7917.5          9.430         68.200         68.300        0.15000
         7918.0          9.430         69.980         68.600        0.15000
         7918.5          9.430         72.360         68.320        0.15000
         7919.0          9.430         70.070         67.320        0.14000
         7919.5          9.430         65.470         66.250        0.13000
         7920.0          9.440         58.670         65.990        0.13000
         7920.5          9.440         60.910         67.080        0.14000
         7921.0          9.440         65.670         69.340        0.16000
         7921.5          9.440         74.280         72.060        0.19000
         7922.0          9.440         82.700         74.770        0.21000
         7922.5          9.450         91.100         77.600        0.21000
         7923.0          9.440         98.930         77.600        0.20000
         7923.5          9.430         99.440         74.150        0.18000
         7924.0          9.410         92.910         69.560        0.15000
         7924.5          9.400         78.800         64.980        0.11000
         7925.0          9.390         60.070         60.390        0.07000
         7925.5          9.380         41.330         55.800        0.04000
         7926.0          9.370         32.940         52.160        0.03000
         7926.5          9.360         27.780         53.360        0.07000
         7927.0          9.380         31.090         58.600        0.10000
         7927.5          9.400         45.200         64.170        0.13000
         7928.0          9.420         59.330         69.720        0.16000
         7928.5          9.440         73.540         73.430        0.19000
         7929.0          9.460         86.060         75.750        0.20000
         7929.5          9.480         87.110         76.030        0.19000
         7930.0          9.490         75.950         75.240        0.19000
         7930.5          9.490         67.320         74.160        0.18000
         7931.0          9.500         59.450         73.160        0.18000
         7931.5          9.500         59.520         73.130        0.18000
         7932.0          9.500         64.190         72.990        0.18000
         7932.5          9.510         66.280         72.050        0.17000
         7933.0          9.510         56.120         70.130        0.14000
         7933.5          9.510         45.650         66.690        0.12000
         7934.0          9.500         35.100         61.200        0.08000
         7934.5          9.400         27.610         55.710        0.04000
         7935.0          9.310         25.380         52.360        0.03000
         7935.5          9.240         24.690         51.450        0.03000
