###############################################
##         ENVERUS                           ##
##         ESS - Open Hole                   ##
##         PERMIAN / DELAWARE                ##
##         Nov 04 2023  V4.0                 ##
##         42-389-32484-00-00                ##
###############################################
## Copyright 2017-2023  ENVERUS.  All Rights Reserved. 
## Confidential - Property of ENVERUS, use governed by terms and 
## conditions found within the existing Information Services Subscription Agreement 
## (as may be amended, the “ISSA”) between Customer and ENVERUS. 
## 
~VERSION INFORMATION
# MNEM.UNIT                               DATA : DESCRIPTION OF MNEMONIC
#-----.-----     ----------------------------- : -----------------------------
VERS.                                     2.00 : CWLS LOG ASCII STANDARD - VERSION 2.00
WRAP.                                       NO : MULTIPLE LINES PER DEPTH STEP
VEND.                                  ENVERUS : VENDOR
TYPE.                          ESS - OPEN HOLE : ENVERUS ESSENTIAL CURVES – ACCESSIBLE THROUGH ENVERUS PRISM(TM)
DOC.                                  31780441 : ENVERUS HEADER RAW DOCUMENT ID
#___________________________________________________________________________________________________ 
~WELL INFORMATION 
# aTsA/KVwhIqB1dg6n/zy22zTJjsJnyaNqg27ywuj9UrTfzbM7gscpQTlR+gOLN+9jERwUBAE6KvHEXpIT+cpyg== 
# MNEM.UNIT                                              DATA : DESCRIPTION OF MNEMONIC 
#-----.-----                    ----------------------------- : ----------------------------- 
CNTY.                                                  REEVES : COUNTY 
STATE.                                                  TEXAS : STATE 
CNTRY.                                                    USA : COUNTRY 
API.                                             42-389-32484 : API (10 Digit) 
API_14.                                    42-389-32484-00-00 : API (14 Digits) 
API_14_std.                                 42-389-32484-0000 : API (14 Digits Standard) 
UWI.                                           42389324840000 : UNIQUE WELL ID 
WELL.                                        BLK 59 ST 37  1H : WELL NAME
STRT.FT                                                 236.0 : START DEPTH
STOP.FT                                               12079.0 : STOP DEPTH
STEP.FT                                                   0.5 : STEP BETWEEN DEPTHS
NULL.                                                 -999.25 : NULL VALUE
COMP.                                       SHELL WESTERN E&P : COMPANY 
DATE.                                             05-SEP-2007 : LOG DATE
#___________________________________________________________________________________________________ 
~CURVE INFORMATION 
# MNEM.UNIT           : CURVE DESCRIPTION 
#-----.-----          : ----------------------------- 
 DEPT.FT               : MEASURED DEPTH 
 CALI.IN               : CALIPER (CAL - CAL) 
 GR.API                : GAMMA RAY (GR) 
 DT.US/FT              : SONIC DELTA TRANSIT TIME (DT) 
 DPHI.V/V              : DENSITY POROSITY (DPHI) 
 NPHI.V/V              : NEUTRON POROSITY (NPHI) 
 RHOB.G/CC             : BULK DENSITY (RHOB) 
 #___________________________________________________________________________________________________ 
~A         DEPT           CALI             GR             DT           DPHI           NPHI           RHOB
# ...
        11370.0          8.509        109.488         80.617        0.07335        0.21268         2.5710
        11370.5          8.533        109.280         80.774        0.07327        0.21282         2.5710
        11371.0          8.567        109.036         81.164        0.07443        0.21174         2.5710
        11371.5          8.565        101.572         81.555        0.07418        0.20822         2.5710
        11372.0          8.562        101.709         81.945        0.07200        0.20620         2.5710
        11372.5          8.560        103.070         82.269        0.07092        0.21322         2.5960
        11373.0          8.558        105.180         82.337        0.06528        0.22024         2.6210
        11373.5          8.556        107.290         82.209        0.05288        0.22705         2.6370
        11374.0          8.554        104.992         81.944        0.04087        0.22392         2.6230
        11374.5          8.552        102.997         82.341        0.04019        0.21671         2.6100
        11375.0          8.550        104.331         83.311        0.04876        0.21694         2.5960
        11375.5          8.548        108.788         84.132        0.05941        0.22306         2.5850
        11376.0          8.546        113.246         83.966        0.07005        0.24219         2.5800
        11376.5          8.545        116.037         82.720        0.07419        0.23352         2.5750
        11377.0          8.544        116.162         81.474        0.07195        0.22343         2.5840
        11377.5          8.542        112.845         80.742        0.06739        0.21386         2.5930
        11378.0          8.542        109.005         80.965        0.05619        0.20063         2.6030
        11378.5          8.560        105.165         81.793        0.05188        0.19242         2.6120
        11379.0          8.597        104.997         82.620        0.05362        0.19181         2.6080
        11379.5          8.577        105.411         83.447        0.05722        0.19257         2.5970
        11380.0          8.567        105.528         84.275        0.06565        0.19996         2.5860
        11380.5          8.561        102.326         84.518        0.06364        0.20525         2.5750
        11381.0          8.555         99.125         84.159        0.06653        0.20930         2.5640
        11381.5          8.549         96.870         83.430        0.07298        0.20928         2.5530
        11382.0          8.546         98.449         81.471        0.08019        0.20891         2.5420
        11382.5          8.544        100.029         78.941        0.08804        0.20853         2.5660
        11383.0          8.542        101.369         77.840        0.08671        0.20550         2.6120
        11383.5          8.544         95.765         78.173        0.07735        0.20138         2.6580
        11384.0          8.565         90.161         79.207        0.04442        0.19207         2.6470
        11384.5          8.572         86.359         80.342        0.02818        0.18347         2.6290
        11385.0          8.571         87.921         81.476        0.04062        0.17858         2.6100
        11385.5          8.570         94.579         82.478        0.06403        0.18280         2.5920
        11386.0          8.569         99.373         82.411        0.07324        0.18825         2.5730
        11386.5          8.568        100.810         82.344        0.07070        0.19336         2.5800
        11387.0          8.568        102.247         82.278        0.06391        0.19848         2.5940
        11387.5          8.567         97.413         83.064        0.06039        0.20360         2.5960
        11388.0          8.566         92.253         83.974        0.06284        0.21143         2.5850
        11388.5          8.566         91.345         85.375        0.06689        0.22099         2.5740
        11389.0          8.566        102.040         86.874        0.07139        0.23055         2.5620
        11389.5          8.567        112.736         88.373        0.08118        0.24838         2.5520
        11390.0          8.567        120.750         89.591        0.08473        0.27190         2.5490
        11390.5          8.568        119.788         89.649        0.08444        0.28029         2.5490
        11391.0          8.568        118.827         89.708        0.08252        0.28209         2.5520
        11391.5          8.569        117.865         89.766        0.08324        0.28248         2.5550
        11392.0          8.569        119.748         89.928        0.08946        0.27872         2.5530
        11392.5          8.570        122.219         90.233        0.08630        0.27496         2.5500
        11393.0          8.571        123.531         90.291        0.08172        0.27136         2.5490
        11393.5          8.571        122.706         89.681        0.07493        0.26820         2.5650
        11394.0          8.571        119.071         89.071        0.06667        0.26586         2.5820
        11394.5          8.571        115.437         88.461        0.06465        0.26354         2.5890
        11395.0          8.571        111.802         87.922        0.06264        0.23837         2.5930
        11395.5          8.571        108.168         88.099        0.06389        0.22902         2.5870
        11396.0          8.571        107.168         88.606        0.06907        0.22878         2.5780
        11396.5          8.613        110.240         88.943        0.07426        0.23508         2.5680
        11397.0          8.597        113.312         87.389        0.07816        0.24137         2.5590
        11397.5          8.578        116.384         85.643        0.08110        0.24699         2.5620
        11398.0          8.566        118.778         83.897        0.07953        0.24826         2.5670
        11398.5          8.571        112.710         82.934        0.07546        0.24295         2.5730
        11399.0          8.575        106.641         83.248        0.07244        0.23452         2.5780
        11399.5          8.577        100.572         83.783        0.07047        0.22812         2.5730
        11400.0          8.577         96.405         84.319        0.07438        0.22208         2.5610
        11400.5          8.577         96.023         84.855        0.08425        0.21767         2.5530
        11401.0          8.577         95.641         84.837        0.08425        0.21511         2.5580
        11401.5          8.577         95.981         84.597        0.08224        0.21255         2.5620
        11402.0          8.577         97.971         84.823        0.08023        0.20998         2.5600
        11402.5          8.577        100.419         85.625        0.08154        0.21054         2.5580
        11403.0          8.577        104.072         86.427        0.08183        0.21575         2.5580
        11403.5          8.577        107.726         87.229        0.07875        0.22245         2.5680
        11404.0          8.578        111.379         87.784        0.07566        0.23344         2.5660
        11404.5          8.579        115.033         87.912        0.07729        0.24827         2.5620
        11405.0          8.580        116.009         87.691        0.08016        0.25503         2.5590
        11405.5          8.580        113.284         87.276        0.07660        0.25522         2.5730
        11406.0          8.581        109.411         87.144        0.07099        0.24937         2.5770
        11406.5          8.582        105.898         87.131        0.07278        0.23867         2.5720
        11407.0          8.582        108.423         87.697        0.07670        0.24414         2.5680
        11407.5          8.585        110.948         88.264        0.08115        0.25134         2.5640
