###############################################
##         ENVERUS                           ##
##         ESS - Open Hole                   ##
##         PERMIAN / DELAWARE                ##
##         Nov 04 2023  V4.0                 ##
##         42-389-30424-00-00                ##
###############################################
## Copyright 2017-2023  ENVERUS.  All Rights Reserved. 
## Confidential - Property of ENVERUS, use governed by terms and 
## conditions found within the existing Information Services Subscription Agreement 
## (as may be amended, the “ISSA”) between Customer and ENVERUS. 
## 
~VERSION INFORMATION
# MNEM.UNIT                               DATA : DESCRIPTION OF MNEMONIC
#-----.-----     ----------------------------- : -----------------------------
VERS.                                     2.00 : CWLS LOG ASCII STANDARD - VERSION 2.00
WRAP.                                       NO : MULTIPLE LINES PER DEPTH STEP
VEND.                                  ENVERUS : VENDOR
TYPE.                          ESS - OPEN HOLE : ENVERUS ESSENTIAL CURVES – ACCESSIBLE THROUGH ENVERUS PRISM(TM)
DOC.                                  32008121 : ENVERUS HEADER RAW DOCUMENT ID
#___________________________________________________________________________________________________ 
~WELL INFORMATION 
# BBd8zmUYmd+wUdICSlYDIOWaOe8iOeA0ELK9EhSbx74Kr6OX4zJxS/eo6cO6KK5SWMTSkVzaKbU2EBBfROvOKA== 
# MNEM.UNIT                                              DATA : DESCRIPTION OF MNEMONIC 
#-----.-----                    ----------------------------- : ----------------------------- 
CNTY.                                                  REEVES : COUNTY 
STATE.                                                  TEXAS : STATE 
CNTRY.                                                    USA : COUNTRY 
API.                                             42-389-30424 : API (10 Digit) 
API_14.                                    42-389-30424-00-00 : API (14 Digits) 
API_14_std.                                 42-389-30424-0000 : API (14 Digits Standard) 
UWI.                                           42389304240000 : UNIQUE WELL ID 
WELL.                                      LEWELLING STATE  1 : WELL NAME
STRT.FT                                                   7.0 : START DEPTH
STOP.FT                                               15912.0 : STOP DEPTH
STEP.FT                                                   0.5 : STEP BETWEEN DEPTHS
NULL.                                                 -999.25 : NULL VALUE
COMP.                           PENN VIRGINIA OIL & GAS CORP. : COMPANY 
DATE.                                             14-AUG-1976 : LOG DATE
#___________________________________________________________________________________________________ 
~CURVE INFORMATION 
# MNEM.UNIT           : CURVE DESCRIPTION 
#-----.-----          : ----------------------------- 
 DEPT.FT               : MEASURED DEPTH 
 CALI__A.IN            : CALIPER (CAL - CAL) 
 GR__A.API             : GAMMA RAY (GR) 
 DT__A.US/FT           : SONIC DELTA TRANSIT TIME (DT) 
 DPHI__A.V/V           : DENSITY POROSITY (DPHI) 
 NPHI__A.V/V           : NEUTRON POROSITY (NPHI) 
 #___________________________________________________________________________________________________ 
~A         DEPT        CALI__A          GR__A          DT__A        DPHI__A        NPHI__A
# ...
         5375.0         13.096         29.490         68.601     -999.25000     -999.25000
         5375.5         13.137         29.399         67.609     -999.25000     -999.25000
         5376.0         13.178         29.519         66.865     -999.25000     -999.25000
         5376.5         13.219         29.734         66.149     -999.25000     -999.25000
         5377.0         13.260         29.949         67.542     -999.25000     -999.25000
         5377.5         13.284         29.919         69.122     -999.25000     -999.25000
         5378.0         13.287         29.270         70.155     -999.25000     -999.25000
         5378.5         13.290         28.621         70.873     -999.25000     -999.25000
         5379.0         13.294         27.971         71.311     -999.25000     -999.25000
         5379.5         13.297         30.536         70.906     -999.25000     -999.25000
         5380.0         13.301         33.409         70.797     -999.25000     -999.25000
         5380.5         13.304         35.111         70.989     -999.25000     -999.25000
         5381.0         13.308         34.788         71.158     -999.25000     -999.25000
         5381.5         13.311         33.347         70.752     -999.25000     -999.25000
         5382.0         13.315         31.725         70.347     -999.25000     -999.25000
         5382.5         13.318         30.587         70.008     -999.25000     -999.25000
         5383.0         13.321         30.024         70.164     -999.25000     -999.25000
         5383.5         13.300         29.461         70.320     -999.25000     -999.25000
         5384.0         13.274         28.898         70.427     -999.25000     -999.25000
         5384.5         13.248         28.334         70.066     -999.25000     -999.25000
         5385.0         13.222         27.771         69.704     -999.25000     -999.25000
         5385.5         13.196         28.548         69.342     -999.25000     -999.25000
         5386.0         13.170         29.592         69.244     -999.25000     -999.25000
         5386.5         13.181         30.636         69.180     -999.25000     -999.25000
         5387.0         13.211         31.680         69.522     -999.25000     -999.25000
         5387.5         13.240         32.318         69.864     -999.25000     -999.25000
         5388.0         13.270         32.713         70.451     -999.25000     -999.25000
         5388.5         13.299         33.019         71.092     -999.25000     -999.25000
         5389.0         13.329         32.848         71.733     -999.25000     -999.25000
         5389.5         13.358         32.677         71.817     -999.25000     -999.25000
         5390.0         13.388         32.505         71.816     -999.25000     -999.25000
         5390.5         13.382         32.334         72.626     -999.25000     -999.25000
         5391.0         13.342         32.163         73.674     -999.25000     -999.25000
         5391.5         13.302         31.669         73.608     -999.25000     -999.25000
         5392.0         13.262         30.859         73.036     -999.25000     -999.25000
         5392.5         13.222         30.050         70.849     -999.25000     -999.25000
         5393.0         13.200         29.240         68.551     -999.25000     -999.25000
         5393.5         13.197         28.430         67.438     -999.25000     -999.25000
         5394.0         13.194         27.726         66.984     -999.25000     -999.25000
         5394.5         13.191         28.133         66.806     -999.25000     -999.25000
         5395.0         13.187         28.540         68.670     -999.25000     -999.25000
         5395.5         13.184         28.948         71.876     -999.25000     -999.25000
         5396.0         13.181         29.556         72.549     -999.25000     -999.25000
         5396.5         13.178         30.381         73.222     -999.25000     -999.25000
         5397.0         13.174         31.206         73.895     -999.25000     -999.25000
         5397.5         13.171         32.031         74.380     -999.25000     -999.25000
         5398.0         13.168         32.857         74.243     -999.25000     -999.25000
         5398.5         13.165         33.682         73.700     -999.25000     -999.25000
         5399.0         13.161         32.845         72.784     -999.25000     -999.25000
         5399.5         13.153         30.739         72.003     -999.25000     -999.25000
         5400.0         13.145         28.633         71.605     -999.25000     -999.25000
         5400.5         13.137         27.581         71.207     -999.25000     -999.25000
         5401.0         13.129         27.857         71.595     -999.25000     -999.25000
         5401.5         13.121         28.133         72.574     -999.25000     -999.25000
         5402.0         13.113         28.618         72.133     -999.25000     -999.25000
         5402.5         13.105         29.159         71.602     -999.25000     -999.25000
         5403.0         13.098         29.700         71.070     -999.25000     -999.25000
         5403.5         13.090         29.932         70.538     -999.25000     -999.25000
         5404.0         13.082         28.742         70.630     -999.25000     -999.25000
         5404.5         13.074         27.551         70.861     -999.25000     -999.25000
         5405.0         13.066         26.360         71.091     -999.25000     -999.25000
         5405.5         13.058         25.259         71.322     -999.25000     -999.25000
         5406.0         13.050         25.107         71.552     -999.25000     -999.25000
         5406.5         13.042         24.955         71.783     -999.25000     -999.25000
         5407.0         13.034         24.804         71.761     -999.25000     -999.25000
         5407.5         13.026         25.071         71.385     -999.25000     -999.25000
         5408.0         13.018         25.393         71.009     -999.25000     -999.25000
         5408.5         13.010         25.715         70.681     -999.25000     -999.25000
         5409.0         13.002         26.054         70.749     -999.25000     -999.25000
         5409.5         12.994         26.548         70.818     -999.25000     -999.25000
         5410.0         12.986         27.043         70.887     -999.25000     -999.25000
         5410.5         12.978         27.537         70.442     -999.25000     -999.25000
         5411.0         12.970         28.031         69.762     -999.25000     -999.25000
         5411.5         12.962         28.338         69.083     -999.25000     -999.25000
         5412.0         12.954         27.607         68.915     -999.25000     -999.25000
         5412.5         12.946         26.875         68.943     -999.25000     -999.25000
         5413.0         12.939         26.546         69.378     -999.25000     -999.25000
         5413.5         12.931         28.329         70.054     -999.25000     -999.25000
         5414.0         12.923         30.112         70.730     -999.25000     -999.25000
         5414.5         12.944         31.895         71.293     -999.25000     -999.25000
         5415.0         12.968         31.513         71.100     -999.25000     -999.25000
         5415.5         12.992         30.824         71.303     -999.25000     -999.25000
         5416.0         13.017         30.136         71.780     -999.25000     -999.25000
         5416.5         13.041         29.924         72.257     -999.25000     -999.25000
         5417.0         13.065         29.925         72.440     -999.25000     -999.25000
         5417.5         13.079         29.926         71.926     -999.25000     -999.25000
         5418.0         13.070         29.799         70.032     -999.25000     -999.25000
         5418.5         13.061         29.367         66.713     -999.25000     -999.25000
