#--------------------------------------------------#
#-------------------ENVERUS, INC.------------------#
#------------------WWW.ENVERUS.COM-----------------#
#------------------COPYRIGHT 2020------------------#
#--------------------------------------------------#
#THIS FILE MAY BE USED ONLY IN ACCORDANCE WITH A CURRENT SUBSCRIPTION AGREEMENT BETWEEN
#THE USER AND ENVERUS, INC. NO PART OF THIS FILE MAY BE REPRODUCED, USED, COPIED,
#MODIFIED, PROPAGATED, OR DISTRIBUTED EXCEPT IN ACCORDANCE WITH THE SUBSCRIPTION
#AGREEMENT. UNAUTHORIZED USE OR DISTRIBUTION OF ALL OR ANY PART OF THIS FILE MAY VIOLATE
#COPYRIGHT, TRADEMARK, AND/OR OTHER LAWS AND IS SUBJECT TO CIVIL AS WELL AS CRIMINAL
#SANCTIONS.
#--------------------------------------------------#
#THIS FILE IS PROVIDED "AS-IS" AND ALL WARRANTIES ARE EXPRESSLY DISCLAIMED, WHETHER
#EXPRESS, ORAL, IMPLIED, STATUTORY OR OTHERWISE, INCLUDING ANY IMPLIED WARRANTY OF FITNESS
#FOR A PARTICULAR PURPOSE, MERCHANTABILITY, TITLE OR NON-INFRINGEMENT, AND ANY WARRANTIES
#ARISING BY VIRTUE OF CUSTOM OF TRADE OR COURSE OF DEALING.  FURTHER, ENVERUS, INC.
#AND ITS LICENSORS DO NOT REPRESENT OR WARRANT THAT THIS FILE WILL MEET USER'S
#REQUIREMENTS OR ARE SUITABLE FOR USER'S NEEDS OR THAT THE DATA OR RESULTS PROVIDED IN
#CONJUNCTION THEREWITH ARE CORRECT, ACCURATE, TIMELY OR RELIABLE. THESE DISCLAIMERS SHALL
#APPLY REGARDLESS OF ANY FAILURE OF ESSENTIAL PURPOSE OF ANY LIMITED REMEDY.  SOME
#JURISDICTIONS DO NOT ALLOW THE EXCLUSION OF CERTAIN WARRANTIES SO SOME OF THE ABOVE
#EXCLUSIONS MAY NOT APPLY. IN NO EVENT SHALL ENVERUS, INC. OR ANY OF ITS AFFILIATES
#BE LIABLE UNDER ANY LEGAL THEORY, WHETHER IN TORT (INCLUDING WITHOUT LIMITATION
#NEGLIGENCE), CONTRACT, STRICT LIABILITY, STATUTORY OR OTHERWISE, FOR ANY SPECIAL,
#INCIDENTAL, CONSEQUENTIAL, EXEMPLARY, PUNITIVE OR INDIRECT DAMAGE OF ANY KIND, INCLUDING
#WITHOUT LIMITATION LOSS OF REVENUE, PROFITS, GOODWILL, USE, AND/OR DATA OR THE COST OF
#PROCUREMENT OF SUBSTITUTE GOODS OR SERVICES, EVEN IF APPRISED OF THE POSSIBILITY OF SUCH
#DAMAGES IN ADVANCE.
#--------------------------------------------------#

~VERSION INFORMATION
VERS. 2.0 : CWLS LOG ASCII STANDARD - VERSION 2.0
WRAP.  NO : ONE LINE PER DEPTH STEP
~WELL INFORMATION
#MNEMONIC     .UNIT              VALUE :DESCRIPTION
STRT       .FT                0 :START DEPTH
STOP       .FT                3396 :STOP DEPTH
STEP       .FT                   0.500 :STEP
NULL       .                  -999.250 :NULL
UWI        .              42389305140000 :UNIQUE WELL ID
API        .              42389305140000 :API NUMBER
COMP       .         SLEDGE BROS. OIL CO. :COMPANY
WELL       .        BOLLINGER  5 :WELL
DATE       .                            :LOG DATE
~CURVE INFORMATION
#MNEMONIC     .UNIT      API CODE :CURVE DESCRIPTION
DEPTH       .FT                      :MEASURED DEPTH
ILS.OHM        UNKNOWN   :ILS
GR.API        UNKNOWN   :GR
DT.US/FT        UNKNOWN   :DT
CAL.INCH        UNKNOWN   :CAL
ILD.OHM        UNKNOWN   :ILD
~A    DEPTH    ILS    GR    DT    CAL    ILD
# ...
 2990     -999.250   3.829   66.329   12.226   -999.250
 2990.5     -999.250   3.748   67.524   12.306   -999.250
 2991     -999.250   3.667   67.56   12.271   -999.250
 2991.5     -999.250   3.586   67.457   12.237   -999.250
 2992     -999.250   3.505   67.118   12.207   -999.250
 2992.5     -999.250   3.503   66.879   12.191   -999.250
 2993     -999.250   3.566   67.729   12.174   -999.250
 2993.5     -999.250   3.425   67.523   12.181   -999.250
 2994     -999.250   3.062   67.587   12.218   -999.250
 2994.5     -999.250   2.699   68.158   12.231   -999.250
 2995     -999.250   2.336   68.228   12.198   -999.250
 2995.5     -999.250   2.583   67.347   12.165   -999.250
 2996     -999.250   3.042   67.487   12.132   -999.250
 2996.5     -999.250   3.5   67.473   12.099   -999.250
 2997     -999.250   3.959   67.354   12.073   -999.250
 2997.5     -999.250   4.417   67.3   12.102   -999.250
 2998     -999.250   4.315   67.359   12.132   -999.250
 2998.5     -999.250   4.044   67.418   12.161   -999.250
 2999     -999.250   3.773   67.645   12.178   -999.250
 2999.5     -999.250   4.229   67.964   12.193   -999.250
 3000     -999.250   4.916   67.578   12.172   -999.250
 3000.5     -999.250   5.602   67.533   12.151   -999.250
 3001     -999.250   6.005   67.626   12.207   -999.250
 3001.5     -999.250   5.501   67.626   12.287   -999.250
 3002     -999.250   4.997   67.666   12.323   -999.250
 3002.5     -999.250   4.493   67.77   12.289   -999.250
 3003     -999.250   3.989   67.988   12.217   -999.250
 3003.5     -999.250   3.947   67.652   12.167   -999.250
 3004     -999.250   4.13   67.676   12.198   -999.250
 3004.5     -999.250   4.029   67.601   12.228   -999.250
 3005     -999.250   3.637   67.257   12.259   -999.250
 3005.5     -999.250   3.548   67.769   12.277   -999.250
 3006     -999.250   3.879   67.825   12.237   -999.250
 3006.5     -999.250   4.21   67.519   12.229   -999.250
 3007     -999.250   4.541   67.653   12.221   -999.250
 3007.5     -999.250   4.593   67.594   12.213   -999.250
 3008     -999.250   4.18   67.676   12.206   -999.250
 3008.5     -999.250   3.979   68.034   12.212   -999.250
 3009     -999.250   4.09   68.392   12.219   -999.250
 3009.5     -999.250   4.188   68.109   12.225   -999.250
 3010     -999.250   3.636   67.739   12.231   -999.250
 3010.5     -999.250   3.085   67.393   12.219   -999.250
 3011     -999.250   2.903   67.25   12.158   -999.250
 3011.5     115.006   3.508   67.108   12.094   9051.524
 3012     125.605   3.49   67.036   12.053   9152.124
 3012.5     146.34   3.283   67.145   12.093   9132.469
 3013     160.122   3.705   67.458   12.132   9051.738
 3013.5     160.966   4.29   67.771   12.171   8983.275
 3014     160.684   4.875   67.998   12.135   8983.782
 3014.5     176.863   4.966   67.689   12.096   8984.289
 3015     197.672   4.704   67.222   12.06   9012.342
 3015.5     218.481   4.442   66.674   12.038   9066.709
 3016     229.427   4.18   67.722   12.016   9262.396
 3016.5     235.173   3.918   67.887   11.995   9232.733
 3017     231.308   3.656   67.793   11.976   9087.14
 3017.5     227.443   3.826   67.484   11.958   8864.685
 3018     223.577   4.774   67.821   11.94   8619.993
 3018.5     232.282   5.723   68.337   11.973   8846.374
 3019     263.302   5.982   68.546   12.014   9131.239
 3019.5     265.247   5.864   67.748   12.005   9232.01
 3020     234.262   5.517   67.555   11.996   9175.652
 3020.5     206.142   5.169   68.077   11.987   9119.294
 3021     186.017   4.822   68.259   11.989   9062.937
 3021.5     177.53   4.474   68.186   12.003   9006.578
 3022     180.78   4.127   67.574   12.018   8950.221
 3022.5     188.003   3.779   67.814   12.014   8893.862
 3023     195.227   3.431   68.055   11.961   8837.505
 3023.5     213.034   3.084   67.904   11.909   8869.156
 3024     228.181   3.589   67.98   11.857   9214.064
 3024.5     223.235   4.177   67.859   11.869   9542.301
 3025     210.839   4.086   68.16   11.92   9260.695
 3025.5     198.443   3.597   68.093   11.98   9095.743
 3026     203.597   3.208   68.262   12.041   9206.12
 3026.5     210.337   3.442   68.68   12.102   9316.497
 3027     197.823   3.676   68.597   12.093   9379.466
 3027.5     199.635   3.42   68.754   11.998   9410.998
 3028     230.097   3.084   69.015   11.903   9411.529
 3028.5     257.293   2.748   68.62   11.808   9412.061
 3029     268.856   2.657   67.608   11.859   9316.197
 3029.5     272.115   3.405   68.052   11.939   9180.677
 3030     281.677   4.153   68.497   11.988   9103.669
 3030.5     287.608   4.155   67.899   11.967   9068.163
 3031     273.503   3.504   67.22   11.946   9068.675
 3031.5     270.3   2.897   67.325   11.925   9058.748
 3032     269.287   3.343   67.429   11.935   8876.121
 3032.5     263.827   3.788   67.318   11.969   8926.861
 3033     267.014   4.206   67.654   11.983   8997.702
 3033.5     269.937   3.85   67.57   11.951   9070.126
 3034     255.571   3.493   67.479   11.939   9144.277
 3034.5     238.182   3.769   67.325   11.965   9265.188
 3035     224.696   4.254   67.17   11.991   9273.273
 3035.5     218.55   4.554   67.016   11.865   9030.853
 3036     212.405   4.339   67.24   11.825   9302.16
 3036.5     214.857   4.124   67.57   11.794   9343.211
 3037     228.781   3.909   67.901   11.837   9223.479
 3037.5     241.343   3.694   68.018   11.881   9103.747
 3038     245.643   3.479   67.915   11.9   8984.016
 3038.5     252.144   3.649   67.59   11.848   8864.284
 3039     257.279   4.123   67.204   11.804   8744.552
 3039.5     244.691   4.597   66.819   11.808   9004.308
 3040     235.606   4.629   67.264   11.811   8990.049
 3040.5     238.704   4.116   67.58   11.814   8975.789
 3041     270.439   3.604   67.315   11.817   8961.529
 3041.5     305.932   3.707   67.483   11.808   8947.27
 3042     325.827   4.33   67.13   11.792   9058.368
 3042.5     325.07   4.954   67.519   11.693   9198.459
 3043     326.281   4.61   67.243   11.571   9338.549
 3043.5     344.561   3.933   67.139   11.609   9315.45
 3044     362.842   3.357   67.522   11.648   9256.229
 3044.5     360.784   3.368   67.014   11.673   9197.01
 3045     340.204   3.379   66.398   11.692   9137.789
 3045.5     295.732   3.39   66.28   11.703   9078.568
 3046     282.203   3.401   66.858   11.661   9170.456
 3046.5     278.694   3.411   67.69   11.62   9394.842
 3047     252.535   3.422   67.618   11.556   9619.229
 3047.5     223.215   3.433   66.752   11.489   9640.269
 3048     199.444   3.444   67.557   11.353   9555.353
 3048.5     178.461   3.455   67.821   11.194   9470.436
 3049     182.174   3.505   67.633   11.079   9501.021
 3049.5     193.883   3.975   67.325   11.136   9732.182
 3050     193.894   4.445   67.788   11.046   9826.318
 3050.5     213.845   4.916   68.368   10.838   9617.72
 3051     232.282   4.524   68.431   10.938   9436.834
 3051.5     246.794   3.7   67.982   11.072   9822.742
 3052     251.662   2.875   67.561   11.056   10208.649
 3052.5     251.676   2.682   67.17   11.067   10115.78
 3053     270.996   3.004   66.779   11.118   9895.104
 3053.5     343.502   3.037   67.034   11.144   9674.429
 3054     534.683   3.034   67.087   11.144   9498.137
 3054.5     678.47   3.032   66.472   11.133   9340.791
 3055     656.937   3.029   66.596   11.095   9183.446
 3055.5     659.593   3.42   67.289   11.056   9026.102
 3056     1155.479   3.947   67.116   11.017   8868.756
 3056.5     2020.371   4.474   61.403   11.009   9051.8
 3057     2014.116   4.047   26.667   11.113   9508.271
 3057.5     2007.862   3.562   6.288   11.501   9964.742
 3058     2001.607   3.077   -4.22   11.935   10153.354
 3058.5     1995.352   2.742   -2.169   12.16   9628.233
 3059     1989.097   2.739   0.302   12.245   9103.113
 3059.5     1982.843   3.688   1.574   12.006   8826.383
 3060     788.149   4.946   0.556   10.451   8248.566
 3060.5     137.949   6.204   -1.617   7.952   7527.984
 3061     5.18   6.868   -1.346   6.812   9415.844
 3061.5     6.683   6.779   -2.455   6.734   13731.121
