#--------------------------------------------------#
#-------------------ENVERUS, INC.------------------#
#------------------WWW.ENVERUS.COM-----------------#
#------------------COPYRIGHT 2020------------------#
#--------------------------------------------------#
#THIS FILE MAY BE USED ONLY IN ACCORDANCE WITH A CURRENT SUBSCRIPTION AGREEMENT BETWEEN
#THE USER AND ENVERUS, INC. NO PART OF THIS FILE MAY BE REPRODUCED, USED, COPIED,
#MODIFIED, PROPAGATED, OR DISTRIBUTED EXCEPT IN ACCORDANCE WITH THE SUBSCRIPTION
#AGREEMENT. UNAUTHORIZED USE OR DISTRIBUTION OF ALL OR ANY PART OF THIS FILE MAY VIOLATE
#COPYRIGHT, TRADEMARK, AND/OR OTHER LAWS AND IS SUBJECT TO CIVIL AS WELL AS CRIMINAL
#SANCTIONS.
#--------------------------------------------------#
#THIS FILE IS PROVIDED "AS-IS" AND ALL WARRANTIES ARE EXPRESSLY DISCLAIMED, WHETHER
#EXPRESS, ORAL, IMPLIED, STATUTORY OR OTHERWISE, INCLUDING ANY IMPLIED WARRANTY OF FITNESS
#FOR A PARTICULAR PURPOSE, MERCHANTABILITY, TITLE OR NON-INFRINGEMENT, AND ANY WARRANTIES
#ARISING BY VIRTUE OF CUSTOM OF TRADE OR COURSE OF DEALING.  FURTHER, ENVERUS, INC.
#AND ITS LICENSORS DO NOT REPRESENT OR WARRANT THAT THIS FILE WILL MEET USER'S
#REQUIREMENTS OR ARE SUITABLE FOR USER'S NEEDS OR THAT THE DATA OR RESULTS PROVIDED IN
#CONJUNCTION THEREWITH ARE CORRECT, ACCURATE, TIMELY OR RELIABLE. THESE DISCLAIMERS SHALL
#APPLY REGARDLESS OF ANY FAILURE OF ESSENTIAL PURPOSE OF ANY LIMITED REMEDY.  SOME
#JURISDICTIONS DO NOT ALLOW THE EXCLUSION OF CERTAIN WARRANTIES SO SOME OF THE ABOVE
#EXCLUSIONS MAY NOT APPLY. IN NO EVENT SHALL ENVERUS, INC. OR ANY OF ITS AFFILIATES
#BE LIABLE UNDER ANY LEGAL THEORY, WHETHER IN TORT (INCLUDING WITHOUT LIMITATION
#NEGLIGENCE), CONTRACT, STRICT LIABILITY, STATUTORY OR OTHERWISE, FOR ANY SPECIAL,
#INCIDENTAL, CONSEQUENTIAL, EXEMPLARY, PUNITIVE OR INDIRECT DAMAGE OF ANY KIND, INCLUDING
#WITHOUT LIMITATION LOSS OF REVENUE, PROFITS, GOODWILL, USE, AND/OR DATA OR THE COST OF
#PROCUREMENT OF SUBSTITUTE GOODS OR SERVICES, EVEN IF APPRISED OF THE POSSIBILITY OF SUCH
#DAMAGES IN ADVANCE.
#--------------------------------------------------#

~VERSION INFORMATION
VERS. 2.0 : CWLS LOG ASCII STANDARD - VERSION 2.0
WRAP.  NO : ONE LINE PER DEPTH STEP
~WELL INFORMATION
#MNEMONIC     .UNIT              VALUE :DESCRIPTION
STRT       .FT                0 :START DEPTH
STOP       .FT                15761 :STOP DEPTH
STEP       .FT                   0.500 :STEP
NULL       .                  -999.250 :NULL
UWI        .              42389302550000 :UNIQUE WELL ID
API        .              42389302550000 :API NUMBER
COMP       .         COASTAL STATES GAS PROD. CO. :COMPANY
WELL       .        CHAPMAN  MCGUIRE & WYNNE  3B :WELL
DATE       .                            :LOG DATE
~CURVE INFORMATION
#MNEMONIC     .UNIT      API CODE :CURVE DESCRIPTION
DEPTH       .FT                      :MEASURED DEPTH
GR.API        UNKNOWN   :GR
DT.US/FT        UNKNOWN   :DT
CAL.INCH        UNKNOWN   :CAL
~A    DEPTH    GR    DT    CAL
# ...
 7984.5     58.16   69.848   13.035
 7985     56.915   68.156   13.034
 7985.5     49.729   65.205   13.033
 7986     42.543   62.3   13.032
 7986.5     36.042   62.151   13.031
 7987     35.465   63.323   13.03
 7987.5     34.171   62.498   13.029
 7988     30.206   61.265   13.028
 7988.5     26.241   58.456   13.027
 7989     22.276   56.069   13.026
 7989.5     20.57   54.169   13.025
 7990     21.61   52.524   13.024
 7990.5     22.711   54.862   13.023
 7991     30.823   57.199   13.022
 7991.5     38.849   60.053   13.021
 7992     45.902   65.806   13.019
 7992.5     49.442   68.267   13.017
 7993     47.657   67.578   13.015
 7993.5     37.893   64.024   13.013
 7994     28.129   60.66   13.01
 7994.5     27.212   58.283   13.008
 7995     29.179   58.319   13.006
 7995.5     32.766   60.388   13.004
 7996     36.354   62.543   13.002
 7996.5     39.751   63.908   13
 7997     40.197   64.629   12.998
 7997.5     40.644   62.394   12.996
 7998     43.088   62.969   12.994
 7998.5     46.752   63.868   12.992
 7999     50.921   66.728   12.99
 7999.5     55.738   69.703   12.988
 8000     60.019   70.197   12.986
 8000.5     62.689   71.375   12.993
 8001     60.952   71.115   13.001
 8001.5     58.251   69.68   13.008
 8002     55.549   69.453   13.015
 8002.5     51.587   68.582   13.022
 8003     47.525   66.878   13.029
 8003.5     44.155   64.569   13.037
 8004     41.452   63.404   13.044
 8004.5     41.902   64.383   13.051
 8005     44.24   65.192   13.058
 8005.5     44.261   65.656   13.065
 8006     41.436   64.394   13.073
 8006.5     38.611   63.132   13.072
 8007     38.094   60.688   13.072
 8007.5     40.004   60.184   13.072
 8008     44.855   62.263   13.072
 8008.5     50.837   64.813   13.072
 8009     55.789   67.675   13.072
 8009.5     60.741   70.538   13.072
 8010     62.698   70.947   13.072
 8010.5     61.349   71.769   13.072
 8011     60.001   73.371   13.072
 8011.5     61.181   75.33   13.072
 8012     63.091   76.029   13.072
 8012.5     59.36   75.248   13.072
 8013     54.799   69.889   13.072
 8013.5     50.239   67.82   13.072
 8014     50.806   68.839   13.072
 8014.5     54.68   71.018   13.072
 8015     59.113   70.566   13.072
 8015.5     60.688   69.957   13.072
 8016     57.534   69.353   13.071
 8016.5     60.447   69.448   13.071
 8017     65.253   70.995   13.066
 8017.5     70.06   72.844   13.06
 8018     73.978   72.111   13.055
 8018.5     74.493   71.016   13.05
 8019     75.008   71.091   13.045
 8019.5     75.523   73.206   13.04
 8020     72.908   75.94   13.035
 8020.5     66.958   74.042   13.03
 8021     57.373   70.338   13.025
 8021.5     54.793   66.699   13.019
 8022     55.763   64.743   13.014
 8022.5     65.171   68.454   13.009
 8023     75.217   71.844   13.004
 8023.5     86.847   74.321   12.999
 8024     85.497   76.469   12.994
 8024.5     82.407   77.484   12.989
 8025     79.322   77.545   12.984
 8025.5     76.147   77.203   12.983
 8026     69.683   75.036   12.982
 8026.5     63.219   71.039   12.982
 8027     48.859   65.906   12.981
 8027.5     45.281   59.354   12.981
 8028     43.74   60.558   12.98
 8028.5     51.446   63.31   12.98
 8029     59.512   68.737   12.979
 8029.5     66.88   71.757   12.979
 8030     72.809   73.869   12.978
 8030.5     73.211   73.143   12.978
 8031     73.613   72.417   12.977
 8031.5     73.931   74.6   12.977
 8032     74.123   76.853   12.976
 8032.5     71.464   75.783   12.976
 8033     65.545   71.359   12.975
 8033.5     57.151   67.66   12.975
 8034     52.823   65.297   12.974
 8034.5     58.281   67.667   12.974
 8035     65.565   73.432   12.973
 8035.5     72.753   77.379   12.973
 8036     79.866   80.618   12.972
 8036.5     83.777   80.132   12.972
 8037     80.901   78.368   12.971
 8037.5     75.011   76.047   12.971
 8038     69.121   72.913   12.97
 8038.5     63.231   69.779   12.97
 8039     59.9   70.641   12.969
 8039.5     63.453   72.269   12.969
 8040     67.006   74.63   12.968
 8040.5     70.559   74.407   12.968
 8041     67.198   73.291   12.967
 8041.5     63.818   72.174   12.967
 8042     63.607   73.745   12.966
 8042.5     63.972   71.928   12.966
 8043     64.338   69.78   12.965
 8043.5     59.176   67.632   12.965
 8044     53.154   66.775   12.964
 8044.5     58.474   67.752   12.964
 8045     63.87   71.36   12.963
 8045.5     69.266   76.79   12.962
 8046     74.662   78.565   12.961
 8046.5     76.1   79.404   12.961
 8047     75.053   79.565   12.96
 8047.5     74.27   79.073   12.959
 8048     74.671   77.899   12.958
 8048.5     75.072   77.129   12.957
 8049     74.221   76.745   12.956
 8049.5     71.974   77.016   12.955
 8050     69.598   77.287   12.955
 8050.5     64.559   75.621   12.954
 8051     60.443   73.349   12.953
 8051.5     60.825   71.371   12.952
 8052     61.758   71.438   12.951
 8052.5     64.164   71.958   12.95
 8053     70.08   74.039   12.949
 8053.5     76.334   76.739   12.949
 8054     81.089   78.586   12.948
 8054.5     85.413   79.974   12.947
 8055     84.876   80.423   12.946
 8055.5     81.771   80.566   12.945
 8056     77.708   80.095   12.944
 8056.5     74.568   79.983   12.943
 8057     73.467   80.1   12.943
 8057.5     72.365   79.654   12.942
 8058     71.922   80.044   12.941
 8058.5     72.759   80.559   12.94
 8059     73.453   81.074   12.939
 8059.5     73.453   81.57   12.938
 8060     69.666   81.836   12.937
 8060.5     65.019   76.41   12.937
 8061     60.371   69.691   12.936
 8061.5     55.921   65.054   12.935
 8062     57.024   64.766   12.934
 8062.5     65.509   66.233   12.933
 8063     71.761   70.958   12.932
 8063.5     73.291   76.685   12.931
 8064     69.755   74.273   12.931
 8064.5     59.257   71.801   12.93
 8065     54.214   68.904   12.929
 8065.5     50.302   67.742   12.928
 8066     49.095   66.864   12.927
 8066.5     51.765   66.032   12.926
 8067     54.435   66.644   12.925
 8067.5     56.943   68.698   12.923
 8068     58.487   70.223   12.922
 8068.5     60.032   72.402   12.92
 8069     61.577   76.953   12.918
 8069.5     66.239   78.337   12.917
 8070     70.209   79.333   12.915
 8070.5     71.698   79.814   12.913
 8071     72.661   79.707   12.912
 8071.5     67.063   78.047   12.91
 8072     61.465   78.1   12.908
 8072.5     61.632   78.89   12.922
 8073     62.226   78.052   12.941
 8073.5     60.327   76.824   12.96
 8074     55.837   74.394   12.979
 8074.5     51.348   71.963   12.999
 8075     46.859   69.903   13.018
 8075.5     42.37   68.235   13.037
 8076     38.274   67.586   13.057
 8076.5     34.796   63.81   13.058
 8077     29.871   60.749   13.045
 8077.5     28.839   57.99   13.032
 8078     30.043   58.771   13.019
 8078.5     31.246   60.518   13.006
 8079     38.965   61.317   12.993
 8079.5     46.762   61.735   12.98
 8080     55.013   64.557   12.967
 8080.5     63.687   70.496   12.96
 8081     70.072   77.223   12.96
 8081.5     72.983   81.702   12.961
 8082     69.379   80.76   12.961
 8082.5     61.824   76.627   12.962
 8083     51.738   70.21   12.962
 8083.5     44.561   66.021   12.963
 8084     43.617   63.856   12.963
 8084.5     47.175   64.283   12.964
 8085     55.486   69.837   12.964
 8085.5     64.025   73.754   12.965
 8086     65.981   78.864   12.965
 8086.5     65.978   78.91   12.966
 8087     63.551   76.528   12.966
 8087.5     57.727   73.544   12.967
 8088     51.408   69.682   12.967
 8088.5     45.089   66.098   12.968
 8089     47.029   68.051   12.968
 8089.5     49.434   71.001   12.969
 8090     52.281   74   12.969
 8090.5     55.519   75.987   12.97
 8091     57.561   75.672   12.97
 8091.5     56.82   76.593   12.971
 8092     53.001   76.343   12.971
 8092.5     47.7   73.269   12.972
 8093     42.399   68.268   12.972
 8093.5     37.098   63.218   12.973
 8094     35.093   59.393   12.973
 8094.5     37.36   64.253   12.974
 8095     42.019   67.423   12.974
 8095.5     49.122   70.255   12.975
 8096     54.491   72.714   12.975
 8096.5     54.3   74.573   12.974
