###############################################
##         ENVERUS                           ##
##         ESS - Open Hole                   ##
##         PERMIAN / DELAWARE                ##
##         Nov 04 2023  V4.0                 ##
##         42-389-32484-00-00                ##
###############################################
## Copyright 2017-2023  ENVERUS.  All Rights Reserved. 
## Confidential - Property of ENVERUS, use governed by terms and 
## conditions found within the existing Information Services Subscription Agreement 
## (as may be amended, the “ISSA”) between Customer and ENVERUS. 
## 
~VERSION INFORMATION
# MNEM.UNIT                               DATA : DESCRIPTION OF MNEMONIC
#-----.-----     ----------------------------- : -----------------------------
VERS.                                     2.00 : CWLS LOG ASCII STANDARD - VERSION 2.00
WRAP.                                       NO : MULTIPLE LINES PER DEPTH STEP
VEND.                                  ENVERUS : VENDOR
TYPE.                          ESS - OPEN HOLE : ENVERUS ESSENTIAL CURVES – ACCESSIBLE THROUGH ENVERUS PRISM(TM)
DOC.                                  31780441 : ENVERUS HEADER RAW DOCUMENT ID
#___________________________________________________________________________________________________ 
~WELL INFORMATION 
# aTsA/KVwhIqB1dg6n/zy22zTJjsJnyaNqg27ywuj9UrTfzbM7gscpQTlR+gOLN+9jERwUBAE6KvHEXpIT+cpyg== 
# MNEM.UNIT                                              DATA : DESCRIPTION OF MNEMONIC 
#-----.-----                    ----------------------------- : ----------------------------- 
CNTY.                                                  REEVES : COUNTY 
STATE.                                                  TEXAS : STATE 
CNTRY.                                                    USA : COUNTRY 
API.                                             42-389-32484 : API (10 Digit) 
API_14.                                    42-389-32484-00-00 : API (14 Digits) 
API_14_std.                                 42-389-32484-0000 : API (14 Digits Standard) 
UWI.                                           42389324840000 : UNIQUE WELL ID 
WELL.                                        BLK 59 ST 37  1H : WELL NAME
STRT.FT                                                 236.0 : START DEPTH
STOP.FT                                               12079.0 : STOP DEPTH
STEP.FT                                                   0.5 : STEP BETWEEN DEPTHS
NULL.                                                 -999.25 : NULL VALUE
COMP.                                       SHELL WESTERN E&P : COMPANY 
DATE.                                             05-SEP-2007 : LOG DATE
#___________________________________________________________________________________________________ 
~CURVE INFORMATION 
# MNEM.UNIT           : CURVE DESCRIPTION 
#-----.-----          : ----------------------------- 
 DEPT.FT               : MEASURED DEPTH 
 CALI.IN               : CALIPER (CAL - CAL) 
 GR.API                : GAMMA RAY (GR) 
 DT.US/FT              : SONIC DELTA TRANSIT TIME (DT) 
 DPHI.V/V              : DENSITY POROSITY (DPHI) 
 NPHI.V/V              : NEUTRON POROSITY (NPHI) 
 RHOB.G/CC             : BULK DENSITY (RHOB) 
 #___________________________________________________________________________________________________ 
~A         DEPT           CALI             GR             DT           DPHI           NPHI           RHOB
# ...
         6468.0         12.832        163.865       -999.250        0.03430        0.16063         2.6320
         6468.5         12.831        190.960       -999.250        0.03868        0.16670         2.6420
         6469.0         12.830        214.772       -999.250        0.06048        0.17558         2.6520
         6469.5         12.829        224.296       -999.250        0.08227        0.18216         2.6440
         6470.0         12.828        198.061       -999.250        0.09523        0.17495         2.6070
         6470.5         12.828        178.668       -999.250        0.08792        0.15714         2.5700
         6471.0         12.827        159.275       -999.250        0.08608        0.14676         2.5390
         6471.5         12.826        147.163       -999.250        0.09823        0.15218         2.5520
         6472.0         12.825        154.348       -999.250        0.11037        0.16235         2.5600
         6472.5         12.825        173.896       -999.250        0.10698        0.16871         2.5430
         6473.0         12.820        180.688       -999.250        0.05897        0.16261         2.5260
         6473.5         12.803        181.203       -999.250        0.02881        0.14728         2.5360
         6474.0         12.786        175.353       -999.250        0.03659        0.14197         2.5940
         6474.5         12.769        168.508       -999.250        0.04693        0.14353         2.6520
         6475.0         12.759        165.100       -999.250        0.02745        0.15082         2.6530
         6475.5         12.768        181.227       -999.250       -0.02587        0.15900         2.6410
         6476.0         12.777        202.574       -999.250       -0.06740        0.15788         2.6700
         6476.5         12.777        215.308       -999.250       -0.03483        0.15832         2.7450
         6477.0         12.775        219.208       -999.250        0.02411        0.16297         2.8210
         6477.5         12.772        213.858       -999.250        0.07223        0.16919         2.6610
         6478.0         12.770        207.718       -999.250        0.12083        0.18555         2.5940
         6478.5         12.768        203.142       -999.250        0.12780        0.18667         2.5280
         6479.0         12.765        200.830       -999.250        0.13001        0.17932         2.4880
         6479.5         12.763        200.559       -999.250        0.12562        0.17135         2.4970
         6480.0         12.760        201.394       -999.250        0.12179        0.16643         2.5060
         6480.5         12.758        204.086       -999.250        0.11796        0.16013         2.5150
         6481.0         12.760        208.788       -999.250        0.10631        0.15279         2.5240
         6481.5         12.767        219.018       -999.250        0.10124        0.14546         2.5330
         6482.0         12.775        229.248       -999.250        0.10248        0.13815         2.5320
         6482.5         12.782        230.991       -999.250        0.10647        0.13084         2.5250
         6483.0         12.789        223.974       -999.250        0.12378        0.13797         2.5180
         6483.5         12.796        204.527       -999.250        0.12179        0.14728         2.5110
         6484.0         12.803        184.876       -999.250        0.11958        0.15399         2.5040
         6484.5         12.810        165.225       -999.250        0.09267        0.14698         2.5100
         6485.0         12.817        144.838       -999.250        0.06415        0.13996         2.5440
         6485.5         12.825        116.874       -999.250        0.03563        0.07270         2.5780
         6486.0         12.825         97.759       -999.250        0.02261        0.07538         2.6120
         6486.5         12.825         91.123       -999.250        0.01997        0.08425         2.6460
         6487.0         12.825         93.608       -999.250        0.03129        0.09751         2.6800
         6487.5         12.825        100.819       -999.250        0.05356        0.11077         2.6560
         6488.0         12.825         97.036       -999.250        0.06449        0.12084         2.6250
         6488.5         12.825         87.606       -999.250        0.06550        0.11894         2.5970
         6489.0         12.825         78.176       -999.250        0.07129        0.10974         2.5900
         6489.5         12.825         72.983       -999.250        0.08714        0.12315         2.5830
         6490.0         12.825         88.862       -999.250        0.09971        0.13718         2.5760
         6490.5         12.825        118.312       -999.250        0.10172        0.15122         2.5650
         6491.0         12.825        128.016       -999.250        0.10550        0.15692         2.5420
         6491.5         12.825        131.817       -999.250        0.11341        0.15943         2.5200
         6492.0         12.825        130.676       -999.250        0.11427        0.15342         2.5090
         6492.5         12.825        131.535       -999.250        0.11030        0.14616         2.5120
         6493.0         12.825        142.666       -999.250        0.10996        0.14476         2.5140
         6493.5         12.825        153.675       -999.250        0.10963        0.14335         2.5160
         6494.0         12.825        162.129       -999.250        0.11363        0.14191         2.5180
         6494.5         12.825        163.351       -999.250        0.11161        0.13953         2.5200
         6495.0         12.825        152.267       -999.250        0.10205        0.13715         2.5280
         6495.5         12.825        111.489       -999.250        0.08266        0.12783         2.5520
         6496.0         12.825         77.174       -999.250        0.06328        0.08792         2.5760
         6496.5         12.825         62.672       -999.250        0.04770        0.04963         2.6010
         6497.0         12.825         57.615       -999.250        0.05021        0.05908         2.6250
         6497.5         12.825         64.602       -999.250        0.07437        0.08865         2.6060
         6498.0         12.825         89.406       -999.250        0.09913        0.11744         2.5790
         6498.5         12.787        114.211       -999.250        0.10168        0.13963         2.5520
         6499.0         12.748        141.192       -999.250        0.10424        0.16182         2.5390
         6499.5         12.712        151.443       -999.250        0.09421        0.17934         2.5380
         6500.0         12.712        145.252       -999.250        0.09708        0.18169         2.5370
         6500.5         12.713        135.610       -999.250        0.09994        0.17700         2.5360
         6501.0         12.713        127.106       -999.250        0.10507        0.14625         2.5350
         6501.5         12.713        126.854       -999.250        0.11107        0.14533         2.5270
         6502.0         12.713        133.366       -999.250        0.11725        0.14581         2.5180
         6502.5         12.701        135.750       -999.250        0.12343        0.14628         2.5080
         6503.0         12.690        132.765       -999.250        0.12821        0.14675         2.4980
         6503.5         12.679        125.585       -999.250        0.12846        0.14725         2.4890
         6504.0         12.668        118.533       -999.250        0.12205        0.14776         2.4950
         6504.5         12.656        116.632       -999.250        0.11639        0.14826         2.5010
         6505.0         12.645        121.082       -999.250        0.11915        0.15090         2.5070
         6505.5         12.643        127.455       -999.250        0.13324        0.15374         2.5010
