###############################################
##         ENVERUS                           ##
##         ESS - Open Hole                   ##
##         PERMIAN / DELAWARE                ##
##         Nov 04 2023  V4.0                 ##
##         42-389-30259-00-00                ##
###############################################
## Copyright 2017-2023  ENVERUS.  All Rights Reserved. 
## Confidential - Property of ENVERUS, use governed by terms and 
## conditions found within the existing Information Services Subscription Agreement 
## (as may be amended, the “ISSA”) between Customer and ENVERUS. 
## 
~VERSION INFORMATION
# MNEM.UNIT                               DATA : DESCRIPTION OF MNEMONIC
#-----.-----     ----------------------------- : -----------------------------
VERS.                                     2.00 : CWLS LOG ASCII STANDARD - VERSION 2.00
WRAP.                                       NO : MULTIPLE LINES PER DEPTH STEP
VEND.                                  ENVERUS : VENDOR
TYPE.                          ESS - OPEN HOLE : ENVERUS ESSENTIAL CURVES – ACCESSIBLE THROUGH ENVERUS PRISM(TM)
DOC.                                  32063127 : ENVERUS HEADER RAW DOCUMENT ID
#___________________________________________________________________________________________________ 
~WELL INFORMATION 
# gPsidqVjAScFWwbHY3NvrhVb9Q0dnpAvxUas8qP1mSjKWoj7hBgJ2nw/4lW9Nf69eTG+8mlPQw3CFq6Jh/Hagw== 
# MNEM.UNIT                                              DATA : DESCRIPTION OF MNEMONIC 
#-----.-----                    ----------------------------- : ----------------------------- 
CNTY.                                                  REEVES : COUNTY 
STATE.                                                  TEXAS : STATE 
CNTRY.                                                    USA : COUNTRY 
API.                                             42-389-30259 : API (10 Digit) 
API_14.                                    42-389-30259-00-00 : API (14 Digits) 
API_14_std.                                 42-389-30259-0000 : API (14 Digits Standard) 
UWI.                                           42389302590000 : UNIQUE WELL ID 
WELL.                                         FORTUNE UNIT  1 : WELL NAME
STRT.FT                                                     0 : START DEPTH
STOP.FT                                               15675.0 : STOP DEPTH
STEP.FT                                                   0.5 : STEP BETWEEN DEPTHS
NULL.                                                 -999.25 : NULL VALUE
COMP.                          SANDRIDGE EXPL. AND PROD.  LLC : COMPANY 
DATE.                                             19-FEB-2007 : LOG DATE
#___________________________________________________________________________________________________ 
~CURVE INFORMATION 
# MNEM.UNIT           : CURVE DESCRIPTION 
#-----.-----          : ----------------------------- 
 DEPT.FT               : MEASURED DEPTH 
 CALI__B.IN            : CALIPER (CAL - CAL) 
 GR__B.API             : GAMMA RAY (GR) 
 DT__B.US/FT           : SONIC DELTA TRANSIT TIME (DT) 
 #___________________________________________________________________________________________________ 
~A         DEPT        CALI__B          GR__B          DT__B
# ...
        14850.0         11.675         94.884         85.869
        14850.5         11.654         92.241         86.927
        14851.0         11.633         89.597         87.132
        14851.5         11.612         87.578         86.786
        14852.0         11.590         88.569         86.429
        14852.5         11.569         85.559         85.578
        14853.0         11.548         82.779         84.572
        14853.5         11.409         80.929         82.203
        14854.0         11.159         79.080         80.454
        14854.5         11.190         79.764         78.704
        14855.0         11.400         81.796         80.573
        14855.5         11.609         83.829         83.876
        14856.0         11.696         82.982         89.417
        14856.5         11.582         81.775         87.270
        14857.0         11.518         81.984         88.286
        14857.5         11.756         84.956         88.605
        14858.0         11.994         86.312         87.017
        14858.5         12.232         86.754         87.804
        14859.0         12.433         87.196         87.778
        14859.5         12.090         87.639         91.696
        14860.0         12.130         87.492         96.825
        14860.5         12.354         84.585         99.658
        14861.0         12.467         81.754         98.503
        14861.5         12.433         80.230         96.401
        14862.0         12.193         78.707         92.470
        14862.5         11.953         78.312         89.965
        14863.0         11.977         80.624         88.815
        14863.5         12.101         82.936         88.147
        14864.0         12.067         85.247         87.841
        14864.5         12.196         86.676         88.293
        14865.0         12.217         87.998         88.360
        14865.5         12.078         86.742         88.375
        14866.0         11.993         84.701         90.858
        14866.5         12.178         82.660         90.749
        14867.0         12.364         80.619         91.475
        14867.5         12.513         78.920         90.530
        14868.0         12.336         80.380         88.050
        14868.5         12.159         81.841         85.569
        14869.0         11.982         83.302         84.988
        14869.5         12.088         84.649         84.450
        14870.0         12.153         84.143         86.257
        14870.5         12.110         83.637         89.780
        14871.0         12.067         83.921         90.010
        14871.5         12.061         86.085         91.390
        14872.0         12.070         88.248         91.583
        14872.5         12.573         88.338         88.617
        14873.0         12.504         88.340         86.178
        14873.5         12.205         89.129         86.201
        14874.0         12.487         89.440         84.929
        14874.5         12.429         88.562         85.317
        14875.0         12.315         87.684         85.247
        14875.5         12.284         86.806         85.600
        14876.0         12.338         85.927         87.258
        14876.5         12.392         85.445         88.098
        14877.0         12.446         86.152         87.366
        14877.5         12.331         86.858         87.800
        14878.0         12.416         87.289         88.540
        14878.5         12.500         83.637         87.198
        14879.0         12.564         79.984         87.174
        14879.5         12.624         76.332         85.313
        14880.0         12.683         75.473         85.197
        14880.5         12.743         77.947         86.017
        14881.0         12.749         79.652         87.553
        14881.5         12.545         81.106         88.667
        14882.0         12.341         82.311         88.121
        14882.5         12.299         83.370         87.575
        14883.0         12.263         83.064         87.029
        14883.5         12.226         81.414         87.998
        14884.0         12.190         83.982         88.857
        14884.5         12.153         87.562         87.549
        14885.0         12.117         91.143         86.304
        14885.5         12.115         89.639         84.889
        14886.0         12.159         87.081         84.304
        14886.5         12.203         84.523         84.495
        14887.0         12.247         83.002         84.171
        14887.5         12.290         82.838         83.562
        14888.0         12.334         82.675         83.943
        14888.5         12.378         82.660         84.579
        14889.0         12.422         86.806         85.592
        14889.5         12.456         88.231         85.643
        14890.0         12.319         87.383         87.146
        14890.5         12.376         86.536         87.518
        14891.0         12.467         86.204         87.403
        14891.5         12.408         86.260         85.362
        14892.0         12.261         86.315         85.151
        14892.5         12.245         86.370         85.359
        14893.0         12.436         86.425         86.689
        14893.5         12.553         86.035         86.854
        14894.0         12.332         84.387         86.533
        14894.5         12.188         84.327         85.069
        14895.0         12.246         85.503         85.637
        14895.5         12.242         84.628         86.937
        14896.0         12.143         82.649         86.208
        14896.5         12.044         80.670         85.566
        14897.0         12.026         81.437         85.300
        14897.5         12.026         82.735         86.307
        14898.0         12.098         80.697         86.554
        14898.5         12.270         78.658         87.861
        14899.0         12.442         80.611         87.884
        14899.5         12.610         83.251         86.357
        14900.0         12.449         82.799         87.233
        14900.5         12.288         81.186         87.181
        14901.0         12.127         81.817         86.124
        14901.5         11.966         82.951         86.687
        14902.0         12.001         84.085         85.249
        14902.5         12.317         85.219         88.338
        14903.0         12.532         85.779         89.271
        14903.5         12.648         85.301         89.808
        14904.0         12.113         84.823         91.834
        14904.5         12.410         84.345         90.305
        14905.0         12.659         83.868         88.812
        14905.5         12.447         85.216         87.891
        14906.0         12.235         86.093         85.887
        14906.5         12.323         85.040         85.695
        14907.0         12.253         83.986         88.516
        14907.5         12.296         82.932         89.060
        14908.0         12.176         82.908         89.282
        14908.5         12.057         88.313         86.948
        14909.0         12.064         93.476         84.255
        14909.5         12.003         91.382         83.176
        14910.0         11.856         89.288         83.981
        14910.5         11.872         87.194         85.224
        14911.0         12.005         86.185         86.486
        14911.5         11.780         86.659         85.821
        14912.0         11.810         87.132         86.752
        14912.5         11.858         86.800         84.170
        14913.0         11.762         85.484         81.385
        14913.5         11.757         85.726         80.083
        14914.0         11.826         87.312         80.279
        14914.5         11.894         88.897         81.828
        14915.0         11.962         89.286         84.200
        14915.5         11.917         87.461         86.317
