#   WellGreen Tech Inc.   Digitizing Services
#   www.wellgreentech.com
#   email: sales@wellgreentech.com
#
~Version Information Block
 VERS.                2.00:     CWLS LOG ASCII STANDARD - VERSION 2.000000
 WRAP.                  NO:     One Line Per Depth Step
#
~Well Information Block
#MNEM.UNIT                     Data                         Information
#----------   ------------------------------------------   ----------------
 STRT.FT                                     4000.0000:     START DEPTH
 STOP.FT                                    15710.0000:     STOP DEPTH
 STEP.FT                                        0.5000:     STEP
 NULL.                                       -999.2500:     NULL VALUE
 COMP.                        THE SUPERIOR OIL COMPANY:     COMPANY
 WELL.                                FORTUNE STATE #1:     WELL
 FLD .                                    CHAPMAN DEEP:     FIELD
 LOC .                                                :     LOCATION
 CNTY.                                          REEVES:     COUNTY
 STAT.                                              TX:     STATE
 CTRY.                                             USA:     COUNTRY
 SRVC.                                    SCHLUMBERGER:     SERVICE COMPANY
 DATE.                                      11/10/1974:     DATE
 API .               42389302950000:    API NUMBER
 UWI .               42389302950000:    UWI NUMBER
 TVD .                                              NO:     TVD flag
 MATRIX .G/CC                  :    Matrix Density
#
~Curve Information Block
#MNEM.UNIT       API CODE      Curve Description
#----------    -------------   -------------------
 DEPT.FT                   :   Depth in Feet
 CALI.IN       70 280 01 01:   Caliper
 GR  .API      35 310 01 01:   Gamma Ray
 DT  .US/F     60 520 08 01:   Sonic transit time
#
~Parameter Information Block
#MNEM.UNIT            Value               Description
#----------    --------------------    -------------------
 RUN .                         ONE:    Run Number
 PDAT.                          GL:    Permanent Datum
 EPD .FT                  000.0000:    Elevation Of Perm. Datum
 LMF .               KELLY BUSHING:    Log Measured From
 EKB .FT                  3065.0:    Elevation Of Kelly Bushing
 DF .FT                    000.0:    Elevation Of Derrick Floor
 GL .FT                   3034.0:    Elevation Of Ground Level
 TD .FT                  15710.0000:    Total Depth
 BHT .DEGF               260.00 :  Bottom Hole Temperature
 BLI .FT               15710.0000:   Bottom Log Interval
 CSGSIZE.IN              9.6250:   Casing Size
 BITSIZE.IN               8.750 :  BitSize
 CSGD.FT                  4000.0:    Casing Bottom (Driller) 1
 CSGL.FT                  400.0:    Casing Bottom (Logger) 1
 MUD . BRINE                                :    Drilling Fluid Type
 MUDV .CP                  27.0:    Drilling Fluid Viscosity
 MUDD .LB/USG              9.25:    Drilling Fluid Density
 PH.                        6.2:    Drilling Fluid Ph
 FL .ML/30MIN              11.0:    Drilling Fluid Loss
 MUDS .FLOW LINE                        :    Mud Sample Source
 RM .OHMM                   0.09:    Resistivity Of Mud Sample
 RMT .DEGF                 60.00:    Mud Sample Temperature
 RMF .OHMM                  0.09:    Mud Filtrate Resistivity
 RMFT.DEGF                 60.00:    Mud Filtrate Sample Temperature
 RMC .OHMM                  0.00:    Mud Cake Resistivity
 RMCT.DEGF                 00.00:    Mud Cake Sample Temperature
 RMB .OHMM                 0.027:    Mud Resistivity At Bht
 TMAX .DEGF               260.00:    Bottom Hole Temperature
#
~Other Information Block
<DescLogPlotStart>   NEURALOG PLOT DEFINITION
PLOTDEFVERSION: 3
LASFILE: D:\nds\projects\G\DAVE\new work\RS Energy - Texas - May 17 - Folder 2\
DEPTHSCALE: 240.000000
RESOLUTION: 400
DEPTHLABELFREQ: 100.000000
HEAVYGRIDFREQ: 100.000000
MEDIUMGRIDFREQ: 50.000000
LIGHTGRIDFREQ: 10.000000
#
#   TRACK 1
#
STARTTRACK: 
 LEFTX: 0.500000 inch
 RIGHTX: 3.000000 inch
 SCALETYPE: Linear
 NUMCHARTDIVISIONS: 10
CURVE: CALI  6.000000   16.000000  (0,0,255)      Solid             2     N    
CURVE: GR    0.000000   125.000000 (0,131,131)    Dot               2     Y    
BACKUP: 125.000000 250.000000 (0,131,131)    Dot               2    
ENDTRACK: 
#
#   TRACK 2
#
STARTTRACK: 
 LEFTX: 3.500000 inch
 RIGHTX: 8.500000 inch
 SCALETYPE: Linear
 NUMCHARTDIVISIONS: 10
CURVE: DT    100.000000 40.000000  (255,0,255)    Solid             2     Y    
BACKUP: 160.000000 100.000000 (255,0,255)    Solid             2    
ENDTRACK: 
<DescLogPlotEnd>
~A DEPTH     CALI             GR               DT              
# ...
    8625.000 12.100           43.508           65.251          
    8625.500 12.100           42.350           63.572          
    8626.000 12.100           41.146           61.802          
    8626.500 12.100           35.838           58.895          
    8627.000 12.100           28.824           55.435          
    8627.500 12.100           20.853           52.179          
    8628.000 12.100           12.876           52.358          
    8628.500 12.100           6.678            51.859          
    8629.000 12.100           3.621            54.119          
    8629.500 12.100           2.046            58.233          
    8630.000 12.100           2.024            63.001          
    8630.500 12.100           1.995            67.772          
    8631.000 12.100           1.964            74.685          
    8631.500 12.101           1.934            74.275          
    8632.000 12.101           1.904            73.464          
    8632.500 12.101           1.873            72.795          
    8633.000 12.101           1.843            71.319          
    8633.500 12.101           1.805            69.028          
    8634.000 12.101           2.346            65.965          
    8634.500 12.101           2.922            61.956          
    8635.000 12.101           3.669            61.012          
    8635.500 12.101           5.944            61.812          
    8636.000 12.101           10.068           64.314          
    8636.500 12.101           15.671           67.454          
    8637.000 12.101           30.405           70.581          
    8637.500 12.101           48.735           73.058          
    8638.000 12.102           68.369           70.237          
    8638.500 12.102           64.742           67.638          
    8639.000 12.102           58.144           65.490          
    8639.500 12.102           50.834           65.810          
    8640.000 12.102           50.555           66.131          
    8640.500 12.102           54.334           65.616          
    8641.000 12.102           52.803           64.721          
    8641.500 12.102           51.893           65.135          
    8642.000 12.102           52.615           64.149          
    8642.500 12.102           45.011           62.794          
    8643.000 12.102           40.318           61.764          
    8643.500 12.102           38.012           60.834          
    8644.000 12.102           37.615           61.624          
    8644.500 12.102           41.095           62.149          
    8645.000 12.103           40.464           60.959          
    8645.500 12.103           37.529           58.162          
    8646.000 12.103           29.960           55.364          
    8646.500 12.103           22.200           53.261          
    8647.000 12.103           19.253           52.528          
    8647.500 12.103           18.107           52.365          
    8648.000 12.103           18.380           52.816          
    8648.500 12.103           22.775           53.943          
    8649.000 12.103           27.213           59.019          
    8649.500 12.103           38.457           64.662          
    8650.000 12.103           49.897           69.836          
    8650.500 12.103           61.387           73.060          
    8651.000 12.103           65.316           72.475          
    8651.500 12.103           68.324           71.720          
    8652.000 12.104           71.345           72.475          
    8652.500 12.104           74.395           73.933          
    8653.000 12.104           73.690           72.849          
    8653.500 12.104           72.216           71.337          
    8654.000 12.104           65.202           69.823          
    8654.500 12.104           58.208           67.377          
    8655.000 12.104           51.217           63.722          
    8655.500 12.104           44.222           59.487          
    8656.000 12.104           38.796           61.658          
    8656.500 12.104           40.194           69.375          
    8657.000 12.104           45.790           92.627          
    8657.500 12.104           51.239           83.193          
    8658.000 12.104           56.223           73.868          
    8658.500 12.105           56.255           72.842          
    8659.000 12.105           57.157           73.054          
    8659.500 12.105           58.925           74.117          
    8660.000 12.105           60.693           75.538          
    8660.500 12.105           61.134           76.959          
    8661.000 12.105           58.956           90.025          
    8661.500 12.105           56.766           89.662          
    8662.000 12.105           53.052           88.629          
    8662.500 12.105           47.289           86.624          
    8663.000 12.105           41.530           84.237          
    8663.500 12.105           37.952           93.913          
    8664.000 12.105           34.601           79.687          
    8664.500 12.105           33.193           66.306          
    8665.000 12.105           35.193           80.965          
    8665.500 12.106           39.789           89.476          
    8666.000 12.106           44.842           94.826          
    8666.500 12.106           46.503           99.753          
    8667.000 12.106           46.047           113.879         
    8667.500 12.106           47.576           132.710         
    8668.000 12.106           49.362           140.813         
    8668.500 12.106           51.142           140.633         
    8669.000 12.106           54.392           119.034         
    8669.500 12.106           58.790           99.873          
    8670.000 12.106           64.346           77.425          
    8670.500 12.106           68.438           82.502          
    8671.000 12.106           66.742           97.712          
    8671.500 12.106           64.970           91.106          
    8672.000 12.106           62.918           74.525          
    8672.500 12.107           60.875           68.678          
    8673.000 12.107           57.290           67.221          
    8673.500 12.107           52.019           66.060          
    8674.000 12.107           48.529           64.948          
    8674.500 12.107           46.571           64.329          
    8675.000 12.107           49.230           65.349          
    8675.500 12.107           51.283           67.811          
    8676.000 12.107           52.431           71.259          
    8676.500 12.107           54.443           74.711          
    8677.000 12.107           61.468           76.417          
    8677.500 12.107           65.278           78.561          
    8678.000 12.107           67.272           92.926          
    8678.500 12.107           71.002           84.634          
    8679.000 12.108           67.493           71.845          
    8679.500 12.108           63.140           70.793          
    8680.000 12.108           58.809           82.906          
    8680.500 12.108           56.862           71.451          
    8681.000 12.108           55.094           87.901          
    8681.500 12.108           51.045           77.558          
    8682.000 12.108           45.291           65.199          
    8682.500 12.108           39.528           73.610          
    8683.000 12.108           37.694           61.504          
    8683.500 12.108           42.723           67.128          
    8684.000 12.108           50.239           69.562          
    8684.500 12.108           56.977           70.284          
    8685.000 12.108           56.995           70.399          
    8685.500 12.108           50.714           68.110          
    8686.000 12.109           43.717           65.374          
    8686.500 12.109           38.152           61.944          
    8687.000 12.109           36.464           60.535          
