#--------------------------------------------------#
#-------------------ENVERUS, INC.------------------#
#------------------WWW.ENVERUS.COM-----------------#
#------------------COPYRIGHT 2020------------------#
#--------------------------------------------------#
#THIS FILE MAY BE USED ONLY IN ACCORDANCE WITH A CURRENT SUBSCRIPTION AGREEMENT BETWEEN
#THE USER AND ENVERUS, INC. NO PART OF THIS FILE MAY BE REPRODUCED, USED, COPIED,
#MODIFIED, PROPAGATED, OR DISTRIBUTED EXCEPT IN ACCORDANCE WITH THE SUBSCRIPTION
#AGREEMENT. UNAUTHORIZED USE OR DISTRIBUTION OF ALL OR ANY PART OF THIS FILE MAY VIOLATE
#COPYRIGHT, TRADEMARK, AND/OR OTHER LAWS AND IS SUBJECT TO CIVIL AS WELL AS CRIMINAL
#SANCTIONS.
#--------------------------------------------------#
#THIS FILE IS PROVIDED "AS-IS" AND ALL WARRANTIES ARE EXPRESSLY DISCLAIMED, WHETHER
#EXPRESS, ORAL, IMPLIED, STATUTORY OR OTHERWISE, INCLUDING ANY IMPLIED WARRANTY OF FITNESS
#FOR A PARTICULAR PURPOSE, MERCHANTABILITY, TITLE OR NON-INFRINGEMENT, AND ANY WARRANTIES
#ARISING BY VIRTUE OF CUSTOM OF TRADE OR COURSE OF DEALING.  FURTHER, ENVERUS, INC.
#AND ITS LICENSORS DO NOT REPRESENT OR WARRANT THAT THIS FILE WILL MEET USER'S
#REQUIREMENTS OR ARE SUITABLE FOR USER'S NEEDS OR THAT THE DATA OR RESULTS PROVIDED IN
#CONJUNCTION THEREWITH ARE CORRECT, ACCURATE, TIMELY OR RELIABLE. THESE DISCLAIMERS SHALL
#APPLY REGARDLESS OF ANY FAILURE OF ESSENTIAL PURPOSE OF ANY LIMITED REMEDY.  SOME
#JURISDICTIONS DO NOT ALLOW THE EXCLUSION OF CERTAIN WARRANTIES SO SOME OF THE ABOVE
#EXCLUSIONS MAY NOT APPLY. IN NO EVENT SHALL ENVERUS, INC. OR ANY OF ITS AFFILIATES
#BE LIABLE UNDER ANY LEGAL THEORY, WHETHER IN TORT (INCLUDING WITHOUT LIMITATION
#NEGLIGENCE), CONTRACT, STRICT LIABILITY, STATUTORY OR OTHERWISE, FOR ANY SPECIAL,
#INCIDENTAL, CONSEQUENTIAL, EXEMPLARY, PUNITIVE OR INDIRECT DAMAGE OF ANY KIND, INCLUDING
#WITHOUT LIMITATION LOSS OF REVENUE, PROFITS, GOODWILL, USE, AND/OR DATA OR THE COST OF
#PROCUREMENT OF SUBSTITUTE GOODS OR SERVICES, EVEN IF APPRISED OF THE POSSIBILITY OF SUCH
#DAMAGES IN ADVANCE.
#--------------------------------------------------#

~VERSION INFORMATION
VERS. 2.0 : CWLS LOG ASCII STANDARD - VERSION 2.0
WRAP.  NO : ONE LINE PER DEPTH STEP
~WELL INFORMATION
#MNEMONIC     .UNIT              VALUE :DESCRIPTION
STRT       .FT                0 :START DEPTH
STOP       .FT                15770 :STOP DEPTH
STEP       .FT                   0.500 :STEP
NULL       .                  -999.250 :NULL
UWI        .              42389309020000 :UNIQUE WELL ID
API        .              42389309020000 :API NUMBER
COMP       .         WALSH & WATTS  INC. :COMPANY
WELL       .        SABRE  1WS :WELL
DATE       .                28-JAN-1987 :LOG DATE
~CURVE INFORMATION
#MNEMONIC     .UNIT      API CODE :CURVE DESCRIPTION
DEPTH       .FT                      :MEASURED DEPTH
CAL.INCH        UNKNOWN   :CAL
DT.US/FT        UNKNOWN   :DT
GR.API        UNKNOWN   :GR
~A    DEPTH    CAL    DT    GR
# ...
 15647     6.478   48.07   239.463
 15647.5     6.508   48.542   189.043
 15648     6.537   49.013   172.455
 15648.5     6.528   49.13   164.996
 15649     6.519   49.047   157.537
 15649.5     6.509   48.964   154.879
 15650     6.5   48.869   152.752
 15650.5     6.491   48.739   150.625
 15651     6.481   48.608   148.498
 15651.5     6.472   48.478   146.371
 15652     6.463   48.348   144.4
 15652.5     6.453   48.218   142.864
 15653     6.444   48.087   142.064
 15653.5     6.435   48.078   144.556
 15654     6.425   48.305   147.049
 15654.5     6.416   48.531   149.541
 15655     6.407   48.757   150.053
 15655.5     6.397   48.984   150.178
 15656     6.388   49.103   150.304
 15656.5     6.379   49.132   154.271
 15657     6.369   49.161   158.999
 15657.5     6.36   49.189   163.147
 15658     6.351   49.218   158.096
 15658.5     6.341   49.247   153.045
 15659     6.334   48.817   147.994
 15659.5     6.334   48.528   143.841
 15660     6.333   48.529   142.111
 15660.5     6.333   48.553   140.381
 15661     6.333   48.589   138.651
 15661.5     6.332   48.625   137.378
 15662     6.332   48.661   139.662
 15662.5     6.331   48.697   141.946
 15663     6.331   48.732   144.23
 15663.5     6.33   48.796   146.513
 15664     6.33   49.157   147.935
 15664.5     6.33   49.519   146.741
 15665     6.329   49.817   145.547
 15665.5     6.329   49.92   145.715
 15666     6.328   50.023   146.923
 15666.5     6.328   50.127   148.132
 15667     6.328   51.148   149.341
 15667.5     6.329   52.182   149.396
 15668     6.331   52.128   148.798
 15668.5     6.333   52.073   148.199
 15669     6.335   52.019   144.29
 15669.5     6.337   51.965   141.037
 15670     6.339   53.199   141.25
 15670.5     6.34   54.433   142.147
 15671     6.342   70.564   144.11
 15671.5     6.344   68.903   144.414
 15672     6.346   67.243   143.474
 15672.5     6.348   66.065   142.534
 15673     6.35   74.333   143.247
 15673.5     6.575   86.791   145.114
 15674     6.871   85.912   148.032
 15674.5     7.167   81.426   152.161
 15675     7.169   75.871   156.29
 15675.5     6.958   77.816   160.419
 15676     6.746   79.762   164.547
 15676.5     6.535   81.707   172.187
 15677     6.387   83.653   180.463
 15677.5     6.436   85.598   187.139
 15678     6.484   87.844   188.879
 15678.5     6.533   90.879   185.554
 15679     6.582   86.28   186.044
 15679.5     6.631   81.124   186.533
 15680     6.68   83.817   184.972
 15680.5     6.644   77.821   183.803
 15681     6.518   69.172   183.13
 15681.5     6.391   61.969   182.456
 15682     6.317   57.357   181.782
 15682.5     6.321   52.966   181.109
 15683     6.325   51.435   183.71
 15683.5     6.328   48.44   186.883
 15684     6.332   48.037   189.602
 15684.5     6.336   47.878   188.112
 15685     6.34   47.351   186.622
 15685.5     6.342   45.347   185.132
 15686     6.343   49.53   183.642
 15686.5     6.344   51.697   182.152
 15687     6.345   51.83   180.662
 15687.5     6.346   51.963   179.172
 15688     6.347   52.249   177.682
 15688.5     6.348   52.496   176.192
 15689     6.35   51.776   174.702
 15689.5     6.351   51.056   173.722
 15690     6.352   50.705   177.416
 15690.5     6.353   50.706   181.11
 15691     6.354   50.6   179.924
 15691.5     6.355   50.456   178.475
 15692     6.357   49.077   177.026
 15692.5     6.358   48.024   175.825
 15693     6.359   48.141   177.211
 15693.5     6.36   49.19   178.597
 15694     6.361   51.217   179.983
 15694.5     6.362   51.687   181.369
 15695     6.364   52.029   182.756
 15695.5     6.365   53.868   182.2
 15696     6.366   54.78   179.493
 15696.5     6.367   55.102   176.096
 15697     6.368   54.474   175.754
 15697.5     6.369   53.355   175.452
 15698     6.37   51.819   175.659
 15698.5     6.372   48.298   177.098
 15699     6.373   48.011   178.537
 15699.5     6.374   47.966   179.237
 15700     6.375   47.556   177.893
 15700.5     6.376   47.011   178.803
 15701     6.377   47.749   180.348
 15701.5     6.379   48.133   181.893
 15702     6.38   48.042   182.598
 15702.5     6.381   47.95   182.259
 15703     6.382   47.858   181.92
 15703.5     6.383   47.766   181.581
 15704     6.384   47.674   181.432
 15704.5     6.385   47.757   181.315
 15705     6.387   47.854   181.198
 15705.5     6.388   47.951   180.69
 15706     6.389   47.066   179.075
 15706.5     6.39   43.485   177.46
 15707     6.391   32.688   175.845
 15707.5     6.392   7.688   174.231
 15708     6.394   2.776   175.201
 15708.5     6.395   9.618   176.771
 15709     6.396   22.707   178.34
 15709.5     6.397   38.727   179.909
 15710     6.398   49.329   180.797
 15710.5     6.399   49.311   179.828
 15711     6.401   49.293   178.859
 15711.5     6.402   49.274   177.889
 15712     6.403   49.256   176.92
 15712.5     6.5   49.238   175.951
 15713     6.629   49.22   176.681
 15713.5     6.73   49.201   177.588
 15714     6.788   49.183   178.495
 15714.5     6.846   49.165   179.402
 15715     6.856   49.147   179.117
 15715.5     6.822   49.128   178.817
 15716     6.789   49.11   178.25
 15716.5     6.712   49.092   177.04
 15717     6.419   49.074   175.831
 15717.5     6.299   49.055   175.843
 15718     6.271   49.037   178.444
 15718.5     6.244   49.019   181.046
 15719     6.268   49.001   181.288
 15719.5     6.333   48.982   179.794
 15720     6.399   48.964   178.3
 15720.5     6.465   48.946   180.511
 15721     6.53   48.928   182.878
 15721.5     6.591   48.909   182.302
 15722     6.59   48.91   181.725
 15722.5     6.588   48.924   180.272
 15723     6.587   48.938   178.805
 15723.5     6.585   48.953   177.338
 15724     6.584   48.967   175.87
 15724.5     6.582   48.981   174.403
 15725     6.581   48.995   172.935
 15725.5     6.579   49.009   173.33
 15726     6.578   49.023   175.928
 15726.5     6.576   49.037   178.471
 15727     6.575   49.051   177.275
 15727.5     6.573   49.066   176.079
 15728     6.572   49.08   175.576
 15728.5     6.57   49.094   176.41
 15729     6.569   49.108   177.244
 15729.5     6.567   49.122   178.056
 15730     6.566   49.136   178.05
 15730.5     6.564   49.15   178.045
 15731     6.563   49.164   177.397
 15731.5     6.562   49.179   175.437
 15732     6.56   49.193   173.476
 15732.5     6.559   49.207   171.807
 15733     6.557   49.221   173.578
 15733.5     6.556   49.235   175.35
 15734     6.554   49.249   177.122
 15734.5     6.553   49.263   178.894
 15735     6.551   49.26   179.034
 15735.5     6.55   49.22   178.839
 15736     6.548   49.179   163.875
 15736.5     6.547   49.138   178.839
 15737     6.545   49.1   -999.250
 15737.5     6.544   49.071   -999.250
 15738     6.542   49.042   -999.250
 15738.5     6.541   49.013   -999.250
 15739     6.539   48.999   -999.250
 15739.5     6.538   49.001   -999.250
 15740     6.536   49.003   -999.250
 15740.5     6.535   49.005   -999.250
 15741     6.534   49.007   -999.250
 15741.5     6.532   49.009   -999.250
 15742     6.531   49.011   -999.250
 15742.5     6.529   49.013   -999.250
 15743     6.528   49.015   -999.250
 15743.5     6.526   49.017   -999.250
 15744     6.525   49.019   -999.250
 15744.5     6.523   49.021   -999.250
 15745     6.522   49.023   -999.250
 15745.5     6.52   49.025   -999.250
 15746     6.519   49.027   -999.250
 15746.5     6.517   49.029   -999.250
 15747     6.516   49.031   -999.250
 15747.5     6.514   49.033   -999.250
 15748     6.513   49.035   -999.250
 15748.5     6.511   49.037   -999.250
 15749     6.51   49.039   -999.250
 15749.5     6.508   49.041   -999.250
 15750     6.507   49.043   -999.250
 15750.5     6.506   49.045   -999.250
 15751     6.504   49.047   -999.250
 15751.5     6.503   49.049   -999.250
 15752     6.501   49.051   -999.250
 15752.5     6.5   49.053   -999.250
 15753     6.498   49.055   -999.250
 15753.5     6.497   49.057   -999.250
 15754     6.495   49.059   -999.250
 15754.5     6.494   49.061   -999.250
 15755     6.492   49.063   -999.250
 15755.5     6.491   49.065   -999.250
