###############################################
##         ENVERUS                           ##
##         ESS - Open Hole                   ##
##         PERMIAN / DELAWARE                ##
##         Nov 02 2023  V4.0                 ##
##         42-301-31112-00-00                ##
###############################################
## Copyright 2017-2023  ENVERUS.  All Rights Reserved. 
## Confidential - Property of ENVERUS, use governed by terms and 
## conditions found within the existing Information Services Subscription Agreement 
## (as may be amended, the “ISSA”) between Customer and ENVERUS. 
## 
~VERSION INFORMATION
# MNEM.UNIT                               DATA : DESCRIPTION OF MNEMONIC
#-----.-----     ----------------------------- : -----------------------------
VERS.                                     2.00 : CWLS LOG ASCII STANDARD - VERSION 2.00
WRAP.                                       NO : MULTIPLE LINES PER DEPTH STEP
VEND.                                  ENVERUS : VENDOR
TYPE.                          ESS - OPEN HOLE : ENVERUS ESSENTIAL CURVES – ACCESSIBLE THROUGH ENVERUS PRISM(TM)
DOC.                                  31879965 : ENVERUS HEADER RAW DOCUMENT ID
#___________________________________________________________________________________________________ 
~WELL INFORMATION 
# p11foxtE5QnwhaJbtzBz2LJF4p4dkL7jzyXNzohJvMqLCglFSJK87xuVm3WB3m+8huK6qzS+fp5X73xeHrMy5w== 
# MNEM.UNIT                                              DATA : DESCRIPTION OF MNEMONIC 
#-----.-----                    ----------------------------- : ----------------------------- 
CNTY.                                                  LOVING : COUNTY 
STATE.                                                  TEXAS : STATE 
CNTRY.                                                    USA : COUNTRY 
API.                                             42-301-31112 : API (10 Digit) 
API_14.                                    42-301-31112-00-00 : API (14 Digits) 
API_14_std.                                 42-301-31112-0000 : API (14 Digits Standard) 
UWI.                                           42301311120000 : UNIQUE WELL ID 
WELL.                                                    JR 1 : WELL NAME
STRT.FT                                                3102.0 : START DEPTH
STOP.FT                                               15993.0 : STOP DEPTH
STEP.FT                                                   0.5 : STEP BETWEEN DEPTHS
NULL.                                                 -999.25 : NULL VALUE
LOC.                                                      UNK : LOCATION 
SRVC.                                                     UNK : SERVICE COMPANY
#___________________________________________________________________________________________________ 
~CURVE INFORMATION 
# MNEM.UNIT           : CURVE DESCRIPTION 
#-----.-----          : ----------------------------- 
 DEPT.FT               : MEASURED DEPTH 
 CALI.IN               : CALIPER (CAL - CAL) 
 GR.API                : GAMMA RAY (GR) 
 DT.US/FT              : SONIC DELTA TRANSIT TIME (DT) 
 #___________________________________________________________________________________________________ 
~A         DEPT           CALI             GR             DT
# ...
         7458.0         13.485         36.524         61.546
         7458.5         13.466         38.324         62.701
         7459.0         13.448         35.641         63.002
         7459.5         13.429         33.433         62.904
         7460.0         13.410         32.679         63.225
         7460.5         13.392         34.527         64.778
         7461.0         13.377         36.375         65.268
         7461.5         13.362         35.770         65.082
         7462.0         13.347         30.772         63.047
         7462.5         13.332         26.047         61.012
         7463.0         13.318         26.556         60.686
         7463.5         13.318         30.001         61.332
         7464.0         13.318         37.764         63.746
         7464.5         13.318         45.526         67.075
         7465.0         13.318         53.288         69.595
         7465.5         13.318         57.715         71.088
         7466.0         13.318         58.207         71.542
         7466.5         13.318         58.270         71.723
         7467.0         13.318         58.333         70.505
         7467.5         13.318         51.231         67.395
         7468.0         13.318         44.121         63.521
         7468.5         13.322         35.353         61.803
         7469.0         13.325         36.997         63.909
         7469.5         13.328         45.178         68.007
         7470.0         13.331         55.915         72.105
         7470.5         13.334         66.652         76.202
         7471.0         13.337         77.389         77.300
         7471.5         13.340         86.995         78.266
         7472.0         13.343         95.914         79.287
         7472.5         13.346        104.770         81.101
         7473.0         13.349        112.777         82.914
         7473.5         13.352        120.783         84.511
         7474.0         13.355        128.790         85.023
         7474.5         13.358        130.835         85.433
         7475.0         13.361        111.713         83.167
         7475.5         13.364         93.381         81.057
         7476.0         13.368         78.247         80.965
         7476.5         13.371         63.002         80.874
         7477.0         13.374         55.310         79.370
         7477.5         13.376         54.550         76.390
         7478.0         13.376         58.707         76.802
         7478.5         13.376         64.123         77.547
         7479.0         13.376         69.540         78.460
         7479.5         13.376         75.510         79.560
         7480.0         13.376         84.344         81.048
         7480.5         13.376         93.178         82.496
         7481.0         13.376        100.886         83.778
         7481.5         13.376        103.677         85.060
         7482.0         13.376        104.976         86.342
         7482.5         13.376        109.199         91.098
         7483.0         13.376        117.619         98.859
         7483.5         13.376        126.038        113.814
         7484.0         13.376        134.357        100.183
         7484.5         13.376        136.969         89.278
         7485.0         13.376        134.951         87.824
         7485.5         13.376        132.534         91.541
         7486.0         13.376        120.068        103.305
         7486.5         13.376        104.785        118.016
         7487.0         13.376         87.512         97.108
         7487.5         13.376         69.195         83.835
         7488.0         13.376         63.191         73.557
         7488.5         13.376         72.054         77.804
         7489.0         13.376         85.435         82.052
         7489.5         13.376         98.817         84.366
         7490.0         13.376        104.921         84.394
         7490.5         13.376        104.741         82.935
         7491.0         13.376        103.865         82.357
         7491.5         13.376        105.163         86.043
         7492.0         13.376        106.462         91.880
         7492.5         13.376        107.262         95.358
         7493.0         13.376        108.057         96.064
         7493.5         13.376        111.337         95.071
         7494.0         13.373        117.645         90.394
         7494.5         13.371        123.853         94.133
         7495.0         13.368        122.970         90.371
         7495.5         13.365        117.897         83.691
         7496.0         13.363        113.701         80.945
         7496.5         13.360        120.681         83.563
         7497.0         13.357        127.660         85.615
         7497.5         13.355        132.255         86.020
         7498.0         13.352        129.517         86.083
         7498.5         13.349        119.416         85.231
         7499.0         13.347        112.529         84.567
         7499.5         13.344        111.460         85.811
         7500.0         13.341        112.683         84.727
         7500.5         13.339        105.622         80.664
         7501.0         13.336         95.111         76.601
         7501.5         13.333         73.491         73.254
         7502.0         13.331         68.839         74.838
         7502.5         13.328         78.936         79.234
         7503.0         13.325         92.371         83.629
         7503.5         13.323        105.340         88.025
         7504.0         13.320        117.698         87.550
         7504.5         13.309        120.168         87.289
         7505.0         13.298        114.683        104.335
         7505.5         13.286        109.199        122.043
         7506.0         13.274        106.926        111.963
         7506.5         13.263        105.968         87.348
         7507.0         13.251         99.965         76.981
         7507.5         13.240         89.349         74.105
         7508.0         13.228         77.007         71.228
         7508.5         13.216         69.656         70.218
         7509.0         13.205         69.828         70.341
         7509.5         13.193         74.791         70.154
         7510.0         13.189         80.813         69.967
         7510.5         13.196         86.835         85.369
         7511.0         13.204         89.304        120.195
         7511.5         13.212         87.271        127.495
         7512.0         13.220         79.483         97.583
         7512.5         13.227         71.380         90.561
         7513.0         13.235         69.092         96.383
         7513.5         13.243         70.487         90.069
         7514.0         13.231         78.778         82.104
         7514.5         13.217         87.071         80.363
         7515.0         13.202         87.134         82.952
         7515.5         13.188         72.323         85.541
         7516.0         13.173         49.833         76.048
         7516.5         13.159         25.168         60.900
         7517.0         13.145         21.065         61.259
         7517.5         13.130         24.358        102.756
         7518.0         13.116         39.802        111.318
         7518.5         13.101         57.834        111.580
         7519.0         13.091         64.134        100.816
         7519.5         13.094         64.267         84.252
         7520.0         13.096         59.475         69.380
         7520.5         13.099         60.713         90.697
         7521.0         13.101         70.376         88.791
         7521.5         13.103         80.039         82.288
         7522.0         13.106         89.173         77.655
         7522.5         13.108         91.904         79.670
         7523.0         13.110         90.955         81.685
         7523.5         13.113         92.780         82.337
