###############################################
##         ENVERUS                           ##
##         ESS - Open Hole                   ##
##         PERMIAN / DELAWARE                ##
##         Nov 02 2023  V4.0                 ##
##         42-301-31112-00-00                ##
###############################################
## Copyright 2017-2023  ENVERUS.  All Rights Reserved. 
## Confidential - Property of ENVERUS, use governed by terms and 
## conditions found within the existing Information Services Subscription Agreement 
## (as may be amended, the “ISSA”) between Customer and ENVERUS. 
## 
~VERSION INFORMATION
# MNEM.UNIT                               DATA : DESCRIPTION OF MNEMONIC
#-----.-----     ----------------------------- : -----------------------------
VERS.                                     2.00 : CWLS LOG ASCII STANDARD - VERSION 2.00
WRAP.                                       NO : MULTIPLE LINES PER DEPTH STEP
VEND.                                  ENVERUS : VENDOR
TYPE.                          ESS - OPEN HOLE : ENVERUS ESSENTIAL CURVES – ACCESSIBLE THROUGH ENVERUS PRISM(TM)
DOC.                                  31879965 : ENVERUS HEADER RAW DOCUMENT ID
#___________________________________________________________________________________________________ 
~WELL INFORMATION 
# p11foxtE5QnwhaJbtzBz2LJF4p4dkL7jzyXNzohJvMqLCglFSJK87xuVm3WB3m+8huK6qzS+fp5X73xeHrMy5w== 
# MNEM.UNIT                                              DATA : DESCRIPTION OF MNEMONIC 
#-----.-----                    ----------------------------- : ----------------------------- 
CNTY.                                                  LOVING : COUNTY 
STATE.                                                  TEXAS : STATE 
CNTRY.                                                    USA : COUNTRY 
API.                                             42-301-31112 : API (10 Digit) 
API_14.                                    42-301-31112-00-00 : API (14 Digits) 
API_14_std.                                 42-301-31112-0000 : API (14 Digits Standard) 
UWI.                                           42301311120000 : UNIQUE WELL ID 
WELL.                                                    JR 1 : WELL NAME
STRT.FT                                                3102.0 : START DEPTH
STOP.FT                                               15993.0 : STOP DEPTH
STEP.FT                                                   0.5 : STEP BETWEEN DEPTHS
NULL.                                                 -999.25 : NULL VALUE
LOC.                                                      UNK : LOCATION 
SRVC.                                                     UNK : SERVICE COMPANY
#___________________________________________________________________________________________________ 
~CURVE INFORMATION 
# MNEM.UNIT           : CURVE DESCRIPTION 
#-----.-----          : ----------------------------- 
 DEPT.FT               : MEASURED DEPTH 
 CALI.IN               : CALIPER (CAL - CAL) 
 GR.API                : GAMMA RAY (GR) 
 DT.US/FT              : SONIC DELTA TRANSIT TIME (DT) 
 #___________________________________________________________________________________________________ 
~A         DEPT           CALI             GR             DT
# ...
        14190.0       -999.250         24.657         52.782
        14190.5       -999.250         26.947         54.293
        14191.0       -999.250         30.833         55.803
        14191.5       -999.250         34.719         57.314
        14192.0       -999.250         36.839         58.824
        14192.5       -999.250         37.159         59.813
        14193.0       -999.250         37.760         60.154
        14193.5       -999.250         38.709         58.391
        14194.0       -999.250         36.542         56.308
        14194.5       -999.250         33.355         54.226
        14195.0       -999.250         30.168         52.144
        14195.5       -999.250         31.077         52.035
        14196.0       -999.250         33.824         52.905
        14196.5       -999.250         31.886         53.782
        14197.0       -999.250         25.096         53.717
        14197.5       -999.250         18.306         53.652
        14198.0       -999.250         16.264         53.536
        14198.5       -999.250         15.143         53.083
        14199.0       -999.250         15.143         52.909
        14199.5       -999.250         15.788         53.150
        14200.0       -999.250         16.623         54.806
        14200.5       -999.250         18.185         56.490
        14201.0       -999.250         19.941         57.521
        14201.5       -999.250         21.696         56.863
        14202.0       -999.250         21.526         55.965
        14202.5       -999.250         19.673         55.030
        14203.0       -999.250         17.495         55.643
        14203.5       -999.250         15.545         57.022
        14204.0       -999.250         15.368         58.401
        14204.5       -999.250         15.378         58.261
        14205.0       -999.250         14.855         58.078
        14205.5       -999.250         14.807         58.021
        14206.0       -999.250         15.776         58.265
        14206.5       -999.250         17.864         58.508
        14207.0       -999.250         19.380         58.752
        14207.5       -999.250         18.878         58.995
        14208.0       -999.250         18.028         58.657
        14208.5       -999.250         18.220         58.238
        14209.0       -999.250         18.896         57.819
        14209.5       -999.250         19.207         57.554
        14210.0       -999.250         19.050         57.726
        14210.5       -999.250         18.894         57.899
        14211.0       -999.250         19.749         58.071
        14211.5       -999.250         20.863         58.243
        14212.0       -999.250         21.351         58.330
        14212.5       -999.250         21.699         58.417
        14213.0       -999.250         20.501         58.504
        14213.5       -999.250         18.999         58.623
        14214.0       -999.250         18.189         59.242
        14214.5       -999.250         17.642         59.861
        14215.0       -999.250         17.094         60.480
        14215.5       -999.250         17.465         60.123
        14216.0       -999.250         20.449         59.424
        14216.5       -999.250         27.484         58.726
        14217.0       -999.250         40.209         58.027
        14217.5       -999.250         52.934         57.443
        14218.0       -999.250         59.858         57.355
        14218.5       -999.250         60.207         57.266
        14219.0       -999.250         60.866         58.028
        14219.5       -999.250         63.597         59.704
        14220.0       -999.250         62.882         59.975
        14220.5       -999.250         54.626         59.809
        14221.0       -999.250         41.748         59.643
        14221.5       -999.250         28.870         59.476
        14222.0       -999.250         18.753         59.523
        14222.5       -999.250         16.704         59.962
        14223.0       -999.250         15.981         59.669
        14223.5       -999.250         17.195         58.509
        14224.0       -999.250         18.459         57.349
        14224.5       -999.250         19.230         56.253
        14225.0       -999.250         19.439         56.031
        14225.5       -999.250         20.288         56.284
        14226.0       -999.250         21.813         56.537
        14226.5       -999.250         22.279         56.789
        14227.0       -999.250         20.816         56.865
        14227.5       -999.250         19.057         56.485
        14228.0       -999.250         18.142         57.190
        14228.5       -999.250         22.357         61.101
        14229.0       -999.250         32.966         65.297
        14229.5       -999.250         48.622         69.494
        14230.0       -999.250         64.277         73.690
        14230.5       -999.250         71.080         73.699
        14231.0       -999.250         68.208         73.201
        14231.5       -999.250         65.336         72.986
        14232.0       -999.250         63.467         73.017
        14232.5       -999.250         64.081         72.720
        14233.0       -999.250         65.803         73.371
        14233.5       -999.250         67.525         73.617
        14234.0       -999.250         67.787         73.472
        14234.5       -999.250         65.424         73.326
        14235.0       -999.250         62.441         73.180
        14235.5       -999.250         61.779         73.035
        14236.0       -999.250         63.138         74.014
        14236.5       -999.250         64.735         74.224
        14237.0       -999.250         65.598         74.434
        14237.5       -999.250         66.055         74.644
        14238.0       -999.250         68.483         74.854
        14238.5       -999.250         72.657         76.138
        14239.0       -999.250         75.060         77.984
        14239.5       -999.250         75.766         79.830
        14240.0       -999.250         74.231         79.863
        14240.5       -999.250         72.696         79.916
        14241.0       -999.250         72.827         80.355
        14241.5       -999.250         74.874         80.625
        14242.0       -999.250         78.354         80.543
        14242.5       -999.250         79.825         80.461
        14243.0       -999.250         79.664         80.443
        14243.5       -999.250         79.503         80.553
        14244.0       -999.250         79.218         80.662
        14244.5       -999.250         78.019         80.247
        14245.0       -999.250         76.820         79.552
        14245.5       -999.250         75.621         79.684
        14246.0       -999.250         74.856         80.344
        14246.5       -999.250         75.932         80.768
        14247.0       -999.250         77.264         80.436
        14247.5       -999.250         78.029         80.104
        14248.0       -999.250         76.759         77.256
        14248.5       -999.250         66.919         72.513
        14249.0       -999.250         54.925         66.893
        14249.5       -999.250         42.931         61.274
        14250.0       -999.250         30.936         55.654
        14250.5       -999.250         25.051         53.220
        14251.0       -999.250         26.504         53.734
        14251.5       -999.250         32.128         58.211
        14252.0       -999.250         37.751         59.000
        14252.5       -999.250         39.147         59.590
        14253.0       -999.250         39.970         60.180
        14253.5       -999.250         41.873         62.366
        14254.0       -999.250         45.593         65.486
        14254.5       -999.250         49.622         68.605
        14255.0       -999.250         54.527         71.725
        14255.5       -999.250         59.431         71.803
