#--------------------------------------------------#
#-------------------ENVERUS, INC.------------------#
#------------------WWW.ENVERUS.COM-----------------#
#------------------COPYRIGHT 2020------------------#
#--------------------------------------------------#
#THIS FILE MAY BE USED ONLY IN ACCORDANCE WITH A CURRENT SUBSCRIPTION AGREEMENT BETWEEN
#THE USER AND ENVERUS, INC. NO PART OF THIS FILE MAY BE REPRODUCED, USED, COPIED,
#MODIFIED, PROPAGATED, OR DISTRIBUTED EXCEPT IN ACCORDANCE WITH THE SUBSCRIPTION
#AGREEMENT. UNAUTHORIZED USE OR DISTRIBUTION OF ALL OR ANY PART OF THIS FILE MAY VIOLATE
#COPYRIGHT, TRADEMARK, AND/OR OTHER LAWS AND IS SUBJECT TO CIVIL AS WELL AS CRIMINAL
#SANCTIONS.
#--------------------------------------------------#
#THIS FILE IS PROVIDED "AS-IS" AND ALL WARRANTIES ARE EXPRESSLY DISCLAIMED, WHETHER
#EXPRESS, ORAL, IMPLIED, STATUTORY OR OTHERWISE, INCLUDING ANY IMPLIED WARRANTY OF FITNESS
#FOR A PARTICULAR PURPOSE, MERCHANTABILITY, TITLE OR NON-INFRINGEMENT, AND ANY WARRANTIES
#ARISING BY VIRTUE OF CUSTOM OF TRADE OR COURSE OF DEALING.  FURTHER, ENVERUS, INC.
#AND ITS LICENSORS DO NOT REPRESENT OR WARRANT THAT THIS FILE WILL MEET USER'S
#REQUIREMENTS OR ARE SUITABLE FOR USER'S NEEDS OR THAT THE DATA OR RESULTS PROVIDED IN
#CONJUNCTION THEREWITH ARE CORRECT, ACCURATE, TIMELY OR RELIABLE. THESE DISCLAIMERS SHALL
#APPLY REGARDLESS OF ANY FAILURE OF ESSENTIAL PURPOSE OF ANY LIMITED REMEDY.  SOME
#JURISDICTIONS DO NOT ALLOW THE EXCLUSION OF CERTAIN WARRANTIES SO SOME OF THE ABOVE
#EXCLUSIONS MAY NOT APPLY. IN NO EVENT SHALL ENVERUS, INC. OR ANY OF ITS AFFILIATES
#BE LIABLE UNDER ANY LEGAL THEORY, WHETHER IN TORT (INCLUDING WITHOUT LIMITATION
#NEGLIGENCE), CONTRACT, STRICT LIABILITY, STATUTORY OR OTHERWISE, FOR ANY SPECIAL,
#INCIDENTAL, CONSEQUENTIAL, EXEMPLARY, PUNITIVE OR INDIRECT DAMAGE OF ANY KIND, INCLUDING
#WITHOUT LIMITATION LOSS OF REVENUE, PROFITS, GOODWILL, USE, AND/OR DATA OR THE COST OF
#PROCUREMENT OF SUBSTITUTE GOODS OR SERVICES, EVEN IF APPRISED OF THE POSSIBILITY OF SUCH
#DAMAGES IN ADVANCE.
#--------------------------------------------------#

~VERSION INFORMATION
VERS. 2.0 : CWLS LOG ASCII STANDARD - VERSION 2.0
WRAP.  NO : ONE LINE PER DEPTH STEP
~WELL INFORMATION
#MNEMONIC     .UNIT              VALUE :DESCRIPTION
STRT       .FT                24 :START DEPTH
STOP       .FT                5035 :STOP DEPTH
STEP       .FT                   0.500 :STEP
NULL       .                  -999.250 :NULL
UWI        .              42389314500000 :UNIQUE WELL ID
API        .              42389314500000 :API NUMBER
COMP       .         SLEDGE BROS. OIL CO. :COMPANY
WELL       .        ELIZABETH MITCHELL  1 :WELL
DATE       .                18-DEC-1983 :LOG DATE
~CURVE INFORMATION
#MNEMONIC     .UNIT      API CODE :CURVE DESCRIPTION
DEPTH       .FT                      :MEASURED DEPTH
CAL.INCH        UNKNOWN   :CAL
DT.US/FT        UNKNOWN   :DT
GR.API        UNKNOWN   :GR
~A    DEPTH    CAL    DT    GR
# ...
 2611.5     9.237   48.984   6.154
 2612     9.233   48.965   6.358
 2612.5     9.23   48.945   6.562
 2613     9.209   48.926   6.766
 2613.5     9.16   48.906   6.97
 2614     9.112   48.887   7.174
 2614.5     9.063   48.868   7.378
 2615     9.014   48.848   7.582
 2615.5     8.966   48.829   7.787
 2616     8.917   48.809   7.991
 2616.5     8.868   48.79   8.195
 2617     8.854   48.771   7.876
 2617.5     8.855   48.751   7.457
 2618     8.856   48.732   7.038
 2618.5     8.857   48.712   6.618
 2619     8.858   48.693   6.199
 2619.5     8.859   48.674   5.78
 2620     8.86   48.654   6.174
 2620.5     8.861   48.635   6.843
 2621     8.862   48.639   6.517
 2621.5     8.863   48.643   5.612
 2622     8.864   48.648   5.862
 2622.5     8.865   48.653   6.768
 2623     8.866   48.657   7.675
 2623.5     8.868   48.662   8.581
 2624     8.87   48.667   8.613
 2624.5     8.872   48.671   8.309
 2625     8.874   48.676   8.005
 2625.5     8.876   48.681   7.701
 2626     8.878   48.685   7.397
 2626.5     8.88   48.69   7.161
 2627     8.882   48.694   7.098
 2627.5     8.884   48.699   7.035
 2628     8.886   48.704   6.973
 2628.5     8.888   48.708   6.91
 2629     8.89   48.713   6.847
 2629.5     8.892   48.729   6.784
 2630     8.894   48.748   5.598
 2630.5     8.896   48.766   5.027
 2631     8.898   48.785   5.53
 2631.5     8.9   48.804   6.033
 2632     8.902   48.823   6.536
 2632.5     8.904   48.841   7.039
 2633     8.906   48.86   7.542
 2633.5     8.909   48.879   8.045
 2634     8.911   48.897   8.548
 2634.5     8.913   48.916   8.302
 2635     8.923   48.935   7.823
 2635.5     8.934   48.954   7.344
 2636     8.946   48.972   6.865
 2636.5     8.957   48.953   6.386
 2637     8.968   48.875   5.907
 2637.5     8.979   48.798   6.038
 2638     8.991   48.72   6.449
 2638.5     9.002   48.643   6.861
 2639     9.013   48.566   7.273
 2639.5     9.025   48.673   7.421
 2640     9.035   48.811   7.521
 2640.5     9.045   48.948   7.622
 2641     9.055   49.086   7.722
 2641.5     9.065   49.223   7.822
 2642     9.076   49.361   7.922
 2642.5     9.086   49.269   8.022
 2643     9.096   49.101   8.122
 2643.5     9.106   48.933   8.082
 2644     9.116   48.764   7.935
 2644.5     9.126   48.814   7.787
 2645     9.136   48.943   7.64
 2645.5     9.146   49.073   7.492
 2646     9.156   49.202   7.345
 2646.5     9.166   49.332   7.197
 2647     9.176   49.461   7.049
 2647.5     9.187   49.591   6.902
 2648     9.197   49.72   6.754
 2648.5     9.202   49.849   6.726
 2649     9.2   49.692   6.961
 2649.5     9.197   49.515   7.196
 2650     9.195   49.339   7.431
 2650.5     9.193   49.162   7.666
 2651     9.19   48.986   7.902
 2651.5     9.188   48.809   7.932
 2652     9.185   48.65   7.676
 2652.5     9.183   48.648   7.421
 2653     9.181   48.646   7.165
 2653.5     9.178   48.644   6.91
 2654     9.176   48.642   6.655
 2654.5     9.177   48.64   6.856
 2655     9.179   48.638   7.326
 2655.5     9.182   48.636   7.796
 2656     9.184   48.634   8.265
 2656.5     9.187   48.632   8.735
 2657     9.19   48.63   8.955
 2657.5     9.192   48.628   8.772
 2658     9.195   48.626   8.589
 2658.5     9.197   48.622   8.407
 2659     9.2   48.61   8.224
 2659.5     9.203   48.598   8.041
 2660     9.205   48.586   7.859
 2660.5     9.208   48.574   7.676
 2661     9.21   48.562   7.493
 2661.5     9.213   48.55   7.508
 2662     9.215   48.538   8.503
 2662.5     9.218   48.526   9.498
 2663     9.221   48.514   10.493
 2663.5     9.223   48.502   11.488
 2664     9.223   48.555   12.484
 2664.5     9.22   48.645   11.995
 2665     9.217   48.735   11.169
 2665.5     9.214   48.825   10.343
 2666     9.211   48.915   9.517
 2666.5     9.208   49.005   8.692
 2667     9.205   49.095   7.866
 2667.5     9.202   49.185   7.04
 2668     9.199   49.275   7.126
 2668.5     9.196   49.242   7.423
 2669     9.193   49.176   7.719
 2669.5     9.19   49.11   8.015
 2670     9.187   49.043   8.312
 2670.5     9.184   48.977   8.608
 2671     9.181   48.911   8.905
 2671.5     9.178   48.845   9.086
 2672     9.175   48.779   8.701
 2672.5     9.172   48.773   8.316
 2673     9.169   48.775   7.93
 2673.5     9.167   48.777   7.545
 2674     9.164   48.779   7.374
 2674.5     9.161   48.781   7.491
 2675     9.158   48.782   7.609
 2675.5     9.155   48.784   7.727
 2676     9.152   48.786   7.845
 2676.5     9.149   48.802   7.963
 2677     9.146   48.851   8.08
 2677.5     9.143   48.9   8.198
 2678     9.14   48.949   8.316
 2678.5     9.137   48.998   8.434
 2679     9.134   49.047   8.551
 2679.5     9.131   49.091   8.651
 2680     9.128   49.083   8.273
 2680.5     9.125   49.076   7.895
 2681     9.122   49.068   7.518
 2681.5     9.124   49.061   7.14
 2682     9.139   49.054   6.762
 2682.5     9.154   49.046   6.385
 2683     9.169   49.039   6.283
 2683.5     9.184   49.031   6.967
 2684     9.198   49.024   7.652
 2684.5     9.213   49.017   8.336
 2685     9.228   48.997   8.611
 2685.5     9.243   48.968   8.221
 2686     9.257   48.939   7.831
 2686.5     9.272   48.909   7.442
 2687     9.287   48.88   7.052
 2687.5     9.302   48.851   6.662
 2688     9.316   48.822   6.451
 2688.5     9.273   48.792   6.689
 2689     9.23   48.763   6.927
 2689.5     9.186   48.734   7.165
 2690     9.143   48.705   7.403
 2690.5     9.1   48.675   7.641
 2691     9.067   48.646   7.879
 2691.5     9.071   48.617   8.115
 2692     9.074   48.588   8.107
 2692.5     9.077   48.558   8.099
 2693     9.081   48.529   8.091
 2693.5     9.084   48.5   8.083
 2694     9.087   48.471   8.075
 2694.5     9.09   48.441   8.067
 2695     9.094   48.412   8.08
 2695.5     9.097   48.383   8.228
 2696     9.1   48.356   8.376
 2696.5     9.104   48.331   8.523
 2697     9.107   48.306   8.54
 2697.5     9.11   48.281   8.494
 2698     9.113   48.257   8.449
 2698.5     9.117   48.246   8.404
 2699     9.126   48.406   8.358
 2699.5     9.141   48.566   8.751
 2700     9.156   48.726   9.204
 2700.5     9.171   48.885   9.657
 2701     9.186   49.051   9.703
 2701.5     9.201   49.254   9.099
 2702     9.216   49.456   8.495
 2702.5     9.23   49.659   7.89
 2703     9.245   49.703   7.286
 2703.5     9.26   49.688   6.682
 2704     9.275   49.673   6.077
 2704.5     9.29   49.658   5.473
 2705     9.305   49.644   4.869
 2705.5     9.32   49.629   5.125
 2706     9.335   49.437   5.398
 2706.5     9.349   49.217   5.672
 2707     9.364   48.996   5.945
 2707.5     9.379   48.776   6.218
 2708     9.394   48.555   6.491
 2708.5     9.409   48.509   6.765
 2709     9.424   48.584   6.757
 2709.5     9.439   48.66   6.218
 2710     9.454   48.735   5.679
 2710.5     9.468   48.81   5.14
 2711     9.483   48.885   5.52
 2711.5     9.49   48.96   5.923
 2712     9.485   49.019   6.326
 2712.5     9.48   49.034   6.191
 2713     9.475   49.048   5.496
 2713.5     9.47   49.062   5.041
 2714     9.465   49.077   6.009
 2714.5     9.461   49.091   6.976
 2715     9.456   49.105   7.944
 2715.5     9.451   49.12   8.911
 2716     9.446   49.134   9.878
 2716.5     9.432   49.149   10.726
 2717     9.412   49.163   10.366
 2717.5     9.393   49.177   10.007
 2718     9.374   49.247   9.647
 2718.5     9.355   49.357   9.287
 2719     9.336   49.467   8.927
 2719.5     9.316   49.577   8.567
 2720     9.297   49.687   8.207
 2720.5     9.278   49.797   7.847
 2721     9.259   49.907   7.488
 2721.5     9.239   50.017   7.564
 2722     9.22   49.761   7.672
 2722.5     9.213   49.465   7.779
 2723     9.218   49.17   7.046
 2723.5     9.222   49.042   6.141
 2724     9.227   49.016   5.236
 2724.5     9.232   48.99   5.463
 2725     9.236   48.967   5.911
 2725.5     9.241   48.978   6.358
 2726     9.245   48.989   6.152
 2726.5     9.25   49   5.657
 2727     9.254   49.011   5.163
 2727.5     9.259   49.021   4.669
 2728     9.264   48.999   5.024
 2728.5     9.268   48.958   5.846
 2729     9.273   48.917   6.668
 2729.5     9.277   48.875   7.491
 2730     9.282   48.834   8.313
