###############################################
##         ENVERUS                           ##
##         ESS - Open Hole                   ##
##         PERMIAN / DELAWARE                ##
##         Nov 04 2023  V4.0                 ##
##         42-389-30297-00-00                ##
###############################################
## Copyright 2017-2023  ENVERUS.  All Rights Reserved. 
## Confidential - Property of ENVERUS, use governed by terms and 
## conditions found within the existing Information Services Subscription Agreement 
## (as may be amended, the “ISSA”) between Customer and ENVERUS. 
## 
~VERSION INFORMATION
# MNEM.UNIT                               DATA : DESCRIPTION OF MNEMONIC
#-----.-----     ----------------------------- : -----------------------------
VERS.                                     2.00 : CWLS LOG ASCII STANDARD - VERSION 2.00
WRAP.                                       NO : MULTIPLE LINES PER DEPTH STEP
VEND.                                  ENVERUS : VENDOR
TYPE.                          ESS - OPEN HOLE : ENVERUS ESSENTIAL CURVES – ACCESSIBLE THROUGH ENVERUS PRISM(TM)
DOC.                                  32306493 : ENVERUS HEADER RAW DOCUMENT ID
#___________________________________________________________________________________________________ 
~WELL INFORMATION 
# rQStLE5sYsP+YdYw4QOWpp6z6mWwFJBvCxgTqRv2Ioz+qyoYLl+79qTOna8BSHgUk5jTgp49hkgrAQ1kFKyHCg== 
# MNEM.UNIT                                              DATA : DESCRIPTION OF MNEMONIC 
#-----.-----                    ----------------------------- : ----------------------------- 
CNTY.                                                  REEVES : COUNTY 
STATE.                                                  TEXAS : STATE 
CNTRY.                                                    USA : COUNTRY 
API.                                             42-389-30297 : API (10 Digit) 
API_14.                                    42-389-30297-00-00 : API (14 Digits) 
API_14_std.                                 42-389-30297-0000 : API (14 Digits Standard) 
UWI.                                           42389302970000 : UNIQUE WELL ID 
WELL.                              R.S. BRENNAND, JR. ET AL 1 : WELL NAME
STRT.FT                                                   3.0 : START DEPTH
STOP.FT                                               13007.0 : STOP DEPTH
STEP.FT                                                   0.5 : STEP BETWEEN DEPTHS
NULL.                                                 -999.25 : NULL VALUE
#___________________________________________________________________________________________________ 
~CURVE INFORMATION 
# MNEM.UNIT           : CURVE DESCRIPTION 
#-----.-----          : ----------------------------- 
 DEPT.FT               : MEASURED DEPTH 
 CALI.IN               : CALIPER (CAL - CAL) 
 GR.API                : GAMMA RAY (GR) 
 DT.US/FT              : SONIC DELTA TRANSIT TIME (DT) 
 NPHI.V/V              : NEUTRON POROSITY (NPHI) 
 RHOB.G/CC             : BULK DENSITY (RHOB) 
 #___________________________________________________________________________________________________ 
~A         DEPT           CALI             GR             DT           NPHI           RHOB
# ...
        12235.0          7.335        206.735         76.739     -999.25000         2.4774
        12235.5          7.334        209.084         76.833     -999.25000         2.4830
        12236.0          7.334        211.698         76.928     -999.25000         2.4829
        12236.5          7.334        210.937         77.023     -999.25000         2.4795
        12237.0          7.333        204.109         77.002     -999.25000         2.4761
        12237.5          7.333        197.282         76.128     -999.25000         2.4727
        12238.0          7.332        190.455         75.254     -999.25000         2.4692
        12238.5          7.332        183.628         74.381     -999.25000         2.4658
        12239.0          7.331        178.734         73.792     -999.25000         2.4624
        12239.5          7.331        187.246         74.684     -999.25000         2.4910
        12240.0          7.331        195.758         75.576     -999.25000         2.4868
        12240.5          7.330        202.239         76.469     -999.25000         2.4826
        12241.0          7.330        197.856         77.361     -999.25000         2.4784
        12241.5          7.329        193.473         76.841     -999.25000         2.4742
        12242.0          7.329        189.090         75.859     -999.25000         2.4700
        12242.5          7.329        184.707         74.877     -999.25000         2.4658
        12243.0          7.328        185.828         75.040     -999.25000         2.4670
        12243.5          7.328        187.902         75.299     -999.25000         2.4797
        12244.0          7.327        188.098         75.558     -999.25000         2.4857
        12244.5          7.327        182.776         75.817     -999.25000         2.4799
        12245.0          7.326        177.454         75.769     -999.25000         2.4742
        12245.5          7.326        172.132         75.380     -999.25000         2.4685
        12246.0          7.326        166.809         74.990     -999.25000         2.4627
        12246.5          7.325        161.487         74.601     -999.25000         2.4570
        12247.0          7.325        160.316         74.211     -999.25000         2.4649
        12247.5          7.324        164.648         74.111     -999.25000         2.4754
        12248.0          7.324        168.980         74.404     -999.25000         2.4860
        12248.5          7.324        173.312         74.696     -999.25000         2.4965
        12249.0          7.323        177.644         74.722     -999.25000         2.5071
        12249.5          7.323        181.976         74.601     -999.25000         2.5061
        12250.0          7.322        186.308         74.480     -999.25000         2.4976
        12250.5          7.322        187.171         74.359     -999.25000         2.4891
        12251.0          7.321        184.689         74.237     -999.25000         2.4806
        12251.5          7.321        182.206         74.116     -999.25000         2.4721
        12252.0          7.321        179.724         74.236     -999.25000         2.4636
        12252.5          7.320        177.242         74.602     -999.25000         2.4551
        12253.0          7.320        174.760         74.711     -999.25000         2.4560
        12253.5          7.319        189.480         74.132     -999.25000         2.4626
        12254.0          7.319        205.230         73.553     -999.25000         2.4691
        12254.5          7.319        220.979         73.705     -999.25000         2.4757
        12255.0          7.318        236.729         74.711     -999.25000         2.4823
        12255.5          7.318        251.437         75.717     -999.25000         2.4888
        12256.0          7.317        251.437         76.720     -999.25000         2.4954
        12256.5          7.317        251.436         77.706     -999.25000         2.5020
        12257.0          7.316        251.436         78.691     -999.25000         2.5084
        12257.5          7.316        251.435         79.677     -999.25000         2.5021
        12258.0          7.315        251.434         80.268     -999.25000         2.4957
        12258.5          7.315        251.434         79.952     -999.25000         2.4894
        12259.0          7.314        251.433         79.635     -999.25000         2.4831
        12259.5          7.313        251.433         79.319     -999.25000         2.4767
        12260.0          7.312        251.432         79.002     -999.25000         2.4704
        12260.5          7.312        251.432         78.686     -999.25000         2.4641
        12261.0          7.311        251.431         78.369     -999.25000         2.4761
        12261.5          7.310        251.431         78.071     -999.25000         2.4687
        12262.0          7.309        251.430         78.894     -999.25000         2.4612
        12262.5          7.309        251.430         79.718     -999.25000         2.4744
        12263.0          7.308        251.429         80.541     -999.25000         2.4978
        12263.5          7.307        251.428         81.365     -999.25000         2.5212
        12264.0          7.306        251.428         82.188     -999.25000         2.5445
        12264.5          7.306        251.427         82.188     -999.25000         2.5679
        12265.0          7.305        251.427         81.347     -999.25000         2.5541
        12265.5          7.304        251.426         80.505     -999.25000         2.5203
        12266.0          7.303        251.426         79.760     -999.25000         2.4864
        12266.5          7.303        251.425         79.815     -999.25000         2.4525
        12267.0          7.302        251.425         79.869     -999.25000         2.4442
        12267.5          7.301        251.424         79.923     -999.25000         2.4415
        12268.0          7.300        251.424         79.977     -999.25000         2.4388
        12268.5          7.300        251.423         79.797     -999.25000         2.4361
        12269.0          7.299        251.422         78.650     -999.25000         2.4334
        12269.5          7.298        251.422         78.879     -999.25000         2.4307
        12270.0          7.297        251.421         79.108     -999.25000         2.4280
        12270.5          7.297        251.421         79.336     -999.25000         2.4253
        12271.0          7.296        251.420         79.525     -999.25000         2.4290
        12271.5          7.295        251.420         79.076     -999.25000         2.4368
        12272.0          7.294        251.419         78.627     -999.25000         2.4445
        12272.5          7.294        251.419         78.178     -999.25000         2.4523
        12273.0          7.293        251.418         77.817     -999.25000         2.4601
        12273.5          7.292        251.418         78.040     -999.25000         2.4413
        12274.0          7.291        251.417         78.264     -999.25000         2.4222
        12274.5          7.291        251.416         78.488     -999.25000         2.4233
        12275.0          7.290        251.416         78.711     -999.25000         2.4288
        12275.5          7.289        251.415         78.935     -999.25000         2.4343
        12276.0          7.288        251.415         79.159     -999.25000         2.4399
        12276.5          7.288        251.414         79.386     -999.25000         2.4454
        12277.0          7.287        251.414         79.618     -999.25000         2.4509
        12277.5          7.286        251.413         79.850     -999.25000         2.4446
        12278.0          7.285        251.413         80.082     -999.25000         2.4359
        12278.5          7.285        251.412         80.313     -999.25000         2.4271
