###############################################
##         ENVERUS                           ##
##         ESS - Open Hole                   ##
##         PERMIAN / DELAWARE                ##
##         Nov 04 2023  V4.0                 ##
##         42-389-32245-00-00                ##
###############################################
## Copyright 2017-2023  ENVERUS.  All Rights Reserved. 
## Confidential - Property of ENVERUS, use governed by terms and 
## conditions found within the existing Information Services Subscription Agreement 
## (as may be amended, the “ISSA”) between Customer and ENVERUS. 
## 
~VERSION INFORMATION
# MNEM.UNIT                               DATA : DESCRIPTION OF MNEMONIC
#-----.-----     ----------------------------- : -----------------------------
VERS.                                     2.00 : CWLS LOG ASCII STANDARD - VERSION 2.00
WRAP.                                       NO : MULTIPLE LINES PER DEPTH STEP
VEND.                                  ENVERUS : VENDOR
TYPE.                          ESS - OPEN HOLE : ENVERUS ESSENTIAL CURVES – ACCESSIBLE THROUGH ENVERUS PRISM(TM)
DOC.                                  24742630 : ENVERUS HEADER RAW DOCUMENT ID
#___________________________________________________________________________________________________ 
~WELL INFORMATION 
# u9Wg0OWXiPz858M7Kubpm0lpDPxjGuyhH3tqBPDGtvBYDDDqGrwiIchrhDPbdkpmsDZNCKsM7+2eKUVstoQO7Q== 
# MNEM.UNIT                                              DATA : DESCRIPTION OF MNEMONIC 
#-----.-----                    ----------------------------- : ----------------------------- 
CNTY.                                                  REEVES : COUNTY 
STATE.                                                  TEXAS : STATE 
CNTRY.                                                    USA : COUNTRY 
API.                                             42-389-32245 : API (10 Digit) 
API_14.                                    42-389-32245-00-00 : API (14 Digits) 
API_14_std.                                 42-389-32245-0000 : API (14 Digits Standard) 
UWI.                                           42389322450000 : UNIQUE WELL ID 
WELL.                          TEXAS PACIFIC LAND TRUST #25-1 : WELL NAME
STRT.FT                                                2530.0 : START DEPTH
STOP.FT                                               10610.0 : STOP DEPTH
STEP.FT                                                   0.5 : STEP BETWEEN DEPTHS
NULL.                                                 -999.25 : NULL VALUE
COMP.                                             CONOCO INC. : COMPANY 
FLD.                                            FORD WOLFCAMP : FIELD 
LOC.                                                 25-2S-58 : LOCATION 
SRVC.                                            SCHLUMBERGER : SERVICE COMPANY 
DATE.                                              03/21/2002 : DATE 
TVD.                                                       NO : TVD FLAG
#___________________________________________________________________________________________________ 
~PARAMETER INFORMATION 
# MNEM.UNIT                                              DATA : DESCRIPTION OF MNEMONIC 
#-----.-----                    ----------------------------- : ----------------------------- 
RUN.                                                      ONE : RUN NUMBER 
PDAT.                                                      GL : PERMANENT DATUM 
EPD.FT                                              2993.0000 : ELEVATION OF PERM. DATUM 
LMF.                                            KELLY BUSHING : LOG MEASURED FROM 
EKB.FT                                              3021.0000 : ELEVATION OF KELLY BUSHING 
DF.FT                                               3020.0000 : ELEVATION OF DERRICK FLOOR 
GL.FT                                               2993.0000 : ELEVATION OF GROUND LEVEL 
TD.FT                                              10610.0000 : TOTAL DEPTH 
BHT.DEGF                                               130.00 : BOTTOM HOLE TEMPERATURE 
BLI.FT                                             10610.0000 : BOTTOM LOG INTERVAL 
CSGSIZE.IN                                             9.6250 : CASING SIZE 
BITSIZE.IN                                              8.750 : BITSIZE 
CSGD.FT                                                  2642 : CASING BOTTOM (DRILLER) 1 
CSGL.FT                                                  2538 : CASING BOTTOM (LOGGER) 1 
MUD.                                                CUT BRINE : DRILLING FLUID TYPE 
MUDV.CP                                               28.0000 : DRILLING FLUID VISCOSITY 
MUDD.LB/USG                                           10.0000 : DRILLING FLUID DENSITY 
PH.                                                    8.5000 : DRILLING FLUID PH 
MUDS.                                        CIRCULATION TANK : MUD SAMPLE SOURCE 
RM.OHMM                                                0.0610 : RESISTIVITY OF MUD SAMPLE 
RMT.DEGF                                              75.0000 : MUD SAMPLE TEMPERATURE 
RMF.OHMM                                               0.0610 : MUD FILTRATE RESISTIVITY 
RMFT.DEGF                                             75.0000 : MUD FILTRATE SAMPLE TEMPERATURE
#___________________________________________________________________________________________________ 
~CURVE INFORMATION 
# MNEM.UNIT           : CURVE DESCRIPTION 
#-----.-----          : ----------------------------- 
 DEPT.FT               : MEASURED DEPTH 
 CALI.IN               : CALIPER (CALIPER) 
 GR.API                : GAMMA RAY (GAMMA RAY) 
 DT.US/FT              : SONIC DELTA TRANSIT TIME (DELTA T) 
 SPHI.V/V              : SONIC POROSITY (SONIC POROSITY) 
 #___________________________________________________________________________________________________ 
~A         DEPT           CALI             GR             DT           SPHI
# ...
         6823.0          9.090         84.450         90.900        0.30000
         6823.5          8.960         87.810         90.130        0.30000
         6824.0          8.890         85.320         89.460        0.30000
         6824.5          8.810         82.660         90.760        0.30000
         6825.0          8.810         80.660         91.540        0.30000
         6825.5          8.810         79.950         89.130        0.29000
         6826.0          8.810         79.180         86.660        0.27000
         6826.5          8.800         77.730         85.230        0.26000
         6827.0          8.800         73.960         83.630        0.25000
         6827.5          8.800         70.690         82.550        0.25000
         6828.0          8.790         69.070         83.130        0.26000
         6828.5          8.790         72.850         84.950        0.27000
         6829.0          8.790         78.570         86.010        0.27000
         6829.5          8.780         80.440         84.910        0.25000
         6830.0          8.780         74.240         80.320        0.22000
         6830.5          8.780         66.160         74.680        0.17000
         6831.0          8.770         51.120         69.020        0.13000
         6831.5          8.770         38.480         63.820        0.10000
         6832.0          8.770         30.680         62.130        0.13000
         6832.5          8.780         38.630         69.110        0.17000
         6833.0          8.780         56.420         74.530        0.22000
         6833.5          8.790         73.950         79.930        0.25000
         6834.0          8.770         91.660         83.850        0.26000
         6834.5          8.740         93.120         84.390        0.26000
         6835.0          8.720         91.280         84.140        0.26000
         6835.5          8.730         88.380         84.650        0.27000
         6836.0          8.730         96.490         86.430        0.28000
         6836.5          8.740        101.040         88.490        0.29000
         6837.0          8.740        101.790         87.720        0.28000
         6837.5          8.750         96.760         85.890        0.27000
         6838.0          8.760         90.440         84.050        0.25000
         6838.5          8.780         84.460         82.220        0.23000
         6839.0          8.830         78.420         80.380        0.22000
         6839.5          8.880         74.020         79.230        0.24000
         6840.0          8.880         79.670         82.460        0.26000
         6840.5          8.840         87.210         85.860        0.28000
         6841.0          8.790         94.420         89.260        0.29000
         6841.5          8.750         98.880         88.560        0.28000
         6842.0          8.720         98.420         86.830        0.27000
         6842.5          8.720         93.170         85.090        0.25000
         6843.0          8.710         83.750         82.890        0.24000
         6843.5          8.700         74.160         80.400        0.22000
         6844.0          8.720         64.530         77.660        0.20000
         6844.5          8.730         54.930         74.410        0.17000
         6845.0          8.740         45.290         70.770        0.15000
         6845.5          8.750         40.510         68.470        0.15000
         6846.0          8.760         45.610         71.150        0.18000
         6846.5          8.780         60.100         76.970        0.22000
         6847.0          8.790         74.290         82.790        0.26000
         6847.5          8.790         87.820         88.590        0.30000
         6848.0          8.790         96.790         91.870        0.30000
         6848.5          8.790        100.370         91.740        0.30000
         6849.0          8.790        100.100         90.660        0.30000
         6849.5          8.790         95.610         88.640        0.29000
         6850.0          8.790         89.330         85.750        0.26000
         6850.5          8.790         82.800         82.860        0.23000
         6851.0          8.790         76.150         79.880        0.23000
         6851.5          8.790         77.900         81.630        0.25000
         6852.0          8.790         83.440         83.660        0.26000
         6852.5          8.790         88.780         85.420        0.27000
         6853.0          8.790         91.100         84.720        0.26000
         6853.5          8.850         87.980         83.550        0.25000
         6854.0          8.950         82.690         82.390        0.25000
         6854.5          8.970         86.180         85.090        0.27000
         6855.0          8.930         96.590         88.410        0.29000
         6855.5          8.890        108.850         91.690        0.30000
         6856.0          8.840        116.890         93.620        0.30000
         6856.5          8.850        124.270         94.490        0.30000
         6857.0          8.900        124.950         93.820        0.30000
         6857.5          8.940        120.170         90.030        0.30000
         6858.0          8.990        116.630         85.140        0.26000
         6858.5          8.980         98.010         82.990        0.25000
         6859.0          8.970         94.830         83.340        0.26000
         6859.5          8.960         99.960         84.910        0.27000
         6860.0          8.950        105.240         86.480        0.28000
         6860.5          8.940        106.700         87.320        0.28000
         6861.0          8.930         99.170         85.910        0.26000
         6861.5          8.930         92.430         83.300        0.25000
         6862.0          8.920         84.700         80.700        0.23000
         6862.5          8.910         76.240         78.470        0.22000
         6863.0          8.900         73.790         78.490        0.22000
         6863.5          8.890         77.600         80.260        0.24000
         6864.0          8.880         85.860         83.330        0.26000
         6864.5          8.870         94.640         86.390        0.29000
         6865.0          8.860         97.400         89.920        0.30000
         6865.5          8.860         95.360         89.450        0.30000
         6866.0          8.930         93.220         88.540        0.29000
         6866.5          9.000         92.500         87.630        0.28000
         6867.0          9.070         92.280         86.720        0.27000
         6867.5          9.100         89.940         85.700        0.27000
         6868.0          9.030         86.100         84.570        0.25000
         6868.5          8.960         82.430         81.570        0.22000
         6869.0          8.900         73.970         78.420        0.20000
         6869.5          8.940         64.150         75.250        0.20000
         6870.0          9.080         69.170         75.320        0.21000
         6870.5          9.380         76.420         78.000        0.23000
         6871.0          9.690         83.530         81.590        0.25000
         6871.5          9.870         93.920         84.180        0.26000
         6872.0          9.860         92.260         82.660        0.24000
         6872.5          9.550         89.330         80.670        0.22000
         6873.0          9.250         85.540         79.490        0.23000
         6873.5          9.030         87.900         81.710        0.25000
         6874.0          9.120         94.760         83.890        0.27000
         6874.5          9.160         99.160         85.490        0.27000
         6875.0          9.110         95.450         83.340        0.24000
         6875.5          9.100         86.700         79.060        0.20000
