#   WellGreen Tech Inc.   Digitizing Services
#   www.wellgreentech.com
#   email: sales@wellgreentech.com
#
~Version Information Block
 VERS.                2.00:     CWLS LOG ASCII STANDARD - VERSION 2.000000
 WRAP.                  NO:     One Line Per Depth Step
#
~Well Information Block
#MNEM.UNIT                     Data                         Information
#----------   ------------------------------------------   ----------------
 STRT.FT                                     4000.0000:     START DEPTH
 STOP.FT                                    15710.0000:     STOP DEPTH
 STEP.FT                                        0.5000:     STEP
 NULL.                                       -999.2500:     NULL VALUE
 COMP.                        THE SUPERIOR OIL COMPANY:     COMPANY
 WELL.                                FORTUNE STATE #1:     WELL
 FLD .                                    CHAPMAN DEEP:     FIELD
 LOC .                                                :     LOCATION
 CNTY.                                          REEVES:     COUNTY
 STAT.                                              TX:     STATE
 CTRY.                                             USA:     COUNTRY
 SRVC.                                    SCHLUMBERGER:     SERVICE COMPANY
 DATE.                                      11/10/1974:     DATE
 API .               42389302950000:    API NUMBER
 UWI .               42389302950000:    UWI NUMBER
 TVD .                                              NO:     TVD flag
 MATRIX .G/CC                  :    Matrix Density
#
~Curve Information Block
#MNEM.UNIT       API CODE      Curve Description
#----------    -------------   -------------------
 DEPT.FT                   :   Depth in Feet
 CALI.IN       70 280 01 01:   Caliper
 GR  .API      35 310 01 01:   Gamma Ray
 DT  .US/F     60 520 08 01:   Sonic transit time
#
~Parameter Information Block
#MNEM.UNIT            Value               Description
#----------    --------------------    -------------------
 RUN .                         ONE:    Run Number
 PDAT.                          GL:    Permanent Datum
 EPD .FT                  000.0000:    Elevation Of Perm. Datum
 LMF .               KELLY BUSHING:    Log Measured From
 EKB .FT                  3065.0:    Elevation Of Kelly Bushing
 DF .FT                    000.0:    Elevation Of Derrick Floor
 GL .FT                   3034.0:    Elevation Of Ground Level
 TD .FT                  15710.0000:    Total Depth
 BHT .DEGF               260.00 :  Bottom Hole Temperature
 BLI .FT               15710.0000:   Bottom Log Interval
 CSGSIZE.IN              9.6250:   Casing Size
 BITSIZE.IN               8.750 :  BitSize
 CSGD.FT                  4000.0:    Casing Bottom (Driller) 1
 CSGL.FT                  400.0:    Casing Bottom (Logger) 1
 MUD . BRINE                                :    Drilling Fluid Type
 MUDV .CP                  27.0:    Drilling Fluid Viscosity
 MUDD .LB/USG              9.25:    Drilling Fluid Density
 PH.                        6.2:    Drilling Fluid Ph
 FL .ML/30MIN              11.0:    Drilling Fluid Loss
 MUDS .FLOW LINE                        :    Mud Sample Source
 RM .OHMM                   0.09:    Resistivity Of Mud Sample
 RMT .DEGF                 60.00:    Mud Sample Temperature
 RMF .OHMM                  0.09:    Mud Filtrate Resistivity
 RMFT.DEGF                 60.00:    Mud Filtrate Sample Temperature
 RMC .OHMM                  0.00:    Mud Cake Resistivity
 RMCT.DEGF                 00.00:    Mud Cake Sample Temperature
 RMB .OHMM                 0.027:    Mud Resistivity At Bht
 TMAX .DEGF               260.00:    Bottom Hole Temperature
#
~Other Information Block
<DescLogPlotStart>   NEURALOG PLOT DEFINITION
PLOTDEFVERSION: 3
LASFILE: D:\nds\projects\G\DAVE\new work\RS Energy - Texas - May 17 - Folder 2\
DEPTHSCALE: 240.000000
RESOLUTION: 400
DEPTHLABELFREQ: 100.000000
HEAVYGRIDFREQ: 100.000000
MEDIUMGRIDFREQ: 50.000000
LIGHTGRIDFREQ: 10.000000
#
#   TRACK 1
#
STARTTRACK: 
 LEFTX: 0.500000 inch
 RIGHTX: 3.000000 inch
 SCALETYPE: Linear
 NUMCHARTDIVISIONS: 10
CURVE: CALI  6.000000   16.000000  (0,0,255)      Solid             2     N    
CURVE: GR    0.000000   125.000000 (0,131,131)    Dot               2     Y    
BACKUP: 125.000000 250.000000 (0,131,131)    Dot               2    
ENDTRACK: 
#
#   TRACK 2
#
STARTTRACK: 
 LEFTX: 3.500000 inch
 RIGHTX: 8.500000 inch
 SCALETYPE: Linear
 NUMCHARTDIVISIONS: 10
CURVE: DT    100.000000 40.000000  (255,0,255)    Solid             2     Y    
BACKUP: 160.000000 100.000000 (255,0,255)    Solid             2    
ENDTRACK: 
<DescLogPlotEnd>
~A DEPTH     CALI             GR               DT              
# ...
   14062.500 9.934            29.230           56.398          
   14063.000 9.940            31.579           58.309          
   14063.500 9.945            39.844           61.480          
   14064.000 9.951            49.711           60.139          
   14064.500 9.957            58.801           58.004          
   14065.000 9.962            60.492           54.409          
   14065.500 9.964            45.763           50.802          
   14066.000 9.963            33.382           49.673          
   14066.500 9.961            27.658           49.929          
   14067.000 9.960            26.203           50.490          
   14067.500 9.958            28.217           50.030          
   14068.000 9.957            30.319           49.373          
   14068.500 9.955            32.263           49.151          
   14069.000 9.954            30.440           48.998          
   14069.500 9.952            28.633           48.655          
   14070.000 9.951            31.649           53.431          
   14070.500 9.949            36.031           59.073          
   14071.000 9.948            43.354           62.035          
   14071.500 9.946            48.456           65.575          
   14072.000 9.946            51.257           64.738          
   14072.500 9.982            53.137           67.620          
   14073.000 10.019           53.652           70.179          
   14073.500 10.055           55.477           71.674          
   14074.000 10.091           51.868           70.132          
   14074.500 10.127           46.437           68.363          
   14075.000 10.136           43.667           68.334          
   14075.500 10.138           42.775           69.996          
   14076.000 10.140           40.545           68.953          
   14076.500 10.142           38.630           66.838          
   14077.000 10.144           37.476           63.476          
   14077.500 10.092           35.773           60.281          
   14078.000 9.931            33.305           57.922          
   14078.500 9.816            31.109           58.809          
   14079.000 9.816            32.082           60.130          
   14079.500 9.817            33.026           61.160          
   14080.000 9.818            32.459           61.710          
   14080.500 9.818            30.674           62.090          
   14081.000 9.819            29.952           61.566          
   14081.500 9.820            30.245           59.614          
   14082.000 9.821            28.693           57.703          
   14082.500 9.822            26.550           55.789          
   14083.000 9.822            24.375           55.336          
   14083.500 9.823            26.436           55.796          
   14084.000 9.824            31.089           60.290          
   14084.500 9.825            36.049           61.904          
   14085.000 9.822            40.874           60.960          
   14085.500 9.816            43.505           58.379          
   14086.000 9.810            37.805           55.418          
   14086.500 9.806            29.017           52.810          
   14087.000 9.852            24.220           54.377          
   14087.500 9.884            22.864           55.779          
   14088.000 9.882            24.075           57.897          
   14088.500 9.880            28.124           59.865          
   14089.000 9.877            32.350           60.101          
   14089.500 9.875            34.783           59.808          
   14090.000 9.873            36.918           59.325          
   14090.500 9.871            38.951           58.444          
   14091.000 9.868            38.228           57.561          
   14091.500 9.866            37.278           56.678          
   14092.000 9.864            38.585           55.382          
   14092.500 9.861            39.867           56.075          
   14093.000 9.859            42.689           58.680          
   14093.500 9.857            49.773           70.459          
   14094.000 9.938            56.862           80.079          
   14094.500 10.319           63.948           87.570          
   14095.000 10.700           71.026           93.094          
   14095.500 10.955           76.006           89.353          
   14096.000 11.078           73.280           86.263          
   14096.500 10.848           72.485           80.319          
   14097.000 10.638           71.379           74.568          
   14097.500 10.549           69.427           70.658          
   14098.000 10.605           66.926           70.859          
   14098.500 10.589           63.692           71.250          
   14099.000 10.638           60.463           80.213          
   14099.500 10.707           58.591           86.890          
   14100.000 10.775           62.301           88.148          
   14100.500 10.842           64.908           88.017          
   14101.000 10.689           65.388           85.495          
   14101.500 10.528           65.727           80.015          
   14102.000 10.488           63.809           85.481          
   14102.500 10.550           58.755           91.764          
   14103.000 10.606           55.606           89.340          
   14103.500 11.270           53.798           86.629          
   14104.000 10.926           54.822           81.327          
   14104.500 10.365           56.864           74.036          
   14105.000 10.040           57.021           75.291          
   14105.500 10.078           55.993           77.593          
   14106.000 10.109           58.244           75.800          
   14106.500 10.481           58.306           80.792          
   14107.000 10.620           57.154           78.557          
   14107.500 10.757           59.556           81.417          
   14108.000 11.003           58.825           89.504          
   14108.500 11.445           57.795           98.655          
   14109.000 11.887           56.754           98.339          
   14109.500 12.223           57.411           96.616          
   14110.000 12.563           58.201           91.120          
   14110.500 11.774           59.678           77.354          
   14111.000 11.113           63.096           79.115          
   14111.500 10.816           60.943           82.197          
   14112.000 10.805           57.382           80.344          
   14112.500 10.854           52.677           81.762          
   14113.000 11.004           54.154           84.290          
   14113.500 10.788           56.987           82.078          
   14114.000 10.670           59.108           83.553          
   14114.500 11.022           56.074           84.696          
   14115.000 11.264           56.331           86.409          
   14115.500 10.834           55.330           90.149          
   14116.000 11.061           56.506           87.649          
   14116.500 11.018           55.606           83.044          
   14117.000 11.013           57.313           75.217          
   14117.500 11.044           54.631           64.529          
   14118.000 10.562           52.836           66.472          
   14118.500 10.540           51.769           87.942          
   14119.000 10.282           50.710           86.413          
   14119.500 10.045           50.645           89.761          
   14120.000 9.908            49.325           76.562          
   14120.500 9.887            45.398           59.178          
   14121.000 9.878            43.704           60.340          
   14121.500 9.870            44.005           64.350          
   14122.000 9.861            44.300           60.967          
   14122.500 9.858            43.639           58.952          
   14123.000 9.866            41.563           57.828          
   14123.500 9.874            36.341           55.813          
   14124.000 9.882            38.746           54.144          
   14124.500 9.890            43.773           61.939          
