#   WellGreen Tech Inc.   Digitizing Services
#   www.wellgreentech.com
#   email: sales@wellgreentech.com
#
~Version Information Block
 VERS.                2.00:     CWLS LOG ASCII STANDARD - VERSION 2.000000
 WRAP.                  NO:     One Line Per Depth Step
#
~Well Information Block
#MNEM.UNIT                     Data                         Information
#----------   ------------------------------------------   ----------------
 STRT.FT                                     4000.0000:     START DEPTH
 STOP.FT                                    15710.0000:     STOP DEPTH
 STEP.FT                                        0.5000:     STEP
 NULL.                                       -999.2500:     NULL VALUE
 COMP.                        THE SUPERIOR OIL COMPANY:     COMPANY
 WELL.                                FORTUNE STATE #1:     WELL
 FLD .                                    CHAPMAN DEEP:     FIELD
 LOC .                                                :     LOCATION
 CNTY.                                          REEVES:     COUNTY
 STAT.                                              TX:     STATE
 CTRY.                                             USA:     COUNTRY
 SRVC.                                    SCHLUMBERGER:     SERVICE COMPANY
 DATE.                                      11/10/1974:     DATE
 API .               42389302950000:    API NUMBER
 UWI .               42389302950000:    UWI NUMBER
 TVD .                                              NO:     TVD flag
 MATRIX .G/CC                  :    Matrix Density
#
~Curve Information Block
#MNEM.UNIT       API CODE      Curve Description
#----------    -------------   -------------------
 DEPT.FT                   :   Depth in Feet
 CALI.IN       70 280 01 01:   Caliper
 GR  .API      35 310 01 01:   Gamma Ray
 DT  .US/F     60 520 08 01:   Sonic transit time
#
~Parameter Information Block
#MNEM.UNIT            Value               Description
#----------    --------------------    -------------------
 RUN .                         ONE:    Run Number
 PDAT.                          GL:    Permanent Datum
 EPD .FT                  000.0000:    Elevation Of Perm. Datum
 LMF .               KELLY BUSHING:    Log Measured From
 EKB .FT                  3065.0:    Elevation Of Kelly Bushing
 DF .FT                    000.0:    Elevation Of Derrick Floor
 GL .FT                   3034.0:    Elevation Of Ground Level
 TD .FT                  15710.0000:    Total Depth
 BHT .DEGF               260.00 :  Bottom Hole Temperature
 BLI .FT               15710.0000:   Bottom Log Interval
 CSGSIZE.IN              9.6250:   Casing Size
 BITSIZE.IN               8.750 :  BitSize
 CSGD.FT                  4000.0:    Casing Bottom (Driller) 1
 CSGL.FT                  400.0:    Casing Bottom (Logger) 1
 MUD . BRINE                                :    Drilling Fluid Type
 MUDV .CP                  27.0:    Drilling Fluid Viscosity
 MUDD .LB/USG              9.25:    Drilling Fluid Density
 PH.                        6.2:    Drilling Fluid Ph
 FL .ML/30MIN              11.0:    Drilling Fluid Loss
 MUDS .FLOW LINE                        :    Mud Sample Source
 RM .OHMM                   0.09:    Resistivity Of Mud Sample
 RMT .DEGF                 60.00:    Mud Sample Temperature
 RMF .OHMM                  0.09:    Mud Filtrate Resistivity
 RMFT.DEGF                 60.00:    Mud Filtrate Sample Temperature
 RMC .OHMM                  0.00:    Mud Cake Resistivity
 RMCT.DEGF                 00.00:    Mud Cake Sample Temperature
 RMB .OHMM                 0.027:    Mud Resistivity At Bht
 TMAX .DEGF               260.00:    Bottom Hole Temperature
#
~Other Information Block
<DescLogPlotStart>   NEURALOG PLOT DEFINITION
PLOTDEFVERSION: 3
LASFILE: D:\nds\projects\G\DAVE\new work\RS Energy - Texas - May 17 - Folder 2\
DEPTHSCALE: 240.000000
RESOLUTION: 400
DEPTHLABELFREQ: 100.000000
HEAVYGRIDFREQ: 100.000000
MEDIUMGRIDFREQ: 50.000000
LIGHTGRIDFREQ: 10.000000
#
#   TRACK 1
#
STARTTRACK: 
 LEFTX: 0.500000 inch
 RIGHTX: 3.000000 inch
 SCALETYPE: Linear
 NUMCHARTDIVISIONS: 10
CURVE: CALI  6.000000   16.000000  (0,0,255)      Solid             2     N    
CURVE: GR    0.000000   125.000000 (0,131,131)    Dot               2     Y    
BACKUP: 125.000000 250.000000 (0,131,131)    Dot               2    
ENDTRACK: 
#
#   TRACK 2
#
STARTTRACK: 
 LEFTX: 3.500000 inch
 RIGHTX: 8.500000 inch
 SCALETYPE: Linear
 NUMCHARTDIVISIONS: 10
CURVE: DT    100.000000 40.000000  (255,0,255)    Solid             2     Y    
BACKUP: 160.000000 100.000000 (255,0,255)    Solid             2    
ENDTRACK: 
<DescLogPlotEnd>
~A DEPTH     CALI             GR               DT              
# ...
    5562.500 12.446           71.091           62.101          
    5563.000 12.446           59.554           61.883          
    5563.500 12.446           53.385           60.679          
    5564.000 12.446           50.622           59.337          
    5564.500 12.446           50.575           60.154          
    5565.000 12.446           57.763           61.348          
    5565.500 12.446           65.870           62.302          
    5566.000 12.446           67.807           62.930          
    5566.500 12.446           66.430           62.209          
    5567.000 12.445           65.856           62.619          
    5567.500 12.445           69.783           62.687          
    5568.000 12.445           74.903           63.389          
    5568.500 12.445           79.150           63.373          
    5569.000 12.445           79.904           62.909          
    5569.500 12.445           79.059           62.821          
    5570.000 12.445           76.537           62.943          
    5570.500 12.445           84.005           63.655          
    5571.000 12.445           94.658           64.571          
    5571.500 12.445           104.343          65.565          
    5572.000 12.445           107.864          64.870          
    5572.500 12.445           104.634          64.744          
    5573.000 12.445           102.773          65.012          
    5573.500 12.445           106.662          64.774          
    5574.000 12.445           107.338          63.290          
    5574.500 12.445           104.394          61.879          
    5575.000 12.445           92.429           61.444          
    5575.500 12.445           82.626           60.055          
    5576.000 12.445           80.509           61.491          
    5576.500 12.445           84.337           62.757          
    5577.000 12.445           90.930           62.747          
    5577.500 12.445           96.189           64.946          
    5578.000 12.445           101.480          65.656          
    5578.500 12.445           110.707          67.038          
    5579.000 12.445           121.934          68.384          
    5579.500 12.445           119.248          68.127          
    5580.000 12.445           111.879          67.040          
    5580.500 12.445           97.212           64.077          
    5581.000 12.445           75.255           61.102          
    5581.500 12.445           56.781           59.401          
    5582.000 12.445           55.157           60.374          
    5582.500 12.445           59.658           61.713          
    5583.000 12.444           62.414           62.721          
    5583.500 12.444           62.871           63.516          
    5584.000 12.444           60.433           64.311          
    5584.500 12.444           57.031           65.140          
    5585.000 12.444           48.778           64.483          
    5585.500 12.444           41.646           63.061          
    5586.000 12.444           37.576           62.747          
    5586.500 12.444           37.950           63.938          
    5587.000 12.444           41.149           66.067          
    5587.500 12.444           44.862           65.680          
    5588.000 12.444           45.646           64.425          
    5588.500 12.444           43.303           63.188          
    5589.000 12.444           41.226           62.397          
    5589.500 12.444           44.970           61.999          
    5590.000 12.444           49.469           63.501          
    5590.500 12.444           53.762           64.257          
    5591.000 12.444           56.029           64.136          
    5591.500 12.444           58.338           63.827          
    5592.000 12.444           59.309           63.589          
    5592.500 12.444           63.002           63.561          
    5593.000 12.444           65.500           64.022          
    5593.500 12.444           60.988           64.751          
    5594.000 12.444           59.091           63.114          
    5594.500 12.444           56.236           61.341          
    5595.000 12.444           48.565           60.514          
    5595.500 12.444           40.917           59.756          
    5596.000 12.444           39.245           61.267          
    5596.500 12.444           40.533           63.024          
    5597.000 12.444           46.427           63.913          
    5597.500 12.444           52.560           63.912          
    5598.000 12.444           52.066           64.119          
    5598.500 12.444           53.986           64.698          
    5599.000 12.443           63.650           64.997          
    5599.500 12.443           73.103           65.084          
    5600.000 12.443           79.251           64.519          
    5600.500 12.443           72.874           63.285          
    5601.000 12.443           65.398           62.903          
    5601.500 12.443           58.100           62.718          
    5602.000 12.443           52.531           61.999          
    5602.500 12.443           51.270           62.926          
    5603.000 12.443           57.166           62.794          
    5603.500 12.443           65.375           64.665          
    5604.000 12.443           74.168           66.157          
    5604.500 12.443           82.829           66.037          
    5605.000 12.443           88.216           66.292          
    5605.500 12.443           79.446           64.988          
    5606.000 12.443           68.493           64.267          
    5606.500 12.443           57.626           64.026          
    5607.000 12.443           56.291           64.123          
    5607.500 12.443           55.496           63.868          
    5608.000 12.443           52.772           64.123          
    5608.500 12.443           49.920           64.083          
    5609.000 12.443           51.716           64.574          
    5609.500 12.443           53.244           64.056          
    5610.000 12.443           46.331           62.977          
    5610.500 12.443           40.646           63.594          
    5611.000 12.443           42.073           64.417          
    5611.500 12.443           44.845           65.108          
    5612.000 12.443           47.618           65.736          
    5612.500 12.443           49.055           65.648          
    5613.000 12.443           47.487           65.558          
    5613.500 12.443           50.430           65.918          
    5614.000 12.443           52.867           65.982          
    5614.500 12.443           52.500           66.088          
    5615.000 12.442           53.649           66.211          
    5615.500 12.442           58.184           65.646          
    5616.000 12.442           62.743           64.590          
    5616.500 12.442           64.654           62.584          
    5617.000 12.442           58.141           61.042          
    5617.500 12.442           55.952           61.721          
    5618.000 12.442           61.788           62.812          
    5618.500 12.442           69.006           64.332          
    5619.000 12.442           74.556           65.497          
    5619.500 12.442           74.920           64.384          
    5620.000 12.442           68.672           63.629          
    5620.500 12.442           60.702           63.118          
    5621.000 12.442           55.399           62.734          
    5621.500 12.442           54.396           62.575          
    5622.000 12.442           56.026           62.257          
    5622.500 12.442           57.647           61.939          
    5623.000 12.442           58.972           61.718          
    5623.500 12.442           58.660           61.622          
    5624.000 12.442           55.446           61.830          
    5624.500 12.442           52.719           61.251          
