###############################################
##         ENVERUS                           ##
##         ESS - Open Hole                   ##
##         PERMIAN / DELAWARE                ##
##         Nov 04 2023  V4.0                 ##
##         42-389-32398-00-00                ##
###############################################
## Copyright 2017-2023  ENVERUS.  All Rights Reserved. 
## Confidential - Property of ENVERUS, use governed by terms and 
## conditions found within the existing Information Services Subscription Agreement 
## (as may be amended, the “ISSA”) between Customer and ENVERUS. 
## 
~VERSION INFORMATION
# MNEM.UNIT                               DATA : DESCRIPTION OF MNEMONIC
#-----.-----     ----------------------------- : -----------------------------
VERS.                                     2.00 : CWLS LOG ASCII STANDARD - VERSION 2.00
WRAP.                                       NO : MULTIPLE LINES PER DEPTH STEP
VEND.                                  ENVERUS : VENDOR
TYPE.                          ESS - OPEN HOLE : ENVERUS ESSENTIAL CURVES – ACCESSIBLE THROUGH ENVERUS PRISM(TM)
DOC.                                  31812117 : ENVERUS HEADER RAW DOCUMENT ID
#___________________________________________________________________________________________________ 
~WELL INFORMATION 
# uAwnbjLw6pKN5CeTb7gwROLhNOHLu74gercCwdGpUdKCBCGOTLsJuzWIBCYkU6KzQxtC+uHRBloynRtd0Ulspg== 
# MNEM.UNIT                                              DATA : DESCRIPTION OF MNEMONIC 
#-----.-----                    ----------------------------- : ----------------------------- 
CNTY.                                                  REEVES : COUNTY 
STATE.                                                  TEXAS : STATE 
CNTRY.                                                    USA : COUNTRY 
API.                                             42-389-32398 : API (10 Digit) 
API_14.                                    42-389-32398-00-00 : API (14 Digits) 
API_14_std.                                 42-389-32398-0000 : API (14 Digits Standard) 
UWI.                                           42389323980000 : UNIQUE WELL ID 
WELL.                                    BLOCK 58 STATE 32  1 : WELL NAME
STRT.FT                                                8311.0 : START DEPTH
STOP.FT                                               12834.0 : STOP DEPTH
STEP.FT                                                   0.5 : STEP BETWEEN DEPTHS
NULL.                                                 -999.25 : NULL VALUE
COMP.                                       SHELL WESTERN E&P : COMPANY 
DATE.                                             08-FEB-2006 : LOG DATE
#___________________________________________________________________________________________________ 
~CURVE INFORMATION 
# MNEM.UNIT           : CURVE DESCRIPTION 
#-----.-----          : ----------------------------- 
 DEPT.FT               : MEASURED DEPTH 
 CALI__B.IN            : CALIPER (CAL - CAL) 
 GR__B.API             : GAMMA RAY (GR) 
 DT__B.US/FT           : SONIC DELTA TRANSIT TIME (DT) 
 RESS__B.OHMM          : SHALLOW INDUCTION RESISTIVITY (ILS - ILS) 
 RESD__B.OHMM          : DEEP INDUCTION RESISTIVITY (ILD - ILD) 
 #___________________________________________________________________________________________________ 
~A         DEPT        CALI__B          GR__B          DT__B        RESS__B        RESD__B
# ...
        12799.0          7.975        191.806       -999.250         52.719        101.597
        12799.5          7.976        194.353       -999.250         51.469         86.118
        12800.0          7.977        197.097       -999.250         50.668         79.465
        12800.5          7.978        199.842       -999.250         55.349         81.182
        12801.0          7.979        202.175       -999.250         55.924         70.795
        12801.5          7.980        202.176       -999.250         53.032         59.678
        12802.0          7.981        202.176       -999.250         47.184         52.960
        12802.5          7.982        202.177       -999.250         41.337         46.243
        12803.0          7.983        202.177       -999.250         35.490         41.924
        12803.5          7.984        202.178       -999.250         34.999         41.373
        12804.0          7.985        202.179       -999.250         35.818         40.821
        12804.5          7.986        202.179       -999.250         35.720         40.270
        12805.0          7.987        202.180       -999.250         32.881         38.357
        12805.5          7.988        202.181       -999.250         29.643         34.825
        12806.0          7.989        202.181       -999.250         28.559         32.006
        12806.5          7.990       -999.250       -999.250         37.126         50.423
        12807.0          7.991       -999.250       -999.250         49.455         68.840
        12807.5          7.992       -999.250       -999.250         56.651         87.258
        12808.0          7.993       -999.250       -999.250         58.578        105.675
        12808.5          7.994       -999.250       -999.250         61.808        123.049
        12809.0          7.995       -999.250       -999.250         69.285        140.169
        12809.5          7.996       -999.250       -999.250         76.478        143.348
        12810.0          7.997       -999.250       -999.250         75.969        127.143
        12810.5          7.998       -999.250       -999.250         70.177        110.939
        12811.0          7.999       -999.250       -999.250         64.586         94.734
        12811.5          8.000       -999.250       -999.250         59.342         83.276
        12812.0          8.001       -999.250       -999.250         57.696         77.545
        12812.5          8.002       -999.250       -999.250         56.051         71.814
        12813.0          8.003       -999.250       -999.250         54.405         65.982
        12813.5          8.004       -999.250       -999.250         50.464         60.057
        12814.0          8.005       -999.250       -999.250         46.379         54.133
        12814.5          8.006       -999.250       -999.250         45.316         69.445
        12815.0          8.007       -999.250       -999.250         57.015         85.354
        12815.5       -999.250       -999.250       -999.250         70.569        101.262
        12816.0       -999.250       -999.250       -999.250         82.678        117.171
        12816.5       -999.250       -999.250       -999.250         87.095        141.016
        12817.0       -999.250       -999.250       -999.250         90.720        170.358
        12817.5       -999.250       -999.250       -999.250         92.463        199.699
        12818.0       -999.250       -999.250       -999.250         92.465        233.880
        12818.5       -999.250       -999.250       -999.250        103.449        322.925
        12819.0       -999.250       -999.250       -999.250        117.723        411.969
        12819.5       -999.250       -999.250       -999.250        123.641        487.305
        12820.0       -999.250       -999.250       -999.250        131.672        500.203
        12820.5       -999.250       -999.250       -999.250        150.106        509.840
        12821.0       -999.250       -999.250       -999.250        148.541        501.788
        12821.5       -999.250       -999.250       -999.250        148.455        493.735
        12822.0       -999.250       -999.250       -999.250        152.121        485.683
        12822.5       -999.250       -999.250       -999.250        153.564        477.631
        12823.0       -999.250       -999.250       -999.250        153.735        448.167
        12823.5       -999.250       -999.250       -999.250        153.907        411.593
        12824.0       -999.250       -999.250       -999.250        153.623        386.849
        12824.5       -999.250       -999.250       -999.250        152.451        370.513
        12825.0       -999.250       -999.250       -999.250        151.279        354.178
        12825.5       -999.250       -999.250       -999.250        151.158        337.843
        12826.0       -999.250       -999.250       -999.250        152.043        321.507
        12826.5       -999.250       -999.250       -999.250        152.929        309.945
        12827.0       -999.250       -999.250       -999.250        153.815        303.160
        12827.5       -999.250       -999.250       -999.250        154.813        296.375
        12828.0       -999.250       -999.250       -999.250        155.850        289.590
        12828.5       -999.250       -999.250       -999.250       -999.250        282.805
        12829.0       -999.250       -999.250       -999.250       -999.250        276.020
        12829.5       -999.250       -999.250       -999.250       -999.250        271.004
        12830.0       -999.250       -999.250       -999.250       -999.250        266.890
        12830.5       -999.250       -999.250       -999.250       -999.250        262.777
        12831.0       -999.250       -999.250       -999.250       -999.250        260.953
        12831.5       -999.250       -999.250       -999.250       -999.250        266.514
        12832.0       -999.250       -999.250       -999.250       -999.250        272.076
        12832.5       -999.250       -999.250       -999.250       -999.250        277.637
        12833.0       -999.250       -999.250       -999.250       -999.250        267.257
        12833.5       -999.250       -999.250       -999.250       -999.250        280.737
        12834.0       -999.250       -999.250       -999.250       -999.250        307.421
