#--------------------------------------------------#
#-------------------ENVERUS, INC.------------------#
#------------------WWW.ENVERUS.COM-----------------#
#------------------COPYRIGHT 2020------------------#
#--------------------------------------------------#
#THIS FILE MAY BE USED ONLY IN ACCORDANCE WITH A CURRENT SUBSCRIPTION AGREEMENT BETWEEN
#THE USER AND ENVERUS, INC. NO PART OF THIS FILE MAY BE REPRODUCED, USED, COPIED,
#MODIFIED, PROPAGATED, OR DISTRIBUTED EXCEPT IN ACCORDANCE WITH THE SUBSCRIPTION
#AGREEMENT. UNAUTHORIZED USE OR DISTRIBUTION OF ALL OR ANY PART OF THIS FILE MAY VIOLATE
#COPYRIGHT, TRADEMARK, AND/OR OTHER LAWS AND IS SUBJECT TO CIVIL AS WELL AS CRIMINAL
#SANCTIONS.
#--------------------------------------------------#
#THIS FILE IS PROVIDED "AS-IS" AND ALL WARRANTIES ARE EXPRESSLY DISCLAIMED, WHETHER
#EXPRESS, ORAL, IMPLIED, STATUTORY OR OTHERWISE, INCLUDING ANY IMPLIED WARRANTY OF FITNESS
#FOR A PARTICULAR PURPOSE, MERCHANTABILITY, TITLE OR NON-INFRINGEMENT, AND ANY WARRANTIES
#ARISING BY VIRTUE OF CUSTOM OF TRADE OR COURSE OF DEALING.  FURTHER, ENVERUS, INC.
#AND ITS LICENSORS DO NOT REPRESENT OR WARRANT THAT THIS FILE WILL MEET USER'S
#REQUIREMENTS OR ARE SUITABLE FOR USER'S NEEDS OR THAT THE DATA OR RESULTS PROVIDED IN
#CONJUNCTION THEREWITH ARE CORRECT, ACCURATE, TIMELY OR RELIABLE. THESE DISCLAIMERS SHALL
#APPLY REGARDLESS OF ANY FAILURE OF ESSENTIAL PURPOSE OF ANY LIMITED REMEDY.  SOME
#JURISDICTIONS DO NOT ALLOW THE EXCLUSION OF CERTAIN WARRANTIES SO SOME OF THE ABOVE
#EXCLUSIONS MAY NOT APPLY. IN NO EVENT SHALL ENVERUS, INC. OR ANY OF ITS AFFILIATES
#BE LIABLE UNDER ANY LEGAL THEORY, WHETHER IN TORT (INCLUDING WITHOUT LIMITATION
#NEGLIGENCE), CONTRACT, STRICT LIABILITY, STATUTORY OR OTHERWISE, FOR ANY SPECIAL,
#INCIDENTAL, CONSEQUENTIAL, EXEMPLARY, PUNITIVE OR INDIRECT DAMAGE OF ANY KIND, INCLUDING
#WITHOUT LIMITATION LOSS OF REVENUE, PROFITS, GOODWILL, USE, AND/OR DATA OR THE COST OF
#PROCUREMENT OF SUBSTITUTE GOODS OR SERVICES, EVEN IF APPRISED OF THE POSSIBILITY OF SUCH
#DAMAGES IN ADVANCE.
#--------------------------------------------------#

# EXPORTED FROM DI TRANSFORM
# DI TRANSFORM - A PRODUCT OF DRILLINGINFO, INC. - WWW.DRILLINGINFO.COM
#
~VERSION INFORMATION
 VERS.        2.0 : LAS ASCII STANDARD - VERSION 2.0
 WRAP.         NO : ONE LINE PER DEPTH STEP

~WELL INFORMATION
#MNEM.UNIT       DATA TYPE       INFORMATION
#---------       ---------       -----------
 STRT.FT                3800 : START DEPTH
 STOP.FT               10654 : STOP DEPTH
 STEP.FT                 0.5 : STEP LENGTH
 NULL.               -999.25 : NULL VALUE
 UWI.         42389340250000 : UNIQUE WELL ID
 API.         42389340250000 : WELL IDENTIFIER
 COMP.                       : COMPANY
 WELL.  42389340250000_API14 : WELL NAME
 FLD.                        : FIELD NAME
 LOC.                        : WELL LOCATION
 CNTY.                       : COUNTY
 STAT.                       : STATE OR PROVINCE
 CTRY.                       : COUNTRY
 SRVC.                       : SERVICE COMPANY
 DATE.                       : DATE

~CURVE INFORMATION
#MNEM.UNIT       API CODE       CURVE DESCRIPTION
#---------       --------       -----------------
 DEPT.FT        : <MEASURED DEPTH>
 CAL.IN         : CALIPER
 DT.US/FT       : SONIC
 GR.GAPI        : GAMMA RAY

~PARAMETER INFORMATION
#MNEM.UNIT       VALUE       DESCRIPTION
#---------       -----       -----------
 EKB.FT      3120.5 : ELEVATION ABOVE MSL

~A      DEPT         CAL          DT          GR
# ...
        7818      9.4731     63.7853     73.4198
      7818.5      9.4731      62.871     67.4551
        7819      9.4731     61.8471     57.9371
      7819.5      9.4731     60.0999     44.5207
        7820      9.4731     59.5926     31.1043
      7820.5      9.4731     58.8126     26.9297
        7821      9.4731     57.9206     31.5978
      7821.5      9.4731     57.9373     28.1684
        7822      9.4731     58.8243     24.1228
      7822.5      9.4731     59.8497     24.5461
        7823      9.4731      60.764     28.8918
      7823.5      9.4731     61.8789     39.5247
        7824      9.4731      62.881     50.1575
      7824.5      9.4731     63.0692     58.8061
        7825      9.4731     63.1695     59.8435
      7825.5      9.4731     62.8388     60.7651
        7826      9.4731     62.3315     57.8764
      7826.5      9.4731     62.0248     54.8189
        7827      9.4947     61.7653     51.7615
      7827.5      9.4731     61.8656      48.704
        7828      9.4731     62.9862      51.277
      7828.5      9.4731       64.13     54.6195
        7829      9.4731     66.5903     57.9621
      7829.5      9.4731     68.8182     61.3047
        7830      9.4731     73.6454     64.6472
      7830.5      9.4731     75.0553     79.2604
        7831      9.4731     76.9842    103.4246
      7831.5      9.4731     79.0125    127.5887
        7832      9.4731     81.0279    144.9973
      7832.5      9.4731      81.324    131.6414
        7833      9.4731     81.7416    126.4478
      7833.5      9.4531     82.2267    129.9427
        7834      9.4531     82.5556    142.4795
      7834.5      9.4531     82.7282    142.4386
        7835      9.4731      83.169    142.2613
      7835.5       9.493     83.6763    141.7998
        7836       9.493      83.934    128.2562
      7836.5       9.493     83.5306    103.7194
        7837       9.493     83.9813     78.9644
      7837.5       9.493     82.2267     54.2095
        7838       9.493     81.3757     29.4546
      7838.5       9.493     80.5416     14.1288
        7839       9.493     80.1204     61.6164
      7839.5       9.493     80.3125     96.4396
        7840       9.493     80.7195    107.8504
      7840.5       9.493     80.9228    119.2613
        7841      9.4531     81.1234    118.5775
      7841.5      9.4531      81.324    139.8047
        7842      9.4531     81.3445    132.6785
      7842.5      9.4719     81.6249    125.5524
        7843      9.4731     81.4925    118.4262
      7843.5      9.4731     80.5706    111.3001
        7844      9.4731     76.8233    102.7562
      7844.5      9.4731     74.0046     92.5048
        7845      9.4731     72.5772     82.2533
      7845.5      9.4731     69.5277     72.0018
        7846      9.4731      69.221     61.7504
      7846.5      9.4731     68.6134     51.4989
        7847      9.4731     68.1061     41.2475
      7847.5      9.4731     68.1183     54.2021
        7848      9.4731     68.2849     69.8284
      7848.5      9.4731     68.4766     74.4288
        7849      9.4731     69.4912     79.0292
      7849.5      9.4731     70.6992     83.6296
        7850      9.4731     71.6207       88.23
      7850.5      9.4731      72.115     84.7683
        7851      9.4731     72.3972     81.2401
      7851.5      9.4731     72.3972     80.4621
        7852      9.4731     72.3972     79.6841
      7852.5      9.4731     72.2969     78.9061
        7853      9.4731     72.1966      78.128
      7853.5      9.4731     72.0963     77.8715
        7854      9.4731     71.6951     77.8715
      7854.5      9.4731     71.2288     77.8715
        7855      9.4731     70.1075     77.8715
      7855.5      9.4731     68.5326     74.3971
        7856      9.4731     67.9014      63.552
      7856.5       9.493     67.3058     55.1965
        7857       9.493     66.1971     61.4678
      7857.5       9.493     65.2766      67.739
        7858       9.493     64.6686     74.0103
      7858.5       9.493     64.3731     80.2815
        7859       9.493     64.3731     59.2797
      7859.5       9.528     64.4734     61.4085
        7860      9.4639      64.674     58.8591
      7860.5      9.4423      64.674     53.6723
        7861      9.4892     64.6338     56.9964
      7861.5      9.4928     64.4734     79.0543
        7862      9.4867     64.1725     71.9043
      7862.5      9.4805     64.1725     59.7753
        7863      9.4744     64.0722      53.357
      7863.5      9.4683     64.0722      60.676
        7864      9.4622     63.7966     67.9951
      7864.5       9.456     63.5902     75.3142
        7865      9.4541     63.5707     70.0161
      7865.5      9.4527     63.4704     60.1613
        7866      9.4513     63.7692     54.4044
      7866.5      9.4499     64.2765     55.8689
        7867      9.4485     64.5737     57.3334
      7867.5      9.4471      64.674      58.773
        7868      9.4457     64.6951     55.1495
      7868.5      9.4453     64.9749     58.0146
        7869      9.4467     64.9423     60.8796
      7869.5      9.4482     64.3581     63.7447
        7870      9.4496     63.5265     63.3042
      7870.5       9.451     63.0192     61.0912
        7871      9.4524     62.0208     58.8782
      7871.5      9.4538     59.8366     54.2702
        7872      9.4552     59.0226     48.5616
      7872.5      9.4579     57.9619      42.853
        7873      9.4608     56.2549     37.1444
      7873.5      9.4637     55.2612     31.4358
        7874      9.4666     54.1909     25.7272
      7874.5      9.4695     53.4442     22.0044
        7875      9.4724     52.8385     26.0989
      7875.5      9.4753     52.6379     17.7591
        7876      9.4531     52.2232     18.0672
      7876.5      9.4531     51.7185     14.9105
        7877      9.4531     51.8355     11.7537
      7877.5      9.4531     51.8046       8.597
        7878      9.4531     52.0361       8.012
      7878.5      9.4531     52.1364      8.9015
        7879      9.4531     52.2367      9.7909
      7879.5      9.4531     52.2367     10.6803
        7880      9.4531      52.337     11.5697
      7880.5      9.4531     52.6033     12.4592
        7881      9.4531     52.8385     13.3486
      7881.5      9.4531     52.8385      14.238
        7882      9.4531     52.8385     15.1275
      7882.5      9.4531     52.9274     16.0169
        7883      9.4531     52.9388     16.9063
      7883.5      9.4531     53.2397     17.7958
        7884      9.4531     53.5406     18.6071
      7884.5      9.4531     53.5406     19.3606
        7885      9.4531       53.34     20.1142
      7885.5      9.4531     53.0158     20.8677
        7886      9.4531     52.6088     21.6213
      7886.5      9.4731     52.4373      24.373
        7887      9.4731      52.337     27.5358
      7887.5      9.5156     52.2367     30.6985
        7888      9.6165     52.0841     33.8613
      7888.5      9.6527     51.9358     37.0241
        7889      9.6327     51.4503     40.1868
      7889.5      9.5457     51.7046     43.3496
        7890      9.4731     52.0113     46.5124
      7890.5      9.4731     52.4183     49.6751
        7891      9.4731      52.725     52.8379
      7891.5      9.4731     53.4329     56.0007
        7892      9.4731     55.8411     59.1634
      7892.5      9.4731     58.0667     62.3262
        7893      9.5083     59.9699     65.4889
      7893.5       9.513     61.9287     68.6517
        7894       9.513     64.2157     71.8145
      7894.5       9.513     66.1877     74.9772
        7895       9.513     69.0816       78.14
      7895.5       9.513     76.8602     81.3028
        7896       9.513     80.0648     84.4655
      7896.5       9.513     80.6227     87.6283
        7897       9.513     81.8942     90.7911
      7897.5       9.513     83.0149     93.9538
        7898       9.513     83.5306     97.1166
      7898.5       9.513     83.5572    100.2794
        7899       9.513     83.1502    103.4421
      7899.5       9.513     82.9288    106.6049
