#--------------------------------------------------#
#-------------------ENVERUS, INC.------------------#
#------------------WWW.ENVERUS.COM-----------------#
#------------------COPYRIGHT 2020------------------#
#--------------------------------------------------#
#THIS FILE MAY BE USED ONLY IN ACCORDANCE WITH A CURRENT SUBSCRIPTION AGREEMENT BETWEEN
#THE USER AND ENVERUS, INC. NO PART OF THIS FILE MAY BE REPRODUCED, USED, COPIED,
#MODIFIED, PROPAGATED, OR DISTRIBUTED EXCEPT IN ACCORDANCE WITH THE SUBSCRIPTION
#AGREEMENT. UNAUTHORIZED USE OR DISTRIBUTION OF ALL OR ANY PART OF THIS FILE MAY VIOLATE
#COPYRIGHT, TRADEMARK, AND/OR OTHER LAWS AND IS SUBJECT TO CIVIL AS WELL AS CRIMINAL
#SANCTIONS.
#--------------------------------------------------#
#THIS FILE IS PROVIDED "AS-IS" AND ALL WARRANTIES ARE EXPRESSLY DISCLAIMED, WHETHER
#EXPRESS, ORAL, IMPLIED, STATUTORY OR OTHERWISE, INCLUDING ANY IMPLIED WARRANTY OF FITNESS
#FOR A PARTICULAR PURPOSE, MERCHANTABILITY, TITLE OR NON-INFRINGEMENT, AND ANY WARRANTIES
#ARISING BY VIRTUE OF CUSTOM OF TRADE OR COURSE OF DEALING.  FURTHER, ENVERUS, INC.
#AND ITS LICENSORS DO NOT REPRESENT OR WARRANT THAT THIS FILE WILL MEET USER'S
#REQUIREMENTS OR ARE SUITABLE FOR USER'S NEEDS OR THAT THE DATA OR RESULTS PROVIDED IN
#CONJUNCTION THEREWITH ARE CORRECT, ACCURATE, TIMELY OR RELIABLE. THESE DISCLAIMERS SHALL
#APPLY REGARDLESS OF ANY FAILURE OF ESSENTIAL PURPOSE OF ANY LIMITED REMEDY.  SOME
#JURISDICTIONS DO NOT ALLOW THE EXCLUSION OF CERTAIN WARRANTIES SO SOME OF THE ABOVE
#EXCLUSIONS MAY NOT APPLY. IN NO EVENT SHALL ENVERUS, INC. OR ANY OF ITS AFFILIATES
#BE LIABLE UNDER ANY LEGAL THEORY, WHETHER IN TORT (INCLUDING WITHOUT LIMITATION
#NEGLIGENCE), CONTRACT, STRICT LIABILITY, STATUTORY OR OTHERWISE, FOR ANY SPECIAL,
#INCIDENTAL, CONSEQUENTIAL, EXEMPLARY, PUNITIVE OR INDIRECT DAMAGE OF ANY KIND, INCLUDING
#WITHOUT LIMITATION LOSS OF REVENUE, PROFITS, GOODWILL, USE, AND/OR DATA OR THE COST OF
#PROCUREMENT OF SUBSTITUTE GOODS OR SERVICES, EVEN IF APPRISED OF THE POSSIBILITY OF SUCH
#DAMAGES IN ADVANCE.
#--------------------------------------------------#

~VERSION INFORMATION
VERS. 2.0 : CWLS LOG ASCII STANDARD - VERSION 2.0
WRAP.  NO : ONE LINE PER DEPTH STEP
~WELL INFORMATION
#MNEMONIC     .UNIT              VALUE :DESCRIPTION
STRT       .FT                24 :START DEPTH
STOP       .FT                5035 :STOP DEPTH
STEP       .FT                   0.500 :STEP
NULL       .                  -999.250 :NULL
UWI        .              42389314500000 :UNIQUE WELL ID
API        .              42389314500000 :API NUMBER
COMP       .         SLEDGE BROS. OIL CO. :COMPANY
WELL       .        ELIZABETH MITCHELL  1 :WELL
DATE       .                18-DEC-1983 :LOG DATE
~CURVE INFORMATION
#MNEMONIC     .UNIT      API CODE :CURVE DESCRIPTION
DEPTH       .FT                      :MEASURED DEPTH
CAL.INCH        UNKNOWN   :CAL
DT.US/FT        UNKNOWN   :DT
GR.API        UNKNOWN   :GR
~A    DEPTH    CAL    DT    GR
# ...
 736     8.433   54.711   47.184
 736.5     8.432   54.453   49.939
 737     8.432   54.487   52.694
 737.5     8.432   54.954   54.211
 738     8.432   55.422   51.906
 738.5     8.432   55.89   49.601
 739     8.432   56.358   47.296
 739.5     8.432   56.652   44.991
 740     8.432   56.401   42.685
 740.5     8.432   56.15   42.7
 741     8.432   55.899   43.443
 741.5     8.432   55.445   44.477
 742     8.432   54.718   46.837
 742.5     8.432   54.361   49.198
 743     8.432   54.495   51.558
 743.5     8.432   54.941   51.303
 744     8.432   55.414   50.04
 744.5     8.431   55.887   48.776
 745     8.431   56.058   47.512
 745.5     8.431   55.907   49.335
 746     8.431   55.757   51.223
 746.5     8.431   55.606   53.11
 747     8.431   55.455   54.998
 747.5     8.431   55.327   56.886
 748     8.431   55.321   56.616
 748.5     8.431   55.316   55.091
 749     8.431   55.31   53.565
 749.5     8.431   55.305   52.039
 750     8.431   55.304   50.966
 750.5     8.431   55.308   50.725
 751     8.431   55.313   50.485
 751.5     8.431   55.318   50.244
 752     8.43   55.323   49.101
 752.5     8.43   55.328   45.752
 753     8.43   55.332   42.403
 753.5     8.43   55.337   40.492
 754     8.43   55.206   41.459
 754.5     8.43   55.076   42.425
 755     8.43   54.945   43.392
 755.5     8.43   54.814   44.359
 756     8.43   54.683   45.325
 756.5     8.43   54.553   46.292
 757     8.43   54.868   47.258
 757.5     8.43   55.241   48.225
 758     8.43   55.614   49.191
 758.5     8.43   55.612   49.563
 759     8.43   55.455   47.133
 759.5     8.429   55.298   44.702
 760     8.429   55.141   42.272
 760.5     8.429   55.014   40.411
 761     8.429   55.019   41.422
 761.5     8.429   55.024   42.433
 762     8.429   55.029   43.444
 762.5     8.429   55.033   44.456
 763     8.429   55.038   45.467
 763.5     8.429   55.043   46.478
 764     8.429   55.262   46.651
 764.5     8.429   55.668   46.536
 765     8.429   56.075   46.421
 765.5     8.429   56.481   46.306
 766     8.429   56.887   42.856
 766.5     8.429   57.293   41.277
 767     8.429   56.747   40.742
 767.5     8.428   55.823   40.207
 768     8.428   55.445   39.673
 768.5     8.428   55.068   39.138
 769     8.428   54.69   38.604
 769.5     8.428   54.312   38.162
 770     8.428   53.935   39.909
 770.5     8.428   54.072   41.655
 771     8.428   54.525   43.401
 771.5     8.428   54.979   45.148
 772     8.428   55.432   46.894
 772.5     8.428   55.386   48.641
 773     8.428   55.228   48.772
 773.5     8.428   55.069   47.614
 774     8.428   54.911   46.456
 774.5     8.428   54.753   45.299
 775     8.427   54.595   45.117
 775.5     8.427   54.506   46.052
 776     8.427   54.64   46.987
 776.5     8.427   54.774   46.795
 777     8.427   54.886   45.319
 777.5     8.427   54.923   43.867
 778     8.427   54.959   45.075
 778.5     8.427   54.995   46.282
 779     8.427   55.031   47.489
 779.5     8.427   55.067   48.696
 780     8.427   55.101   47.383
 780.5     8.427   54.986   45.356
 781     8.427   54.87   43.33
 781.5     8.427   54.755   41.303
 782     8.427   54.64   42.471
 782.5     8.426   54.524   43.829
 783     8.426   54.409   44.421
 783.5     8.426   54.341   42.217
 784     8.426   54.636   40.013
 784.5     8.426   54.93   39.755
 785     8.426   54.986   40.834
 785.5     8.426   54.877   41.913
 786     8.426   54.769   42.993
 786.5     8.426   54.66   44.072
 787     8.426   54.551   45.151
 787.5     8.426   54.443   44.415
 788     8.426   54.334   43.463
 788.5     8.426   54.415   44.902
 789     8.426   54.574   46.405
 789.5     8.426   54.732   47.908
 790     8.425   54.891   49.41
 790.5     8.425   54.868   47.921
 791     8.425   54.718   44.637
 791.5     8.425   54.568   41.352
 792     8.425   54.418   38.067
 792.5     8.425   54.44   36.88
 793     8.425   54.643   40.719
 793.5     8.425   54.755   44.557
 794     8.425   54.62   48.396
 794.5     8.425   54.486   52.234
 795     8.425   54.351   51.239
 795.5     8.425   54.216   48.196
 796     8.425   54.157   45.152
 796.5     8.425   54.225   42.108
 797     8.425   54.293   39.176
 797.5     8.425   54.361   40.327
 798     8.424   54.356   41.477
 798.5     8.424   54.284   42.627
 799     8.424   54.213   43.777
 799.5     8.424   54.142   44.927
 800     8.424   54.07   44.572
 800.5     8.424   53.999   43.484
 801     8.424   53.948   42.396
 801.5     8.424   54.046   41.308
 802     8.424   54.144   40.22
 802.5     8.424   54.241   39.133
 803     8.424   54.339   40.933
 803.5     8.424   54.437   42.806
 804     8.424   54.534   44.679
 804.5     8.424   54.632   46.551
 805     8.424   54.73   48.213
 805.5     8.423   55.474   46.403
 806     8.423   56.448   44.593
 806.5     8.423   57.422   42.783
 807     8.423   58.397   40.973
 807.5     8.423   58.041   40.699
 808     8.423   56.741   40.68
 808.5     8.423   55.851   40.66
 809     8.423   54.961   40.641
 809.5     8.423   54.072   40.621
 810     8.423   54.609   40.601
 810.5     8.423   55.333   38.569
 811     8.423   56.057   36.526
 811.5     8.423   55.638   36.691
 812     8.423   55.247   41.12
 812.5     8.423   55.182   42.925
 813     8.422   55.117   43.559
 813.5     8.422   55.052   44.193
 814     8.422   54.987   44.828
 814.5     8.422   54.922   45.462
 815     8.422   54.992   46.097
 815.5     8.422   55.165   46.731
 816     8.422   55.337   47.366
 816.5     8.422   55.51   48
 817     8.422   55.683   45.222
 817.5     8.422   55.7   42.208
 818     8.422   55.419   39.194
 818.5     8.422   55.138   38.277
 819     8.422   54.857   41.268
 819.5     8.422   54.577   44.26
 820     8.422   54.413   47.252
 820.5     8.421   54.662   47.553
 821     8.421   54.902   46.492
 821.5     8.421   54.816   45.432
 822     8.421   54.729   44.371
 822.5     8.421   54.643   43.827
 823     8.421   54.723   43.727
 823.5     8.421   54.842   43.627
 824     8.421   54.961   43.527
 824.5     8.421   54.971   43.344
 825     8.421   54.817   42.25
 825.5     8.421   54.664   41.156
 826     8.421   54.51   40.062
 826.5     8.421   54.356   40.666
 827     8.421   54.499   41.42
 827.5     8.421   54.97   42.174
 828     8.421   55.441   42.927
 828.5     8.42   55.894   43.681
 829     8.42   55.641   44.435
 829.5     8.42   55.389   45.188
 830     8.42   55.136   45.942
 830.5     8.42   54.884   46.696
 831     8.42   54.631   47.45
 831.5     8.42   54.673   47.496
 832     8.42   54.979   47.516
 832.5     8.42   55.284   47.536
 833     8.42   55.514   47.557
 833.5     8.42   55.554   48.018
 834     8.42   55.595   48.985
 834.5     8.42   55.58   49.953
 835     8.42   55.523   50.92
 835.5     8.42   55.467   51.888
 836     8.42   55.41   51.653
 836.5     8.42   55.696   46.778
 837     8.42   56.221   46.348
 837.5     8.42   56.747   47.552
 838     8.42   57.272   48.756
 838.5     8.42   57.615   49.96
 839     8.42   57.791   51.164
 839.5     8.419   57.771   52.368
 840     8.419   57.751   50.724
 840.5     8.419   57.731   47.074
 841     8.419   57.577   43.424
 841.5     8.419   57.268   39.774
 842     8.419   56.958   38.03
 842.5     8.419   56.648   39.867
 843     8.419   56.722   41.703
 843.5     8.419   57.069   43.539
 844     8.419   56.809   45.375
 844.5     8.419   55.797   47.211
 845     8.419   54.785   49.047
 845.5     8.419   53.772   50.884
 846     8.419   52.76   52.72
 846.5     8.419   54.083   53.371
 847     8.419   55.213   52.067
 847.5     8.419   56.087   50.763
 848     8.419   56.96   49.458
 848.5     8.419   57.547   48.154
 849     8.419   56.635   46.85
 849.5     8.419   55.723   45.546
 850     8.419   55.168   46.149
 850.5     8.418   54.968   47.14
 851     8.418   55.004   48.131
 851.5     8.418   55.087   45.921
 852     8.418   55.17   43.008
 852.5     8.418   55.253   40.094
 853     8.418   55.336   38.874
 853.5     8.418   55.401   39.485
 854     8.418   55.462   40.095
 854.5     8.418   55.524   40.705
