#--------------------------------------------------#
#-------------------ENVERUS, INC.------------------#
#------------------WWW.ENVERUS.COM-----------------#
#------------------COPYRIGHT 2020------------------#
#--------------------------------------------------#
#THIS FILE MAY BE USED ONLY IN ACCORDANCE WITH A CURRENT SUBSCRIPTION AGREEMENT BETWEEN
#THE USER AND ENVERUS, INC. NO PART OF THIS FILE MAY BE REPRODUCED, USED, COPIED,
#MODIFIED, PROPAGATED, OR DISTRIBUTED EXCEPT IN ACCORDANCE WITH THE SUBSCRIPTION
#AGREEMENT. UNAUTHORIZED USE OR DISTRIBUTION OF ALL OR ANY PART OF THIS FILE MAY VIOLATE
#COPYRIGHT, TRADEMARK, AND/OR OTHER LAWS AND IS SUBJECT TO CIVIL AS WELL AS CRIMINAL
#SANCTIONS.
#--------------------------------------------------#
#THIS FILE IS PROVIDED "AS-IS" AND ALL WARRANTIES ARE EXPRESSLY DISCLAIMED, WHETHER
#EXPRESS, ORAL, IMPLIED, STATUTORY OR OTHERWISE, INCLUDING ANY IMPLIED WARRANTY OF FITNESS
#FOR A PARTICULAR PURPOSE, MERCHANTABILITY, TITLE OR NON-INFRINGEMENT, AND ANY WARRANTIES
#ARISING BY VIRTUE OF CUSTOM OF TRADE OR COURSE OF DEALING.  FURTHER, ENVERUS, INC.
#AND ITS LICENSORS DO NOT REPRESENT OR WARRANT THAT THIS FILE WILL MEET USER'S
#REQUIREMENTS OR ARE SUITABLE FOR USER'S NEEDS OR THAT THE DATA OR RESULTS PROVIDED IN
#CONJUNCTION THEREWITH ARE CORRECT, ACCURATE, TIMELY OR RELIABLE. THESE DISCLAIMERS SHALL
#APPLY REGARDLESS OF ANY FAILURE OF ESSENTIAL PURPOSE OF ANY LIMITED REMEDY.  SOME
#JURISDICTIONS DO NOT ALLOW THE EXCLUSION OF CERTAIN WARRANTIES SO SOME OF THE ABOVE
#EXCLUSIONS MAY NOT APPLY. IN NO EVENT SHALL ENVERUS, INC. OR ANY OF ITS AFFILIATES
#BE LIABLE UNDER ANY LEGAL THEORY, WHETHER IN TORT (INCLUDING WITHOUT LIMITATION
#NEGLIGENCE), CONTRACT, STRICT LIABILITY, STATUTORY OR OTHERWISE, FOR ANY SPECIAL,
#INCIDENTAL, CONSEQUENTIAL, EXEMPLARY, PUNITIVE OR INDIRECT DAMAGE OF ANY KIND, INCLUDING
#WITHOUT LIMITATION LOSS OF REVENUE, PROFITS, GOODWILL, USE, AND/OR DATA OR THE COST OF
#PROCUREMENT OF SUBSTITUTE GOODS OR SERVICES, EVEN IF APPRISED OF THE POSSIBILITY OF SUCH
#DAMAGES IN ADVANCE.
#--------------------------------------------------#

~VERSION INFORMATION
VERS. 2.0 : CWLS LOG ASCII STANDARD - VERSION 2.0
WRAP.  NO : ONE LINE PER DEPTH STEP
~WELL INFORMATION
#MNEMONIC     .UNIT              VALUE :DESCRIPTION
STRT       .FT                47 :START DEPTH
STOP       .FT                15730 :STOP DEPTH
STEP       .FT                   0.500 :STEP
NULL       .                  -999.250 :NULL
UWI        .              42389303580000 :UNIQUE WELL ID
API        .              42389303580000 :API NUMBER
COMP       .         CIMAREX ENERGY CO. OF COLORADO :COMPANY
WELL       .        REEVES  AZ  FEE  1 :WELL
DATE       .                08-JAN-2006 :LOG DATE
~CURVE INFORMATION
#MNEMONIC     .UNIT      API CODE :CURVE DESCRIPTION
DEPTH       .FT                      :MEASURED DEPTH
NEUT.API        UNKNOWN   :NEUT
GR.API        UNKNOWN   :GR
DT.US/FT        UNKNOWN   :DT
CAL.INCH        UNKNOWN   :CAL
~A    DEPTH    NEUT    GR    DT    CAL
# ...
 7200     -999.250   77.174   83.281   12.511
 7200.5     -999.250   78.743   81.898   12.499
 7201     -999.250   80.312   79.992   12.488
 7201.5     -999.250   81.881   78.087   12.477
 7202     -999.250   83.45   80.333   12.466
 7202.5     -999.250   85.019   78.462   12.454
 7203     -999.250   84.019   76.592   12.457
 7203.5     -999.250   82.763   74.721   12.463
 7204     -999.250   81.278   72.85   12.469
 7204.5     -999.250   79.742   70.98   12.475
 7205     -999.250   78.207   73.386   12.481
 7205.5     -999.250   76.671   76.614   12.487
 7206     -999.250   75.135   79.057   12.493
 7206.5     -999.250   73.599   79.68   12.499
 7207     -999.250   73.557   79.321   12.505
 7207.5     -999.250   74.743   77.855   12.511
 7208     -999.250   75.928   73.442   12.517
 7208.5     -999.250   77.114   75.479   12.523
 7209     -999.250   78.3   79.972   12.529
 7209.5     -999.250   79.486   83.678   12.534
 7210     -999.250   80.261   83.932   12.54
 7210.5     -999.250   79.888   82.497   12.546
 7211     -999.250   79.515   81.182   12.552
 7211.5     -999.250   79.143   79.948   12.558
 7212     -999.250   78.77   78.714   12.564
 7212.5     -999.250   78.398   77.479   12.57
 7213     -999.250   77.553   76.245   12.576
 7213.5     -999.250   76.016   79.093   12.582
 7214     -999.250   74.48   81.1   12.588
 7214.5     -999.250   72.943   81.353   12.594
 7215     -999.250   71.407   81.606   12.6
 7215.5     -999.250   69.87   81.677   12.606
 7216     -999.250   68.338   80.93   12.612
 7216.5     -999.250   66.833   80.182   12.617
 7217     -999.250   65.327   79.435   12.617
 7217.5     -999.250   63.821   80.365   12.617
 7218     -999.250   62.315   81.79   12.618
 7218.5     -999.250   60.81   83.216   12.618
 7219     -999.250   59.304   82.316   12.618
 7219.5     -999.250   59.418   79.769   12.618
 7220     -999.250   61.509   77.423   12.618
 7220.5     -999.250   63.599   75.078   12.618
 7221     -999.250   65.689   72.732   12.618
 7221.5     -999.250   67.809   72.453   12.618
 7222     -999.250   70.015   79.808   12.618
 7222.5     -999.250   72.221   80.349   12.619
 7223     -999.250   74.427   80.891   12.619
 7223.5     -999.250   75.307   81.433   12.619
 7224     -999.250   74.759   81.003   12.619
 7224.5     -999.250   74.212   80.159   12.619
 7225     -999.250   73.664   79.316   12.619
 7225.5     -999.250   73.116   78.473   12.619
 7226     -999.250   72.569   77.629   12.619
 7226.5     -999.250   72.021   79.992   12.619
 7227     -999.250   71.474   82.645   12.619
 7227.5     -999.250   70.926   79.685   12.62
 7228     -999.250   74.804   76.707   12.62
 7228.5     -999.250   80.597   73.73   12.62
 7229     -999.250   86.39   71.375   12.62
 7229.5     -999.250   86.957   76.671   12.62
 7230     -999.250   85.767   81.144   12.62
 7230.5     -999.250   84.577   85.475   12.62
 7231     -999.250   83.387   85.392   12.62
 7231.5     -999.250   82.197   85.266   12.62
 7232     -999.250   81.007   85.139   12.62
 7232.5     -999.250   79.817   84.743   12.621
 7233     -999.250   78.627   84.181   12.621
 7233.5     -999.250   77.437   83.618   12.621
 7234     -999.250   76.842   83.464   12.621
 7234.5     -999.250   76.726   84.758   12.621
 7235     -999.250   76.611   86.051   12.621
 7235.5     -999.250   76.495   85.881   12.621
 7236     -999.250   77.11   85.589   12.621
 7236.5     -999.250   77.924   85.297   12.619
 7237     -999.250   78.739   85.006   12.617
 7237.5     -999.250   79.553   84.875   12.614
 7238     -999.250   80.367   85.433   12.611
 7238.5     -999.250   81.182   85.991   12.609
 7239     -999.250   81.996   86.106   12.606
 7239.5     -999.250   82.4   85.827   12.603
 7240     -999.250   81.544   85.547   12.601
 7240.5     -999.250   80.687   84.829   12.598
 7241     -999.250   79.831   83.646   12.595
 7241.5     -999.250   78.974   83.012   12.593
 7242     -999.250   77.178   83.13   12.59
 7242.5     -999.250   74.87   83.248   12.587
 7243     -999.250   72.562   83.367   12.585
 7243.5     -999.250   70.254   83.485   12.582
 7244     -999.250   67.946   83.539   12.579
 7244.5     -999.250   65.638   82.475   12.577
 7245     -999.250   64.482   81.41   12.574
 7245.5     -999.250   65.156   80.345   12.571
 7246     -999.250   65.829   80.335   12.569
 7246.5     -999.250   66.502   80.367   12.566
 7247     -999.250   67.176   80.398   12.563
 7247.5     -999.250   67.849   83.671   12.561
 7248     -999.250   67.472   85.188   12.558
 7248.5     -999.250   66.138   85.927   12.555
 7249     -999.250   64.804   85.333   12.553
 7249.5     -999.250   63.471   84.74   12.55
 7250     -999.250   62.137   84.147   12.547
 7250.5     -999.250   64.363   81.894   12.545
 7251     -999.250   66.867   79.572   12.542
 7251.5     -999.250   69.371   79.386   12.539
 7252     -999.250   71.875   81.41   12.537
 7252.5     -999.250   73.427   82.941   12.534
 7253     -999.250   74.623   84.071   12.531
 7253.5     -999.250   75.818   85.201   12.529
 7254     -999.250   77.013   85.93   12.526
 7254.5     -999.250   78.209   85.544   12.523
 7255     -999.250   79.404   85.158   12.521
 7255.5     -999.250   79.46   84.772   12.518
 7256     -999.250   79.329   84.387   12.515
 7256.5     -999.250   79.199   84.524   12.513
 7257     -999.250   79.069   84.747   12.51
 7257.5     -999.250   78.939   84.971   12.507
 7258     -999.250   78.809   85.195   12.505
 7258.5     -999.250   78.965   85.418   12.502
 7259     -999.250   80.58   85.373   12.499
 7259.5     -999.250   82.194   84.006   12.497
 7260     -999.250   83.809   82.638   12.494
 7260.5     -999.250   85.423   81.27   12.491
 7261     -999.250   84.547   81.204   12.489
 7261.5     -999.250   81.628   83.402   12.486
 7262     -999.250   78.709   84.613   12.484
 7262.5     -999.250   75.79   84.534   12.482
 7263     -999.250   74.126   84.455   12.479
 7263.5     -999.250   72.778   82.764   12.477
 7264     -999.250   71.43   80.507   12.474
 7264.5     -999.250   70.082   77.723   12.472
 7265     -999.250   68.735   75.47   12.47
 7265.5     -999.250   67.387   76.933   12.467
 7266     -999.250   66.039   78.396   12.465
 7266.5     -999.250   64.691   79.86   12.463
 7267     -999.250   63.364   78.256   12.46
 7267.5     -999.250   62.736   77.676   12.458
 7268     -999.250   62.108   77.097   12.456
 7268.5     -999.250   61.48   76.005   12.453
 7269     -999.250   60.851   74.812   12.451
 7269.5     -999.250   62.524   73.533   12.448
 7270     -999.250   64.611   71.206   12.446
 7270.5     -999.250   66.699   71.364   12.444
 7271     -999.250   68.786   72.949   12.441
 7271.5     -999.250   70.873   77.375   12.438
 7272     -999.250   72.96   78.714   12.435
 7272.5     -999.250   75.048   80.052   12.432
 7273     -999.250   77.135   80.55   12.428
 7273.5     -999.250   77.408   80.867   12.425
 7274     -999.250   77.408   81.185   12.422
 7274.5     -999.250   77.409   80.786   12.419
 7275     -999.250   77.41   79.623   12.416
 7275.5     -999.250   77.41   78.459   12.413
 7276     -999.250   77.411   77.287   12.409
 7276.5     -999.250   77.102   76.1   12.406
 7277     -999.250   75.312   74.912   12.403
 7277.5     -999.250   73.522   79.396   12.4
 7278     -999.250   71.731   79.965   12.397
 7278.5     -999.250   69.941   79.104   12.394
 7279     -999.250   68.151   78.243   12.391
 7279.5     -999.250   66.36   76.183   12.387
 7280     -999.250   64.696   74.45   12.384
 7280.5     -999.250   64.487   75.83   12.381
 7281     -999.250   64.278   77.211   12.378
 7281.5     -999.250   64.069   75.798   12.375
 7282     -999.250   63.861   72.667   12.372
 7282.5     -999.250   63.652   69.536   12.368
 7283     -999.250   63.443   70.293   12.365
 7283.5     -999.250   63.234   72.437   12.362
 7284     -999.250   63.026   72.087   12.359
 7284.5     -999.250   60.842   71.138   12.356
 7285     -999.250   57.862   70.19   12.353
 7285.5     -999.250   54.653   69.241   12.349
