###############################################
##         ENVERUS                           ##
##         ESS - Open Hole                   ##
##         PERMIAN / DELAWARE                ##
##         Nov 04 2023  V4.0                 ##
##         42-389-30414-00-00                ##
###############################################
## Copyright 2017-2023  ENVERUS.  All Rights Reserved. 
## Confidential - Property of ENVERUS, use governed by terms and 
## conditions found within the existing Information Services Subscription Agreement 
## (as may be amended, the “ISSA”) between Customer and ENVERUS. 
## 
~VERSION INFORMATION
# MNEM.UNIT                               DATA : DESCRIPTION OF MNEMONIC
#-----.-----     ----------------------------- : -----------------------------
VERS.                                     2.00 : CWLS LOG ASCII STANDARD - VERSION 2.00
WRAP.                                       NO : MULTIPLE LINES PER DEPTH STEP
VEND.                                  ENVERUS : VENDOR
TYPE.                          ESS - OPEN HOLE : ENVERUS ESSENTIAL CURVES – ACCESSIBLE THROUGH ENVERUS PRISM(TM)
DOC.                                  31965441 : ENVERUS HEADER RAW DOCUMENT ID
#___________________________________________________________________________________________________ 
~WELL INFORMATION 
# 4Nagw4FJNzCtYOfTAudVsymR6uv0ccMrNFKiy1Vrqa1gQVNLoB6NNR/Tzdk8H0Jxf2Akv2rjPRKaT9zVNBkTiw== 
# MNEM.UNIT                                              DATA : DESCRIPTION OF MNEMONIC 
#-----.-----                    ----------------------------- : ----------------------------- 
CNTY.                                                  REEVES : COUNTY 
STATE.                                                  TEXAS : STATE 
CNTRY.                                                    USA : COUNTRY 
API.                                             42-389-30414 : API (10 Digit) 
API_14.                                    42-389-30414-00-00 : API (14 Digits) 
API_14_std.                                 42-389-30414-0000 : API (14 Digits Standard) 
UWI.                                           42389304140000 : UNIQUE WELL ID 
WELL.                                            TXL 17-39  2 : WELL NAME
STRT.FT                                                 237.0 : START DEPTH
STOP.FT                                               13872.0 : STOP DEPTH
STEP.FT                                                   0.5 : STEP BETWEEN DEPTHS
NULL.                                                 -999.25 : NULL VALUE
COMP.                          ENDEAVOR ENERGY RESOURCES L.P. : COMPANY
#___________________________________________________________________________________________________ 
~CURVE INFORMATION 
# MNEM.UNIT           : CURVE DESCRIPTION 
#-----.-----          : ----------------------------- 
 DEPT.FT               : MEASURED DEPTH 
 CALI.IN               : CALIPER (CAL - CAL) 
 GR.API                : GAMMA RAY (GR) 
 DT.US/FT              : SONIC DELTA TRANSIT TIME (DT) 
 RESS.OHMM             : SHALLOW INDUCTION RESISTIVITY (ILS - ILS) 
 RESD.OHMM             : DEEP INDUCTION RESISTIVITY (ILD - ILD) 
 #___________________________________________________________________________________________________ 
~A         DEPT           CALI             GR             DT           RESS           RESD
# ...
         4901.0         10.131        110.843         75.405        725.254       3883.036
         4901.5         10.129        113.754         78.287        818.655       3332.000
         4902.0         10.119        116.665         77.213        893.794       2139.635
         4902.5         10.110        119.575         76.138        906.553       1589.252
         4903.0         10.101        118.992         75.064        757.237       1383.106
         4903.5         10.091        117.708         73.990        607.921       1176.960
         4904.0         10.082        117.696         72.916        492.797        970.814
         4904.5         10.073        118.958         71.841        386.864        764.667
         4905.0         10.063        120.220         71.693        280.931        558.521
         4905.5         10.054        121.482         74.340        263.394        352.375
         4906.0         10.045        115.010         73.360        288.397        322.392
         4906.5         10.035        108.356         72.379        313.400        438.557
         4907.0         10.026        101.701         71.398        338.403        432.234
         4907.5         10.017         95.047         70.417        363.407        331.728
         4908.0         10.007         80.596         69.294        130.820        231.222
         4908.5          9.998         65.666         66.120         91.700        130.715
         4909.0          9.989         50.737         62.946         76.494         64.706
         4909.5          9.979         43.139         59.772         66.527         61.309
         4910.0          9.970         41.598         62.001         42.868         57.912
         4910.5          9.961         40.057         64.622         37.953         33.662
         4911.0          9.956         43.624         66.294         33.039         22.014
         4911.5          9.964         50.152         67.024         28.125         19.250
         4912.0          9.971         56.680         67.087         23.211         16.486
         4912.5          9.979         63.208         67.150         26.020         16.618
         4913.0          9.986         69.737         67.212         29.155         29.020
         4913.5          9.994         76.265         67.329         50.908         46.918
         4914.0         10.001         82.793         67.713         94.267         64.817
         4914.5         10.009         89.321         68.097        137.626         82.716
         4915.0         10.016         93.013         68.481        270.578        203.690
         4915.5         10.024         90.445         66.624        406.989        724.807
         4916.0         10.031         87.877         63.800        543.401       1245.924
         4916.5         10.039         85.309         66.103        679.812       2379.872
         4917.0         10.046         84.627         68.881        816.223       7255.587
         4917.5         10.054         89.931         71.660        952.634      12131.303
         4918.0         10.084         95.235         74.438       1089.045      24343.809
         4918.5         10.122        100.538         74.252       1148.326      17649.078
         4919.0         10.159        105.842         72.564       1118.005       3316.051
         4919.5         10.196        111.145         70.875       1062.150       1739.863
         4920.0         10.234        112.087         69.557        941.077       1576.848
         4920.5         10.271        112.589         70.666        820.004       1413.832
         4921.0         10.308        113.090         71.776        728.375       1250.817
         4921.5         10.346        113.592         72.885        644.660       1087.802
         4922.0         10.383        114.093         73.995        555.584        955.965
         4922.5         10.420        114.153         73.227        466.024        847.366
         4923.0         10.458        105.179         72.052        388.315        738.766
         4923.5         10.495         96.205         70.877        314.873        630.167
         4924.0         10.532         87.231         69.702        241.432        521.567
         4924.5         10.541         78.257         69.820        167.991        412.968
         4925.0         10.541         69.282         70.166         94.549        304.368
         4925.5         10.540         61.973         69.368         29.002        195.769
         4926.0         10.539         58.297         68.569         21.164         87.169
         4926.5         10.539         54.621         67.770         13.327         14.295
         4927.0         10.538         50.945         66.972         13.540         14.824
         4927.5         10.538         48.197         66.173         14.315         15.353
         4928.0         10.537         48.190         66.060         15.091         15.883
         4928.5         10.536         48.183         66.828         15.866         16.412
         4929.0         10.536         48.177         65.484         16.446         17.138
         4929.5         10.593         48.170         63.266         17.000         17.893
         4930.0         10.650         48.163         61.048         17.553         18.648
         4930.5         10.708         48.156         58.830         18.107         20.480
         4931.0         10.765         48.150         56.612         22.544         25.919
         4931.5         10.822         48.179         54.787         27.835         31.358
         4932.0         10.879         48.771         54.416         33.126         36.797
         4932.5         10.936         49.363         59.350         38.418         42.236
         4933.0         10.974         49.954         61.495         37.908         38.252
         4933.5         10.982         50.546         63.639         30.399         32.229
         4934.0         10.990         51.138         65.784         22.890         26.206
         4934.5         10.998         51.730         67.929         15.469         20.183
         4935.0         11.006         52.321         68.397         13.515         14.160
         4935.5         11.015         52.913         68.807         12.353         13.260
         4936.0         11.023         53.505         69.216         12.146         13.172
         4936.5         11.031         54.396         69.626         11.940         13.084
         4937.0         11.039         58.050         70.035         11.764         12.995
         4937.5         11.047         61.703         70.445         13.066         12.907
         4938.0         11.055         65.356         70.855         14.368         13.238
         4938.5         11.063         69.010         71.264         15.669         15.509
         4939.0         11.072         72.663         71.674         16.971         17.779
         4939.5         11.080         73.180         70.850         17.217         20.050
         4940.0         11.088         61.410         69.823         16.900         22.321
         4940.5         11.096         60.849         69.590         16.582         20.889
         4941.0         11.104         60.289         69.756         15.921         18.237
         4941.5         11.112         59.728         69.922         14.956         15.585
         4942.0         11.120         59.167         70.088         13.991         13.092
         4942.5         11.128         58.607         70.254         13.026         13.167
         4943.0         11.137         58.046         70.409         12.061         13.242
         4943.5         11.145         57.485         69.842         12.000         13.317
         4944.0         11.153         56.925         69.275         12.104         13.391
         4944.5         11.161         56.364         68.708         12.209         13.466
