#--------------------------------------------------#
#-------------------ENVERUS, INC.------------------#
#------------------WWW.ENVERUS.COM-----------------#
#------------------COPYRIGHT 2020------------------#
#--------------------------------------------------#
#THIS FILE MAY BE USED ONLY IN ACCORDANCE WITH A CURRENT SUBSCRIPTION AGREEMENT BETWEEN
#THE USER AND ENVERUS, INC. NO PART OF THIS FILE MAY BE REPRODUCED, USED, COPIED,
#MODIFIED, PROPAGATED, OR DISTRIBUTED EXCEPT IN ACCORDANCE WITH THE SUBSCRIPTION
#AGREEMENT. UNAUTHORIZED USE OR DISTRIBUTION OF ALL OR ANY PART OF THIS FILE MAY VIOLATE
#COPYRIGHT, TRADEMARK, AND/OR OTHER LAWS AND IS SUBJECT TO CIVIL AS WELL AS CRIMINAL
#SANCTIONS.
#--------------------------------------------------#
#THIS FILE IS PROVIDED "AS-IS" AND ALL WARRANTIES ARE EXPRESSLY DISCLAIMED, WHETHER
#EXPRESS, ORAL, IMPLIED, STATUTORY OR OTHERWISE, INCLUDING ANY IMPLIED WARRANTY OF FITNESS
#FOR A PARTICULAR PURPOSE, MERCHANTABILITY, TITLE OR NON-INFRINGEMENT, AND ANY WARRANTIES
#ARISING BY VIRTUE OF CUSTOM OF TRADE OR COURSE OF DEALING.  FURTHER, ENVERUS, INC.
#AND ITS LICENSORS DO NOT REPRESENT OR WARRANT THAT THIS FILE WILL MEET USER'S
#REQUIREMENTS OR ARE SUITABLE FOR USER'S NEEDS OR THAT THE DATA OR RESULTS PROVIDED IN
#CONJUNCTION THEREWITH ARE CORRECT, ACCURATE, TIMELY OR RELIABLE. THESE DISCLAIMERS SHALL
#APPLY REGARDLESS OF ANY FAILURE OF ESSENTIAL PURPOSE OF ANY LIMITED REMEDY.  SOME
#JURISDICTIONS DO NOT ALLOW THE EXCLUSION OF CERTAIN WARRANTIES SO SOME OF THE ABOVE
#EXCLUSIONS MAY NOT APPLY. IN NO EVENT SHALL ENVERUS, INC. OR ANY OF ITS AFFILIATES
#BE LIABLE UNDER ANY LEGAL THEORY, WHETHER IN TORT (INCLUDING WITHOUT LIMITATION
#NEGLIGENCE), CONTRACT, STRICT LIABILITY, STATUTORY OR OTHERWISE, FOR ANY SPECIAL,
#INCIDENTAL, CONSEQUENTIAL, EXEMPLARY, PUNITIVE OR INDIRECT DAMAGE OF ANY KIND, INCLUDING
#WITHOUT LIMITATION LOSS OF REVENUE, PROFITS, GOODWILL, USE, AND/OR DATA OR THE COST OF
#PROCUREMENT OF SUBSTITUTE GOODS OR SERVICES, EVEN IF APPRISED OF THE POSSIBILITY OF SUCH
#DAMAGES IN ADVANCE.
#--------------------------------------------------#

~VERSION INFORMATION
VERS. 2.0 : CWLS LOG ASCII STANDARD - VERSION 2.0
WRAP.  NO : ONE LINE PER DEPTH STEP
~WELL INFORMATION
#MNEMONIC     .UNIT              VALUE :DESCRIPTION
STRT       .FT                51 :START DEPTH
STOP       .FT                4494 :STOP DEPTH
STEP       .FT                   0.500 :STEP
NULL       .                  -999.990 :NULL
UWI        .              42389102200000 :UNIQUE WELL ID
API        .              42389102200000 :API NUMBER
COMP       .         GRUY PETROLEUM MANAGEMENT CO. :COMPANY
WELL       .        REEVES -AQ- FEE  2 :WELL
DATE       .                30-NOV-1992 :LOG DATE
~CURVE INFORMATION
#MNEMONIC     .UNIT      API CODE :CURVE DESCRIPTION
DEPTH       .FT                      :MEASURED DEPTH
CAL.INCH        UNKNOWN   :CAL
GR.API        UNKNOWN   :GR
DT.US/FT        UNKNOWN   :DT
~A    DEPTH    CAL    GR    DT
# ...
 3244.5     10.015   45.586   75.981
 3245     10.045   43.375   76.477
 3245.5     10.075   41.755   76.972
 3246     10.105   40.711   77.206
 3246.5     10.094   39.668   76.132
 3247     10.082   38.625   75.058
 3247.5     10.07   37.582   75.826
 3248     10.058   39.56   77.038
 3248.5     10.046   42.181   78.249
 3249     10.034   45.542   78.486
 3249.5     10.058   49.617   77.914
 3250     10.09   53.693   77.342
 3250.5     10.123   54.224   76.77
 3251     10.155   50.153   76.197
 3251.5     10.187   46.082   76.928
 3252     10.22   42.011   78.157
 3252.5     10.234   40.209   79.208
 3253     10.238   40.715   78.911
 3253.5     10.241   41.22   78.614
 3254     10.245   40.684   78.317
 3254.5     10.249   39.85   78.02
 3255     10.253   39.015   78.19
 3255.5     10.257   38.684   78.445
 3256     10.287   39.729   78.701
 3256.5     10.323   40.773   78.956
 3257     10.358   41.818   78.407
 3257.5     10.393   42.862   76.966
 3258     10.428   43.907   75.861
 3258.5     10.463   45.424   76.724
 3259     10.498   47.514   77.587
 3259.5     10.534   49.603   78.451
 3260     10.569   53.623   79.314
 3260.5     10.604   57.611   78.86
 3261     10.639   59.274   77.72
 3261.5     10.674   60.938   76.661
 3262     10.709   67.179   75.784
 3262.5     10.745   69.46   74.908
 3263     10.766   63.913   75.331
 3263.5     10.78   58.365   75.87
 3264     10.795   52.817   76.409
 3264.5     10.809   53.329   76.948
 3265     10.824   55.303   76.851
 3265.5     10.838   57.278   76.104
 3266     10.853   59.252   75.357
 3266.5     10.867   57.636   75.119
 3267     10.88   55.783   75.391
 3267.5     10.869   53.93   75.663
 3268     10.858   52.076   75.935
 3268.5     10.847   50.223   76.336
 3269     10.836   48.37   77.637
 3269.5     10.824   46.517   78.938
 3270     10.813   44.664   80.239
 3270.5     10.802   42.811   80.575
 3271     10.791   42.814   80.899
 3271.5     10.78   44.332   81.314
 3272     10.769   45.849   81.623
 3272.5     10.758   50.386   80.988
 3273     10.747   55.495   80.353
 3273.5     10.735   59.766   79.717
 3274     10.724   59.542   79.082
 3274.5     10.713   58.209   78.817
 3275     10.699   56.875   79.474
 3275.5     10.682   54.674   80.131
 3276     10.665   49.962   80.67
 3276.5     10.649   47.704   80.278
 3277     10.632   46.603   79.885
 3277.5     10.615   45.502   79.546
 3278     10.599   44.401   79.903
 3278.5     10.571   43.299   80.259
 3279     10.503   42.198   80.616
 3279.5     10.435   39.866   80.652
 3280     10.367   37.273   79.982
 3280.5     10.3   37.828   79.312
 3281     10.232   38.875   79.057
 3281.5     10.164   39.922   79.743
 3282     10.096   40.969   80.43
 3282.5     10.034   42.016   81.117
 3283     9.996   41.537   81.803
 3283.5     9.958   39.092   81.734
 3284     9.92   36.647   81.539
 3284.5     9.882   34.202   81.344
 3285     9.844   33.878   81.74
 3285.5     9.806   35.523   82.291
 3286     9.768   37.168   81.359
 3286.5     9.73   38.694   80.26
 3287     9.692   40.059   79.161
 3287.5     9.655   41.424   78.061
 3288     9.617   42.79   78.245
 3288.5     9.581   43.628   78.834
 3289     9.547   44.032   79.422
 3289.5     9.514   46.974   80.011
 3290     9.481   51.569   79.299
 3290.5     9.45   55.953   78.537
 3291     9.421   59.857   77.774
 3291.5     9.392   63.76   77.012
 3292     9.363   64.331   76.365
 3292.5     9.334   64.9   76.284
 3293     9.305   65.468   76.239
 3293.5     9.276   64.992   76.271
 3294     9.276   64.392   76.304
 3294.5     9.278   64.624   76.336
 3295     9.279   64.905   76.369
 3295.5     9.281   65.186   76.401
 3296     9.283   64.707   76.434
 3296.5     9.284   63.29   76.988
 3297     9.286   61.637   78.029
 3297.5     9.288   57.932   79.069
 3298     9.289   54.227   78.886
 3298.5     9.291   50.523   78.624
 3299     9.293   46.818   78.362
 3299.5     9.294   39.563   78.101
 3300     9.296   38.063   78.627
 3300.5     9.298   37.2   79.556
 3301     9.299   37.237   80.38
 3301.5     9.301   37.275   80.21
 3302     9.296   37.312   80.039
 3302.5     9.291   37.35   79.892
 3303     9.286   37.387   80.558
 3303.5     9.28   38.444   81.132
 3304     9.275   39.533   81.071
 3304.5     9.27   40.622   81.011
 3305     9.264   41.711   80.95
 3305.5     9.259   42.8   80.889
 3306     9.253   44.957   80.749
 3306.5     9.248   47.192   80.281
 3307     9.243   49.428   79.814
 3307.5     9.237   51.664   79.378
 3308     9.232   53.899   79.103
 3308.5     9.221   56.135   78.828
 3309     9.198   54.416   79.338
 3309.5     9.176   45.769   80.155
 3310     9.153   37.121   80.68
 3310.5     9.131   37.923   79.731
 3311     9.108   39.06   78.783
 3311.5     9.086   40.198   77.835
 3312     9.063   41.336   76.886
 3312.5     9.041   42.083   77.716
 3313     9.019   41.983   78.549
 3313.5     9.006   42.357   79.383
 3314     9.004   43.537   80.216
 3314.5     9.002   44.717   80.442
 3315     9   45.896   80.124
 3315.5     8.999   45.151   79.806
 3316     8.997   44.554   78.971
 3316.5     8.995   44.446   77.571
 3317     8.994   44.037   76.421
 3317.5     8.992   43.627   76.883
 3318     8.99   43.218   77.345
 3318.5     8.988   42.488   77.806
 3319     8.987   40.845   78.268
 3319.5     8.985   39.203   78.73
 3320     8.983   39.481   79.192
 3320.5     8.97   41.509   78.848
 3321     8.956   42.839   78.356
 3321.5     8.941   41.481   77.63
 3322     8.927   40.123   76.583
 3322.5     8.912   38.816   75.536
 3323     8.898   37.565   74.489
 3323.5     8.875   36.54   75.408
 3324     8.779   37.045   76.648
 3324.5     8.683   37.551   77.888
 3325     8.587   38.056   78.005
 3325.5     8.569   42.03   77.419
 3326     8.551   42.312   76.832
 3326.5     8.533   42.593   76.246
 3327     8.515   42.874   75.659
 3327.5     8.496   43.421   76.57
 3328     8.478   44.053   77.898
 3328.5     8.458   44.684   79.226
 3329     8.43   45.316   79.371
 3329.5     8.402   46.195   78.454
 3330     8.374   49.317   77.538
 3330.5     8.346   52.438   76.621
 3331     8.318   55.806   75.705
 3331.5     8.291   59.54   74.924
 3332     8.295   63.274   74.872
 3332.5     8.299   67.008   74.819
 3333     8.302   65.066   74.767
 3333.5     8.306   62.784   74.715
 3334     8.31   61.706   74.272
 3334.5     8.314   65.396   73.754
 3335     8.326   69.087   73.237
 3335.5     8.361   71.845   73.017
 3336     8.396   68.118   72.865
 3336.5     8.432   64.392   72.062
 3337     8.467   60.665   70.078
 3337.5     8.495   56.938   68.094
 3338     8.508   56.776   66.111
 3338.5     8.52   61.89   65.568
 3339     8.533   70.322   67.893
 3339.5     8.545   83.493   70.218
 3340     8.558   104.28   72.543
 3340.5     8.57   115.729   74.868
 3341     8.583   118.985   74.815
 3341.5     8.616   113.175   73.113
 3342     8.697   101.547   71.411
 3342.5     8.778   89.918   69.71
 3343     8.859   78.29   68.008
 3343.5     8.94   66.662   68.524
 3344     9.021   61.246   69.164
 3344.5     9.101   66.824   69.805
 3345     9.182   72.402   70.446
 3345.5     9.243   77.98   71.086
 3346     9.26   75.415   71.152
 3346.5     9.278   65.839   69.485
 3347     9.295   56.264   67.818
 3347.5     9.313   51.241   67.131
 3348     9.376   55.447   68.326
 3348.5     9.44   59.653   69.522
 3349     9.503   61.142   70.717
 3349.5     9.567   54.873   71.913
 3350     9.63   48.604   73.006
 3350.5     9.694   46.112   73.595
 3351     9.757   47.668   74.185
 3351.5     9.821   49.225   74.803
 3352     9.862   50.782   77.117
 3352.5     9.866   52.339   76.75
 3353     9.871   51.911   76.383
 3353.5     9.876   49.063   76.015
 3354     9.881   46.216   75.648
 3354.5     9.886   46.649   75.679
 3355     9.891   48.464   76.246
 3355.5     9.896   50.278   76.813
 3356     9.9   52.093   77.65
 3356.5     9.905   53.606   79.21
 3357     9.91   50.716   80.77
 3357.5     9.902   47.826   82.33
 3358     9.893   44.936   83.891
 3358.5     9.883   42.047   83.143
