###############################################
##         ENVERUS                           ##
##         ESS - Open Hole                   ##
##         PERMIAN / DELAWARE                ##
##         Nov 04 2023  V4.0                 ##
##         42-389-32353-00-00                ##
###############################################
## Copyright 2017-2023  ENVERUS.  All Rights Reserved. 
## Confidential - Property of ENVERUS, use governed by terms and 
## conditions found within the existing Information Services Subscription Agreement 
## (as may be amended, the “ISSA”) between Customer and ENVERUS. 
## 
~VERSION INFORMATION
# MNEM.UNIT                               DATA : DESCRIPTION OF MNEMONIC
#-----.-----     ----------------------------- : -----------------------------
VERS.                                     2.00 : CWLS LOG ASCII STANDARD - VERSION 2.00
WRAP.                                       NO : MULTIPLE LINES PER DEPTH STEP
VEND.                                  ENVERUS : VENDOR
TYPE.                          ESS - OPEN HOLE : ENVERUS ESSENTIAL CURVES – ACCESSIBLE THROUGH ENVERUS PRISM(TM)
DOC.                                  31816014 : ENVERUS HEADER RAW DOCUMENT ID
#___________________________________________________________________________________________________ 
~WELL INFORMATION 
# N6wmpYeOPIEODBGNmaSz+o1WStwpnSM+Mr70h4S2k9wmNhpeTZrfoFyYX6I24xyp8IiB7B51j2C/wpla6NseZQ== 
# MNEM.UNIT                                              DATA : DESCRIPTION OF MNEMONIC 
#-----.-----                    ----------------------------- : ----------------------------- 
CNTY.                                                  REEVES : COUNTY 
STATE.                                                  TEXAS : STATE 
CNTRY.                                                    USA : COUNTRY 
API.                                             42-389-32353 : API (10 Digit) 
API_14.                                    42-389-32353-00-00 : API (14 Digits) 
API_14_std.                                 42-389-32353-0000 : API (14 Digits Standard) 
UWI.                                           42389323530000 : UNIQUE WELL ID 
WELL.                                             DORNFIELD 1 : WELL NAME
STRT.FT                                                 210.0 : START DEPTH
STOP.FT                                               13522.0 : STOP DEPTH
STEP.FT                                                   0.5 : STEP BETWEEN DEPTHS
NULL.                                                 -999.25 : NULL VALUE
LOC.                                                      UNK : LOCATION 
SRVC.                                                     UNK : SERVICE COMPANY
#___________________________________________________________________________________________________ 
~CURVE INFORMATION 
# MNEM.UNIT           : CURVE DESCRIPTION 
#-----.-----          : ----------------------------- 
 DEPT.FT               : MEASURED DEPTH 
 CALI.IN               : CALIPER (CAL - CAL) 
 GR.API                : GAMMA RAY (GR) 
 DT.US/FT              : SONIC DELTA TRANSIT TIME (DT) 
 RESS.OHMM             : SHALLOW INDUCTION RESISTIVITY (ILS - ILS) 
 RESD.OHMM             : DEEP INDUCTION RESISTIVITY (ILD - ILD) 
 DPHI.V/V              : DENSITY POROSITY (DPHI) 
 NPHI.V/V              : NEUTRON POROSITY (NPHI) 
 RHOB.G/CC             : BULK DENSITY (RHOB) 
 #___________________________________________________________________________________________________ 
~A         DEPT           CALI             GR             DT           RESS           RESD           DPHI           NPHI           RHOB
# ...
        12806.5          9.451        150.502         86.183         31.600         30.140        0.03342        0.25241         2.6056
        12807.0          9.448        156.871         86.014         35.406         29.961        0.03860        0.24437         2.6078
        12807.5          9.445        163.240         86.046         39.211         36.483        0.04378        0.23634         2.6051
        12808.0          9.441        169.609         86.078         48.942         43.005        0.05896        0.22830         2.6024
        12808.5          9.438        173.752         86.110         55.045         49.527        0.07623        0.22027         2.5905
        12809.0          9.435        168.382         86.143         57.789         56.049        0.08589        0.21715         2.5745
        12809.5          9.432        163.012         86.146         49.573         53.605        0.08949        0.22162         2.5585
        12810.0          9.431        157.641         85.609         40.603         44.715        0.08631        0.22927         2.5424
        12810.5          9.431        148.292         85.028         33.755         35.825        0.05392        0.23502         2.5264
        12811.0          9.431        137.492         84.447         33.859         35.364        0.04575        0.23300         2.5299
        12811.5          9.431        135.563         83.866         27.748         32.924        0.02562        0.23097         2.5508
        12812.0          9.431        134.065         83.106         37.460         28.805        0.01071        0.22894         2.5716
        12812.5          9.431        133.220         82.472         40.549         38.320        0.00636        0.23049         2.5925
        12813.0          9.431        132.721         81.839         37.669         39.993        0.02051        0.23212         2.6133
        12813.5          9.431        136.508         81.205         49.410         39.294        0.03812        0.23375         2.6342
        12814.0          9.431        140.295         80.998         58.451         43.068        0.05082        0.22994         2.6310
        12814.5          9.431        146.184         81.708         48.694         45.653        0.05041        0.21829         2.6007
        12815.0          9.431        153.126         82.723         38.937         39.057        0.05491        0.22920         2.5748
        12815.5          9.431        160.068         83.737         29.180         32.462        0.05732        0.24011         2.5699
        12816.0          9.431        170.014         84.751         28.886         28.335        0.05602        0.25103         2.5650
        12816.5          9.431        181.483         85.766         30.694         35.263        0.04829        0.25429         2.5601
        12817.0          9.431        187.265         86.148         37.505         42.191        0.04736        0.24275         2.5577
        12817.5          9.431        190.347         86.148         46.865         49.308        0.04984        0.23122         2.5646
        12818.0          9.431        181.522         86.148         31.751         51.706        0.03511        0.22303         2.5716
        12818.5          9.431        172.591         86.148         34.499         45.117        0.03330        0.22630         2.5785
        12819.0          9.431        169.944         86.235         39.147         38.930        0.03149        0.22957         2.5854
        12819.5          9.431        172.233         86.296         42.479         40.404        0.03229        0.23285         2.5923
        12820.0          9.431        181.528         86.040         44.500         41.879        0.03432        0.23335         2.5993
        12820.5          9.410        190.822         85.768         52.540         44.383        0.03182        0.23044         2.6062
        12821.0          9.390        200.116         85.759         62.221         56.628        0.03499        0.22473         2.6049
        12821.5          9.370        206.065         85.842         69.767         68.250        0.05398        0.21961         2.6034
        12822.0          9.349        210.932         85.925         68.545         68.375        0.07298        0.22063         2.6019
        12822.5          9.329        210.050         86.009         65.339         68.500        0.08485        0.22364         2.5843
        12823.0          9.309        205.415         86.092         69.110         68.625        0.07815        0.22739         2.5626
        12823.5          9.288        200.779         86.075         67.311         68.750        0.07480        0.22802         2.5408
        12824.0          9.268        192.599         85.838         67.126         68.875        0.07333        0.22735         2.5190
        12824.5          9.247        179.193         84.987         67.128         67.535        0.07739        0.22667         2.5235
        12825.0          9.227        166.715         83.735         47.157         48.219        0.07629        0.22325         2.5303
        12825.5          9.207        163.685         83.464         53.230         28.850        0.06316        0.21832         2.5335
        12826.0          9.186        172.578         83.523        162.388         56.817        0.05248        0.21339         2.5290
        12826.5          9.166        201.191         83.581        208.495         84.785        0.07228        0.21416         2.5518
        12827.0          9.146        218.807         83.639        189.433        112.752        0.10507        0.21941         2.5584
        12827.5          9.145        219.189         83.697        171.056        140.719        0.11812        0.22465         2.5248
        12828.0          9.145        209.528         83.401        246.097        233.947        0.11758        0.22002         2.4912
        12828.5          9.127        203.747         81.842        339.711        344.983        0.10483        0.20659         2.4687
        12829.0          9.109        200.219         79.666        422.193        401.101        0.07810        0.19316         2.4825
        12829.5          9.102        192.478         78.529        434.864        415.660        0.07147        0.17973         2.4962
        12830.0          9.096        181.161         77.392        441.031        420.101        0.06480        0.17207         2.5100
        12830.5          9.090        187.805         76.255        416.877        482.241        0.05745        0.17464         2.5237
        12831.0          9.083        209.158         77.047        501.191        593.111        0.05011        0.18051         2.5374
        12831.5          9.077        230.510         78.050        622.297        703.981        0.05482        0.18638         2.5512
        12832.0          9.075        245.650         79.054        696.123        674.366        0.08894        0.18918         2.5649
        12832.5          9.077        247.184         80.057        629.515        616.911        0.10471        0.19034         2.5740
        12833.0          9.080        244.416         81.061        552.408        554.668        0.10884        0.19464         2.5415
        12833.5          9.082        226.106         80.674        429.447        453.510        0.10825        0.20710         2.5091
        12834.0          9.084        207.797         79.542        345.749        352.351        0.08568        0.20394         2.4787
        12834.5          9.086        191.660         78.410        407.880        436.095        0.05592        0.19374         2.4835
        12835.0          9.089        184.606         77.278        567.744        599.535        0.02185        0.18300         2.4882
        12835.5          9.091        189.244         76.146        529.031        670.037        0.02576        0.17391         2.5354
