~Version Information
 VERS.                  2.0:   CWLS log ASCII Standard -VERSION 2.0
 WRAP.                   NO:   One line per depth step
~Well Information Block
#MNEM.UNIT     VALUE/NAME     DESCRIPTION
#---------     -----------    ---------------------------
 STRT.F              8800.0000: START DEPTH
 STOP.F             14300.0000: STOP DEPTH
 STEP.F                 0.5000: STEP DEPTH
 NULL.                 -999.25: NULL VALUE
 LOC .     336'' FSL & 729' FWL:  LOCATION
 FL6 .        API 42-389-36322:  LOCATIONLINE6
 FL4 .           ABSTRACT 3622:  LOCATIONLINE4
 FL3 .        T&P RR CO SURVEY:  LOCATIONLINE3
 FL2 .     SECTION 36, BLOCK 58 T2:  LOCATIONLINE2
 FL1 .     336'' FSL & 729' FWL:  LOCATIONLINE1
 DMF .                      KB:  DRILL MEAS FROM
 PDAT.                      GL:  PERMANENT DATUM
 CNTY.                  REEVES:  COUNTY NAME
 FLD .     FORD, WEST (WOLFCAMP):  FIELD NAME
 WELL.        AVA STATE 36 #2H:  WELL NAME
 COMP.     CAPITAN ENERGY INC.:  COMPANY
 DATE.             01-Nov-2017:  DATE
 SVCO.             Halliburton:  SERVICECONAME
 PROV.                   TEXAS:  PROVINCE
 STAT.                   TEXAS:  STATE NAME
 CTRY.           UNITED STATES:  COUNTRY NAME
 HIDE.                        :  WELLNAMEOPERAT
 BASI.                 PERMIAN:  BASIN
 UWI .            42-389-36322LAT:  UNIQUE WELL IDENTIFIER
 API .            42-389-36322LAT:  API NUMBER
 RANG.                     N/A:  RANGE
 TOWN.                     N/A:  TOWNSHIP
 SECT.                     N/A:  SECTION
 SON .               904399722:  JOB NUMBER
 SRVC.             Halliburton:  SERVICE COMPANY
 LMF .                      KB:  LOG MEASURED FROM
 EGL .ft             3011.0000:  GROUND ELEVATION
 BAP .ft                0.0000:  GL ELEV ONSHORE
 GVFD.g                 1.0000:  GRAVITY FIELD
 EKB .ft             3037.0000:  KB ELEVATION
 EDF .ft             3036.0000:  DF ELEVATION
~Curve Information Block
#MNEM.UNIT                 API CODE     Curve Description
#---------               -----------    ---------------------------
 DEPT.F                 00 000 000 000:  Depth
 CCL .V                 00 000 000 000:  Casing Collar Locator
 NPHI_OH.pu             00 000 000 000:  NPHI_OH
 NPHI_CHI.pu            00 000 000 000:  NPHI_CHI
 GR_CHI.api             00 000 000 000:  GR_CHI
 GR_OH.api              00 000 000 000:  GR_OH
 RHOB_OH.g/cc           00 000 000 000:  RHOB_OH
 RHOB_CHI.g/cc          00 000 000 000:  RHOB_CHI
 PE_CHI.b/e             00 000 000 000:  PE_CHI
 PE_OH.b/e              00 000 000 000:  PE_OH
 DTC_OH.uspf            00 000 000 000:  DTC_OH
 DTC_CHI.uspf           00 000 000 000:  DTC_CHI
 SPHI_CHI.pu            00 000 000 000:  Acou Porosity CHI
 RT10_OH.ohmm           00 000 000 000:  RT10_OH
 RT10_CHI.ohmm          00 000 000 000:  RT10_CHI
 RT30_OH.ohmm           00 000 000 000:  RT30_OH
 RT30_CHI.ohmm          00 000 000 000:  RT30_CHI
 RT90_OH.ohmm           00 000 000 000:  RT90_OH
 RT90_CHI.ohmm          00 000 000 000:  RT90_CHI
 SGF .cu                00 000 000 000:  Formation Sigma
 CRNF.NONE              00 000 000 000:  CM GrsCaptRatio
 RIN .NONE              00 000 000 000:  CM GrsInelRatio
#Other Information
#
#WARRANTY: Halliburton will use its best efforts to furnish customers with 
#accurate information and interpretations that are part of, and incident to, the services 
#provided.  However, Halliburton cannot and does not warrant the accuracy 
#or correctness of such information and interpretations.  Under no circumstances should any 
#such information or interpretation be relied upon as the sole basis for any drilling, 
#completion, production, or financial decision or any procedure involving any risk to the 
#safety of any drilling venture, drilling rig or its crew or any other third party.  The 
#Customer has full responsibility for all drilling, completion and production operation.  
#Halliburton makes no representations or warranties, either expressed or 
#implied, including, but not limited to, the implied warranties of merchantability or fitness 
#for a particular purpose, with respect to the services rendered.  In no event will 
#Halliburton be liable for failure to obtain any particular results or for 
#any damages, including, but not limited to, indirect, special or consequential damages, 
#resulting from the use of any information or interpretation provided by Halliburton.
#
~A    DEPT      CCL   NPHI_OH NPHI_CHI   GR_CHI   GR_OH   RHOB_OH RHOB_CHI  PE_CHI   PE_OH  DTC_OH  DTC_CHI SPHI_CHI RT10_OH  RT10_CHI RT30_OH  RT30_CHI RT90_OH  RT90_CHI   SGF    CRNF   RIN   
# ...
   13546.0000  0.0000 -999.25   18.8480 196.5997  -999.25 -999.25    2.5158  3.5313 -999.25 -999.25 77.1016  20.8600  -999.25  34.9487  -999.25  33.6675  -999.25  35.1494 31.0311 1.1759 1.0857
   13546.5000  0.0000 -999.25   19.3515 202.4934  -999.25 -999.25    2.5120  3.4722 -999.25 -999.25 77.3459  21.0400  -999.25  34.8309  -999.25  33.5444  -999.25  34.9837 31.1467 1.1753 1.0881
   13547.0000  0.0000 -999.25   19.2593 203.3310  -999.25 -999.25    2.5134  3.4826 -999.25 -999.25 77.1946  20.9300  -999.25  34.7563  -999.25  33.4321  -999.25  34.8519 31.2868 1.1786 1.0916
   13547.5000  0.0000 -999.25   18.6215 196.8827  -999.25 -999.25    2.5189  3.5456 -999.25 -999.25 76.7315  20.6000  -999.25  34.7459  -999.25  33.2198  -999.25  34.6294 31.3497 1.1840 1.0935
   13548.0000  0.0000 -999.25   18.2590 191.2086  -999.25 -999.25    2.5221  3.5882 -999.25 -999.25 76.4637  20.4100  -999.25  34.5357  -999.25  32.7557  -999.25  34.1138 31.4437 1.1848 1.0962
   13548.5000  0.0000 -999.25   18.2419 188.9725  -999.25 -999.25    2.5218  3.5871 -999.25 -999.25 76.5017  20.4400  -999.25  34.5162  -999.25  32.6608  -999.25  34.0108 31.3032 1.1781 1.0945
   13549.0000  0.0000 -999.25   18.6556 192.7960  -999.25 -999.25    2.5187  3.5515 -999.25 -999.25 76.7560  20.6200  -999.25  34.3117  -999.25  32.4588  -999.25  33.7655 31.2592 1.1734 1.0969
   13549.5000  0.0000 -999.25   17.8778 179.9000  -999.25 -999.25    2.5248  3.6456 -999.25 -999.25 76.2742  20.2800  -999.25  34.0958  -999.25  31.8860  -999.25  33.1498 31.3513 1.1724 1.0972
   13550.0000  0.0000 -999.25   17.9581 184.9456  -999.25 -999.25    2.5248  3.6345 -999.25 -999.25 76.2635  20.2700  -999.25  34.2350  -999.25  32.2012  -999.25  33.4972 31.3295 1.1753 1.0989
   13550.5000  0.0000 -999.25   18.1328 190.2008  -999.25 -999.25    2.5235  3.6044 -999.25 -999.25 76.3325  20.3200  -999.25  34.4430  -999.25  32.5898  -999.25  33.9266 31.1676 1.1842 1.0985
   13551.0000  0.0000 -999.25   18.3230 193.8619  -999.25 -999.25    2.5220  3.5812 -999.25 -999.25 76.4445  20.4000  -999.25  34.5434  -999.25  32.8234  -999.25  34.1835 30.9855 1.1883 1.0980
   13551.5000  0.0000 -999.25   18.9117 202.1487  -999.25 -999.25    2.5177  3.5303 -999.25 -999.25 76.7849  20.6400  -999.25  34.4454  -999.25  32.9495  -999.25  34.3040 30.9127 1.1903 1.1001
   13552.0000  0.0000 -999.25   19.3066 203.9726  -999.25 -999.25    2.5147  3.5094 -999.25 -999.25 77.0650  20.8400  -999.25  34.0777  -999.25  32.5508  -999.25  33.8436 31.0688 1.1892 1.1027
   13552.5000  0.0000 -999.25   19.2405 200.9294  -999.25 -999.25    2.5155  3.5328 -999.25 -999.25 77.0270  20.8100  -999.25  33.7470  -999.25  32.0500  -999.25  33.2816 31.1434 1.1877 1.1059
   13553.0000  0.0000 -999.25   18.5785 189.1298  -999.25 -999.25    2.5206  3.6074 -999.25 -999.25 76.6488  20.5400  -999.25  33.5829  -999.25  31.4887  -999.25  32.6715 31.1652 1.1827 1.1061
   13553.5000  0.0000 -999.25   17.5051 172.1467  -999.25 -999.25    2.5288  3.7239 -999.25 -999.25 75.9486  20.0500  -999.25  33.4899  -999.25  30.9375  -999.25  32.0883 31.2968 1.1732 1.1048
   13554.0000  0.0000 -999.25   16.5519 156.4919  -999.25 -999.25    2.5353  3.8160 -999.25 -999.25 75.2766  19.5700  -999.25  33.5200  -999.25  30.6247  -999.25  31.7753 31.4659 1.1647 1.1006
   13554.5000  0.0000 -999.25   16.6920 160.9864  -999.25 -999.25    2.5337  3.7725 -999.25 -999.25 75.4211  19.6800  -999.25  33.9031  -999.25  31.2044  -999.25  32.4273 31.7433 1.1580 1.0962
   13555.0000  0.0000 -999.25   17.4752 178.9446  -999.25 -999.25    2.5277  3.6565 -999.25 -999.25 75.9755  20.0700  -999.25  34.5562  -999.25  32.4481  -999.25  33.7995 31.6958 1.1629 1.0932
   13555.5000  0.0000 -999.25   17.3508 180.9142  -999.25 -999.25    2.5284  3.6395 -999.25 -999.25 75.8497  19.9800  -999.25  34.9232  -999.25  32.9405  -999.25  34.3605 31.3395 1.1711 1.0902
   13556.0000  0.0000 -999.25   15.9689 160.4198  -999.25 -999.25    2.5389  3.7788 -999.25 -999.25 74.8059  19.2400  -999.25  34.7016  -999.25  32.1952  -999.25  33.5756 30.9894 1.1875 1.0899
   13556.5000  0.0000 -999.25   15.5773 151.1416  -999.25 -999.25    2.5420  3.8481 -999.25 -999.25 74.5074  19.0300  -999.25  34.3612  -999.25  31.5976  -999.25  32.9171 30.9269 1.2017 1.0920
   13557.0000  0.0000 -999.25   16.0236 155.5274  -999.25 -999.25    2.5390  3.8336 -999.25 -999.25 74.8905  19.3000  -999.25  34.1769  -999.25  31.5005  -999.25  32.7889 31.0813 1.2075 1.0945
   13557.5000  0.0000 -999.25   16.3363 152.7344  -999.25 -999.25    2.5364  3.8364 -999.25 -999.25 75.1437  19.4800  -999.25  33.6222  -999.25  30.7270  -999.25  31.9060 31.4593 1.2107 1.0974
   13558.0000  0.0000 -999.25   16.5942 149.8816  -999.25 -999.25    2.5341  3.8280 -999.25 -999.25 75.3235  19.6100  -999.25  33.1880  -999.25  30.0834  -999.25  31.1738 31.8018 1.1998 1.0988
   13558.5000  0.0000 -999.25   17.0513 154.4707  -999.25 -999.25    2.5302  3.7698 -999.25 -999.25 75.6782  19.8600  -999.25  33.1232  -999.25  30.0317  -999.25  31.0985 31.8060 1.1901 1.0986
   13559.0000  0.0000 -999.25   18.6902 179.2930  -999.25 -999.25    2.5169  3.5667 -999.25 -999.25 76.8999  20.7200  -999.25  33.5211  -999.25  31.0186  -999.25  32.1514 31.7730 1.1823 1.0964
   13559.5000  0.0000 -999.25   17.7160 168.7578  -999.25 -999.25    2.5244  3.6524 -999.25 -999.25 76.2426  20.2600  -999.25  33.7545  -999.25  31.1036  -999.25  32.2834 31.7530 1.1832 1.0929
   13560.0000  0.0000 -999.25   17.1929 164.6565  -999.25 -999.25    2.5281  3.6843 -999.25 -999.25 75.8890  20.0100  -999.25  34.0773  -999.25  31.4657  -999.25  32.7163 31.6410 1.1886 1.0886
   13560.5000  0.0000 -999.25   16.8326 162.2907  -999.25 -999.25    2.5306  3.7036 -999.25 -999.25 75.6287  19.8200  -999.25  34.3161  -999.25  31.7511  -999.25  33.0563 31.7624 1.1963 1.0858
   13561.0000  0.0000 -999.25   16.3981 154.1880  -999.25 -999.25    2.5337  3.7530 -999.25 -999.25 75.2938  19.5900  -999.25  34.1578  -999.25  31.4024  -999.25  32.6838 31.7653 1.2036 1.0852
   13561.5000  0.0000 -999.25   16.5018 153.1984  -999.25 -999.25    2.5327  3.7473 -999.25 -999.25 75.3740  19.6400  -999.25  33.9747  -999.25  31.1259  -999.25  32.3679 31.8183 1.2121 1.0857
   13562.0000  0.0000 -999.25   17.0568 159.1200  -999.25 -999.25    2.5287  3.7059 -999.25 -999.25 75.7968  19.9400  -999.25  33.8481  -999.25  31.0603  -999.25  32.2687 31.8117 1.2055 1.0880
   13562.5000  0.0000 -999.25   16.8851 152.3243  -999.25 -999.25    2.5293  3.7276 -999.25 -999.25 75.6670  19.8500  -999.25  33.5848  -999.25  30.5939  -999.25  31.7562 31.8575 1.1983 1.0865
   13563.0000  0.0000 -999.25   16.9591 149.3370  -999.25 -999.25    2.5282  3.7296 -999.25 -999.25 75.7118  19.8800  -999.25  33.3501  -999.25  30.2441  -999.25  31.3639 31.9894 1.1867 1.0860
   13563.5000  0.0000 -999.25   18.1674 172.7803  -999.25 -999.25    2.5192  3.5815 -999.25 -999.25 76.6746  20.5600  -999.25  34.0314  -999.25  31.5894  -999.25  32.8310 32.0314 1.1714 1.0845
   13564.0000  0.0000 -999.25   19.0842 191.1938  -999.25 -999.25    2.5125  3.4685 -999.25 -999.25 77.2533  20.9700  -999.25  34.5354  -999.25  32.6411  -999.25  33.9763 32.0398 1.1735 1.0846
   13564.5000  0.0000 -999.25   18.1049 181.2138  -999.25 -999.25    2.5206  3.5590 -999.25 -999.25 76.5662  20.4900  -999.25  34.6138  -999.25  32.5131  -999.25  33.8660 31.8235 1.1769 1.0846
   13565.0000  0.0000 -999.25   16.8323 167.7032  -999.25 -999.25    2.5308  3.6747 -999.25 -999.25 75.5899  19.7900  -999.25  34.6847  -999.25  32.3160  -999.25  33.6907 31.5231 1.1887 1.0846
   13565.5000  0.0000 -999.25   16.5534 161.9739  -999.25 -999.25    2.5331  3.7185 -999.25 -999.25 75.3832  19.6500  -999.25  34.5061  -999.25  31.9840  -999.25  33.3274 31.2570 1.1970 1.0857
   13566.0000  0.0000 -999.25   16.8966 166.6206  -999.25 -999.25    2.5308  3.7042 -999.25 -999.25 75.6463  19.8300  -999.25  34.4852  -999.25  32.0869  -999.25  33.4272 31.0373 1.2011 1.0878
   13566.5000  0.0000 -999.25   17.5985 172.8822  -999.25 -999.25    2.5258  3.6649 -999.25 -999.25 76.1724  20.2100  -999.25  34.1820  -999.25  31.8590  -999.25  33.1415 31.0398 1.2126 1.0914
