###############################################
##         ENVERUS                           ##
##         ESS - Open Hole                   ##
##         PERMIAN / DELAWARE                ##
##         Nov 04 2023  V4.0                 ##
##         42-389-32353-00-00                ##
###############################################
## Copyright 2017-2023  ENVERUS.  All Rights Reserved. 
## Confidential - Property of ENVERUS, use governed by terms and 
## conditions found within the existing Information Services Subscription Agreement 
## (as may be amended, the “ISSA”) between Customer and ENVERUS. 
## 
~VERSION INFORMATION
# MNEM.UNIT                               DATA : DESCRIPTION OF MNEMONIC
#-----.-----     ----------------------------- : -----------------------------
VERS.                                     2.00 : CWLS LOG ASCII STANDARD - VERSION 2.00
WRAP.                                       NO : MULTIPLE LINES PER DEPTH STEP
VEND.                                  ENVERUS : VENDOR
TYPE.                          ESS - OPEN HOLE : ENVERUS ESSENTIAL CURVES – ACCESSIBLE THROUGH ENVERUS PRISM(TM)
DOC.                                  31816014 : ENVERUS HEADER RAW DOCUMENT ID
#___________________________________________________________________________________________________ 
~WELL INFORMATION 
# N6wmpYeOPIEODBGNmaSz+o1WStwpnSM+Mr70h4S2k9wmNhpeTZrfoFyYX6I24xyp8IiB7B51j2C/wpla6NseZQ== 
# MNEM.UNIT                                              DATA : DESCRIPTION OF MNEMONIC 
#-----.-----                    ----------------------------- : ----------------------------- 
CNTY.                                                  REEVES : COUNTY 
STATE.                                                  TEXAS : STATE 
CNTRY.                                                    USA : COUNTRY 
API.                                             42-389-32353 : API (10 Digit) 
API_14.                                    42-389-32353-00-00 : API (14 Digits) 
API_14_std.                                 42-389-32353-0000 : API (14 Digits Standard) 
UWI.                                           42389323530000 : UNIQUE WELL ID 
WELL.                                             DORNFIELD 1 : WELL NAME
STRT.FT                                                 210.0 : START DEPTH
STOP.FT                                               13522.0 : STOP DEPTH
STEP.FT                                                   0.5 : STEP BETWEEN DEPTHS
NULL.                                                 -999.25 : NULL VALUE
LOC.                                                      UNK : LOCATION 
SRVC.                                                     UNK : SERVICE COMPANY
#___________________________________________________________________________________________________ 
~CURVE INFORMATION 
# MNEM.UNIT           : CURVE DESCRIPTION 
#-----.-----          : ----------------------------- 
 DEPT.FT               : MEASURED DEPTH 
 CALI.IN               : CALIPER (CAL - CAL) 
 GR.API                : GAMMA RAY (GR) 
 DT.US/FT              : SONIC DELTA TRANSIT TIME (DT) 
 RESS.OHMM             : SHALLOW INDUCTION RESISTIVITY (ILS - ILS) 
 RESD.OHMM             : DEEP INDUCTION RESISTIVITY (ILD - ILD) 
 DPHI.V/V              : DENSITY POROSITY (DPHI) 
 NPHI.V/V              : NEUTRON POROSITY (NPHI) 
 RHOB.G/CC             : BULK DENSITY (RHOB) 
 #___________________________________________________________________________________________________ 
~A         DEPT           CALI             GR             DT           RESS           RESD           DPHI           NPHI           RHOB
# ...
         5756.0          9.436         66.222         68.028          7.993          9.554        0.07400        0.15661         2.5493
         5756.5          9.449         59.990         67.813          8.476          8.895        0.07359        0.15130         2.5556
         5757.0          9.462         56.472         67.733          8.731          9.326        0.07545        0.14599         2.5694
         5757.5          9.475         57.161         67.711          8.554          8.749        0.07570        0.14627         2.5832
         5758.0          9.488         58.698         67.689          8.376          8.173        0.06715        0.15310         2.5970
         5758.5          9.501         66.103         67.524          8.199          7.678        0.05767        0.16814         2.5746
         5759.0          9.514         80.165         66.909          8.022          8.043        0.04342        0.18319         2.5713
         5759.5          9.407         94.227         66.294         13.055         43.802        0.02956        0.18509         2.5702
         5760.0          9.369        108.401         65.678        113.754         95.149        0.04118        0.17753         2.5682
         5760.5          9.331        122.627         65.625        127.665        146.496        0.05280        0.16287         2.5661
         5761.0          9.293        136.853         66.026        240.925        214.406        0.06177        0.15596         2.5697
         5761.5          9.255        151.884         66.427        222.053        364.425        0.06150        0.15881         2.5835
         5762.0          9.231        167.078         66.827         84.839        213.148        0.06111        0.16166         2.5973
         5762.5          9.235        171.701         66.844         52.257         61.872        0.05410        0.16423         2.5873
         5763.0          9.239        164.849         66.599         90.168        167.682        0.04531        0.16220         2.5743
         5763.5          9.243        153.012         66.340        229.368        509.985        0.03999        0.16017         2.5613
         5764.0          9.247        141.174         65.995        346.007        478.223        0.04567        0.15814         2.5483
         5764.5          9.250        127.475         65.649        265.523        387.090        0.05135        0.15610         2.5352
         5765.0          9.254        115.376         65.304        185.038        213.986        0.05624        0.15407         2.5222
         5765.5          9.258        103.277         65.011        104.554        111.989        0.07257        0.15204         2.5092
         5766.0          9.262         91.177         64.950         33.162         54.458        0.08875        0.13527         2.5419
         5766.5          9.266         81.684         64.756         27.620         33.200        0.10311        0.12649         2.5792
         5767.0          9.270         69.482         64.555         28.257         30.219        0.09921        0.12044         2.6027
         5767.5          9.273         69.506         64.354         29.899         33.547        0.07037        0.11646         2.5944
         5768.0          9.277         72.951         64.153         31.302         44.667        0.04441        0.12437         2.5862
         5768.5          9.281         82.841         63.952         31.676         52.222        0.03692        0.13229         2.5779
         5769.0          9.285         88.819         63.752         33.928         43.269        0.03501        0.13318         2.5696
         5769.5          9.289         89.137         63.691         32.752         34.317        0.04418        0.13225         2.5763
         5770.0          9.293         85.230         63.748         29.265         30.389        0.05335        0.13133         2.5930
         5770.5          9.296         80.224         63.805         30.108         31.040        0.06253        0.13114         2.6096
         5771.0          9.300         79.499         63.862         30.950         32.131        0.04881        0.13496         2.6156
         5771.5          9.304         81.352         63.694         40.277         51.373        0.03414        0.13740         2.5958
         5772.0          9.308         87.319         63.359         55.025         70.616        0.02200        0.13984         2.5760
         5772.5          9.312         92.694         63.024         80.233         89.858        0.03099        0.14126         2.5891
         5773.0          9.316        100.333         63.111         87.572         88.466        0.03998        0.14058         2.6023
         5773.5          9.320        100.118         63.455         71.408         74.578        0.05758        0.13951         2.6084
         5774.0          9.323         95.399         63.747         59.446         84.828        0.04841        0.13381         2.6084
         5774.5          9.327         89.422         63.965         67.056         95.078        0.03946        0.13097         2.5912
         5775.0          9.331         89.800         64.341         74.667        103.099        0.03113        0.12814         2.5853
         5775.5          9.335         92.598         64.792         82.277        106.119        0.03771        0.12530         2.5924
         5776.0          9.339         96.457         65.243         89.888        115.041        0.04774        0.13771         2.5996
         5776.5          9.343        100.316         65.694        159.526        204.365        0.04866        0.15272         2.6067
         5777.0          9.269        118.494         66.145        251.533        319.295        0.04034        0.16773         2.6138
         5777.5          9.263        134.477         66.462        265.743        259.168        0.03091        0.18274         2.6210
         5778.0          9.257        145.241         66.637        201.363        214.965        0.02931        0.19775         2.6144
         5778.5          9.250        152.237         66.297        204.496        216.042        0.03339        0.20045         2.6028
         5779.0          9.244        150.631         65.067        284.903        277.258        0.03169        0.18299         2.5912
         5779.5          9.238        135.023         63.859        359.725        417.666        0.02478        0.16554         2.5795
         5780.0          9.231        111.487         62.650        343.116        394.962        0.02899        0.14671         2.5679
         5780.5          9.225         91.128         61.518        298.867        337.895        0.03825        0.11587         2.5694
         5781.0          9.219         84.003         60.401        254.618        280.829        0.04554        0.11793         2.6032
         5781.5          9.212         85.596         60.443        302.195        223.762        0.05168        0.12222         2.6369
         5782.0          9.206         93.569         60.666        498.149        635.977        0.05770        0.12733         2.6357
         5782.5          9.203        101.279         60.888        694.103        744.553        0.05907        0.13173         2.6192
         5783.0          9.202         94.577         61.110        547.239        587.464        0.02396        0.13121         2.6028
         5783.5          9.200         87.875         61.333        336.239        430.376        0.00914        0.12763         2.5863
         5784.0          9.199         85.246         61.088        183.048        273.287        0.02265        0.12174         2.6289
         5784.5          9.197         85.659         60.226        192.995        175.866        0.04414        0.11689         2.6789
         5785.0          9.196         85.009         59.364        358.434        208.584        0.05116        0.11085         2.6649
