#--------------------------------------------------#
#-------------------ENVERUS, INC.------------------#
#------------------WWW.ENVERUS.COM-----------------#
#------------------COPYRIGHT 2020------------------#
#--------------------------------------------------#
#THIS FILE MAY BE USED ONLY IN ACCORDANCE WITH A CURRENT SUBSCRIPTION AGREEMENT BETWEEN
#THE USER AND ENVERUS, INC. NO PART OF THIS FILE MAY BE REPRODUCED, USED, COPIED,
#MODIFIED, PROPAGATED, OR DISTRIBUTED EXCEPT IN ACCORDANCE WITH THE SUBSCRIPTION
#AGREEMENT. UNAUTHORIZED USE OR DISTRIBUTION OF ALL OR ANY PART OF THIS FILE MAY VIOLATE
#COPYRIGHT, TRADEMARK, AND/OR OTHER LAWS AND IS SUBJECT TO CIVIL AS WELL AS CRIMINAL
#SANCTIONS.
#--------------------------------------------------#
#THIS FILE IS PROVIDED "AS-IS" AND ALL WARRANTIES ARE EXPRESSLY DISCLAIMED, WHETHER
#EXPRESS, ORAL, IMPLIED, STATUTORY OR OTHERWISE, INCLUDING ANY IMPLIED WARRANTY OF FITNESS
#FOR A PARTICULAR PURPOSE, MERCHANTABILITY, TITLE OR NON-INFRINGEMENT, AND ANY WARRANTIES
#ARISING BY VIRTUE OF CUSTOM OF TRADE OR COURSE OF DEALING.  FURTHER, ENVERUS, INC.
#AND ITS LICENSORS DO NOT REPRESENT OR WARRANT THAT THIS FILE WILL MEET USER'S
#REQUIREMENTS OR ARE SUITABLE FOR USER'S NEEDS OR THAT THE DATA OR RESULTS PROVIDED IN
#CONJUNCTION THEREWITH ARE CORRECT, ACCURATE, TIMELY OR RELIABLE. THESE DISCLAIMERS SHALL
#APPLY REGARDLESS OF ANY FAILURE OF ESSENTIAL PURPOSE OF ANY LIMITED REMEDY.  SOME
#JURISDICTIONS DO NOT ALLOW THE EXCLUSION OF CERTAIN WARRANTIES SO SOME OF THE ABOVE
#EXCLUSIONS MAY NOT APPLY. IN NO EVENT SHALL ENVERUS, INC. OR ANY OF ITS AFFILIATES
#BE LIABLE UNDER ANY LEGAL THEORY, WHETHER IN TORT (INCLUDING WITHOUT LIMITATION
#NEGLIGENCE), CONTRACT, STRICT LIABILITY, STATUTORY OR OTHERWISE, FOR ANY SPECIAL,
#INCIDENTAL, CONSEQUENTIAL, EXEMPLARY, PUNITIVE OR INDIRECT DAMAGE OF ANY KIND, INCLUDING
#WITHOUT LIMITATION LOSS OF REVENUE, PROFITS, GOODWILL, USE, AND/OR DATA OR THE COST OF
#PROCUREMENT OF SUBSTITUTE GOODS OR SERVICES, EVEN IF APPRISED OF THE POSSIBILITY OF SUCH
#DAMAGES IN ADVANCE.
#--------------------------------------------------#

~VERSION INFORMATION
VERS. 2.0 : CWLS LOG ASCII STANDARD - VERSION 2.0
WRAP.  NO : ONE LINE PER DEPTH STEP
~WELL INFORMATION
#MNEMONIC     .UNIT              VALUE :DESCRIPTION
STRT       .FT                0 :START DEPTH
STOP       .FT                13134 :STOP DEPTH
STEP       .FT                   0.500 :STEP
NULL       .                  -999.250 :NULL
UWI        .              42389303540000 :UNIQUE WELL ID
API        .              42389303540000 :API NUMBER
COMP       .         SMC OIL & GAS  INC. :COMPANY
WELL       .        TIFFANY STATE  1 :WELL
DATE       .                18-OCT-1995 :LOG DATE
~CURVE INFORMATION
#MNEMONIC     .UNIT      API CODE :CURVE DESCRIPTION
DEPTH       .FT                      :MEASURED DEPTH
DT.US/FT        UNKNOWN   :DT
CAL.INCH        UNKNOWN   :CAL
GR.API        UNKNOWN   :GR
~A    DEPTH    DT    CAL    GR
# ...
 11541.5     83.935   6.918   118.754
 11542     85.398   6.882   123.255
 11542.5     87.039   6.845   127.807
 11543     88.68   6.846   132.541
 11543.5     90.053   6.871   137.274
 11544     89.166   6.895   142.008
 11544.5     88.279   6.92   140.872
 11545     87.391   6.945   137.666
 11545.5     88.017   6.97   134.461
 11546     89.082   6.994   131.255
 11546.5     88.261   7.019   128.05
 11547     91.197   7.044   125.89
 11547.5     94.133   7.059   123.908
 11548     97.069   7.06   121.926
 11548.5     97.143   7.061   119.945
 11549     95.339   7.061   117.963
 11549.5     93.534   7.062   115.981
 11550     91.729   7.063   114
 11550.5     89.925   7.064   112.018
 11551     88.085   7.065   110.036
 11551.5     86.067   7.066   108.054
 11552     86.427   7.067   106.073
 11552.5     87.419   7.067   107.285
 11553     88.411   7.068   109.525
 11553.5     89.404   7.069   111.765
 11554     90.396   7.07   114.543
 11554.5     88.927   7.071   117.41
 11555     86.288   7.072   120.276
 11555.5     83.649   7.073   116.113
 11556     84.328   7.073   106.311
 11556.5     85.69   7.074   96.592
 11557     87.053   7.095   86.873
 11557.5     88.415   7.129   77.154
 11558     88.109   7.164   82.865
 11558.5     87.741   7.199   95.626
 11559     87.374   7.234   108.388
 11559.5     87.201   7.264   118.5
 11560     87.908   7.18   120.286
 11560.5     88.616   7.097   122.073
 11561     89.323   7.014   122.438
 11561.5     89.226   6.931   120.23
 11562     88.58   6.847   120.229
 11562.5     87.933   6.828   120.228
 11563     87.276   6.859   120.228
 11563.5     86.57   6.89   117.696
 11564     85.864   6.921   114.796
 11564.5     85.158   6.952   111.897
 11565     84.452   6.94   108.997
 11565.5     84.899   6.883   127.627
 11566     85.764   6.825   132.569
 11566.5     87.329   6.808   132.379
 11567     88.894   6.806   129.633
 11567.5     89.972   6.803   126.886
 11568     89.496   6.801   124.14
 11568.5     89.185   6.798   121.394
 11569     90.032   6.796   118.866
 11569.5     89.794   6.793   124.621
 11570     89.483   6.791   130.376
 11570.5     89.181   6.788   136.131
 11571     91.197   6.786   141.011
 11571.5     92.216   6.784   137.083
 11572     92.263   6.781   133.154
 11572.5     91.864   6.779   129.226
 11573     90.916   6.776   125.345
 11573.5     89.968   6.774   121.506
 11574     92.047   6.79   117.667
 11574.5     97.118   6.807   113.828
 11575     95.59   6.824   113.997
 11575.5     94.061   6.84   124.698
 11576     92.533   6.857   135.4
 11576.5     92.234   6.873   146.101
 11577     92.795   6.89   156.803
 11577.5     93.357   6.892   150.73
 11578     93.919   6.886   141.093
 11578.5     92.656   6.88   131.456
 11579     90.052   6.874   125.29
 11579.5     86.61   6.868   120.946
 11580     79.814   6.862   107.505
 11580.5     73.018   6.856   112.975
 11581     66.68   6.85   118.445
 11581.5     67.654   6.844   116.241
 11582     68.901   6.843   113.116
 11582.5     72.828   6.843   109.99
 11583     77.725   6.843   106.865
 11583.5     84.274   6.843   103.74
 11584     88.437   6.842   100.615
 11584.5     89.579   6.842   99.835
 11585     89.532   6.842   106.92
 11585.5     89.064   6.842   109.021
 11586     87.659   6.842   108.497
 11586.5     86.254   6.84   107.972
 11587     84.623   6.826   107.448
 11587.5     82.088   6.812   111.3
 11588     79.554   6.798   116.014
 11588.5     77.02   6.784   120.728
 11589     83.315   6.771   122.108
 11589.5     84.227   6.771   118.667
 11590     85.117   6.771   115.227
 11590.5     84.07   6.771   111.787
 11591     83.024   6.771   113.758
 11591.5     81.977   6.771   115.359
 11592     81.601   6.771   112.399
 11592.5     82.354   6.771   109.44
 11593     84.216   6.771   106.48
 11593.5     85.608   6.771   103.521
 11594     86.999   6.771   100.561
 11594.5     86.754   6.771   97.602
 11595     86.25   6.771   102.006
 11595.5     85.746   6.771   107.075
 11596     85.263   6.771   110.539
 11596.5     85.185   6.771   109.351
 11597     84.526   6.772   108.162
 11597.5     83.728   6.772   106.974
 11598     82.93   6.772   107.199
 11598.5     78.54   6.772   109.015
 11599     80.404   6.773   110.83
 11599.5     85.878   6.773   112.645
 11600     90.72   6.773   114.46
 11600.5     88.803   6.774   116.276
 11601     86.887   6.774   107.765
 11601.5     84.97   6.774   77.99
 11602     83.053   6.774   60.309
 11602.5     81.136   6.775   69.862
 11603     81.459   6.775   79.414
 11603.5     83.306   6.775   88.967
 11604     85.884   6.775   98.519
 11604.5     89.929   6.776   100.423
 11605     85.847   6.776   101.918
 11605.5     81.484   6.776   103.412
 11606     77.12   6.777   99.321
 11606.5     74.211   6.777   93.045
 11607     75.817   6.777   86.77
 11607.5     77.424   6.777   83.966
 11608     79.03   6.778   99.11
 11608.5     80.636   6.778   106.597
 11609     80.164   6.778   101.62
 11609.5     80.41   6.779   96.642
 11610     84.275   6.779   91.665
 11610.5     87.124   6.779   86.688
 11611     87.104   6.779   83.401
 11611.5     87.084   6.78   91.84
 11612     85.84   6.78   82.714
 11612.5     84.256   6.78   72.506
 11613     83.657   6.781   68.203
 11613.5     83.912   6.781   65.811
 11614     84.077   6.781   63.419
 11614.5     83.348   6.781   61.027
 11615     81.776   6.782   57.596
 11615.5     78.813   6.782   51.715
 11616     75.851   6.782   45.834
 11616.5     72.889   6.783   39.953
 11617     74.053   6.783   37.103
 11617.5     76.301   6.783   36.149
 11618     79.846   6.783   35.194
 11618.5     83.391   6.784   33.765
 11619     83.352   6.784   31.805
 11619.5     82.009   6.784   29.844
 11620     78.023   6.8   27.884
 11620.5     78.225   6.827   27.34
 11621     79.751   6.854   29.999
 11621.5     81.467   6.88   32.659
 11622     103.29   6.907   38.835
 11622.5     108.075   6.934   45.879
 11623     112.861   6.961   52.923
 11623.5     117.554   6.987   142.97
 11624     121.241   7.014   161.207
 11624.5     124.928   7.041   162.861
 11625     128.614   7.067   159.519
 11625.5     132.301   7.07   156.176
 11626     135.988   7.043   152.834
 11626.5     139.675   7.015   149.491
 11627     135.795   6.988   146.866
 11627.5     130.366   6.961   144.384
 11628     124.936   6.934   141.903
 11628.5     130.932   6.907   135.616
 11629     137.586   6.879   128.449
 11629.5     137.658   6.852   120.878
 11630     135.532   6.825   113.067
 11630.5     133.405   6.816   105.256
 11631     131.279   6.814   97.445
 11631.5     129.153   6.812   104.111
 11632     127.026   6.81   113.284
 11632.5     124.9   6.808   117.435
 11633     123.369   6.805   133.239
 11633.5     121.897   6.803   145.003
 11634     120.426   6.801   156.766
 11634.5     118.805   6.803   168.53
 11635     117.227   6.811   180.293
 11635.5     117.533   6.819   183.152
 11636     117.839   6.827   178.341
 11636.5     118.134   6.836   173.531
 11637     117.613   6.844   168.721
 11637.5     117.092   6.852   163.911
 11638     117.17   6.86   153.781
 11638.5     118.054   6.868   141.944
 11639     118.875   6.876   130.107
 11639.5     117.881   6.884   112.093
 11640     116.888   6.882   109.013
 11640.5     115.894   6.875   110.999
 11641     114.901   6.868   112.986
 11641.5     119.001   6.862   112.27
 11642     124.522   6.855   109.108
 11642.5     129.17   6.848   105.946
 11643     125.123   6.841   102.783
 11643.5     121.076   6.835   99.621
 11644     117.029   6.828   96.459
 11644.5     114.062   6.821   93.297
 11645     115.312   6.814   109.046
 11645.5     116.561   6.808   125.37
 11646     118.578   6.801   127.807
 11646.5     120.727   6.794   130.245
 11647     122.876   6.787   131.169
 11647.5     125.024   6.781   128.835
 11648     127.173   6.786   126.502
 11648.5     129.321   6.792   127.725
 11649     131.47   6.797   130.639
 11649.5     133.618   6.803   128.107
 11650     103.829   6.809   125.574
 11650.5     99.998   6.815   120.464
