###############################################
##         ENVERUS                           ##
##         ESS - Open Hole                   ##
##         PERMIAN / DELAWARE                ##
##         Nov 04 2023  V4.0                 ##
##         42-389-30414-00-00                ##
###############################################
## Copyright 2017-2023  ENVERUS.  All Rights Reserved. 
## Confidential - Property of ENVERUS, use governed by terms and 
## conditions found within the existing Information Services Subscription Agreement 
## (as may be amended, the “ISSA”) between Customer and ENVERUS. 
## 
~VERSION INFORMATION
# MNEM.UNIT                               DATA : DESCRIPTION OF MNEMONIC
#-----.-----     ----------------------------- : -----------------------------
VERS.                                     2.00 : CWLS LOG ASCII STANDARD - VERSION 2.00
WRAP.                                       NO : MULTIPLE LINES PER DEPTH STEP
VEND.                                  ENVERUS : VENDOR
TYPE.                          ESS - OPEN HOLE : ENVERUS ESSENTIAL CURVES – ACCESSIBLE THROUGH ENVERUS PRISM(TM)
DOC.                                  31965441 : ENVERUS HEADER RAW DOCUMENT ID
#___________________________________________________________________________________________________ 
~WELL INFORMATION 
# 4Nagw4FJNzCtYOfTAudVsymR6uv0ccMrNFKiy1Vrqa1gQVNLoB6NNR/Tzdk8H0Jxf2Akv2rjPRKaT9zVNBkTiw== 
# MNEM.UNIT                                              DATA : DESCRIPTION OF MNEMONIC 
#-----.-----                    ----------------------------- : ----------------------------- 
CNTY.                                                  REEVES : COUNTY 
STATE.                                                  TEXAS : STATE 
CNTRY.                                                    USA : COUNTRY 
API.                                             42-389-30414 : API (10 Digit) 
API_14.                                    42-389-30414-00-00 : API (14 Digits) 
API_14_std.                                 42-389-30414-0000 : API (14 Digits Standard) 
UWI.                                           42389304140000 : UNIQUE WELL ID 
WELL.                                            TXL 17-39  2 : WELL NAME
STRT.FT                                                 237.0 : START DEPTH
STOP.FT                                               13872.0 : STOP DEPTH
STEP.FT                                                   0.5 : STEP BETWEEN DEPTHS
NULL.                                                 -999.25 : NULL VALUE
COMP.                          ENDEAVOR ENERGY RESOURCES L.P. : COMPANY
#___________________________________________________________________________________________________ 
~CURVE INFORMATION 
# MNEM.UNIT           : CURVE DESCRIPTION 
#-----.-----          : ----------------------------- 
 DEPT.FT               : MEASURED DEPTH 
 CALI.IN               : CALIPER (CAL - CAL) 
 GR.API                : GAMMA RAY (GR) 
 DT.US/FT              : SONIC DELTA TRANSIT TIME (DT) 
 RESS.OHMM             : SHALLOW INDUCTION RESISTIVITY (ILS - ILS) 
 RESD.OHMM             : DEEP INDUCTION RESISTIVITY (ILD - ILD) 
 #___________________________________________________________________________________________________ 
~A         DEPT           CALI             GR             DT           RESS           RESD
# ...
         6969.0          9.905        103.172         77.384        103.919        203.693
         6969.5          9.904        102.623         73.565        109.816        209.941
         6970.0          9.904         96.253         74.982        115.713        216.189
         6970.5          9.903         89.883         76.399        132.088        222.437
         6971.0          9.903         83.513         77.816        150.811        223.802
         6971.5          9.903         85.929         79.233        142.430        190.465
         6972.0          9.902         90.391         80.650        122.614        157.128
         6972.5          9.902         94.854         82.067        102.799        123.791
         6973.0          9.901         99.317         82.927         97.069        107.797
         6973.5          9.901        103.779         80.123        112.577        141.189
         6974.0          9.901        104.127         77.481        128.086        174.580
         6974.5          9.900        102.624         78.309        143.594        207.972
         6975.0          9.900        105.772         78.440        161.568        241.363
         6975.5          9.899        108.920         76.769        191.793        284.786
         6976.0          9.899        112.068         75.098        222.017        358.187
         6976.5          9.898        106.587         73.427        252.242        431.589
         6977.0          9.898         98.929         73.446        273.813        504.990
         6977.5          9.898         91.271         75.471        248.199        578.392
         6978.0          9.897         89.595         77.497        222.586        405.345
         6978.5          9.897         88.587         78.832        195.960        252.797
         6979.0          9.896         87.579         78.616        159.678        201.781
         6979.5          9.896         88.538         78.401        123.396        150.765
         6980.0          9.896         89.551         78.185         87.114         99.750
         6980.5          9.895         90.563         77.970         75.662         83.291
         6981.0          9.895         91.575         78.898         73.152         88.260
         6981.5          9.894         92.588         79.865         69.291         85.158
         6982.0          9.894         93.342         80.833         62.976         77.175
         6982.5          9.893         91.764         81.800         56.661         69.192
         6983.0          9.893         90.186         80.587         51.469         61.209
         6983.5          9.893         88.607         79.342         59.621         54.524
         6984.0          9.892         87.029         78.097         67.773         94.007
         6984.5          9.892         88.577         78.925        103.585        133.490
         6985.0          9.891         94.421         81.344        140.436        172.973
         6985.5          9.891        100.264         83.763        160.870        192.324
         6986.0          9.891        106.108         86.182        140.805        169.664
         6986.5          9.890        105.387         85.192        120.740        147.005
         6987.0          9.890        103.704         83.986        102.864        123.543
         6987.5          9.889        102.020         82.779         86.159         98.772
         6988.0          9.889        100.336         82.789         73.023         84.854
         6988.5          9.888         98.653         83.917         64.361         76.612
         6989.0          9.888        102.081         85.046         64.279         68.371
         6989.5          9.888        108.806         86.174         73.789         84.705
         6990.0          9.887        115.531         87.302         99.831        109.687
         6990.5          9.887        122.256         88.430        125.996        134.670
         6991.0          9.886        128.981         87.772        156.675        159.652
         6991.5          9.886        125.513         86.527        187.847        339.187
         6992.0          9.886        118.201         85.281        171.638        282.357
         6992.5          9.885        110.889         83.609        155.430        225.528
         6993.0          9.885        103.577         81.406        139.222        168.698
         6993.5          9.884         96.264         73.687        123.013        144.455
         6994.0          9.884         88.952         69.071        130.030        165.122
         6994.5          9.883         81.640         67.359        149.235        185.788
         6995.0          9.883         74.328         65.646        192.588        471.191
         6995.5          9.883         67.015         63.934        284.565        883.125
         6996.0          9.882         63.854         62.222        376.543       1295.060
         6996.5          9.882         63.606         62.994        412.807       1435.654
         6997.0          9.881         63.358         65.672        426.351       1370.764
         6997.5          9.881         79.055         69.715        415.989       1305.874
         6998.0          9.881        103.117         73.757        405.626       1109.064
         6998.5          9.880        122.329         84.092        387.904        854.970
         6999.0          9.880        129.340         87.943        364.442        696.797
         6999.5          9.879        138.901         86.538        337.739        626.446
         7000.0          9.879        136.867         85.133        295.402        556.094
         7000.5          9.878        132.882         83.729        253.065        366.170
         7001.0          9.878        128.896         82.315        235.618        367.195
         7001.5          9.878        124.911         80.887        229.399        368.219
         7002.0          9.877        114.837         79.458        233.118        369.243
         7002.5          9.877        105.885         79.120        236.838        370.267
         7003.0          9.876        102.237         80.525        240.558        371.291
         7003.5          9.876        104.756         81.929        244.278        372.315
         7004.0          9.876        107.275         82.774        236.181        359.012
         7004.5          9.875        109.795         82.053        223.590        336.904
         7005.0          9.875        112.314         81.331        210.999        314.796
         7005.5          9.874        104.236         75.241        198.408        292.688
         7006.0          9.874         92.688         67.638        185.816        270.580
         7006.5          9.873         81.140         65.713        181.025        274.841
         7007.0          9.873         69.592         63.788        183.613        292.519
         7007.5          9.873         58.044         61.863        192.076        310.198
         7008.0          9.872         46.496         61.523        210.836        341.003
         7008.5          9.872         53.493         64.104        229.597        386.376
         7009.0          9.871         60.740         66.685        248.357        431.749
         7009.5          9.871         68.056         72.417        260.307        477.123
         7010.0          9.871         78.323         79.377        269.905        439.770
         7010.5          9.870         88.591         81.608        252.447        396.615
         7011.0          9.870         98.858         83.838        228.775        353.461
         7011.5          9.869        109.126         82.231        213.877        310.306
         7012.0          9.869        116.472         81.658        204.129        267.152
         7012.5          9.868        115.634         82.169        188.074        223.997
