#--------------------------------------------------#
#-------------------ENVERUS, INC.------------------#
#------------------WWW.ENVERUS.COM-----------------#
#------------------COPYRIGHT 2020------------------#
#--------------------------------------------------#
#THIS FILE MAY BE USED ONLY IN ACCORDANCE WITH A CURRENT SUBSCRIPTION AGREEMENT BETWEEN
#THE USER AND ENVERUS, INC. NO PART OF THIS FILE MAY BE REPRODUCED, USED, COPIED,
#MODIFIED, PROPAGATED, OR DISTRIBUTED EXCEPT IN ACCORDANCE WITH THE SUBSCRIPTION
#AGREEMENT. UNAUTHORIZED USE OR DISTRIBUTION OF ALL OR ANY PART OF THIS FILE MAY VIOLATE
#COPYRIGHT, TRADEMARK, AND/OR OTHER LAWS AND IS SUBJECT TO CIVIL AS WELL AS CRIMINAL
#SANCTIONS.
#--------------------------------------------------#
#THIS FILE IS PROVIDED "AS-IS" AND ALL WARRANTIES ARE EXPRESSLY DISCLAIMED, WHETHER
#EXPRESS, ORAL, IMPLIED, STATUTORY OR OTHERWISE, INCLUDING ANY IMPLIED WARRANTY OF FITNESS
#FOR A PARTICULAR PURPOSE, MERCHANTABILITY, TITLE OR NON-INFRINGEMENT, AND ANY WARRANTIES
#ARISING BY VIRTUE OF CUSTOM OF TRADE OR COURSE OF DEALING.  FURTHER, ENVERUS, INC.
#AND ITS LICENSORS DO NOT REPRESENT OR WARRANT THAT THIS FILE WILL MEET USER'S
#REQUIREMENTS OR ARE SUITABLE FOR USER'S NEEDS OR THAT THE DATA OR RESULTS PROVIDED IN
#CONJUNCTION THEREWITH ARE CORRECT, ACCURATE, TIMELY OR RELIABLE. THESE DISCLAIMERS SHALL
#APPLY REGARDLESS OF ANY FAILURE OF ESSENTIAL PURPOSE OF ANY LIMITED REMEDY.  SOME
#JURISDICTIONS DO NOT ALLOW THE EXCLUSION OF CERTAIN WARRANTIES SO SOME OF THE ABOVE
#EXCLUSIONS MAY NOT APPLY. IN NO EVENT SHALL ENVERUS, INC. OR ANY OF ITS AFFILIATES
#BE LIABLE UNDER ANY LEGAL THEORY, WHETHER IN TORT (INCLUDING WITHOUT LIMITATION
#NEGLIGENCE), CONTRACT, STRICT LIABILITY, STATUTORY OR OTHERWISE, FOR ANY SPECIAL,
#INCIDENTAL, CONSEQUENTIAL, EXEMPLARY, PUNITIVE OR INDIRECT DAMAGE OF ANY KIND, INCLUDING
#WITHOUT LIMITATION LOSS OF REVENUE, PROFITS, GOODWILL, USE, AND/OR DATA OR THE COST OF
#PROCUREMENT OF SUBSTITUTE GOODS OR SERVICES, EVEN IF APPRISED OF THE POSSIBILITY OF SUCH
#DAMAGES IN ADVANCE.
#--------------------------------------------------#

~VERSION INFORMATION
VERS. 2.0 : CWLS LOG ASCII STANDARD - VERSION 2.0
WRAP.  NO : ONE LINE PER DEPTH STEP
~WELL INFORMATION
#MNEMONIC     .UNIT              VALUE :DESCRIPTION
STRT       .FT                0 :START DEPTH
STOP       .FT                15761 :STOP DEPTH
STEP       .FT                   0.500 :STEP
NULL       .                  -999.250 :NULL
UWI        .              42389302550000 :UNIQUE WELL ID
API        .              42389302550000 :API NUMBER
COMP       .         COASTAL STATES GAS PROD. CO. :COMPANY
WELL       .        CHAPMAN  MCGUIRE & WYNNE  3B :WELL
DATE       .                            :LOG DATE
~CURVE INFORMATION
#MNEMONIC     .UNIT      API CODE :CURVE DESCRIPTION
DEPTH       .FT                      :MEASURED DEPTH
GR.API        UNKNOWN   :GR
DT.US/FT        UNKNOWN   :DT
CAL.INCH        UNKNOWN   :CAL
~A    DEPTH    GR    DT    CAL
# ...
 7199     64.474   81.987   13.209
 7199.5     66.114   83.359   13.21
 7200     67.754   85.58   13.212
 7200.5     66.937   87.849   13.213
 7201     66.264   89.77   13.214
 7201.5     67.883   87.568   13.215
 7202     66.546   89.487   13.216
 7202.5     67.674   90.046   13.217
 7203     69.576   88.741   13.218
 7203.5     71.477   90.073   13.219
 7204     72.253   89.825   13.221
 7204.5     72.312   89.113   13.222
 7205     74.037   89.456   13.223
 7205.5     75.762   90.092   13.226
 7206     77.488   90.318   13.232
 7206.5     77.791   90.544   13.237
 7207     75.785   90.77   13.242
 7207.5     70.281   92.012   13.248
 7208     63.635   95.116   13.253
 7208.5     58.731   99.838   13.258
 7209     55.141   103.768   13.264
 7209.5     51.552   107.592   13.269
 7210     48.105   109.154   13.274
 7210.5     48.909   110.716   13.28
 7211     54.072   89.901   13.285
 7211.5     61.283   92.863   13.29
 7212     68.011   99.218   13.291
 7212.5     73.404   96.275   13.288
 7213     74.704   89.997   13.285
 7213.5     72.561   89.062   13.282
 7214     70.176   87.185   13.279
 7214.5     67.791   88.489   13.276
 7215     65.579   93.684   13.273
 7215.5     68.132   96.276   13.269
 7216     70.686   90.687   13.266
 7216.5     71.618   90.006   13.263
 7217     69.345   90.31   13.26
 7217.5     67.072   90.135   13.257
 7218     66.211   87.917   13.254
 7218.5     65.906   87.499   13.251
 7219     64.758   88.216   13.248
 7219.5     64.184   88.934   13.245
 7220     64.597   97.691   13.242
 7220.5     65.009   91.635   13.239
 7221     65.422   89.666   13.236
 7221.5     63.212   90.032   13.232
 7222     60.951   88.464   13.229
 7222.5     60.147   82.717   13.226
 7223     59.343   91.326   13.223
 7223.5     61.01   90.612   13.22
 7224     64.201   98.278   13.217
 7224.5     63.029   91.998   13.214
 7225     61.857   85.545   13.211
 7225.5     66.534   84.154   13.208
 7226     71.249   90.382   13.205
 7226.5     76.34   93.062   13.202
 7227     79.494   92.322   13.199
 7227.5     75.659   91.581   13.195
 7228     72.088   92.666   13.192
 7228.5     73.813   94.993   13.189
 7229     74.62   98.278   13.187
 7229.5     70.392   93.007   13.19
 7230     69.43   93.031   13.192
 7230.5     71.442   95.406   13.195
 7231     71.036   95.469   13.197
 7231.5     70.367   87.939   13.2
 7232     73.15   88.083   13.202
 7232.5     77.185   87.948   13.205
 7233     81.22   82.846   13.207
 7233.5     83.38   93.627   13.21
 7234     83.171   95.917   13.213
 7234.5     80.135   100.036   13.215
 7235     77.1   100.145   13.218
 7235.5     74.122   95.092   13.22
 7236     71.451   92.839   13.223
 7236.5     70.184   92.308   13.225
 7237     70.184   92.121   13.228
 7237.5     70.183   91.935   13.23
 7238     68.358   90.83   13.233
 7238.5     65.019   86.653   13.235
 7239     61.68   82.583   13.238
 7239.5     54.493   78.224   13.241
 7240     50.43   77.334   13.243
 7240.5     48.337   79.277   13.246
 7241     51.024   83.348   13.248
 7241.5     53.711   90.484   13.251
 7242     56.911   91.806   13.253
 7242.5     63.319   97.626   13.256
 7243     69.727   87.736   13.255
 7243.5     70.959   97.957   13.255
 7244     72.121   93.992   13.255
 7244.5     73.283   91.884   13.255
 7245     74.444   92.404   13.255
 7245.5     75.524   92.924   13.255
 7246     74.386   92.499   13.255
 7246.5     71.618   91.782   13.255
 7247     68.851   90.974   13.255
 7247.5     66.084   91.054   13.255
 7248     65.174   91.396   13.255
 7248.5     64.808   90.355   13.255
 7249     64.441   90.321   13.255
 7249.5     62.712   89.831   13.255
 7250     60.632   86.955   13.255
 7250.5     57.875   89.238   13.255
 7251     53.875   100.153   13.253
 7251.5     53.533   96.322   13.251
 7252     57.705   96.183   13.248
 7252.5     61.876   89.527   13.246
 7253     62.91   91.445   13.244
 7253.5     62.909   90.182   13.242
 7254     66.197   90.702   13.239
 7254.5     71.81   89.32   13.237
 7255     73.935   88.062   13.235
 7255.5     72.3   86.776   13.233
 7256     63.889   84.511   13.23
 7256.5     59.241   80.215   13.228
 7257     56.125   76.866   13.226
 7257.5     53.008   78.973   13.224
 7258     51.898   75.911   13.221
 7258.5     53.239   78.004   13.219
 7259     54.701   81.378   13.217
 7259.5     56.462   83.832   13.215
 7260     58.223   85.8   13.212
 7260.5     59.984   87.768   13.21
 7261     61.745   88.767   13.208
 7261.5     64.396   88.56   13.206
 7262     67.083   88.617   13.204
 7262.5     69.769   90.264   13.201
 7263     71.729   90.263   13.199
 7263.5     69.503   86.854   13.197
 7264     65.766   84.6   13.195
 7264.5     62.03   84.187   13.192
 7265     64.938   86.296   13.19
 7265.5     71.435   88.942   13.188
 7266     77.931   88.176   13.186
 7266.5     76.272   84.439   13.186
 7267     70.14   80.701   13.196
 7267.5     63.483   81.812   13.207
 7268     61.382   84.124   13.217
 7268.5     65.539   89.352   13.228
 7269     69.695   88.077   13.238
 7269.5     69.142   82.791   13.249
 7270     63.91   80.736   13.259
 7270.5     59.239   78.68   13.27
 7271     54.569   79.334   13.28
 7271.5     53.91   79.012   13.291
 7272     53.612   78.69   13.301
 7272.5     53.938   78.018   13.312
 7273     54.944   77.698   13.322
 7273.5     55.843   77.983   13.333
 7274     56.511   77.794   13.343
 7274.5     53.585   77.429   13.354
 7275     49.047   76.643   13.364
 7275.5     44.509   73.357   13.375
 7276     39.917   67.593   13.386
 7276.5     35.322   62.596   13.398
 7277     28.956   59.206   13.41
 7277.5     20.976   56.592   13.422
 7278     19.473   55.699   13.434
 7278.5     19.174   55.183   13.446
 7279     19.918   55.622   13.458
 7279.5     20.662   57.126   13.469
 7280     25.24   63.229   13.479
 7280.5     33.73   70.207   13.47
 7281     53.964   78.405   13.461
 7281.5     69.371   84.806   13.452
 7282     81.734   90.032   13.443
 7282.5     87.648   90.576   13.435
 7283     85.738   88.98   13.426
 7283.5     79.453   84.477   13.417
 7284     73.09   83.933   13.408
 7284.5     70.947   86.355   13.4
 7285     75.91   89.267   13.391
 7285.5     83.4   91.599   13.382
 7286     90.891   93.743   13.373
 7286.5     92.885   94.563   13.364
 7287     87.596   93.444   13.356
 7287.5     81.375   89.927   13.347
 7288     75.153   86.971   13.338
 7288.5     68.214   84.034   13.329
 7289     60.672   81.062   13.321
 7289.5     59.817   78.091   13.312
 7290     59.65   76.164   13.303
 7290.5     55.262   74.769   13.294
 7291     49.394   70.713   13.285
 7291.5     43.638   69.353   13.277
 7292     43.637   68.997   13.268
 7292.5     43.309   69.108   13.259
 7293     40.635   71.694   13.25
 7293.5     42.439   74.715   13.242
 7294     45.613   73.132   13.233
 7294.5     48.788   72.496   13.224
 7295     50.507   73.919   13.216
 7295.5     51.849   75.342   13.216
 7296     56.62   80.336   13.216
 7296.5     67.432   87.431   13.226
 7297     79.262   89.106   13.274
 7297.5     85.734   88.865   13.321
 7298     86.47   86.642   13.369
 7298.5     81.013   84.272   13.417
 7299     75.556   84.805   13.402
 7299.5     73.831   86.58   13.371
 7300     79.486   88.356   13.341
 7300.5     94.845   90.131   13.311
 7301     103.522   90.951   13.281
 7301.5     108.567   90.928   13.251
 7302     112.255   90.348   13.221
 7302.5     114.553   90.431   13.191
 7303     111.069   89.558   13.195
 7303.5     105.865   87.897   13.217
 7304     102.69   89.552   13.239
 7304.5     99.515   88.857   13.261
 7305     96.341   87.007   13.283
 7305.5     91.472   83.126   13.305
 7306     78.208   81.646   13.308
 7306.5     73.872   81.566   13.266
 7307     71.771   81.603   13.225
 7307.5     72.902   82.48   13.183
 7308     74.394   83.625   13.142
 7308.5     75.313   78.402   13.115
 7309     74.221   71.049   13.132
 7309.5     62.259   62.787   13.149
 7310     50.676   61.861   13.166
 7310.5     40.355   63.337   13.183
