###############################################
##         ENVERUS                           ##
##         ESS - Open Hole                   ##
##         PERMIAN / DELAWARE                ##
##         Nov 04 2023  V4.0                 ##
##         42-389-32484-00-00                ##
###############################################
## Copyright 2017-2023  ENVERUS.  All Rights Reserved. 
## Confidential - Property of ENVERUS, use governed by terms and 
## conditions found within the existing Information Services Subscription Agreement 
## (as may be amended, the “ISSA”) between Customer and ENVERUS. 
## 
~VERSION INFORMATION
# MNEM.UNIT                               DATA : DESCRIPTION OF MNEMONIC
#-----.-----     ----------------------------- : -----------------------------
VERS.                                     2.00 : CWLS LOG ASCII STANDARD - VERSION 2.00
WRAP.                                       NO : MULTIPLE LINES PER DEPTH STEP
VEND.                                  ENVERUS : VENDOR
TYPE.                          ESS - OPEN HOLE : ENVERUS ESSENTIAL CURVES – ACCESSIBLE THROUGH ENVERUS PRISM(TM)
DOC.                                  31780441 : ENVERUS HEADER RAW DOCUMENT ID
#___________________________________________________________________________________________________ 
~WELL INFORMATION 
# aTsA/KVwhIqB1dg6n/zy22zTJjsJnyaNqg27ywuj9UrTfzbM7gscpQTlR+gOLN+9jERwUBAE6KvHEXpIT+cpyg== 
# MNEM.UNIT                                              DATA : DESCRIPTION OF MNEMONIC 
#-----.-----                    ----------------------------- : ----------------------------- 
CNTY.                                                  REEVES : COUNTY 
STATE.                                                  TEXAS : STATE 
CNTRY.                                                    USA : COUNTRY 
API.                                             42-389-32484 : API (10 Digit) 
API_14.                                    42-389-32484-00-00 : API (14 Digits) 
API_14_std.                                 42-389-32484-0000 : API (14 Digits Standard) 
UWI.                                           42389324840000 : UNIQUE WELL ID 
WELL.                                        BLK 59 ST 37  1H : WELL NAME
STRT.FT                                                 236.0 : START DEPTH
STOP.FT                                               12079.0 : STOP DEPTH
STEP.FT                                                   0.5 : STEP BETWEEN DEPTHS
NULL.                                                 -999.25 : NULL VALUE
COMP.                                       SHELL WESTERN E&P : COMPANY 
DATE.                                             05-SEP-2007 : LOG DATE
#___________________________________________________________________________________________________ 
~CURVE INFORMATION 
# MNEM.UNIT           : CURVE DESCRIPTION 
#-----.-----          : ----------------------------- 
 DEPT.FT               : MEASURED DEPTH 
 CALI.IN               : CALIPER (CAL - CAL) 
 GR.API                : GAMMA RAY (GR) 
 DT.US/FT              : SONIC DELTA TRANSIT TIME (DT) 
 DPHI.V/V              : DENSITY POROSITY (DPHI) 
 NPHI.V/V              : NEUTRON POROSITY (NPHI) 
 RHOB.G/CC             : BULK DENSITY (RHOB) 
 #___________________________________________________________________________________________________ 
~A         DEPT           CALI             GR             DT           DPHI           NPHI           RHOB
# ...
         5062.0         13.111        158.319       -999.250        0.10086        0.17721         2.5400
         5062.5         13.081        153.828       -999.250        0.09762        0.16632         2.5720
         5063.0         13.051        139.117       -999.250        0.07485        0.14547         2.6260
         5063.5         13.023        128.885       -999.250        0.05209        0.12462         2.6070
         5064.0         13.046        146.808       -999.250        0.06301        0.11060         2.5880
         5064.5         13.067        170.927       -999.250        0.08112        0.14924         2.5690
         5065.0         13.067        196.446       -999.250        0.09246        0.19026         2.5500
         5065.5         13.067        186.960       -999.250        0.09937        0.19911         2.5410
         5066.0         13.067        172.746       -999.250        0.08943        0.19843         2.5530
         5066.5         13.067        161.479       -999.250        0.07994        0.17968         2.5650
         5067.0         13.082        150.477       -999.250        0.07482        0.15883         2.5770
         5067.5         13.107        119.412       -999.250        0.07802        0.14235         2.5770
         5068.0         13.132         87.017       -999.250        0.09457        0.12588         2.5640
         5068.5         13.156         64.874       -999.250        0.10896        0.12332         2.5510
         5069.0         13.181         59.236       -999.250        0.09888        0.12118         2.5370
         5069.5         13.205         59.758       -999.250        0.07387        0.11904         2.5370
         5070.0         13.230         61.183       -999.250        0.08713        0.11757         2.5820
         5070.5         13.241         62.420       -999.250        0.10038        0.12111         2.5560
         5071.0         13.222         63.112       -999.250        0.10844        0.12536         2.5310
         5071.5         13.202         66.741       -999.250        0.09909        0.13248         2.5360
         5072.0         13.183         78.703       -999.250        0.09229        0.13598         2.5470
         5072.5         13.202         83.397       -999.250        0.09261        0.13838         2.5580
         5073.0         13.232         84.448       -999.250        0.10074        0.14079         2.5490
         5073.5         13.262         82.980       -999.250        0.10532        0.14319         2.5400
         5074.0         13.291         78.254       -999.250        0.10815        0.14136         2.5300
         5074.5         13.276         73.473       -999.250        0.10888        0.13919         2.5250
         5075.0         13.261         71.275       -999.250        0.11000        0.13702         2.5230
         5075.5         13.245         70.418       -999.250        0.10689        0.13596         2.5270
         5076.0         13.230         70.914       -999.250        0.09732        0.13518         2.5500
         5076.5         13.232         72.367       -999.250        0.09278        0.13440         2.5510
         5077.0         13.247         73.820       -999.250        0.09334        0.13347         2.5460
         5077.5         13.263         75.274       -999.250        0.09867        0.13269         2.5410
         5078.0         13.278         74.591       -999.250        0.09905        0.12803         2.5350
         5078.5         13.288         73.657       -999.250        0.10253        0.12501         2.5300
         5079.0         13.271         72.690       -999.250        0.10698        0.12427         2.5310
         5079.5         13.254         72.332       -999.250        0.10583        0.12404         2.5370
         5080.0         13.242         72.162       -999.250        0.09677        0.12331         2.5430
         5080.5         13.235         71.812       -999.250        0.08993        0.12267         2.5490
         5081.0         13.228         69.147       -999.250        0.09195        0.12343         2.5530
         5081.5         13.221         67.152       -999.250        0.10004        0.12513         2.5450
         5082.0         13.209         65.250       -999.250        0.10542        0.12917         2.5370
         5082.5         13.198         64.599       -999.250        0.10094        0.13142         2.5390
         5083.0         13.187         65.275       -999.250        0.09645        0.13055         2.5430
         5083.5         13.175         65.951       -999.250        0.09627        0.12969         2.5480
         5084.0         13.164         65.572       -999.250        0.09720        0.12882         2.5520
         5084.5         13.153         63.700       -999.250        0.09673        0.12043         2.5660
         5085.0         13.144         61.417       -999.250        0.08566        0.10937         2.5800
         5085.5         13.134         59.134       -999.250        0.06928        0.09831         2.5950
         5086.0         13.125         61.054       -999.250        0.05524        0.08724         2.6090
         5086.5         13.116         65.651       -999.250        0.05749        0.07939         2.6060
         5087.0         13.106         70.794       -999.250        0.06394        0.08068         2.5950
         5087.5         13.097         71.996       -999.250        0.07576        0.08561         2.5840
         5088.0         13.088         72.226       -999.250        0.08758        0.09105         2.5730
         5088.5         13.072         75.586       -999.250        0.09327        0.09650         2.5620
         5089.0         13.056         80.285       -999.250        0.09309        0.10194         2.5500
         5089.5         13.039         82.594       -999.250        0.09057        0.10739         2.5570
         5090.0         13.023         85.459       -999.250        0.08812        0.11130         2.5660
         5090.5         13.007         93.516       -999.250        0.08585        0.11339         2.5730
         5091.0         12.990        105.578       -999.250        0.07983        0.12493         2.5650
         5091.5         12.974        121.770       -999.250        0.08637        0.14026         2.5560
         5092.0         12.958        158.192       -999.250        0.09607        0.15835         2.5480
         5092.5         12.941        173.135       -999.250        0.09897        0.17645         2.5390
         5093.0         12.925        177.269       -999.250        0.08812        0.18950         2.6450
         5093.5         12.909        172.697       -999.250        0.03609        0.18543         2.6620
         5094.0         12.905        166.020       -999.250        0.01754        0.17581         2.6430
         5094.5         12.905        157.458       -999.250        0.03581        0.15240         2.6240
         5095.0         12.905        143.627       -999.250        0.06225        0.14483         2.6050
         5095.5         12.905        130.264       -999.250        0.07763        0.14714         2.5870
         5096.0         12.905        116.902       -999.250        0.07886        0.14945         2.6060
         5096.5         12.905        105.795       -999.250        0.07260        0.14903         2.6010
         5097.0         12.905        102.499       -999.250        0.06325        0.14067         2.5970
         5097.5         12.907         99.164       -999.250        0.06462        0.13231         2.5920
         5098.0         12.913         95.448       -999.250        0.06920        0.12483         2.5870
         5098.5         12.918         87.545       -999.250        0.07528        0.11894         2.5830
         5099.0         12.923         78.918       -999.250        0.07817        0.11304         2.5850
         5099.5         12.929         64.478       -999.250        0.07646        0.10715         2.5890
