#--------------------------------------------------#
#-------------------ENVERUS, INC.------------------#
#------------------WWW.ENVERUS.COM-----------------#
#------------------COPYRIGHT 2020------------------#
#--------------------------------------------------#
#THIS FILE MAY BE USED ONLY IN ACCORDANCE WITH A CURRENT SUBSCRIPTION AGREEMENT BETWEEN
#THE USER AND ENVERUS, INC. NO PART OF THIS FILE MAY BE REPRODUCED, USED, COPIED,
#MODIFIED, PROPAGATED, OR DISTRIBUTED EXCEPT IN ACCORDANCE WITH THE SUBSCRIPTION
#AGREEMENT. UNAUTHORIZED USE OR DISTRIBUTION OF ALL OR ANY PART OF THIS FILE MAY VIOLATE
#COPYRIGHT, TRADEMARK, AND/OR OTHER LAWS AND IS SUBJECT TO CIVIL AS WELL AS CRIMINAL
#SANCTIONS.
#--------------------------------------------------#
#THIS FILE IS PROVIDED "AS-IS" AND ALL WARRANTIES ARE EXPRESSLY DISCLAIMED, WHETHER
#EXPRESS, ORAL, IMPLIED, STATUTORY OR OTHERWISE, INCLUDING ANY IMPLIED WARRANTY OF FITNESS
#FOR A PARTICULAR PURPOSE, MERCHANTABILITY, TITLE OR NON-INFRINGEMENT, AND ANY WARRANTIES
#ARISING BY VIRTUE OF CUSTOM OF TRADE OR COURSE OF DEALING.  FURTHER, ENVERUS, INC.
#AND ITS LICENSORS DO NOT REPRESENT OR WARRANT THAT THIS FILE WILL MEET USER'S
#REQUIREMENTS OR ARE SUITABLE FOR USER'S NEEDS OR THAT THE DATA OR RESULTS PROVIDED IN
#CONJUNCTION THEREWITH ARE CORRECT, ACCURATE, TIMELY OR RELIABLE. THESE DISCLAIMERS SHALL
#APPLY REGARDLESS OF ANY FAILURE OF ESSENTIAL PURPOSE OF ANY LIMITED REMEDY.  SOME
#JURISDICTIONS DO NOT ALLOW THE EXCLUSION OF CERTAIN WARRANTIES SO SOME OF THE ABOVE
#EXCLUSIONS MAY NOT APPLY. IN NO EVENT SHALL ENVERUS, INC. OR ANY OF ITS AFFILIATES
#BE LIABLE UNDER ANY LEGAL THEORY, WHETHER IN TORT (INCLUDING WITHOUT LIMITATION
#NEGLIGENCE), CONTRACT, STRICT LIABILITY, STATUTORY OR OTHERWISE, FOR ANY SPECIAL,
#INCIDENTAL, CONSEQUENTIAL, EXEMPLARY, PUNITIVE OR INDIRECT DAMAGE OF ANY KIND, INCLUDING
#WITHOUT LIMITATION LOSS OF REVENUE, PROFITS, GOODWILL, USE, AND/OR DATA OR THE COST OF
#PROCUREMENT OF SUBSTITUTE GOODS OR SERVICES, EVEN IF APPRISED OF THE POSSIBILITY OF SUCH
#DAMAGES IN ADVANCE.
#--------------------------------------------------#

~VERSION INFORMATION
VERS. 2.0 : CWLS LOG ASCII STANDARD - VERSION 2.0
WRAP.  NO : ONE LINE PER DEPTH STEP
~WELL INFORMATION
#MNEMONIC     .UNIT              VALUE :DESCRIPTION
STRT       .FT                51 :START DEPTH
STOP       .FT                4494 :STOP DEPTH
STEP       .FT                   0.500 :STEP
NULL       .                  -999.990 :NULL
UWI        .              42389102200000 :UNIQUE WELL ID
API        .              42389102200000 :API NUMBER
COMP       .         GRUY PETROLEUM MANAGEMENT CO. :COMPANY
WELL       .        REEVES -AQ- FEE  2 :WELL
DATE       .                30-NOV-1992 :LOG DATE
~CURVE INFORMATION
#MNEMONIC     .UNIT      API CODE :CURVE DESCRIPTION
DEPTH       .FT                      :MEASURED DEPTH
CAL.INCH        UNKNOWN   :CAL
GR.API        UNKNOWN   :GR
DT.US/FT        UNKNOWN   :DT
~A    DEPTH    CAL    GR    DT
# ...
 3014     9.661   53.306   77.254
 3014.5     9.649   56.915   76.86
 3015     9.623   60.444   76.467
 3015.5     9.598   63.919   76.074
 3016     9.573   66.747   75.681
 3016.5     9.547   67.975   75.288
 3017     9.522   69.202   75.47
 3017.5     9.496   70.644   75.94
 3018     9.495   72.246   76.41
 3018.5     9.511   72.252   76.88
 3019     9.527   67.466   77.566
 3019.5     9.474   62.679   78.97
 3020     9.346   57.893   80.374
 3020.5     9.218   53.106   81.778
 3021     9.138   49.963   83.182
 3021.5     9.136   48.393   83.641
 3022     9.133   46.823   83.36
 3022.5     9.131   47.401   83.08
 3023     9.128   48.606   82.799
 3023.5     9.126   49.812   82.19
 3024     9.123   51.017   80.81
 3024.5     9.121   52.222   80.715
 3025     9.118   50.158   81.59
 3025.5     9.12   46.901   82.465
 3026     9.151   43.644   82.72
 3026.5     9.182   40.386   81.741
 3027     9.213   38.936   80.762
 3027.5     9.245   40.073   79.783
 3028     9.276   41.21   79.051
 3028.5     9.307   42.347   79.194
 3029     9.338   43.484   79.337
 3029.5     9.365   43.173   78.624
 3030     9.357   42.395   73.006
 3030.5     9.349   41.617   74.715
 3031     9.342   41.473   76.424
 3031.5     9.359   43.272   78.133
 3032     9.377   45.07   79.842
 3032.5     9.394   46.869   79.941
 3033     9.412   46.41   78.302
 3033.5     9.429   45.243   76.663
 3034     9.446   44.076   75.24
 3034.5     9.464   42.909   76.745
 3035     9.481   41.696   78.251
 3035.5     9.499   39.92   79.756
 3036     9.516   38.145   81.262
 3036.5     9.534   36.37   82.767
 3037     9.551   36.244   84.272
 3037.5     9.57   37.445   85.778
 3038     9.611   38.645   85.251
 3038.5     9.651   41.533   83.826
 3039     9.691   46.465   83.231
 3039.5     9.732   50.389   83.928
 3040     9.772   48.618   84.308
 3040.5     9.813   46.846   84.327
 3041     9.762   45.075   84.347
 3041.5     9.702   43.304   84.366
 3042     9.642   41.425   85.068
 3042.5     9.587   39.527   85.988
 3043     9.552   37.629   86.715
 3043.5     9.518   35.731   86.47
 3044     9.483   37.504   86.225
 3044.5     9.448   39.528   85.98
 3045     9.414   41.552   85.735
 3045.5     9.379   41.61   85.773
 3046     9.344   41.293   85.845
 3046.5     9.31   40.975   85.916
 3047     9.275   40.658   85.802
 3047.5     9.28   40.798   85.639
 3048     9.287   41.303   85.476
 3048.5     9.295   41.809   85.313
 3049     9.302   42.315   85.15
 3049.5     9.31   42.821   84.249
 3050     9.317   41.167   81.453
 3050.5     9.316   39.253   78.957
 3051     9.264   38.218   78.65
 3051.5     9.212   37.919   78.343
 3052     9.159   37.619   76.723
 3052.5     9.107   37.32   74.511
 3053     9.055   37.778   72.299
 3053.5     9.002   38.645   70.087
 3054     8.95   39.511   72.09
 3054.5     8.704   39.18   75.063
 3055     8.702   38.764   78.036
 3055.5     8.699   40.054   81.009
 3056     8.697   42.503   82.847
 3056.5     8.695   44.554   83.155
 3057     8.692   45.565   83.463
 3057.5     8.69   46.576   83.215
 3058     8.687   47.674   81.593
 3058.5     8.685   49.192   79.972
 3059     8.682   50.709   79.006
 3059.5     8.68   51.904   78.884
 3060     8.678   49.057   78.762
 3060.5     8.675   46.21   78.64
 3061     8.673   44.147   76.529
 3061.5     8.67   43.698   75.121
 3062     8.668   43.248   74.368
 3062.5     8.666   42.798   74.498
 3063     8.663   42.135   76.738
 3063.5     8.661   41.19   77.075
 3064     8.658   40.245   77.194
 3064.5     8.588   39.301   77.313
 3065     8.514   39.821   77.316
 3065.5     8.441   40.471   76.735
 3066     8.386   41.121   76.155
 3066.5     8.388   41.77   75.574
 3067     8.39   42.42   75.883
 3067.5     8.392   42.759   76.867
 3068     8.394   42.761   77.851
 3068.5     8.396   42.763   78.745
 3069     8.398   42.765   79.443
 3069.5     8.4   43.792   80.14
 3070     8.402   45.53   80.838
 3070.5     8.404   47.268   81.535
 3071     8.405   49.006   81.658
 3071.5     8.407   50.744   79.288
 3072     8.409   52.482   76.918
 3072.5     8.411   54.22   76.13
 3073     8.411   55.958   75.365
 3073.5     8.382   57.696   74.601
 3074     8.352   51.376   73.837
 3074.5     8.323   42.171   73.072
 3075     8.293   41.796   72.308
 3075.5     8.264   41.421   72.435
 3076     8.234   41.047   73.661
 3076.5     8.205   42.991   74.887
 3077     8.175   45.416   76.113
 3077.5     8.146   48.398   77.339
 3078     8.116   51.38   77.031
 3078.5     8.087   52.739   76.425
 3079     8.057   50.84   76.303
 3079.5     8.028   50.178   76.181
 3080     7.998   51.556   76.059
 3080.5     7.98   52.935   75.801
 3081     7.964   54.314   75.289
 3081.5     7.948   55.948   74.778
 3082     7.932   59.58   74.267
 3082.5     7.916   63.212   73.755
 3083     7.9   66.844   73.244
 3083.5     7.885   70.476   72.733
 3084     7.869   74.108   72.221
 3084.5     7.853   73.522   71.71
 3085     7.837   71.327   71.199
 3085.5     7.821   71.529   71.26
 3086     7.805   72.468   71.545
 3086.5     7.789   73.099   71.829
 3087     7.773   67.763   71.206
 3087.5     7.757   62.427   69.937
 3088     7.738   57.092   68.668
 3088.5     7.714   51.756   67.399
 3089     7.69   46.42   66.13
 3089.5     7.666   47.059   67.409
 3090     7.642   53.334   68.843
 3090.5     7.618   59.61   70.277
 3091     7.601   63.473   71.711
 3091.5     7.605   63.87   71.495
 3092     7.609   62.798   71.178
 3092.5     7.614   61.726   70.861
 3093     7.618   61.786   70.544
 3093.5     7.622   62.724   70.226
 3094     7.626   63.663   69.909
 3094.5     7.629   61.528   69.592
 3095     7.632   58.837   69.417
 3095.5     7.635   68.262   69.319
 3096     7.637   79.259   69.222
 3096.5     7.64   90.256   70.354
 3097     7.643   101.253   72.406
 3097.5     7.646   116.724   74.458
 3098     7.649   136.914   76.509
 3098.5     7.652   138.175   77.05
 3099     7.668   124.844   75.603
 3099.5     7.687   111.513   74.156
 3100     7.705   130.094   72.709
 3100.5     7.724   137.217   74.657
 3101     7.743   129.904   76.678
 3101.5     7.762   122.591   75.985
 3102     7.781   115.279   75.035
 3102.5     7.8   101.567   74.012
 3103     7.819   84.466   72.93
 3103.5     7.844   67.365   67.631
 3104     7.874   55.921   66.455
 3104.5     7.903   54.065   67.153
 3105     7.932   52.21   67.851
 3105.5     7.962   49.017   68.548
 3106     7.991   46.593   68.679
 3106.5     8.021   46.054   68.056
 3107     8.011   45.515   67.433
 3107.5     7.99   44.976   67.385
 3108     7.969   44.438   67.8
 3108.5     7.948   43.759   68.142
 3109     7.926   42.859   68.484
 3109.5     7.905   41.958   68.826
 3110     7.884   41.058   69.168
 3110.5     7.863   43.064   69.46
 3111     7.842   46.314   69.44
 3111.5     7.821   45.864   69.419
 3112     7.806   45.415   69.398
 3112.5     7.808   44.965   69.288
 3113     7.811   45.394   69.058
 3113.5     7.813   46.954   68.829
 3114     7.815   48.514   68.6
 3114.5     7.817   50.074   68.37
 3115     7.819   51.634   68.469
 3115.5     7.822   48.432   68.84
 3116     7.824   46.133   69.212
 3116.5     7.826   45.232   69.583
 3117     7.828   45.655   69.707
 3117.5     7.83   46.767   69.2
 3118     7.832   47.878   69.409
 3118.5     7.82   48.99   69.617
 3119     7.807   47.404   69.826
 3119.5     7.794   45.052   70.034
 3120     7.78   42.837   67.612
 3120.5     7.767   44.245   67.909
 3121     7.754   45.654   68.206
 3121.5     7.741   47.063   68.502
 3122     7.732   48.471   68.799
 3122.5     7.727   49.88   69.095
 3123     7.722   54.505   69.392
 3123.5     7.717   61.171   69.137
 3124     7.712   63.807   68.747
 3124.5     7.708   64.746   68.357
 3125     7.703   65.684   68.165
 3125.5     7.698   70.4   68.959
 3126     7.693   75.163   69.753
 3126.5     7.688   79.925   70.546
 3127     7.701   78.442   71.34
 3127.5     7.723   71.548   70.741
 3128     7.744   64.655   69.434
 3128.5     7.766   57.761   68.127
 3129     7.788   70.887   67.407
