#--------------------------------------------------#
#-------------------ENVERUS, INC.------------------#
#------------------WWW.ENVERUS.COM-----------------#
#------------------COPYRIGHT 2020------------------#
#--------------------------------------------------#
#THIS FILE MAY BE USED ONLY IN ACCORDANCE WITH A CURRENT SUBSCRIPTION AGREEMENT BETWEEN
#THE USER AND ENVERUS, INC. NO PART OF THIS FILE MAY BE REPRODUCED, USED, COPIED,
#MODIFIED, PROPAGATED, OR DISTRIBUTED EXCEPT IN ACCORDANCE WITH THE SUBSCRIPTION
#AGREEMENT. UNAUTHORIZED USE OR DISTRIBUTION OF ALL OR ANY PART OF THIS FILE MAY VIOLATE
#COPYRIGHT, TRADEMARK, AND/OR OTHER LAWS AND IS SUBJECT TO CIVIL AS WELL AS CRIMINAL
#SANCTIONS.
#--------------------------------------------------#
#THIS FILE IS PROVIDED "AS-IS" AND ALL WARRANTIES ARE EXPRESSLY DISCLAIMED, WHETHER
#EXPRESS, ORAL, IMPLIED, STATUTORY OR OTHERWISE, INCLUDING ANY IMPLIED WARRANTY OF FITNESS
#FOR A PARTICULAR PURPOSE, MERCHANTABILITY, TITLE OR NON-INFRINGEMENT, AND ANY WARRANTIES
#ARISING BY VIRTUE OF CUSTOM OF TRADE OR COURSE OF DEALING.  FURTHER, ENVERUS, INC.
#AND ITS LICENSORS DO NOT REPRESENT OR WARRANT THAT THIS FILE WILL MEET USER'S
#REQUIREMENTS OR ARE SUITABLE FOR USER'S NEEDS OR THAT THE DATA OR RESULTS PROVIDED IN
#CONJUNCTION THEREWITH ARE CORRECT, ACCURATE, TIMELY OR RELIABLE. THESE DISCLAIMERS SHALL
#APPLY REGARDLESS OF ANY FAILURE OF ESSENTIAL PURPOSE OF ANY LIMITED REMEDY.  SOME
#JURISDICTIONS DO NOT ALLOW THE EXCLUSION OF CERTAIN WARRANTIES SO SOME OF THE ABOVE
#EXCLUSIONS MAY NOT APPLY. IN NO EVENT SHALL ENVERUS, INC. OR ANY OF ITS AFFILIATES
#BE LIABLE UNDER ANY LEGAL THEORY, WHETHER IN TORT (INCLUDING WITHOUT LIMITATION
#NEGLIGENCE), CONTRACT, STRICT LIABILITY, STATUTORY OR OTHERWISE, FOR ANY SPECIAL,
#INCIDENTAL, CONSEQUENTIAL, EXEMPLARY, PUNITIVE OR INDIRECT DAMAGE OF ANY KIND, INCLUDING
#WITHOUT LIMITATION LOSS OF REVENUE, PROFITS, GOODWILL, USE, AND/OR DATA OR THE COST OF
#PROCUREMENT OF SUBSTITUTE GOODS OR SERVICES, EVEN IF APPRISED OF THE POSSIBILITY OF SUCH
#DAMAGES IN ADVANCE.
#--------------------------------------------------#

~VERSION INFORMATION
VERS. 2.0 : CWLS LOG ASCII STANDARD - VERSION 2.0
WRAP.  NO : ONE LINE PER DEPTH STEP
~WELL INFORMATION
#MNEMONIC     .UNIT              VALUE :DESCRIPTION
STRT       .FT                47 :START DEPTH
STOP       .FT                15730 :STOP DEPTH
STEP       .FT                   0.500 :STEP
NULL       .                  -999.250 :NULL
UWI        .              42389303580000 :UNIQUE WELL ID
API        .              42389303580000 :API NUMBER
COMP       .         CIMAREX ENERGY CO. OF COLORADO :COMPANY
WELL       .        REEVES  AZ  FEE  1 :WELL
DATE       .                08-JAN-2006 :LOG DATE
~CURVE INFORMATION
#MNEMONIC     .UNIT      API CODE :CURVE DESCRIPTION
DEPTH       .FT                      :MEASURED DEPTH
NEUT.API        UNKNOWN   :NEUT
GR.API        UNKNOWN   :GR
DT.US/FT        UNKNOWN   :DT
CAL.INCH        UNKNOWN   :CAL
~A    DEPTH    NEUT    GR    DT    CAL
# ...
 9952     -999.250   46.054   68.553   12.648
 9952.5     -999.250   47.605   69.394   12.647
 9953     -999.250   49.156   70.674   12.646
 9953.5     -999.250   50.553   72.703   12.645
 9954     -999.250   49.491   74.732   12.644
 9954.5     -999.250   48.429   75.905   12.643
 9955     -999.250   47.367   75.439   12.642
 9955.5     -999.250   46.306   74.451   12.641
 9956     -999.250   45.244   72.22   12.64
 9956.5     -999.250   44.182   69.989   12.639
 9957     -999.250   43.12   69.686   12.639
 9957.5     -999.250   42.058   71.025   12.638
 9958     -999.250   40.996   72.364   12.637
 9958.5     -999.250   39.934   73.703   12.636
 9959     -999.250   38.873   72.261   12.635
 9959.5     -999.250   38.437   70.223   12.634
 9960     -999.250   41.071   68.144   12.633
 9960.5     -999.250   43.706   66.066   12.632
 9961     -999.250   46.34   64.791   12.632
 9961.5     -999.250   48.975   65.426   12.632
 9962     -999.250   49.318   66.916   12.633
 9962.5     -999.250   47.569   73.197   12.633
 9963     -999.250   45.819   74.686   12.633
 9963.5     -999.250   44.069   73.755   12.634
 9964     -999.250   42.32   72.825   12.634
 9964.5     -999.250   40.57   75.577   12.634
 9965     -999.250   38.82   74.237   12.635
 9965.5     -999.250   37.548   72.897   12.635
 9966     -999.250   37.404   71.292   12.635
 9966.5     -999.250   37.26   68.529   12.635
 9967     -999.250   37.115   67.517   12.636
 9967.5     -999.250   36.971   68.559   12.636
 9968     -999.250   36.827   69.951   12.636
 9968.5     -999.250   37.076   71.809   12.637
 9969     -999.250   38.021   73.666   12.637
 9969.5     -999.250   38.966   75.523   12.637
 9970     -999.250   39.911   74.682   12.637
 9970.5     -999.250   40.856   72.526   12.638
 9971     -999.250   41.801   70.371   12.638
 9971.5     -999.250   42.746   70.806   12.638
 9972     -999.250   43.692   71.312   12.639
 9972.5     -999.250   44.637   72.645   12.639
 9973     -999.250   45.582   76.328   12.639
 9973.5     -999.250   45.937   77.691   12.64
 9974     -999.250   45.94   76.543   12.64
 9974.5     -999.250   45.942   72.331   12.64
 9975     -999.250   45.945   69.088   12.64
 9975.5     -999.250   45.948   71.702   12.641
 9976     -999.250   45.951   74.317   12.641
 9976.5     -999.250   45.954   75.411   12.641
 9977     -999.250   45.956   76.107   12.642
 9977.5     -999.250   45.959   76.804   12.642
 9978     -999.250   46.408   77.501   12.642
 9978.5     -999.250   47.892   76.852   12.642
 9979     -999.250   49.377   74.126   12.643
 9979.5     -999.250   50.861   76.013   12.643
 9980     -999.250   52.346   77.9   12.643
 9980.5     -999.250   53.83   76.793   12.644
 9981     -999.250   55.315   74.079   12.643
 9981.5     -999.250   56.799   69.039   12.642
 9982     -999.250   58.283   68.186   12.641
 9982.5     -999.250   59.768   72.755   12.641
 9983     -999.250   59.259   77.03   12.64
 9983.5     -999.250   57.283   80.038   12.639
 9984     -999.250   55.307   83.046   12.638
 9984.5     -999.250   53.331   82.885   12.638
 9985     -999.250   51.355   79.821   12.637
 9985.5     -999.250   49.379   76.756   12.636
 9986     -999.250   47.403   74.209   12.635
 9986.5     -999.250   45.427   78.877   12.634
 9987     -999.250   43.451   79.032   12.634
 9987.5     -999.250   41.475   79.187   12.633
 9988     -999.250   39.499   79.342   12.632
 9988.5     -999.250   38.036   73.456   12.631
 9989     -999.250   41.233   71.211   12.631
 9989.5     -999.250   44.429   68.965   12.63
 9990     -999.250   47.625   66.72   12.629
 9990.5     -999.250   50.822   71.912   12.628
 9991     -999.250   53.89   73.12   12.628
 9991.5     -999.250   53.893   74.329   12.627
 9992     -999.250   53.895   77.434   12.626
 9992.5     -999.250   53.898   80.884   12.625
 9993     -999.250   53.9   83.762   12.624
 9993.5     -999.250   53.902   83.948   12.624
 9994     -999.250   53.905   79.703   12.623
 9994.5     -999.250   54.564   77.084   12.622
 9995     -999.250   55.524   76.153   12.621
 9995.5     -999.250   56.485   75.222   12.621
 9996     -999.250   57.446   74.291   12.62
 9996.5     -999.250   58.407   73.36   12.619
 9997     -999.250   59.368   72.43   12.618
 9997.5     -999.250   57.798   73.059   12.618
 9998     -999.250   55.439   73.761   12.617
 9998.5     -999.250   53.08   74.522   12.616
 9999     -999.250   50.721   75.461   12.615
 9999.5     -999.250   47.653   76.486   12.615
 10000     -999.250   43.898   77.583   12.614
 10000.5     -999.250   40.143   78.679   12.613
 10001     -999.250   36.389   75.646   12.612
 10001.5     -999.250   34.28   72.051   12.611
 10002     -999.250   32.973   68.497   12.611
 10002.5     -999.250   31.666   64.943   12.61
 10003     -999.250   30.358   62.447   12.609
 10003.5     -999.250   29.062   61.913   12.611
 10004     -999.250   31.941   61.38   12.615
 10004.5     -999.250   34.821   62.153   12.618
 10005     -999.250   37.7   62.973   12.621
 10005.5     -999.250   40.322   64.189   12.625
 10006     -999.250   41.961   66.55   12.628
 10006.5     -999.250   43.599   78.206   12.632
 10007     -999.250   45.238   80.093   12.635
 10007.5     -999.250   46.877   80.725   12.638
 10008     -999.250   47.028   81.271   12.642
 10008.5     -999.250   40.431   81.173   12.645
 10009     -999.250   40.433   78.862   12.649
 10009.5     -999.250   40.435   76.551   12.652
 10010     -999.250   40.437   74.24   12.655
 10010.5     -999.250   40.439   71.929   12.659
 10011     -999.250   40.508   69.618   12.662
 10011.5     -999.250   40.854   69.942   12.666
 10012     -999.250   41.2   79.066   12.669
 10012.5     -999.250   41.546   82.601   12.672
 10013     -999.250   41.892   80.596   12.676
 10013.5     -999.250   42.237   78.603   12.679
 10014     -999.250   42.583   77.61   12.683
 10014.5     -999.250   42.929   76.893   12.686
 10015     -999.250   43.275   76.807   12.69
 10015.5     -999.250   43.937   76.722   12.693
 10016     -999.250   45.317   76.636   12.696
 10016.5     -999.250   46.697   78.46   12.7
 10017     -999.250   48.077   81.757   12.703
 10017.5     -999.250   49.457   80.938   12.707
 10018     -999.250   50.837   79.631   12.706
 10018.5     -999.250   52.217   78.323   12.705
 10019     -999.250   53.597   78.31   12.704
 10019.5     -999.250   54.978   78.593   12.703
 10020     -999.250   56.358   78.876   12.703
 10020.5     -999.250   57.027   79.191   12.702
 10021     -999.250   54.108   79.879   12.701
 10021.5     -999.250   51.189   80.567   12.7
 10022     -999.250   48.269   81.255   12.699
 10022.5     -999.250   45.35   80.108   12.698
 10023     -999.250   42.431   77.925   12.697
 10023.5     -999.250   41.719   75.627   12.696
 10024     -999.250   42.284   73.329   12.695
 10024.5     -999.250   42.848   71.031   12.695
 10025     -999.250   43.413   70.291   12.694
 10025.5     -999.250   43.978   69.758   12.693
 10026     -999.250   42.617   71.105   12.692
 10026.5     -999.250   41.215   78.252   12.691
 10027     -999.250   39.814   81.383   12.69
 10027.5     -999.250   38.412   80.554   12.689
 10028     -999.250   38.176   79.726   12.688
 10028.5     -999.250   40.524   72.325   12.688
 10029     -999.250   42.873   66.959   12.687
 10029.5     -999.250   45.222   66.426   12.686
 10030     -999.250   47.571   69.482   12.685
 10030.5     -999.250   49.92   75.184   12.684
 10031     -999.250   52.269   77.176   12.683
 10031.5     -999.250   52.229   77.425   12.682
 10032     -999.250   52.151   77.674   12.681
 10032.5     -999.250   52.073   78.045   12.68
 10033     -999.250   51.996   78.718   12.68
 10033.5     -999.250   51.918   79.392   12.679
 10034     -999.250   51.385   80.065   12.678
 10034.5     -999.250   50.357   80.739   12.677
 10035     -999.250   49.328   77.154   12.676
 10035.5     -999.250   48.299   74.907   12.675
 10036     -999.250   47.271   74.849   12.674
 10036.5     -999.250   46.242   77.255   12.673
