###############################################
##         ENVERUS                           ##
##         ESS - Open Hole                   ##
##         PERMIAN / DELAWARE                ##
##         Nov 04 2023  V4.0                 ##
##         42-389-30414-00-00                ##
###############################################
## Copyright 2017-2023  ENVERUS.  All Rights Reserved. 
## Confidential - Property of ENVERUS, use governed by terms and 
## conditions found within the existing Information Services Subscription Agreement 
## (as may be amended, the “ISSA”) between Customer and ENVERUS. 
## 
~VERSION INFORMATION
# MNEM.UNIT                               DATA : DESCRIPTION OF MNEMONIC
#-----.-----     ----------------------------- : -----------------------------
VERS.                                     2.00 : CWLS LOG ASCII STANDARD - VERSION 2.00
WRAP.                                       NO : MULTIPLE LINES PER DEPTH STEP
VEND.                                  ENVERUS : VENDOR
TYPE.                          ESS - OPEN HOLE : ENVERUS ESSENTIAL CURVES – ACCESSIBLE THROUGH ENVERUS PRISM(TM)
DOC.                                  31965441 : ENVERUS HEADER RAW DOCUMENT ID
#___________________________________________________________________________________________________ 
~WELL INFORMATION 
# 4Nagw4FJNzCtYOfTAudVsymR6uv0ccMrNFKiy1Vrqa1gQVNLoB6NNR/Tzdk8H0Jxf2Akv2rjPRKaT9zVNBkTiw== 
# MNEM.UNIT                                              DATA : DESCRIPTION OF MNEMONIC 
#-----.-----                    ----------------------------- : ----------------------------- 
CNTY.                                                  REEVES : COUNTY 
STATE.                                                  TEXAS : STATE 
CNTRY.                                                    USA : COUNTRY 
API.                                             42-389-30414 : API (10 Digit) 
API_14.                                    42-389-30414-00-00 : API (14 Digits) 
API_14_std.                                 42-389-30414-0000 : API (14 Digits Standard) 
UWI.                                           42389304140000 : UNIQUE WELL ID 
WELL.                                            TXL 17-39  2 : WELL NAME
STRT.FT                                                 237.0 : START DEPTH
STOP.FT                                               13872.0 : STOP DEPTH
STEP.FT                                                   0.5 : STEP BETWEEN DEPTHS
NULL.                                                 -999.25 : NULL VALUE
COMP.                          ENDEAVOR ENERGY RESOURCES L.P. : COMPANY
#___________________________________________________________________________________________________ 
~CURVE INFORMATION 
# MNEM.UNIT           : CURVE DESCRIPTION 
#-----.-----          : ----------------------------- 
 DEPT.FT               : MEASURED DEPTH 
 CALI.IN               : CALIPER (CAL - CAL) 
 GR.API                : GAMMA RAY (GR) 
 DT.US/FT              : SONIC DELTA TRANSIT TIME (DT) 
 RESS.OHMM             : SHALLOW INDUCTION RESISTIVITY (ILS - ILS) 
 RESD.OHMM             : DEEP INDUCTION RESISTIVITY (ILD - ILD) 
 #___________________________________________________________________________________________________ 
~A         DEPT           CALI             GR             DT           RESS           RESD
# ...
         5605.0          9.354         94.184         67.260        143.392        202.125
         5605.5          9.349         87.712         67.565        129.017        181.273
         5606.0          9.345         81.239         67.547        114.641        160.422
         5606.5          9.346         74.767         66.464        100.699        139.570
         5607.0          9.357         68.295         65.381         86.961        118.718
         5607.5          9.368         61.823         65.773         73.223         97.867
         5608.0          9.379         55.351         67.372         59.484         77.819
         5608.5          9.390         48.879         68.971         37.317         59.307
         5609.0          9.401         42.406         70.570         13.486         40.796
         5609.5          9.412         35.934         72.170          5.510         22.284
         5610.0          9.423         33.826         70.463          6.442          4.703
         5610.5          9.434         33.100         68.496          7.373          5.555
         5611.0          9.445         32.373         66.530          8.305          6.408
         5611.5          9.456         31.647         64.564          9.237          9.417
         5612.0          9.467         32.020         64.039         10.169         11.693
         5612.5          9.478         32.928         66.069         11.100         11.536
         5613.0          9.489         33.837         68.099          9.894         11.379
         5613.5          9.500         34.746         70.128          8.311          6.760
         5614.0          9.511         34.055         71.527          6.728          6.099
         5614.5          9.522         32.139         70.377          5.146          5.437
         5615.0          9.534         30.222         69.227          5.638          5.706
         5615.5          9.545         28.306         68.077          6.153          6.398
         5616.0          9.556         26.390         66.926          6.596          7.090
         5616.5          9.567         24.474         66.353          6.755          7.782
         5617.0          9.578         25.123         66.002          6.914          8.211
         5617.5          9.589         26.645         65.732          7.073          7.810
         5618.0          9.600         28.167         66.346          6.996          7.409
         5618.5          9.611         29.689         66.961          6.631          7.008
         5619.0          9.622         31.211         67.575          6.266          6.607
         5619.5          9.633         32.733         68.190          5.901          6.276
         5620.0          9.644         35.583         68.804          5.536          6.087
         5620.5          9.655         38.633         69.328          5.390          5.897
         5621.0          9.666         41.682         69.761          5.333          5.707
         5621.5          9.677         44.731         70.194          5.275          5.517
         5622.0          9.688         47.780         70.627          5.217          5.327
         5622.5          9.699         50.829         71.060          5.159          5.137
         5623.0          9.710         53.878         71.580          5.008          4.947
         5623.5          9.721         51.696         72.284          4.700          4.757
         5624.0          9.733         48.102         72.988          4.393          4.567
         5624.5          9.744         44.508         73.691          4.086          4.300
         5625.0          9.755         51.352         74.395          3.779          3.965
         5625.5          9.766         59.491         75.099          3.471          3.629
         5626.0          9.777         67.629         75.342          3.164          3.294
         5626.5          9.788         75.768         74.614          3.283          3.118
         5627.0          9.799         83.906         73.887          3.560          3.155
         5627.5          9.810         92.045         73.159          3.838          4.351
         5628.0          9.821         96.007         72.096          8.017         12.463
         5628.5          9.832         90.412         70.353         15.158         24.779
         5629.0          9.843         76.436         68.611         22.912         37.094
         5629.5          9.854         56.279         67.157         30.666         49.410
         5630.0          9.865         42.350         67.370         38.419         41.437
         5630.5          9.876         39.466         67.583         32.290         25.616
         5631.0          9.887         36.746         67.796         24.838         17.555
         5631.5          9.898         38.015         68.008         17.386         14.544
         5632.0          9.909         39.285         67.237          9.934         11.533
         5632.5          9.920         40.554         66.236         10.481         11.429
         5633.0          9.931         41.823         65.235         11.294         12.521
         5633.5          9.942         43.092         64.234         12.107         13.613
         5634.0          9.953         44.012         63.232         12.920         14.705
         5634.5          9.963         43.189         62.255         13.732         14.495
         5635.0          9.974         42.367         64.544         12.315         13.618
         5635.5          9.985         41.545         66.833         10.897         12.742
         5636.0          9.996         40.722         68.549         10.037         11.865
         5636.5         10.007         39.900         69.750          9.344         10.989
         5637.0         10.018         39.077         70.952          8.651         10.112
         5637.5         10.029         38.255         70.922          8.289         10.094
         5638.0         10.040         37.432         69.936          8.143         10.142
         5638.5         10.050         36.610         68.950          7.996         10.189
         5639.0         10.061         36.014         67.964          7.849         10.237
         5639.5         10.072         36.131         68.174          7.702          9.715
         5640.0         10.083         36.249         69.381          7.556          9.098
         5640.5         10.094         36.366         70.589          7.425          8.481
         5641.0         10.105         36.484         71.623          7.329          7.960
         5641.5         10.113         36.601         71.724          7.233          7.901
         5642.0         10.122         36.719         71.825          7.137          7.843
         5642.5         10.131         36.232         71.728          7.041          7.784
         5643.0         10.139         35.598         71.470          6.945          7.726
         5643.5         10.148         34.963         71.212          6.849          7.667
         5644.0         10.157         34.328         70.953          6.753          7.609
         5644.5         10.165         33.694         70.695          6.753          7.550
         5645.0         10.174         33.059         70.437          6.779          7.491
         5645.5         10.183         32.792         70.305          6.805          7.433
         5646.0         10.191         32.539         70.355          6.831          7.374
         5646.5         10.200         32.287         70.405          6.857          8.106
         5647.0         10.209         32.034         70.455          6.883          8.029
         5647.5         10.217         31.781         70.505          6.908          7.706
         5648.0         10.226         31.652         70.560          6.860          7.382
         5648.5         10.234         32.470         70.636          6.610          7.059
