~Version Information
 VERS.                  2.0:   CWLS log ASCII Standard -VERSION 2.0
 WRAP.                   NO:   One line per depth step
~Well Information Block
#MNEM.UNIT     VALUE/NAME     DESCRIPTION
#---------     -----------    ---------------------------
 STRT.F              8800.0000: START DEPTH
 STOP.F             14300.0000: STOP DEPTH
 STEP.F                 0.5000: STEP DEPTH
 NULL.                 -999.25: NULL VALUE
 LOC .     336'' FSL & 729' FWL:  LOCATION
 FL6 .        API 42-389-36322:  LOCATIONLINE6
 FL4 .           ABSTRACT 3622:  LOCATIONLINE4
 FL3 .        T&P RR CO SURVEY:  LOCATIONLINE3
 FL2 .     SECTION 36, BLOCK 58 T2:  LOCATIONLINE2
 FL1 .     336'' FSL & 729' FWL:  LOCATIONLINE1
 DMF .                      KB:  DRILL MEAS FROM
 PDAT.                      GL:  PERMANENT DATUM
 CNTY.                  REEVES:  COUNTY NAME
 FLD .     FORD, WEST (WOLFCAMP):  FIELD NAME
 WELL.        AVA STATE 36 #2H:  WELL NAME
 COMP.     CAPITAN ENERGY INC.:  COMPANY
 DATE.             01-Nov-2017:  DATE
 SVCO.             Halliburton:  SERVICECONAME
 PROV.                   TEXAS:  PROVINCE
 STAT.                   TEXAS:  STATE NAME
 CTRY.           UNITED STATES:  COUNTRY NAME
 HIDE.                        :  WELLNAMEOPERAT
 BASI.                 PERMIAN:  BASIN
 UWI .            42-389-36322LAT:  UNIQUE WELL IDENTIFIER
 API .            42-389-36322LAT:  API NUMBER
 RANG.                     N/A:  RANGE
 TOWN.                     N/A:  TOWNSHIP
 SECT.                     N/A:  SECTION
 SON .               904399722:  JOB NUMBER
 SRVC.             Halliburton:  SERVICE COMPANY
 LMF .                      KB:  LOG MEASURED FROM
 EGL .ft             3011.0000:  GROUND ELEVATION
 BAP .ft                0.0000:  GL ELEV ONSHORE
 GVFD.g                 1.0000:  GRAVITY FIELD
 EKB .ft             3037.0000:  KB ELEVATION
 EDF .ft             3036.0000:  DF ELEVATION
~Curve Information Block
#MNEM.UNIT                 API CODE     Curve Description
#---------               -----------    ---------------------------
 DEPT.F                 00 000 000 000:  Depth
 CCL .V                 00 000 000 000:  Casing Collar Locator
 NPHI_OH.pu             00 000 000 000:  NPHI_OH
 NPHI_CHI.pu            00 000 000 000:  NPHI_CHI
 GR_CHI.api             00 000 000 000:  GR_CHI
 GR_OH.api              00 000 000 000:  GR_OH
 RHOB_OH.g/cc           00 000 000 000:  RHOB_OH
 RHOB_CHI.g/cc          00 000 000 000:  RHOB_CHI
 PE_CHI.b/e             00 000 000 000:  PE_CHI
 PE_OH.b/e              00 000 000 000:  PE_OH
 DTC_OH.uspf            00 000 000 000:  DTC_OH
 DTC_CHI.uspf           00 000 000 000:  DTC_CHI
 SPHI_CHI.pu            00 000 000 000:  Acou Porosity CHI
 RT10_OH.ohmm           00 000 000 000:  RT10_OH
 RT10_CHI.ohmm          00 000 000 000:  RT10_CHI
 RT30_OH.ohmm           00 000 000 000:  RT30_OH
 RT30_CHI.ohmm          00 000 000 000:  RT30_CHI
 RT90_OH.ohmm           00 000 000 000:  RT90_OH
 RT90_CHI.ohmm          00 000 000 000:  RT90_CHI
 SGF .cu                00 000 000 000:  Formation Sigma
 CRNF.NONE              00 000 000 000:  CM GrsCaptRatio
 RIN .NONE              00 000 000 000:  CM GrsInelRatio
#Other Information
#
#WARRANTY: Halliburton will use its best efforts to furnish customers with 
#accurate information and interpretations that are part of, and incident to, the services 
#provided.  However, Halliburton cannot and does not warrant the accuracy 
#or correctness of such information and interpretations.  Under no circumstances should any 
#such information or interpretation be relied upon as the sole basis for any drilling, 
#completion, production, or financial decision or any procedure involving any risk to the 
#safety of any drilling venture, drilling rig or its crew or any other third party.  The 
#Customer has full responsibility for all drilling, completion and production operation.  
#Halliburton makes no representations or warranties, either expressed or 
#implied, including, but not limited to, the implied warranties of merchantability or fitness 
#for a particular purpose, with respect to the services rendered.  In no event will 
#Halliburton be liable for failure to obtain any particular results or for 
#any damages, including, but not limited to, indirect, special or consequential damages, 
#resulting from the use of any information or interpretation provided by Halliburton.
#
~A    DEPT      CCL   NPHI_OH NPHI_CHI   GR_CHI   GR_OH   RHOB_OH RHOB_CHI  PE_CHI   PE_OH  DTC_OH  DTC_CHI SPHI_CHI RT10_OH  RT10_CHI RT30_OH  RT30_CHI RT90_OH  RT90_CHI   SGF    CRNF   RIN   
# ...
   13924.0000  0.0000 -999.25   12.2946  98.8458  -999.25 -999.25    2.5513  3.8257 -999.25 -999.25 68.6252  14.8700  -999.25  40.1625  -999.25  39.8813  -999.25  43.0203 24.4256 1.0188 1.0327
   13924.5000  0.0000 -999.25   12.2805  96.2323  -999.25 -999.25    2.5510  3.8350 -999.25 -999.25 68.5890  14.8400  -999.25  40.1904  -999.25  39.9017  -999.25  43.0589 24.2662 1.0121 1.0317
   13925.0000  0.0000 -999.25   12.1272  94.8706  -999.25 -999.25    2.5526  3.8561 -999.25 -999.25 68.2147  14.5800  -999.25  40.4523  -999.25  40.2508  -999.25  43.4821 24.2048 1.0082 1.0322
   13925.5000  0.0000 -999.25   11.9940  93.8403  -999.25 -999.25    2.5537  3.8665 -999.25 -999.25 67.8613  14.3300  -999.25  40.7198  -999.25  40.6350  -999.25  43.9531 24.1156 1.0087 1.0315
   13926.0000  0.0000 -999.25   12.1564 102.3514  -999.25 -999.25    2.5524  3.8257 -999.25 -999.25 67.8001  14.2900  -999.25  41.3525  -999.25  41.8035  -999.25  45.3170 23.9697 1.0080 1.0289
   13926.5000  0.0000 -999.25   12.0262  99.2205  -999.25 -999.25    2.5533  3.8386 -999.25 -999.25 67.5445  14.1100  -999.25  41.4165  -999.25  41.8475  -999.25  45.3944 23.8410 1.0102 1.0280
   13927.0000  0.0000 -999.25   11.7453  87.3994  -999.25 -999.25    2.5548  3.8815 -999.25 -999.25 67.3355  13.9600  -999.25  41.0295  -999.25  41.0771  -999.25  44.5482 23.6694 1.0064 1.0261
   13927.5000  0.0000 -999.25   11.7551  87.7389  -999.25 -999.25    2.5547  3.8834 -999.25 -999.25 67.3111  13.9400  -999.25  41.1464  -999.25  41.2702  -999.25  44.7779 23.5173 1.0017 1.0256
   13928.0000  0.0000 -999.25   11.9646  91.6038  -999.25 -999.25    2.5527  3.8581 -999.25 -999.25 67.5425  14.1000  -999.25  41.3795  -999.25  41.7543  -999.25  45.3401 23.3810 0.9960 1.0234
   13928.5000  0.0000 -999.25   11.9942  92.8938  -999.25 -999.25    2.5522  3.8460 -999.25 -999.25 67.4462  14.0400  -999.25  41.6931  -999.25  42.3199  -999.25  46.0264 23.2675 0.9881 1.0204
   13929.0000  0.0000 -999.25   12.0094  94.5442  -999.25 -999.25    2.5518  3.8348 -999.25 -999.25 67.3049  13.9400  -999.25  42.0366  -999.25  42.9339  -999.25  46.7698 23.2093 0.9844 1.0177
   13929.5000  0.0000 -999.25   12.0535  98.4128  -999.25 -999.25    2.5515  3.8189 -999.25 -999.25 67.1359  13.8200  -999.25  42.4821  -999.25  43.7253  -999.25  47.7100 23.1795 0.9807 1.0160
   13930.0000  0.0000 -999.25   11.6779  91.5238  -999.25 -999.25    2.5547  3.8652 -999.25 -999.25 66.5939  13.4300  -999.25  42.4605  -999.25  43.5610  -999.25  47.5674 23.2003 0.9785 1.0153
   13930.5000  0.0000 -999.25   11.5321  90.2765  -999.25 -999.25    2.5562  3.8859 -999.25 -999.25 66.3452  13.2600  -999.25  42.5203  -999.25  43.5878  -999.25  47.6043 23.3037 0.9755 1.0165
   13931.0000  0.0000 -999.25   11.4465  90.3107  -999.25 -999.25    2.5571  3.8925 -999.25 -999.25 66.1461  13.1200  -999.25  42.6193  -999.25  43.7253  -999.25  47.7726 23.4249 0.9724 1.0168
   13931.5000  0.0000 -999.25   11.2270  85.4821  -999.25 -999.25    2.5588  3.9172 -999.25 -999.25 65.9561  12.9800  -999.25  42.3907  -999.25  43.2958  -999.25  47.2931 23.6347 0.9746 1.0165
   13932.0000  0.0000 -999.25   11.2638  87.5880  -999.25 -999.25    2.5583  3.8969 -999.25 -999.25 65.8845  12.9300  -999.25  42.5092  -999.25  43.5660  -999.25  47.6215 23.5874 0.9765 1.0149
   13932.5000  0.0000 -999.25   11.1084  83.8339  -999.25 -999.25    2.5589  3.8976 -999.25 -999.25 65.7579  12.8400  -999.25  42.2262  -999.25  43.2187  -999.25  47.2612 23.4771 0.9779 1.0114
   13933.0000  0.0000 -999.25   11.3259  86.8866  -999.25 -999.25    2.5566  3.8636 -999.25 -999.25 65.9932  13.0100  -999.25  42.3461  -999.25  43.5521  -999.25  47.6578 23.2084 0.9731 1.0086
   13933.5000  0.0000 -999.25   11.4013  86.0829  -999.25 -999.25    2.5554  3.8532 -999.25 -999.25 66.1582  13.1200  -999.25  42.2960  -999.25  43.5968  -999.25  47.7365 22.9171 0.9671 1.0051
   13934.0000  0.0000 -999.25   11.4250  85.2523  -999.25 -999.25    2.5551  3.8637 -999.25 -999.25 66.2263  13.1700  -999.25  42.4334  -999.25  43.8071  -999.25  47.9936 22.7401 0.9623 1.0039
   13934.5000  0.0000 -999.25   11.6395  93.3379  -999.25 -999.25    2.5538  3.8354 -999.25 -999.25 66.1161  13.0900  -999.25  43.2766  -999.25  45.2076  -999.25  49.6303 22.5789 0.9602 1.0033
   13935.0000  0.0000 -999.25   11.2416  87.6030  -999.25 -999.25    2.5578  3.9030 -999.25 -999.25 65.6271  12.7500  -999.25  43.2962  -999.25  45.0454  -999.25  49.4618 22.6178 0.9636 1.0053
   13935.5000  0.0000 -999.25   11.0483  86.3406  -999.25 -999.25    2.5600  3.9380 -999.25 -999.25 65.2924  12.5100  -999.25  43.5036  -999.25  45.2629  -999.25  49.7234 22.6391 0.9657 1.0070
   13936.0000  0.0000 -999.25   11.2719  93.0160  -999.25 -999.25    2.5582  3.8961 -999.25 -999.25 65.2999  12.5200  -999.25  43.8885  -999.25  45.9808  -999.25  50.5513 22.6313 0.9661 1.0069
   13936.5000  0.0000 -999.25   11.3182  91.1530  -999.25 -999.25    2.5573  3.8886 -999.25 -999.25 65.5164  12.6700  -999.25  43.6745  -999.25  45.7095  -999.25  50.2490 22.5213 0.9603 1.0044
   13937.0000  0.0000 -999.25   11.8194 101.3608  -999.25 -999.25    2.5526  3.8044 -999.25 -999.25 65.9002  12.9400  -999.25  44.1646  -999.25  46.7622  -999.25  51.4714 22.3288 0.9534 1.0014
   13937.5000  0.0000 -999.25   12.0727 106.6275  -999.25 -999.25    2.5502  3.7640 -999.25 -999.25 66.0848  13.0700  -999.25  44.5238  -999.25  47.5003  -999.25  52.3432 22.0850 0.9465 0.9990
   13938.0000  0.0000 -999.25   11.7141 100.8118  -999.25 -999.25    2.5537  3.8257 -999.25 -999.25 65.6166  12.7400  -999.25  44.5448  -999.25  47.3831  -999.25  52.2402 21.8870 0.9453 0.9996
   13938.5000  0.0000 -999.25   11.2539  93.5272  -999.25 -999.25    2.5581  3.9047 -999.25 -999.25 65.0752  12.3600  -999.25  44.5618  -999.25  47.2390  -999.25  52.1171 21.8354 0.9482 0.9999
   13939.0000  0.0000 -999.25   10.9071  89.7406  -999.25 -999.25    2.5617  3.9636 -999.25 -999.25 64.5858  12.0100  -999.25  44.7293  -999.25  47.3649  -999.25  52.2920 21.9256 0.9546 1.0011
   13939.5000  0.0000 -999.25   10.7047  86.4912  -999.25 -999.25    2.5637  4.0006 -999.25 -999.25 64.4149  11.8900  -999.25  44.6268  -999.25  47.0730  -999.25  51.9467 22.1504 0.9612 1.0030
   13940.0000  0.0000 -999.25   10.6470  84.5390  -999.25 -999.25    2.5644  4.0137 -999.25 -999.25 64.4780  11.9400  -999.25  44.3481  -999.25  46.5178  -999.25  51.2651 22.3103 0.9670 1.0058
   13940.5000  0.0000 -999.25   10.9513  89.6989  -999.25 -999.25    2.5620  3.9694 -999.25 -999.25 64.8172  12.1800  -999.25  44.1912  -999.25  46.2601  -999.25  50.8863 22.4800 0.9723 1.0102
   13941.0000  0.0000 -999.25   10.8667  84.2096  -999.25 -999.25    2.5624  3.9868 -999.25 -999.25 65.0728  12.3600  -999.25  43.5970  -999.25  45.2193  -999.25  49.6523 22.4817 0.9709 1.0111
   13941.5000  0.0000 -999.25   11.1204  87.1235  -999.25 -999.25    2.5599  3.9469 -999.25 -999.25 65.4447  12.6200  -999.25  43.4394  -999.25  45.0445  -999.25  49.4180 22.4034 0.9674 1.0112
   13942.0000  0.0000 -999.25   11.5516  94.0117  -999.25 -999.25    2.5558  3.8815 -999.25 -999.25 65.9193  12.9600  -999.25  43.6335  -999.25  45.5629  -999.25  50.0082 22.2259 0.9664 1.0087
   13942.5000  0.0000 -999.25   11.5984  94.3469  -999.25 -999.25    2.5549  3.8689 -999.25 -999.25 65.9349  12.9700  -999.25  43.7869  -999.25  45.9131  -999.25  50.4526 22.0745 0.9659 1.0051
   13943.0000  0.0000 -999.25   11.3399  88.4747  -999.25 -999.25    2.5568  3.9093 -999.25 -999.25 65.7044  12.8000  -999.25  43.7391  -999.25  45.8254  -999.25  50.4080 22.0307 0.9673 1.0019
   13943.5000  0.0000 -999.25   11.5573  93.5434  -999.25 -999.25    2.5549  3.8765 -999.25 -999.25 65.7854  12.8600  -999.25  44.1609  -999.25  46.6339  -999.25  51.3647 22.0218 0.9689 0.9998
   13944.0000  0.0000 -999.25   11.4712  91.3406  -999.25 -999.25    2.5555  3.8909 -999.25 -999.25 65.7365  12.8300  -999.25  44.0948  -999.25  46.5198  -999.25  51.2476 22.0094 0.9663 0.9989
   13944.5000  0.0000 -999.25   11.1782  84.1958  -999.25 -999.25    2.5582  3.9448 -999.25 -999.25 65.6375  12.7600  -999.25  43.6731  -999.25  45.6766  -999.25  50.2600 21.9643 0.9667 1.0007
