~Version Information
 VERS.                  2.0:   CWLS log ASCII Standard -VERSION 2.0
 WRAP.                   NO:   One line per depth step
~Well Information Block
#MNEM.UNIT     VALUE/NAME     DESCRIPTION
#---------     -----------    ---------------------------
 STRT.F              8800.0000: START DEPTH
 STOP.F             14300.0000: STOP DEPTH
 STEP.F                 0.5000: STEP DEPTH
 NULL.                 -999.25: NULL VALUE
 LOC .     336'' FSL & 729' FWL:  LOCATION
 FL6 .        API 42-389-36322:  LOCATIONLINE6
 FL4 .           ABSTRACT 3622:  LOCATIONLINE4
 FL3 .        T&P RR CO SURVEY:  LOCATIONLINE3
 FL2 .     SECTION 36, BLOCK 58 T2:  LOCATIONLINE2
 FL1 .     336'' FSL & 729' FWL:  LOCATIONLINE1
 DMF .                      KB:  DRILL MEAS FROM
 PDAT.                      GL:  PERMANENT DATUM
 CNTY.                  REEVES:  COUNTY NAME
 FLD .     FORD, WEST (WOLFCAMP):  FIELD NAME
 WELL.        AVA STATE 36 #2H:  WELL NAME
 COMP.     CAPITAN ENERGY INC.:  COMPANY
 DATE.             01-Nov-2017:  DATE
 SVCO.             Halliburton:  SERVICECONAME
 PROV.                   TEXAS:  PROVINCE
 STAT.                   TEXAS:  STATE NAME
 CTRY.           UNITED STATES:  COUNTRY NAME
 HIDE.                        :  WELLNAMEOPERAT
 BASI.                 PERMIAN:  BASIN
 UWI .            42-389-36322LAT:  UNIQUE WELL IDENTIFIER
 API .            42-389-36322LAT:  API NUMBER
 RANG.                     N/A:  RANGE
 TOWN.                     N/A:  TOWNSHIP
 SECT.                     N/A:  SECTION
 SON .               904399722:  JOB NUMBER
 SRVC.             Halliburton:  SERVICE COMPANY
 LMF .                      KB:  LOG MEASURED FROM
 EGL .ft             3011.0000:  GROUND ELEVATION
 BAP .ft                0.0000:  GL ELEV ONSHORE
 GVFD.g                 1.0000:  GRAVITY FIELD
 EKB .ft             3037.0000:  KB ELEVATION
 EDF .ft             3036.0000:  DF ELEVATION
~Curve Information Block
#MNEM.UNIT                 API CODE     Curve Description
#---------               -----------    ---------------------------
 DEPT.F                 00 000 000 000:  Depth
 CCL .V                 00 000 000 000:  Casing Collar Locator
 NPHI_OH.pu             00 000 000 000:  NPHI_OH
 NPHI_CHI.pu            00 000 000 000:  NPHI_CHI
 GR_CHI.api             00 000 000 000:  GR_CHI
 GR_OH.api              00 000 000 000:  GR_OH
 RHOB_OH.g/cc           00 000 000 000:  RHOB_OH
 RHOB_CHI.g/cc          00 000 000 000:  RHOB_CHI
 PE_CHI.b/e             00 000 000 000:  PE_CHI
 PE_OH.b/e              00 000 000 000:  PE_OH
 DTC_OH.uspf            00 000 000 000:  DTC_OH
 DTC_CHI.uspf           00 000 000 000:  DTC_CHI
 SPHI_CHI.pu            00 000 000 000:  Acou Porosity CHI
 RT10_OH.ohmm           00 000 000 000:  RT10_OH
 RT10_CHI.ohmm          00 000 000 000:  RT10_CHI
 RT30_OH.ohmm           00 000 000 000:  RT30_OH
 RT30_CHI.ohmm          00 000 000 000:  RT30_CHI
 RT90_OH.ohmm           00 000 000 000:  RT90_OH
 RT90_CHI.ohmm          00 000 000 000:  RT90_CHI
 SGF .cu                00 000 000 000:  Formation Sigma
 CRNF.NONE              00 000 000 000:  CM GrsCaptRatio
 RIN .NONE              00 000 000 000:  CM GrsInelRatio
#Other Information
#
#WARRANTY: Halliburton will use its best efforts to furnish customers with 
#accurate information and interpretations that are part of, and incident to, the services 
#provided.  However, Halliburton cannot and does not warrant the accuracy 
#or correctness of such information and interpretations.  Under no circumstances should any 
#such information or interpretation be relied upon as the sole basis for any drilling, 
#completion, production, or financial decision or any procedure involving any risk to the 
#safety of any drilling venture, drilling rig or its crew or any other third party.  The 
#Customer has full responsibility for all drilling, completion and production operation.  
#Halliburton makes no representations or warranties, either expressed or 
#implied, including, but not limited to, the implied warranties of merchantability or fitness 
#for a particular purpose, with respect to the services rendered.  In no event will 
#Halliburton be liable for failure to obtain any particular results or for 
#any damages, including, but not limited to, indirect, special or consequential damages, 
#resulting from the use of any information or interpretation provided by Halliburton.
#
~A    DEPT      CCL   NPHI_OH NPHI_CHI   GR_CHI   GR_OH   RHOB_OH RHOB_CHI  PE_CHI   PE_OH  DTC_OH  DTC_CHI SPHI_CHI RT10_OH  RT10_CHI RT30_OH  RT30_CHI RT90_OH  RT90_CHI   SGF    CRNF   RIN   
# ...
   11719.0000  0.0000 -999.25   12.0307 113.3946  -999.25 -999.25    2.5532  3.9001 -999.25 -999.25 65.1233  12.3900  -999.25  47.6397  -999.25  52.9239  -999.25  58.9322 19.1119 0.9158 0.9907
   11719.5000  0.0000 -999.25   11.5002 103.7245  -999.25 -999.25    2.5579  3.9854 -999.25 -999.25 64.5490  11.9900  -999.25  47.6910  -999.25  52.7758  -999.25  58.8460 19.0207 0.9061 0.9878
   11720.0000  0.0000 -999.25   11.2943 104.4962  -999.25 -999.25    2.5600  4.0005 -999.25 -999.25 63.9260  11.5500  -999.25  48.3167  -999.25  53.8405  -999.25  60.1896 18.8999 0.9002 0.9848
   11720.5000  0.0000 -999.25   11.2585 108.6922  -999.25 -999.25    2.5609  3.9954 -999.25 -999.25 63.4445  11.2100  -999.25  48.9348  -999.25  54.9308  -999.25  61.5179 18.6643 0.8932 0.9848
   11721.0000  0.0000 -999.25   11.1145 109.0040  -999.25 -999.25    2.5623  4.0106 -999.25 -999.25 63.0057  10.9000  -999.25  49.4870  -999.25  55.9030  -999.25  62.7565 18.5196 0.8811 0.9812
   11721.5000  0.0000 -999.25   11.2685 113.8286  -999.25 -999.25    2.5610  3.9850 -999.25 -999.25 62.8703  10.8000  -999.25  50.1911  -999.25  57.2748  -999.25  64.4539 18.2727 0.8720 0.9773
   11722.0000  0.0000 -999.25   11.1271 112.6664  -999.25 -999.25    2.5623  4.0066 -999.25 -999.25 62.5730  10.5900  -999.25  50.5896  -999.25  58.0053  -999.25  65.4141 18.0232 0.8656 0.9729
   11722.5000  0.0000 -999.25   10.7421 109.1070  -999.25 -999.25    2.5663  4.0719 -999.25 -999.25 61.9527  10.1500  -999.25  51.0802  -999.25  58.8174  -999.25  66.5023 17.7379 0.8619 0.9690
   11723.0000  0.0000 -999.25   10.4205 106.2798  -999.25 -999.25    2.5698  4.1313 -999.25 -999.25 61.4660   9.8100  -999.25  51.4631  -999.25  59.4117  -999.25  67.2918 17.4410 0.8591 0.9673
   11723.5000  0.0000 -999.25   10.3304 106.7022  -999.25 -999.25    2.5711  4.1552 -999.25 -999.25 61.1964   9.6200  -999.25  51.9680  -999.25  60.3051  -999.25  68.4281 17.2212 0.8560 0.9651
   11724.0000  0.0000 -999.25    9.9736 100.9810  -999.25 -999.25    2.5747  4.2305 -999.25 -999.25 60.9373   9.4300  -999.25  52.0256  -999.25  60.3203  -999.25  68.5106 17.0380 0.8524 0.9632
   11724.5000  0.0000 -999.25    9.9331 100.2126  -999.25 -999.25    2.5750  4.2466 -999.25 -999.25 60.8839   9.3900  -999.25  52.2754  -999.25  60.8753  -999.25  69.2550 16.9543 0.8466 0.9586
   11725.0000  0.0000 -999.25    9.3812  89.6370  -999.25 -999.25    2.5798  4.3494 -999.25 -999.25 60.7027   9.2700  -999.25  51.7680  -999.25  60.1321  -999.25  68.4856 16.8469 0.8382 0.9519
   11725.5000  0.0000 -999.25    8.9330  81.4278  -999.25 -999.25    2.5836  4.4271 -999.25 -999.25 60.5702   9.1700  -999.25  51.0950  -999.25  59.3069  -999.25  67.6114 16.8116 0.8299 0.9449
   11726.0000  0.0000 -999.25    9.0097  83.4816  -999.25 -999.25    2.5828  4.4161 -999.25 -999.25 60.4780   9.1100  -999.25  51.1987  -999.25  59.9084  -999.25  68.4375 16.7312 0.8222 0.9383
   11726.5000  0.0000 -999.25    8.8789  83.4430  -999.25 -999.25    2.5842  4.4339 -999.25 -999.25 60.1822   8.9000  -999.25  51.2063  -999.25  60.1930  -999.25  68.8635 16.6579 0.8181 0.9345
   11727.0000  0.0000 -999.25    8.7536  83.8728  -999.25 -999.25    2.5857  4.4536 -999.25 -999.25 59.8552   8.6700  -999.25  51.4672  -999.25  60.7225  -999.25  69.5610 16.5452 0.8187 0.9329
   11727.5000  0.0000 -999.25    8.6053  83.9622  -999.25 -999.25    2.5876  4.4772 -999.25 -999.25 59.5281   8.4400  -999.25  51.7912  -999.25  61.2411  -999.25  70.2270 16.4322 0.8226 0.9328
   11728.0000  0.0000 -999.25    8.6516  86.3832  -999.25 -999.25    2.5876  4.4725 -999.25 -999.25 59.3658   8.3200  -999.25  52.3965  -999.25  62.1231  -999.25  71.3011 16.2893 0.8231 0.9339
   11728.5000  0.0000 -999.25    8.7402  87.1746  -999.25 -999.25    2.5868  4.4648 -999.25 -999.25 59.4441   8.3800  -999.25  52.4586  -999.25  62.3499  -999.25  71.6016 16.1753 0.8215 0.9317
   11729.0000  0.0000 -999.25    8.7728  85.3805  -999.25 -999.25    2.5861  4.4713 -999.25 -999.25 59.6614   8.5300  -999.25  52.0649  -999.25  61.9553  -999.25  71.1631 16.0128 0.8104 0.9275
   11729.5000  0.0000 -999.25    8.5143  78.8224  -999.25 -999.25    2.5879  4.5241 -999.25 -999.25 59.7677   8.6100  -999.25  50.7314  -999.25  60.4178  -999.25  69.4080 15.8576 0.8009 0.9191
   11730.0000  0.0000 -999.25    8.5058  77.5915  -999.25 -999.25    2.5878  4.5359 -999.25 -999.25 59.8297   8.6500  -999.25  50.0699  -999.25  59.9087  -999.25  68.8815 15.7393 0.7917 0.9121
   11730.5000  0.0000 -999.25    8.8411  85.4589  -999.25 -999.25    2.5851  4.4838 -999.25 -999.25 59.6157   8.5000  -999.25  50.5858  -999.25  61.2925  -999.25  70.6701 15.6794 0.7853 0.9056
   11731.0000  0.0000 -999.25    8.8840  88.8506  -999.25 -999.25    2.5853  4.4782 -999.25 -999.25 59.3213   8.2900  -999.25  51.1773  -999.25  62.3579  -999.25  72.0233 15.6985 0.7830 0.9040
   11731.5000  0.0000 -999.25    8.4877  85.1331  -999.25 -999.25    2.5896  4.5438 -999.25 -999.25 58.8931   7.9900  -999.25  51.2103  -999.25  62.3182  -999.25  72.0105 15.6267 0.7807 0.9051
   11732.0000  0.0000 -999.25    8.0706  80.5875  -999.25 -999.25    2.5939  4.6087 -999.25 -999.25 58.5411   7.7400  -999.25  51.1617  -999.25  62.0309  -999.25  71.6652 15.4315 0.7823 0.9078
   11732.5000  0.0000 -999.25    8.2744  85.4174  -999.25 -999.25    2.5925  4.5760 -999.25 -999.25 58.4716   7.6900  -999.25  52.3509  -999.25  63.6254  -999.25  73.5833 15.1852 0.7846 0.9108
   11733.0000  0.0000 -999.25    8.0744  82.4907  -999.25 -999.25    2.5948  4.6189 -999.25 -999.25 58.3372   7.5900  -999.25  52.4905  -999.25  63.7483  -999.25  73.7564 14.9554 0.7872 0.9109
   11733.5000  0.0000 -999.25    8.2952  84.9899  -999.25 -999.25    2.5928  4.5970 -999.25 -999.25 58.4738   7.6900  -999.25  52.8834  -999.25  64.4935  -999.25  74.6963 14.9785 0.7866 0.9082
   11734.0000  0.0000 -999.25    8.1226  80.3246  -999.25 -999.25    2.5944  4.6406 -999.25 -999.25 58.5335   7.7300  -999.25  52.3486  -999.25  63.7964  -999.25  73.8881 15.1035 0.7815 0.9050
   11734.5000  0.0000 -999.25    8.4163  83.7344  -999.25 -999.25    2.5912  4.5936 -999.25 -999.25 58.7596   7.8900  -999.25  52.0569  -999.25  63.6968  -999.25  73.7911 15.2559 0.7759 0.9010
   11735.0000  0.0000 -999.25    8.3635  82.5704  -999.25 -999.25    2.5914  4.5968 -999.25 -999.25 58.7733   7.9000  -999.25  51.2896  -999.25  62.7599  -999.25  72.6684 15.3327 0.7698 0.8987
   11735.5000  0.0000 -999.25    8.0249  78.3259  -999.25 -999.25    2.5945  4.6432 -999.25 -999.25 58.5485   7.7400  -999.25  50.4132  -999.25  61.5381  -999.25  71.2010 15.3523 0.7686 0.8982
   11736.0000  0.0000 -999.25    7.7672  75.6227  -999.25 -999.25    2.5970  4.6798 -999.25 -999.25 58.3274   7.5900  -999.25  49.9197  -999.25  60.8710  -999.25  70.4116 15.2965 0.7676 0.8979
   11736.5000  0.0000 -999.25    8.0918  82.9525  -999.25 -999.25    2.5944  4.6229 -999.25 -999.25 58.2364   7.5200  -999.25  50.8679  -999.25  62.3938  -999.25  72.2839 15.2435 0.7679 0.8978
   11737.0000  0.0000 -999.25    8.1689  83.8019  -999.25 -999.25    2.5936  4.6143 -999.25 -999.25 58.2723   7.5500  -999.25  50.5355  -999.25  62.1614  -999.25  72.0382 15.1483 0.7644 0.8945
   11737.5000  0.0000 -999.25    7.8273  77.3363  -999.25 -999.25    2.5966  4.6758 -999.25 -999.25 58.2132   7.5100  -999.25  49.1336  -999.25  60.3291  -999.25  69.8494 15.0101 0.7573 0.8908
   11738.0000  0.0000 -999.25    7.9989  79.0822  -999.25 -999.25    2.5948  4.6547 -999.25 -999.25 58.3264   7.5900  -999.25  48.7669  -999.25  60.1090  -999.25  69.6199 14.9037 0.7515 0.8866
   11738.5000  0.0000 -999.25    7.9057  78.2210  -999.25 -999.25    2.5961  4.6768 -999.25 -999.25 58.2027   7.5000  -999.25  48.9716  -999.25  60.4103  -999.25  70.0124 14.7851 0.7490 0.8862
   11739.0000  0.0000 -999.25    7.4057  72.3528  -999.25 -999.25    2.6014  4.7606 -999.25 -999.25 57.8250   7.2300  -999.25  49.2529  -999.25  60.5068  -999.25  70.1372 14.6813 0.7485 0.8897
   11739.5000  0.0000 -999.25    7.5282  76.3021  -999.25 -999.25    2.6010  4.7443 -999.25 -999.25 57.6673   7.1200  -999.25  50.5474  -999.25  62.2770  -999.25  72.3071 14.5473 0.7491 0.8917
