###############################################
##         ENVERUS                           ##
##         ESS - Open Hole                   ##
##         PERMIAN / DELAWARE                ##
##         Nov 04 2023  V4.0                 ##
##         42-389-32398-00-00                ##
###############################################
## Copyright 2017-2023  ENVERUS.  All Rights Reserved. 
## Confidential - Property of ENVERUS, use governed by terms and 
## conditions found within the existing Information Services Subscription Agreement 
## (as may be amended, the “ISSA”) between Customer and ENVERUS. 
## 
~VERSION INFORMATION
# MNEM.UNIT                               DATA : DESCRIPTION OF MNEMONIC
#-----.-----     ----------------------------- : -----------------------------
VERS.                                     2.00 : CWLS LOG ASCII STANDARD - VERSION 2.00
WRAP.                                       NO : MULTIPLE LINES PER DEPTH STEP
VEND.                                  ENVERUS : VENDOR
TYPE.                          ESS - OPEN HOLE : ENVERUS ESSENTIAL CURVES – ACCESSIBLE THROUGH ENVERUS PRISM(TM)
DOC.                                  31812117 : ENVERUS HEADER RAW DOCUMENT ID
#___________________________________________________________________________________________________ 
~WELL INFORMATION 
# uAwnbjLw6pKN5CeTb7gwROLhNOHLu74gercCwdGpUdKCBCGOTLsJuzWIBCYkU6KzQxtC+uHRBloynRtd0Ulspg== 
# MNEM.UNIT                                              DATA : DESCRIPTION OF MNEMONIC 
#-----.-----                    ----------------------------- : ----------------------------- 
CNTY.                                                  REEVES : COUNTY 
STATE.                                                  TEXAS : STATE 
CNTRY.                                                    USA : COUNTRY 
API.                                             42-389-32398 : API (10 Digit) 
API_14.                                    42-389-32398-00-00 : API (14 Digits) 
API_14_std.                                 42-389-32398-0000 : API (14 Digits Standard) 
UWI.                                           42389323980000 : UNIQUE WELL ID 
WELL.                                    BLOCK 58 STATE 32  1 : WELL NAME
STRT.FT                                                8311.0 : START DEPTH
STOP.FT                                               12834.0 : STOP DEPTH
STEP.FT                                                   0.5 : STEP BETWEEN DEPTHS
NULL.                                                 -999.25 : NULL VALUE
COMP.                                       SHELL WESTERN E&P : COMPANY 
DATE.                                             08-FEB-2006 : LOG DATE
#___________________________________________________________________________________________________ 
~CURVE INFORMATION 
# MNEM.UNIT           : CURVE DESCRIPTION 
#-----.-----          : ----------------------------- 
 DEPT.FT               : MEASURED DEPTH 
 CALI__B.IN            : CALIPER (CAL - CAL) 
 GR__B.API             : GAMMA RAY (GR) 
 DT__B.US/FT           : SONIC DELTA TRANSIT TIME (DT) 
 RESS__B.OHMM          : SHALLOW INDUCTION RESISTIVITY (ILS - ILS) 
 RESD__B.OHMM          : DEEP INDUCTION RESISTIVITY (ILD - ILD) 
 #___________________________________________________________________________________________________ 
~A         DEPT        CALI__B          GR__B          DT__B        RESS__B        RESD__B
# ...
         9675.0          8.320        100.197         74.676          8.862         11.370
         9675.5          8.319         96.415         71.072          7.359          8.222
         9676.0          8.319         89.553         67.495          7.003          7.273
         9676.5          8.319         82.416         64.505         10.666         16.210
         9677.0          8.319         71.500         64.384         19.318         26.579
         9677.5          8.319         65.911         65.180         22.432         30.775
         9678.0          8.318         70.710         68.537         19.008         29.868
         9678.5          8.318         87.046         72.414         15.511         26.177
         9679.0          8.318        102.788         74.547         13.919         22.487
         9679.5          8.318        104.966         75.888         13.481         19.499
         9680.0          8.318        105.052         76.476         13.697         20.982
         9680.5          8.317        103.278         75.569         11.981         19.281
         9681.0          8.317         96.501         73.470          9.930         15.467
         9681.5          8.317         85.258         71.405          9.674         13.437
         9682.0          8.317         74.014         70.572         12.151         15.954
         9682.5          8.317         69.571         70.714         15.604         21.967
         9683.0          8.316         78.695         71.848         12.981         20.569
         9683.5          8.316         90.838         74.707          9.975         15.046
         9684.0          8.316        102.982         76.810          8.740         10.070
         9684.5          8.316        111.450         77.658          8.757         10.178
         9685.0          8.316        111.882         77.988         10.198         11.926
         9685.5          8.315        112.314         78.290         12.781         15.706
         9686.0          8.315        112.572         77.709         12.447         16.844
         9686.5          8.315        112.825         76.925          8.684         12.894
         9687.0          8.315        108.954         76.183          7.397          8.943
         9687.5          8.315        104.904         76.108         10.112          9.729
         9688.0          8.314        100.854         76.067         12.387         12.863
         9688.5          8.314         99.535         76.538         11.146         11.560
         9689.0          8.314        100.953         77.622          9.337         10.021
         9689.5          8.314        103.739         78.527          8.439          8.483
         9690.0          8.314        106.526         78.123          9.456         11.406
         9690.5          8.313        108.675         77.156         13.509         14.686
         9691.0          8.313        105.188         76.143         14.275         14.325
         9691.5          8.313        101.114         74.995         13.412         13.965
         9692.0          8.313         97.000         75.146         12.840         13.967
         9692.5          8.313         95.704         75.412         12.894         14.680
         9693.0          8.313         98.745         76.094         12.572         13.928
         9693.5          8.313        102.801         76.838         12.114         13.416
         9694.0          8.313        106.857         76.337         12.007         13.709
         9694.5          8.313        109.107         75.944         11.792         13.230
         9695.0          8.313        107.131         75.611         11.205         11.555
         9695.5          8.313        100.032         75.330         12.418         13.389
         9696.0          8.313         93.056         74.746         14.985         16.249
         9696.5          8.313         87.342         73.672         17.567         19.155
         9697.0          8.313         81.627         72.599         19.476         22.284
         9697.5          8.313         75.913         71.947         24.406         25.414
         9698.0          8.313         73.112         71.905         26.009         28.238
         9698.5          8.313         77.120         72.301         26.829         29.846
         9699.0          8.313         85.192         72.959         27.369         31.454
         9699.5          8.313         93.264         73.617         26.577         33.062
         9700.0          8.313         99.505         74.275         23.691         33.114
         9700.5          8.313         98.830         74.900         20.398         28.343
         9701.0          8.313         98.923         75.504         17.577         23.572
         9701.5          8.313         99.335         76.028         17.983         21.347
         9702.0          8.313         99.227         76.255         20.153         22.991
         9702.5          8.313         98.486         76.324         21.494         24.636
         9703.0          8.313         97.243         76.332         21.100         25.470
         9703.5          8.313         95.115         76.332         19.021         22.773
         9704.0          8.313         96.669         76.455         16.846         19.371
         9704.5          8.313        101.023         76.629         12.362         15.968
         9705.0          8.313        104.692         76.803          9.128         12.566
         9705.5          8.313        106.952         76.978          7.552          9.163
         9706.0          8.313        104.570         77.152          7.200          7.620
         9706.5          8.313         99.623         76.918          6.535          6.632
         9707.0          8.313         96.936         76.378          5.678          5.643
         9707.5          8.313         96.586         75.658          5.008          4.995
         9708.0          8.313         95.864         74.851          5.204          5.415
         9708.5          8.313         94.344         73.792          7.066          7.247
         9709.0          8.313         87.828         71.959          8.251          8.987
         9709.5          8.313         79.755         69.361          8.951         10.608
         9710.0          8.313         68.711         64.321          9.652         12.229
         9710.5          8.313         57.668         61.051         12.052         13.850
         9711.0          8.313         46.478         57.781         15.159         15.471
         9711.5          8.313         39.316         58.356         19.080         22.754
         9712.0          8.313         46.125         59.672         24.794         30.572
         9712.5          8.313         58.919         63.358         24.592         31.441
         9713.0          8.313         71.713         68.404         21.561         26.085
         9713.5          8.313         84.507         74.263         18.120         20.729
         9714.0          8.313         93.098         76.219         14.675         16.942
         9714.5          8.313         97.594         76.650         14.051         15.107
         9715.0          8.313        100.105         76.696         13.871         13.674
         9715.5          8.313        102.616         76.743         14.108         13.856
         9716.0          8.313        105.127         76.790         15.610         13.583
         9716.5          8.313        106.230         76.836         14.993         12.683
         9717.0          8.313        106.230         76.618         13.833         11.784
         9717.5          8.313        104.231         76.315         12.545         10.897
         9718.0          8.313        101.453         75.914         11.359         10.422
         9718.5          8.313         98.674         75.514         10.367          9.946
