###############################################
##         ENVERUS                           ##
##         ESS - Open Hole                   ##
##         PERMIAN / DELAWARE                ##
##         Nov 04 2023  V4.0                 ##
##         42-389-32730-00-00                ##
###############################################
## Copyright 2017-2023  ENVERUS.  All Rights Reserved. 
## Confidential - Property of ENVERUS, use governed by terms and 
## conditions found within the existing Information Services Subscription Agreement 
## (as may be amended, the “ISSA”) between Customer and ENVERUS. 
## 
~VERSION INFORMATION
# MNEM.UNIT                               DATA : DESCRIPTION OF MNEMONIC
#-----.-----     ----------------------------- : -----------------------------
VERS.                                     2.00 : CWLS LOG ASCII STANDARD - VERSION 2.00
WRAP.                                       NO : MULTIPLE LINES PER DEPTH STEP
VEND.                                  ENVERUS : VENDOR
TYPE.                          ESS - OPEN HOLE : ENVERUS ESSENTIAL CURVES – ACCESSIBLE THROUGH ENVERUS PRISM(TM)
DOC.                                  19552736 : ENVERUS HEADER RAW DOCUMENT ID
#___________________________________________________________________________________________________ 
~WELL INFORMATION 
# Emv0q1Fc4UOVqi1FEPTQ50pHgS2U6oO6A9wxQf5ozJtTAVTQXtUhuyCOytio7eHVwvke0CQF/LYkoyLsbhUTsQ== 
# MNEM.UNIT                                              DATA : DESCRIPTION OF MNEMONIC 
#-----.-----                    ----------------------------- : ----------------------------- 
CNTY.                                                  REEVES : COUNTY 
STATE.                                                  TEXAS : STATE 
CNTRY.                                                    USA : COUNTRY 
API.                                             42-389-32730 : API (10 Digit) 
API_14.                                    42-389-32730-00-00 : API (14 Digits) 
API_14_std.                                 42-389-32730-0000 : API (14 Digits Standard) 
UWI.                                           42389327300000 : UNIQUE WELL ID 
WELL.                                  BIG SKY 55 - 16 NO. 1H : WELL NAME
STRT.FT                                                3850.0 : START DEPTH
STOP.FT                                               12070.5 : STOP DEPTH
STEP.FT                                                   0.5 : STEP BETWEEN DEPTHS
NULL.                                                 -999.25 : NULL VALUE
COMP.                                      CIMAREX ENERGY CO. : COMPANY 
FLD.                                                  WILDCAT : FIELD 
SRVC.                                             HALLIBURTON : SERVICE COMPANY 
DATE.                                              03/23/2011 : DATE 
TVD.                                                       NO : TVD FLAG 
WSTA.                                                     LOC : WELL STATUS
#___________________________________________________________________________________________________ 
~PARAMETER INFORMATION 
# MNEM.UNIT                                              DATA : DESCRIPTION OF MNEMONIC 
#-----.-----                    ----------------------------- : ----------------------------- 
RUN.                                                      ONE : RUN NUMBER 
PDAT.                                                      GL : PERMANENT DATUM 
EPD.FT                                              2996.0000 : ELEVATION OF PERM. DATUM 
LMF.                                            KELLY BUSHING : LOG MEASURED FROM 
EKB.FT                                              3021.0000 : ELEVATION OF KELLY BUSHING 
DF.FT                                               3020.0000 : ELEVATION OF DERRICK FLOOR 
GL.FT                                               2996.0000 : ELEVATION OF GROUND LEVEL 
TD.FT                                              12100.0000 : TOTAL DEPTH 
CSGD.FT                                                  3861 : CASING BOTTOM (DRILLER) 1 
CSGL.FT                                                  3855 : CASING BOTTOM (LOGGER) 1 
MUD.                                                    BRINE : DRILLING FLUID TYPE 
MUDV.CP                                               36.0000 : DRILLING FLUID VISCOSITY 
MUDD.LB/USG                                           10.1000 : DRILLING FLUID DENSITY 
PH.                                                   10.0000 : DRILLING FLUID PH 
MUDS.                                                FLOWLINE : MUD SAMPLE SOURCE 
RM.OHMM                                                0.0600 : RESISTIVITY OF MUD SAMPLE 
RMT.DEGF                                              75.0000 : MUD SAMPLE TEMPERATURE 
RMF.OHMM                                               0.0400 : MUD FILTRATE RESISTIVITY 
RMFT.DEGF                                             75.0000 : MUD FILTRATE SAMPLE TEMPERATURE 
RMC.OHMM                                               0.0600 : MUD CAKE RESISTIVITY 
RMCT.DEGF                                             75.0000 : MUD CAKE SAMPLE TEMPERATURE 
RMB.OHMM                                               0.0240 : MUD RESISTIVITY AT BHT 
TMAX.DEGF                                            200.0000 : BOTTOM HOLE TEMPERATURE
#___________________________________________________________________________________________________ 
~CURVE INFORMATION 
# MNEM.UNIT           : CURVE DESCRIPTION 
#-----.-----          : ----------------------------- 
 DEPT.FT               : MEASURED DEPTH 
 GR.API                : GAMMA RAY (GAMMA RAY) 
 DT.US/FT              : SONIC DELTA TRANSIT TIME (DELTA T) 
 RESD_LL.OHMM          : DEEP LATEROLOG (LLD - DEEP LATEROLOG) 
 DPHI.V/V              : DENSITY POROSITY (DENSITY POROSITY) 
 NPHI.V/V              : NEUTRON POROSITY (NEUTRON POROSITY) 
 #___________________________________________________________________________________________________ 
~A         DEPT             GR             DT        RESD_LL           DPHI           NPHI
# ...
         7106.0         53.357         63.999        15.1610        0.06300        0.09900
         7106.5         52.482         64.487        14.6410        0.06600        0.09700
         7107.0         51.377         64.588        13.7280        0.06900        0.09600
         7107.5         50.158         64.590        12.8420        0.06700        0.09600
         7108.0         48.941         64.589        12.9140        0.06600        0.09700
         7108.5         47.723         64.589        12.9890        0.07100        0.09800
         7109.0         46.508         64.501        13.0640        0.07600        0.09600
         7109.5         45.285         64.391        13.8030        0.07300        0.09000
         7110.0         44.822         64.183        14.7960        0.06900        0.08600
         7110.5         45.435         63.914        15.8610        0.06500        0.08500
         7111.0         46.058         64.068        17.0070        0.06200        0.08500
         7111.5         46.675         64.312        17.8950        0.05800        0.08500
         7112.0         47.405         64.195        18.7450        0.06300        0.08500
         7112.5         44.948         64.023        19.6340        0.06800        0.08400
         7113.0         42.307         63.239        20.5650        0.05900        0.08400
         7113.5         40.619         62.360        21.5300        0.04300        0.08400
         7114.0         40.030         61.720        21.0950        0.03300        0.08400
         7114.5         39.832         61.343        20.5520        0.03800        0.08400
         7115.0         39.607         61.343        19.6160        0.04700        0.08400
         7115.5         39.396         61.824        18.7280        0.05600        0.08300
         7116.0         39.873         62.779        17.8790        0.06400        0.08200
         7116.5         43.567         63.658        17.0710        0.07300        0.08200
         7117.0         46.445         64.155        16.6290        0.07600        0.08000
         7117.5         47.663         64.469        17.9590        0.07400        0.07700
         7118.0         46.569         64.469        18.9490        0.07100        0.07400
         7118.5         45.328         64.469        20.3730        0.07000        0.07300
         7119.0         44.065         64.470        19.6640        0.07300        0.07300
         7119.5         43.673         64.387        18.6210        0.07700        0.07600
         7120.0         44.015         63.832        17.6330        0.07800        0.07900
         7120.5         44.626         63.359        16.9390        0.07000        0.07800
         7121.0         44.461         63.146        16.9860        0.06700        0.07700
         7121.5         42.943         63.187        17.1610        0.07000        0.07600
         7122.0         41.288         63.446        17.6600        0.07200        0.07500
         7122.5         39.526         63.705        18.5450        0.07000        0.07700
         7123.0         37.765         63.880        19.4770        0.06800        0.07900
         7123.5         36.002         63.914        20.3700        0.07100        0.07800
         7124.0         34.243         63.948        22.6360        0.07600        0.07800
         7124.5         32.481         63.978        24.9540        0.07600        0.07800
         7125.0         32.729         64.294        27.5390        0.07800        0.07800
         7125.5         35.195         64.680        31.4440        0.08200        0.08300
         7126.0         40.066         65.245        38.9580        0.09000        0.09600
         7126.5         48.840         65.933        48.2680        0.09900        0.11000
         7127.0         57.569         66.618        58.3390        0.09300        0.13700
         7127.5         66.422         66.882        52.0410        0.08800        0.15900
         7128.0         68.132         66.870        46.9750        0.09200        0.15300
         7128.5         65.674         65.830        42.4030        0.09900        0.14500
         7129.0         56.916         64.822        39.5930        0.11700        0.12800
         7129.5         48.293         63.868        41.6880        0.13200        0.11300
         7130.0         40.010         63.731        46.7480        0.13700        0.10300
         7130.5         36.800         63.602        48.5520        0.14200        0.10000
         7131.0         34.225         63.398        50.4900        0.15300        0.10100
         7131.5         33.259         63.026        52.2120        0.16200        0.10600
         7132.0         32.857         63.064        50.3950        0.18100        0.10800
         7132.5         33.328         63.100        48.5040        0.19700        0.11200
         7133.0         34.312         63.136        50.5860        0.20200        0.11800
         7133.5         38.292         63.551        58.1180        0.20300        0.12400
         7134.0         42.154         64.130        68.4700        0.21800        0.13200
         7134.5         46.013         64.710        79.6660        0.23800        0.14200
         7135.0         49.993         65.293        87.4010        0.25200        0.15300
         7135.5         50.881         65.908        95.8770        0.18700        0.15600
         7136.0         49.168         65.882       103.4660        0.14900        0.15100
         7136.5         48.707         65.851       102.4430        0.13200        0.14400
         7137.0         51.160         65.819       101.4940        0.11500        0.14200
         7137.5         55.247         65.762        92.9540        0.09800        0.14200
         7138.0         58.333         65.560        85.1030        0.08700        0.14100
         7138.5         57.252         65.358        77.9150        0.07900        0.14100
         7139.0         54.922         64.803        71.3340        0.07800        0.14000
         7139.5         52.598         64.137        70.1650        0.06400        0.13800
         7140.0         50.390         63.988        75.3770        0.05400        0.13100
         7140.5         53.773         63.988        79.9550        0.05400        0.12900
         7141.0         57.667         63.988        84.8110        0.05900        0.12700
         7141.5         61.304         63.988        89.9620        0.06400        0.11500
         7142.0         62.442         63.818        95.4260        0.06600        0.10400
         7142.5         60.373         63.395       103.4470        0.06600        0.10000
         7143.0         57.824         63.346       103.4620        0.06500        0.10200
         7143.5         59.631         63.830        94.8450        0.06400        0.10900
         7144.0         63.287         64.108        87.2490        0.07300        0.11800
         7144.5         66.703         64.052        80.2850        0.08200        0.12800
         7145.0         67.675         63.772        73.8820        0.09600        0.12800
         7145.5         69.874         63.886        67.9850        0.11400        0.12100
         7146.0         71.973         64.289        63.5490        0.13000        0.11500
         7146.5         71.433         64.537        61.9630        0.12600        0.10900
         7147.0         65.648         63.759        60.4170        0.09000        0.10300
         7147.5         51.548         62.684        58.9100        0.07400        0.09600
         7148.0         44.814         62.176        57.4400        0.07000        0.09100
         7148.5         41.635         61.753        52.4070        0.06700        0.08800
         7149.0         42.739         62.053        47.4020        0.05400        0.09100
         7149.5         45.329         62.449        35.8370        0.04200        0.09300
