#--------------------------------------------------#
#-------------------ENVERUS, INC.------------------#
#------------------WWW.ENVERUS.COM-----------------#
#------------------COPYRIGHT 2020------------------#
#--------------------------------------------------#
#THIS FILE MAY BE USED ONLY IN ACCORDANCE WITH A CURRENT SUBSCRIPTION AGREEMENT BETWEEN
#THE USER AND ENVERUS, INC. NO PART OF THIS FILE MAY BE REPRODUCED, USED, COPIED,
#MODIFIED, PROPAGATED, OR DISTRIBUTED EXCEPT IN ACCORDANCE WITH THE SUBSCRIPTION
#AGREEMENT. UNAUTHORIZED USE OR DISTRIBUTION OF ALL OR ANY PART OF THIS FILE MAY VIOLATE
#COPYRIGHT, TRADEMARK, AND/OR OTHER LAWS AND IS SUBJECT TO CIVIL AS WELL AS CRIMINAL
#SANCTIONS.
#--------------------------------------------------#
#THIS FILE IS PROVIDED "AS-IS" AND ALL WARRANTIES ARE EXPRESSLY DISCLAIMED, WHETHER
#EXPRESS, ORAL, IMPLIED, STATUTORY OR OTHERWISE, INCLUDING ANY IMPLIED WARRANTY OF FITNESS
#FOR A PARTICULAR PURPOSE, MERCHANTABILITY, TITLE OR NON-INFRINGEMENT, AND ANY WARRANTIES
#ARISING BY VIRTUE OF CUSTOM OF TRADE OR COURSE OF DEALING.  FURTHER, ENVERUS, INC.
#AND ITS LICENSORS DO NOT REPRESENT OR WARRANT THAT THIS FILE WILL MEET USER'S
#REQUIREMENTS OR ARE SUITABLE FOR USER'S NEEDS OR THAT THE DATA OR RESULTS PROVIDED IN
#CONJUNCTION THEREWITH ARE CORRECT, ACCURATE, TIMELY OR RELIABLE. THESE DISCLAIMERS SHALL
#APPLY REGARDLESS OF ANY FAILURE OF ESSENTIAL PURPOSE OF ANY LIMITED REMEDY.  SOME
#JURISDICTIONS DO NOT ALLOW THE EXCLUSION OF CERTAIN WARRANTIES SO SOME OF THE ABOVE
#EXCLUSIONS MAY NOT APPLY. IN NO EVENT SHALL ENVERUS, INC. OR ANY OF ITS AFFILIATES
#BE LIABLE UNDER ANY LEGAL THEORY, WHETHER IN TORT (INCLUDING WITHOUT LIMITATION
#NEGLIGENCE), CONTRACT, STRICT LIABILITY, STATUTORY OR OTHERWISE, FOR ANY SPECIAL,
#INCIDENTAL, CONSEQUENTIAL, EXEMPLARY, PUNITIVE OR INDIRECT DAMAGE OF ANY KIND, INCLUDING
#WITHOUT LIMITATION LOSS OF REVENUE, PROFITS, GOODWILL, USE, AND/OR DATA OR THE COST OF
#PROCUREMENT OF SUBSTITUTE GOODS OR SERVICES, EVEN IF APPRISED OF THE POSSIBILITY OF SUCH
#DAMAGES IN ADVANCE.
#--------------------------------------------------#

~VERSION INFORMATION
VERS. 2.0 : CWLS LOG ASCII STANDARD - VERSION 2.0
WRAP.  NO : ONE LINE PER DEPTH STEP
~WELL INFORMATION
#MNEMONIC     .UNIT              VALUE :DESCRIPTION
STRT       .FT                0 :START DEPTH
STOP       .FT                3396 :STOP DEPTH
STEP       .FT                   0.500 :STEP
NULL       .                  -999.250 :NULL
UWI        .              42389305140000 :UNIQUE WELL ID
API        .              42389305140000 :API NUMBER
COMP       .         SLEDGE BROS. OIL CO. :COMPANY
WELL       .        BOLLINGER  5 :WELL
DATE       .                            :LOG DATE
~CURVE INFORMATION
#MNEMONIC     .UNIT      API CODE :CURVE DESCRIPTION
DEPTH       .FT                      :MEASURED DEPTH
ILS.OHM        UNKNOWN   :ILS
GR.API        UNKNOWN   :GR
DT.US/FT        UNKNOWN   :DT
CAL.INCH        UNKNOWN   :CAL
ILD.OHM        UNKNOWN   :ILD
~A    DEPTH    ILS    GR    DT    CAL    ILD
# ...
 3203     1993.462   20.106   48.696   6.676   3189.01
 3203.5     1993.944   20.668   48.674   6.677   5171.099
 3204     1994.427   21.23   48.666   6.677   7477.949
 3204.5     1994.91   21.321   48.573   6.678   12762.315
 3205     1995.393   21.282   48.481   6.679   19377.357
 3205.5     1995.876   21.243   48.388   6.679   20720.939
 3206     1996.359   21.107   48.348   6.68   21507.996
 3206.5     1996.841   19.04   48.38   6.68   22295.055
 3207     1997.324   16.973   48.411   6.681   23082.111
 3207.5     1997.807   15.634   48.443   6.681   23869.17
 3208     1998.29   16.584   48.475   6.682   24670.99
 3208.5     1998.773   17.534   48.506   6.682   25473.053
 3209     1999.255   18.218   48.497   6.683   26275.115
 3209.5     1999.738   17.128   48.483   6.683   27496.934
 3210     2000.221   16.038   48.47   6.684   28761.473
 3210.5     2000.704   14.948   48.456   6.685   30026.012
 3211     2001.187   14.12   48.658   6.686   30689.004
 3211.5     2001.67   13.941   48.852   6.687   31232.635
 3212     2002.152   13.756   48.986   6.688   31776.266
 3212.5     2002.635   12.68   49.121   6.689   32319.896
 3213     2002.208   11.604   49.172   6.69   32863.527
 3213.5     2001.575   10.527   49.207   6.691   33407.16
 3214     2000.941   10.403   49.242   6.692   33950.789
 3214.5     2000.308   10.285   49.2   6.693   34526.242
 3215     1999.674   10.168   49.09   6.694   35203.41
 3215.5     1999.041   9.716   48.979   6.695   35880.574
 3216     1998.407   8.879   48.986   6.696   36557.742
 3216.5     1997.774   8.042   48.999   6.697   37234.91
 3217     1997.14   8.119   49.012   6.698   37912.074
 3217.5     1996.507   8.923   49.024   6.699   38589.242
 3218     1995.873   9.726   49.036   6.7   38197.938
 3218.5     1995.24   9.89   49.043   6.701   37654.113
 3219     1994.606   9.531   49.05   6.703   37110.289
 3219.5     1993.973   9.171   49.057   6.704   36566.465
 3220     1993.339   8.811   49.064   6.705   36022.637
 3220.5     1992.706   8.93   49.071   6.706   35031.809
 3221     1992.072   9.774   49.078   6.707   33636.719
 3221.5     1991.439   10.611   49.085   6.708   32241.629
 3222     1990.805   10.194   49.092   6.709   30908.992
 3222.5     1990.172   8.281   49.281   6.705   32621.973
 3223     1989.538   7.013   49.791   6.692   34334.953
 3223.5     1988.905   7.172   50.218   6.68   36047.93
 3224     1988.271   13.886   50.366   6.667   31227.699
 3224.5     1987.638   22.019   49.751   6.654   21448.24
 3225     1987.004   28.209   49.137   6.642   7720.76
 3225.5     1986.371   29.988   49.938   6.629   4208.594
 3226     1985.737   27.712   50.708   6.616   4605.913
 3226.5     1985.104   26.036   50.488   6.604   6691.58
 3227     1984.47   32.702   50.185   6.591   11430.316
 3227.5     1983.837   45.042   49.877   6.587   9455.353
 3228     1661.909   53.785   54.107   6.6   4444.292
 3228.5     1145.986   62.521   62.081   6.614   984.438
 3229     756.507   71.257   69.053   6.628   541.329
 3229.5     452.855   79.993   71.966   6.641   383.174
 3230     279.901   86.248   71.241   6.644   228.859
 3230.5     172.91   90.842   68.648   6.643   177.28
 3231     152.944   92.052   65.816   6.643   133.179
 3231.5     152.654   96.163   65.158   6.643   133.187
 3232     169.498   110.957   64.501   6.643   152.051
 3232.5     192.169   127.742   64.721   6.642   172.751
 3233     188.089   131.737   66.651   6.642   158.859
 3233.5     162.205   127.115   67.762   6.642   139.736
 3234     135.865   119.532   68.609   6.642   119.51
 3234.5     114.639   110.249   68.424   6.641   99.284
 3235     97.791   100.966   67.761   6.641   79.059
 3235.5     81.919   97.447   66.46   6.641   59.442
 3236     72.245   99.576   65.877   6.641   55.555
 3236.5     62.571   101.988   65.126   6.641   51.668
 3237     53.575   104.206   65.1   6.64   46.157
 3237.5     45.639   102.151   66.404   6.64   39.351
 3238     40.194   96.982   67.081   6.64   36.191
 3238.5     43.221   91.015   67.019   6.64   40.06
 3239     52.481   85.906   66.491   6.639   53.265
 3239.5     68.063   86.117   65.675   6.639   65.166
 3240     80.231   89.606   64.859   6.639   68.532
 3240.5     80.662   94.93   64.777   6.639   62.236
 3241     68.09   100.255   65.212   6.638   50.894
 3241.5     56.439   104.299   66.3   6.638   41.888
 3242     50.377   103.821   67.389   6.638   39.063
 3242.5     46.441   103.342   67.799   6.638   36.739
 3243     45.179   102.508   67.766   6.638   36.17
 3243.5     44.825   98.679   67.207   6.637   35.6
 3244     45.196   94.85   66.515   6.637   35.289
 3244.5     46.068   91.676   65.549   6.639   36.643
 3245     48.964   90.91   64.681   6.645   39.945
 3245.5     52.32   93.608   65.188   6.651   48.048
 3246     61.112   105.016   66.203   6.657   57.74
 3246.5     75.404   120.659   67.423   6.663   94.144
 3247     110.745   128.785   68.813   6.669   130.549
 3247.5     154.787   132.841   70.142   6.675   192.405
 3248     198.555   135.026   69.988   6.681   257.062
 3248.5     228.171   138.373   69.522   6.687   289.841
 3249     256.299   141.72   69.035   6.692   287.081
 3249.5     253.889   145.067   68.48   6.696   269.167
 3250     238.228   162.551   67.896   6.692   251.252
 3250.5     225.317   181.635   69.647   6.687   224.273
 3251     206.985   191.799   71.805   6.683   176.121
 3251.5     136.945   171.316   73.41   6.678   122.306
 3252     88.271   134.755   73.527   6.674   68.49
 3252.5     56.896   99.831   70.901   6.669   28.682
 3253     41.783   76.045   68.08   6.665   23.446
 3253.5     39.971   71.547   65.26   6.66   23.498
 3254     42.299   79.712   63.228   6.656   25.415
 3254.5     47.12   111.232   63.209   6.652   30.041
 3255     54.413   141.36   65.46   6.646   34.97
 3255.5     57.103   169.645   68.764   6.637   38.662
 3256     50.744   168.605   72.068   6.628   36.612
 3256.5     43.111   137.075   73.144   6.619   30.332
 3257     35.46   111.218   70.996   6.61   24.052
 3257.5     27.905   89.715   69.174   6.601   17.772
 3258     24.938   84.018   67.352   6.592   16.533
 3258.5     24.215   86.037   66.355   6.583   15.732
 3259     23.974   89.358   66.278   6.573   15.827
 3259.5     23.733   93.103   66.966   6.564   15.994
 3260     23.492   96.884   67.65   6.555   16.255
 3260.5     23.779   99.401   67.707   6.552   16.517
 3261     24.123   98.702   67.765   6.551   16.778
 3261.5     23.439   93.831   67.601   6.551   15.694
 3262     21.851   87.023   67.435   6.551   14.115
 3262.5     19.517   79.849   67.367   6.551   12.536
 3263     16.924   70.894   67.368   6.55   10.92
 3263.5     14.521   67.013   67.368   6.55   9.251
 3264     13.835   68.207   67.369   6.55   8.916
 3264.5     13.149   70.873   67.37   6.55   8.648
 3265     13.279   71.72   67.103   6.551   8.796
 3265.5     13.731   71.799   66.836   6.551   9.137
 3266     14.026   71.877   66.567   6.552   9.477
 3266.5     14.027   71.407   66.297   6.553   9.129
 3267     13.432   70.048   66.609   6.553   8.623
 3267.5     12.693   68.977   67.115   6.554   8.116
 3268     12.285   70.616   67.622   6.555   8.35
 3268.5     12.642   72.013   67.518   6.555   8.649
 3269     13   71.74   66.736   6.556   8.947
 3269.5     13.081   71.467   66.664   6.557   9.102
 3270     13.04   73.478   66.776   6.557   8.773
 3270.5     12.331   76.803   67.153   6.558   8.444
 3271     11.889   79.957   68.385   6.558   8.264
 3271.5     12.021   79.387   68.931   6.559   9.054
 3272     12.539   80.694   68.69   6.56   9.843
 3272.5     13.169   85.027   68.931   6.56   10.633
 3273     13.94   89.359   69.265   6.561   11.569
 3273.5     14.712   94.823   69.266   6.561   12.68
 3274     15.681   101.086   69.266   6.559   13.791
 3274.5     16.666   117.911   69.522   6.558   14.902
 3275     17.807   130.83   69.867   6.557   16.24
 3275.5     19.042   137.723   71.263   6.555   17.642
 3276     18.497   128.212   72.401   6.554   15.265
 3276.5     16.182   118.264   72.371   6.553   12.15
