###############################################
##         ENVERUS                           ##
##         ESS - Open Hole                   ##
##         PERMIAN / DELAWARE                ##
##         Nov 04 2023  V4.0                 ##
##         42-389-32421-01-00                ##
###############################################
## Copyright 2017-2023  ENVERUS.  All Rights Reserved. 
## Confidential - Property of ENVERUS, use governed by terms and 
## conditions found within the existing Information Services Subscription Agreement 
## (as may be amended, the “ISSA”) between Customer and ENVERUS. 
## 
~VERSION INFORMATION
# MNEM.UNIT                               DATA : DESCRIPTION OF MNEMONIC
#-----.-----     ----------------------------- : -----------------------------
VERS.                                     2.00 : CWLS LOG ASCII STANDARD - VERSION 2.00
WRAP.                                       NO : MULTIPLE LINES PER DEPTH STEP
VEND.                                  ENVERUS : VENDOR
TYPE.                          ESS - OPEN HOLE : ENVERUS ESSENTIAL CURVES – ACCESSIBLE THROUGH ENVERUS PRISM(TM)
DOC.                                  51226874 : ENVERUS HEADER RAW DOCUMENT ID
#___________________________________________________________________________________________________ 
~WELL INFORMATION 
# Tb73rb1SL3MkDZoC3l18/hn1AqNnLhXquKbAWMIBLpWCEGQs+cUq/9XFz1I3dh1trdNBSXyPtAuUBW0L3ONtkQ== 
# MNEM.UNIT                                              DATA : DESCRIPTION OF MNEMONIC 
#-----.-----                    ----------------------------- : ----------------------------- 
CNTY.                                                  REEVES : COUNTY 
STATE.                                                  TEXAS : STATE 
CNTRY.                                                    USA : COUNTRY 
API.                                             42-389-32421 : API (10 Digit) 
API_14.                                    42-389-32421-01-00 : API (14 Digits) 
API_14_std.                                 42-389-32421-0100 : API (14 Digits Standard) 
UWI.                                           42389324210100 : UNIQUE WELL ID 
WELL.                                      ARMSTRONG STATE  1 : WELL NAME
STRT.FT                                                 182.0 : START DEPTH
STOP.FT                                               14775.0 : STOP DEPTH
STEP.FT                                                   0.5 : STEP BETWEEN DEPTHS
NULL.                                                 -999.25 : NULL VALUE
PREV_UWI.                                      42389324210000 : UNIQUE WELL ID 
PREV_API.                                      42389324210000 : API NUMBER 
COMP.                                    STALEY OPERATING CO. : COMPANY 
DATE.                                             26-JUN-2006 : LOG DATE
#___________________________________________________________________________________________________ 
~CURVE INFORMATION 
# MNEM.UNIT           : CURVE DESCRIPTION 
#-----.-----          : ----------------------------- 
 DEPT.FT               : MEASURED DEPTH 
 CALI__A.IN            : CALIPER (CAL - CAL) 
 GR__A.API             : GAMMA RAY (GR) 
 DT__A.US/FT           : SONIC DELTA TRANSIT TIME (DT) 
 DPHI__A.V/V           : DENSITY POROSITY (DPHI) 
 NPHI__A.V/V           : NEUTRON POROSITY (NPHI) 
 RHOB__A.G/CC          : BULK DENSITY (RHOB) 
 #___________________________________________________________________________________________________ 
~A         DEPT        CALI__A          GR__A          DT__A        DPHI__A        NPHI__A        RHOB__A
# ...
         3716.0         12.873         49.854         69.185        0.09831        0.08818         2.5160
         3716.5         12.897         50.901         70.904        0.11359        0.08969         2.4890
         3717.0         12.927         53.592         72.535        0.14086        0.09373         2.4620
         3717.5         12.970         54.249         73.835        0.15797        0.10125         2.4360
         3718.0         13.013         52.977         74.702        0.16699        0.11291         2.4260
         3718.5         13.056         50.778         74.076        0.16237        0.12046         2.4380
         3719.0         13.099         49.734         73.450        0.15468        0.12268         2.4490
         3719.5         13.142         49.667         73.584        0.15468        0.12186         2.4610
         3720.0         13.185         51.354         73.772        0.15202        0.11953         2.4730
         3720.5         13.190         56.333         73.620        0.14726        0.11625         2.4850
         3721.0         13.195         61.800         73.286        0.13650        0.12341         2.4810
         3721.5         13.199         64.140         72.981        0.13269        0.12908         2.4760
         3722.0         13.204         63.343         73.031        0.13559        0.13106         2.4710
         3722.5         13.209         60.374         73.081        0.14146        0.12994         2.4680
         3723.0         13.214         57.647         73.011        0.14195        0.12647         2.4710
         3723.5         13.200         57.208         72.509        0.13812        0.12276         2.4730
         3724.0         13.185         57.264         72.008        0.13843        0.11905         2.4760
         3724.5         13.170         56.454         71.826        0.13737        0.11617         2.4810
         3725.0         13.154         55.100         71.669        0.13338        0.11592         2.4870
         3725.5         13.138         55.085         71.512        0.12782        0.11399         2.4930
         3726.0         13.124         55.645         71.355        0.12768        0.11032         2.4930
         3726.5         13.112         55.869         71.016        0.12877        0.10189         2.4930
         3727.0         13.101         55.663         70.348        0.12502        0.10035         2.4930
         3727.5         13.089         54.817         69.681        0.11980        0.09956         2.5050
         3728.0         13.112         54.242         70.316        0.11459        0.10041         2.5110
         3728.5         13.152         55.552         71.325        0.12882        0.11122         2.4880
         3729.0         13.192         58.003         72.335        0.14114        0.12162         2.4650
         3729.5         13.210         60.819         73.344        0.14882        0.13158         2.4640
         3730.0         13.199         62.943         73.900        0.14783        0.13798         2.4720
         3730.5         13.187         63.860         74.340        0.14026        0.14500         2.4780
         3731.0         13.176         65.026         74.780        0.14001        0.15399         2.4730
         3731.5         13.164         66.335         75.220        0.14474        0.16292         2.4680
         3732.0         13.151         67.992         75.270        0.15008        0.16538         2.4630
         3732.5         13.138         70.579         74.042        0.14611        0.15805         2.4600
         3733.0         13.115         71.953         72.815        0.13110        0.14801         2.4830
         3733.5         13.074         72.961         71.659        0.11915        0.13570         2.5050
         3734.0         13.032         74.340         71.345        0.11288        0.13629         2.5280
         3734.5         12.990         76.577         71.032        0.10703        0.13898         2.5290
         3735.0         12.949         77.818         70.718        0.10757        0.13652         2.5240
         3735.5         12.907         77.527         70.404        0.10934        0.13048         2.5190
         3736.0         12.881         76.496         70.268        0.11203        0.12476         2.5140
         3736.5         12.859         74.673         70.311        0.11412        0.12053         2.5090
         3737.0         12.837         73.282         70.353        0.11621        0.11840         2.5040
         3737.5         12.815         69.881         70.241        0.11830        0.11747         2.5300
         3738.0         12.793         66.663         68.208        0.10709        0.10738         2.5580
         3738.5         12.757         61.790         66.174        0.08867        0.09199         2.5860
         3739.0         12.708         59.383         64.140        0.06826        0.08004         2.5910
         3739.5         12.660         60.474         64.295        0.06293        0.07017         2.5790
         3740.0         12.648         63.868         65.811        0.07006        0.08134         2.5730
         3740.5         12.664         67.093         67.240        0.08080        0.09235         2.5750
         3741.0         12.679         69.936         67.356        0.08222        0.09749         2.5770
         3741.5         12.668         71.872         67.472        0.07857        0.09486         2.5790
         3742.0         12.648         72.729         67.588        0.07844        0.09199         2.5800
         3742.5         12.627         72.985         67.704        0.08681        0.08797         2.5600
         3743.0         12.607         73.389         67.820        0.09507        0.09043         2.5450
         3743.5         12.587         76.482         67.937        0.09755        0.09510         2.5520
         3744.0         12.591         79.814         68.053        0.08912        0.10406         2.5590
         3744.5         12.603         81.823         67.888        0.08406        0.10763         2.5660
         3745.0         12.594         78.495         67.565        0.08221        0.10321         2.5730
         3745.5         12.520         73.773         67.243        0.08435        0.09569         2.5700
         3746.0         12.496         69.432         66.921        0.08661        0.09115         2.5630
         3746.5         12.496         71.975         67.765        0.09006        0.08974         2.5570
         3747.0         12.483         80.026         69.282        0.09315        0.09731         2.5520
         3747.5         12.432         97.221         70.799        0.09254        0.11472         2.5570
         3748.0         12.391        104.029         72.316        0.08902        0.15933         2.5620
         3748.5         12.373        127.619         73.541        0.08410        0.18899         2.5670
         3749.0         12.356        151.023         74.287        0.08389        0.21075         2.5500
         3749.5         12.339        170.064         75.032        0.08575        0.21154         2.5060
         3750.0         12.321        189.257         75.778        0.09682        0.21699         2.4630
         3750.5         12.304        199.147         76.524        0.12033        0.23028         2.4700
         3751.0         12.305        199.757         77.270        0.13723        0.23753         2.4820
         3751.5         12.326        199.801         78.015        0.14539        0.24361         2.4940
         3752.0         12.348        199.845         78.185        0.14002        0.24537         2.5060
         3752.5         12.370        199.890         76.718        0.13090        0.22109         2.5190
         3753.0         12.391        191.822         75.252        0.11362        0.19512         2.5310
         3753.5         12.413        153.687         73.785        0.10552        0.17370         2.5340
