###############################################
##         ENVERUS                           ##
##         ESS - Open Hole                   ##
##         PERMIAN / DELAWARE                ##
##         Nov 04 2023  V4.0                 ##
##         42-389-30283-00-00                ##
###############################################
## Copyright 2017-2023  ENVERUS.  All Rights Reserved. 
## Confidential - Property of ENVERUS, use governed by terms and 
## conditions found within the existing Information Services Subscription Agreement 
## (as may be amended, the “ISSA”) between Customer and ENVERUS. 
## 
~VERSION INFORMATION
# MNEM.UNIT                               DATA : DESCRIPTION OF MNEMONIC
#-----.-----     ----------------------------- : -----------------------------
VERS.                                     2.00 : CWLS LOG ASCII STANDARD - VERSION 2.00
WRAP.                                       NO : MULTIPLE LINES PER DEPTH STEP
VEND.                                  ENVERUS : VENDOR
TYPE.                          ESS - OPEN HOLE : ENVERUS ESSENTIAL CURVES – ACCESSIBLE THROUGH ENVERUS PRISM(TM)
DOC.                                  32052778 : ENVERUS HEADER RAW DOCUMENT ID
#___________________________________________________________________________________________________ 
~WELL INFORMATION 
# CKTmoz7OsKELnwE/IP0i4B9qEmEewtam1JWnvb6ghWZsYWfxLv+2EOc67unJ6Yof0W+RqImtxqI23GomxkzDLA== 
# MNEM.UNIT                                              DATA : DESCRIPTION OF MNEMONIC 
#-----.-----                    ----------------------------- : ----------------------------- 
CNTY.                                                  REEVES : COUNTY 
STATE.                                                  TEXAS : STATE 
CNTRY.                                                    USA : COUNTRY 
API.                                             42-389-30283 : API (10 Digit) 
API_14.                                    42-389-30283-00-00 : API (14 Digits) 
API_14_std.                                 42-389-30283-0000 : API (14 Digits Standard) 
UWI.                                           42389302830000 : UNIQUE WELL ID 
WELL.                       RANDOLPH  A. T.  ET AL-STATE  1 L : WELL NAME
STRT.FT                                                 155.0 : START DEPTH
STOP.FT                                               15740.0 : STOP DEPTH
STEP.FT                                                   0.5 : STEP BETWEEN DEPTHS
NULL.                                                 -999.25 : NULL VALUE
COMP.                                     RIO PETROLEUM  INC. : COMPANY
#___________________________________________________________________________________________________ 
~CURVE INFORMATION 
# MNEM.UNIT           : CURVE DESCRIPTION 
#-----.-----          : ----------------------------- 
 DEPT.FT               : MEASURED DEPTH 
 CALI__A.IN            : CALIPER (CAL - CAL) 
 GR__A.API             : GAMMA RAY (GR) 
 SP__A.MV              : SPONTANEOUS POTENTIAL (SP) 
 DT__A.US/FT           : SONIC DELTA TRANSIT TIME (DT) 
 RESD__A.OHMM          : DEEP INDUCTION RESISTIVITY (ILD - ILD) 
 NPHI__A.V/V           : NEUTRON POROSITY (NPH - NPH) 
 #___________________________________________________________________________________________________ 
~A         DEPT        CALI__A          GR__A          SP__A          DT__A        RESD__A        NPHI__A
# ...
        12505.0          9.954         67.236        -44.679         64.511         12.645     -999.25000
        12505.5          9.955         63.486        -44.678         65.401         12.941     -999.25000
        12506.0          9.956         61.745        -44.677         66.291         13.237     -999.25000
        12506.5          9.957         61.867        -44.676         67.181         13.328     -999.25000
        12507.0          9.958         62.652        -44.675         68.072         13.328     -999.25000
        12507.5          9.959         65.977        -44.674         68.741         13.328     -999.25000
        12508.0          9.959         69.301        -44.673         69.037         13.328     -999.25000
        12508.5          9.960         72.625        -44.672         69.333         13.095     -999.25000
        12509.0          9.961         75.657        -44.671         69.629         12.754     -999.25000
        12509.5          9.962         75.046        -44.670         70.350         12.412     -999.25000
        12510.0          9.963         74.434        -44.669         71.373         12.071     -999.25000
        12510.5          9.987         74.105        -44.676         72.395         11.729     -999.25000
        12511.0         10.011         74.357        -44.714         72.867         11.387     -999.25000
        12511.5         10.035         74.608        -44.753         72.222         11.131     -999.25000
        12512.0         10.060         74.859        -44.791         71.592         11.027     -999.25000
        12512.5         10.084         73.874        -44.829         71.567         10.924     -999.25000
        12513.0         10.108         72.952        -44.868         71.542         10.820     -999.25000
        12513.5         10.132         73.682        -44.906         71.517         10.729     -999.25000
        12514.0         10.124         74.411        -44.944         71.077         10.856     -999.25000
        12514.5         10.100         73.243        -44.983         70.507         10.983     -999.25000
        12515.0         10.076         71.458        -45.021         69.936         11.110     -999.25000
        12515.5         10.052         69.673        -45.059         69.884         11.237     -999.25000
        12516.0         10.027         68.289        -45.098         70.289         11.364     -999.25000
        12516.5         10.000         69.294        -45.136         70.693         11.492     -999.25000
        12517.0          9.969         70.299        -45.174         71.097         11.619     -999.25000
        12517.5          9.938         70.027        -45.213         71.501         11.649     -999.25000
        12518.0          9.907         69.008        -45.251         71.211         11.668     -999.25000
        12518.5          9.876         67.989        -45.289         70.905         11.687     -999.25000
        12519.0          9.845         71.962        -45.328         70.598         11.706     -999.25000
        12519.5          9.835         70.668        -45.366         70.292         11.725     -999.25000
        12520.0          9.832         68.368        -45.226         69.986         11.744     -999.25000
        12520.5          9.829         66.068        -45.079         70.043         11.764     -999.25000
        12521.0          9.825         63.769        -44.933         70.486         11.783     -999.25000
        12521.5          9.822         63.810        -44.787         70.929         11.906     -999.25000
        12522.0          9.819         65.472        -44.641         70.097         12.102     -999.25000
        12522.5          9.815         67.134        -44.495         69.206         12.299     -999.25000
        12523.0          9.824         68.682        -44.349         68.314         12.496     -999.25000
        12523.5          9.847         67.969        -44.203         68.306         12.693     -999.25000
        12524.0          9.871         67.256        -44.057         68.306         12.890     -999.25000
        12524.5          9.894         67.048        -43.919         68.109         13.087     -999.25000
        12525.0          9.917         68.024        -43.870         67.909         13.499     -999.25000
        12525.5          9.940         68.999        -43.821         66.947         13.997     -999.25000
        12526.0          9.963         64.719        -43.773         65.996         14.495     -999.25000
        12526.5          9.986         63.058        -43.724         67.106         14.808     -999.25000
        12527.0         10.010         63.873        -43.675         68.215         14.649     -999.25000
        12527.5         10.033         65.080        -43.627         68.988         14.490     -999.25000
        12528.0         10.056         65.090        -43.578         69.618         14.330     -999.25000
        12528.5         10.079         64.744        -43.529         70.248         14.081     -999.25000
        12529.0         10.095         64.398        -43.481         71.256         13.759     -999.25000
        12529.5         10.103         64.052        -43.432         72.832         13.438     -999.25000
        12530.0         10.111         63.706        -43.383         74.409         13.116     -999.25000
        12530.5         10.119         64.234        -43.335         74.319         13.056     -999.25000
        12531.0         10.127         64.836        -43.286         73.836         13.227     -999.25000
        12531.5         10.135         65.439        -43.237         72.981         13.398     -999.25000
        12532.0         10.143         66.041        -43.189         71.335         13.796     -999.25000
        12532.5         10.151         66.643        -43.140         69.690         14.562     -999.25000
        12533.0         10.159         67.245        -43.091         68.044         15.328     -999.25000
        12533.5         10.167         67.848        -43.043         67.859         16.093     -999.25000
        12534.0         10.175         68.450        -42.994         68.390         16.825     -999.25000
        12534.5         10.183         70.412        -42.945         68.921         17.249     -999.25000
        12535.0         10.191         72.042        -42.897         69.451         17.672     -999.25000
        12535.5         10.199         69.927        -42.848         69.982         18.096     -999.25000
        12536.0         10.207         67.811        -42.797         70.287         18.520     -999.25000
        12536.5         10.214         65.696        -42.745         68.347         18.943     -999.25000
        12537.0         10.222         63.580        -42.692         66.725         18.677     -999.25000
        12537.5         10.230         61.465        -42.639         66.884         18.372     -999.25000
        12538.0         10.238         59.916        -42.586         67.627         18.068     -999.25000
        12538.5         10.246         59.518        -42.534         68.693         17.763     -999.25000
        12539.0         10.254         60.211        -42.481         69.760         17.460     -999.25000
        12539.5         10.262         64.765        -42.428         69.937         17.170     -999.25000
        12540.0         10.270         69.320        -42.376         69.430         16.880     -999.25000
        12540.5         10.278         70.113        -42.323         69.722         16.590     -999.25000
        12541.0         10.286         69.705        -42.270         70.182         16.299     -999.25000
        12541.5         10.294         69.318        -42.218         70.615         16.009     -999.25000
        12542.0         10.302         70.098        -42.165         70.418         15.719     -999.25000
        12542.5         10.310         70.878        -42.112         70.221         15.429     -999.25000
