#--------------------------------------------------#
#-------------------ENVERUS, INC.------------------#
#------------------WWW.ENVERUS.COM-----------------#
#------------------COPYRIGHT 2020------------------#
#--------------------------------------------------#
#THIS FILE MAY BE USED ONLY IN ACCORDANCE WITH A CURRENT SUBSCRIPTION AGREEMENT BETWEEN
#THE USER AND ENVERUS, INC. NO PART OF THIS FILE MAY BE REPRODUCED, USED, COPIED,
#MODIFIED, PROPAGATED, OR DISTRIBUTED EXCEPT IN ACCORDANCE WITH THE SUBSCRIPTION
#AGREEMENT. UNAUTHORIZED USE OR DISTRIBUTION OF ALL OR ANY PART OF THIS FILE MAY VIOLATE
#COPYRIGHT, TRADEMARK, AND/OR OTHER LAWS AND IS SUBJECT TO CIVIL AS WELL AS CRIMINAL
#SANCTIONS.
#--------------------------------------------------#
#THIS FILE IS PROVIDED "AS-IS" AND ALL WARRANTIES ARE EXPRESSLY DISCLAIMED, WHETHER
#EXPRESS, ORAL, IMPLIED, STATUTORY OR OTHERWISE, INCLUDING ANY IMPLIED WARRANTY OF FITNESS
#FOR A PARTICULAR PURPOSE, MERCHANTABILITY, TITLE OR NON-INFRINGEMENT, AND ANY WARRANTIES
#ARISING BY VIRTUE OF CUSTOM OF TRADE OR COURSE OF DEALING.  FURTHER, ENVERUS, INC.
#AND ITS LICENSORS DO NOT REPRESENT OR WARRANT THAT THIS FILE WILL MEET USER'S
#REQUIREMENTS OR ARE SUITABLE FOR USER'S NEEDS OR THAT THE DATA OR RESULTS PROVIDED IN
#CONJUNCTION THEREWITH ARE CORRECT, ACCURATE, TIMELY OR RELIABLE. THESE DISCLAIMERS SHALL
#APPLY REGARDLESS OF ANY FAILURE OF ESSENTIAL PURPOSE OF ANY LIMITED REMEDY.  SOME
#JURISDICTIONS DO NOT ALLOW THE EXCLUSION OF CERTAIN WARRANTIES SO SOME OF THE ABOVE
#EXCLUSIONS MAY NOT APPLY. IN NO EVENT SHALL ENVERUS, INC. OR ANY OF ITS AFFILIATES
#BE LIABLE UNDER ANY LEGAL THEORY, WHETHER IN TORT (INCLUDING WITHOUT LIMITATION
#NEGLIGENCE), CONTRACT, STRICT LIABILITY, STATUTORY OR OTHERWISE, FOR ANY SPECIAL,
#INCIDENTAL, CONSEQUENTIAL, EXEMPLARY, PUNITIVE OR INDIRECT DAMAGE OF ANY KIND, INCLUDING
#WITHOUT LIMITATION LOSS OF REVENUE, PROFITS, GOODWILL, USE, AND/OR DATA OR THE COST OF
#PROCUREMENT OF SUBSTITUTE GOODS OR SERVICES, EVEN IF APPRISED OF THE POSSIBILITY OF SUCH
#DAMAGES IN ADVANCE.
#--------------------------------------------------#

~VERSION INFORMATION
VERS. 2.0 : CWLS LOG ASCII STANDARD - VERSION 2.0
WRAP.  NO : ONE LINE PER DEPTH STEP
~WELL INFORMATION
#MNEMONIC     .UNIT              VALUE :DESCRIPTION
STRT       .FT                0 :START DEPTH
STOP       .FT                13134 :STOP DEPTH
STEP       .FT                   0.500 :STEP
NULL       .                  -999.250 :NULL
UWI        .              42389303540000 :UNIQUE WELL ID
API        .              42389303540000 :API NUMBER
COMP       .         SMC OIL & GAS  INC. :COMPANY
WELL       .        TIFFANY STATE  1 :WELL
DATE       .                18-OCT-1995 :LOG DATE
~CURVE INFORMATION
#MNEMONIC     .UNIT      API CODE :CURVE DESCRIPTION
DEPTH       .FT                      :MEASURED DEPTH
DT.US/FT        UNKNOWN   :DT
CAL.INCH        UNKNOWN   :CAL
GR.API        UNKNOWN   :GR
~A    DEPTH    DT    CAL    GR
# ...
 7145.5     82.134   9.908   90.384
 7146     81.581   9.908   90.289
 7146.5     81.027   9.908   88.757
 7147     80.473   9.908   85.407
 7147.5     77.411   9.908   64.401
 7148     71.163   9.908   38.999
 7148.5     64.369   9.908   46.971
 7149     67.208   9.908   54.943
 7149.5     70.047   9.908   61.035
 7150     72.886   9.908   62.718
 7150.5     73.921   9.908   64.401
 7151     74.913   9.908   66.083
 7151.5     75.905   9.908   67.766
 7152     75.744   9.908   65.769
 7152.5     72.471   9.91   61.239
 7153     69.051   9.911   51.899
 7153.5     65.603   9.913   42.558
 7154     62.156   9.914   33.218
 7154.5     58.709   9.915   25.39
 7155     57.679   9.917   27.164
 7155.5     58.839   9.918   33.944
 7156     62.295   9.92   40.723
 7156.5     66.95   9.921   47.875
 7157     71.3   9.923   55.49
 7157.5     74.317   9.924   63.104
 7158     77.335   9.928   70.719
 7158.5     69.498   9.953   73.469
 7159     71.362   9.978   68.493
 7159.5     71.7   10.003   63.517
 7160     67.293   10.028   58.541
 7160.5     66.597   10.053   53.565
 7161     68.658   10.078   54.947
 7161.5     73.297   10.103   62.583
 7162     76.332   10.128   70.22
 7162.5     76.434   10.153   66.839
 7163     74.735   10.178   60.633
 7163.5     73.095   10.203   55.755
 7164     72.947   10.217   55.942
 7164.5     72.362   10.161   56.128
 7165     70.288   10.106   56.315
 7165.5     67.378   10.05   53.16
 7166     63.42   9.995   49.943
 7166.5     64.937   9.94   54.401
 7167     68.394   9.884   62.595
 7167.5     71.999   9.837   70.789
 7168     76.587   9.829   78.983
 7168.5     77.255   9.821   85.871
 7169     77.376   9.814   82.691
 7169.5     77.357   9.806   79.511
 7170     76.726   9.799   76.33
 7170.5     76.325   9.791   73.15
 7171     75.021   9.783   69.165
 7171.5     72.047   9.776   63.893
 7172     69.103   9.768   56.548
 7172.5     67.56   9.761   51.356
 7173     71.41   9.753   56.235
 7173.5     75.878   9.745   61.113
 7174     76.257   9.738   65.992
 7174.5     74.244   9.73   70.87
 7175     72.231   9.723   60.597
 7175.5     67.019   9.715   48.703
 7176     64.306   9.707   42.371
 7176.5     63.463   9.7   40.26
 7177     62.502   9.708   38.149
 7177.5     61.256   9.724   36.038
 7178     60.009   9.739   34.415
 7178.5     58.763   9.755   37.279
 7179     62.837   9.77   48.048
 7179.5     69.537   9.786   58.817
 7180     74.751   9.802   63.231
 7180.5     76.864   9.817   67.454
 7181     78.978   9.833   70.076
 7181.5     79.979   9.848   70.324
 7182     78.196   9.863   69.309
 7182.5     74.278   9.876   66.506
 7183     68.643   9.889   62.752
 7183.5     66.973   9.902   58.998
 7184     68.175   9.915   63.314
 7184.5     73.594   9.928   68.244
 7185     77.715   9.941   73.174
 7185.5     77.512   9.954   74.199
 7186     74.867   9.967   70.775
 7186.5     74.146   9.98   67.351
 7187     73.424   9.993   63.928
 7187.5     72.703   10.006   60.481
 7188     70.027   10.019   56.966
 7188.5     67.263   10.032   53.45
 7189     74.038   10.045   55.612
 7189.5     75.522   10.058   62.219
 7190     73.26   10.072   64.563
 7190.5     69.591   10.085   58.714
 7191     65.09   10.098   52.713
 7191.5     60.876   10.111   45.486
 7192     57.222   10.124   38.26
 7192.5     60.203   10.137   41.522
 7193     64.302   10.15   45.749
 7193.5     68.402   10.163   49.976
 7194     70.679   10.176   54.203
 7194.5     71.631   10.189   58.43
 7195     71.002   10.145   57.707
 7195.5     70.504   10.094   53.183
 7196     69.648   10.044   51.431
 7196.5     67.601   9.994   49.679
 7197     65.212   9.943   47.421
 7197.5     62.824   9.95   43.129
 7198     60.435   9.987   34.939
 7198.5     58.047   10.023   40.486
 7199     59.686   10.059   47.73
 7199.5     64.102   10.095   54.974
 7200     68.517   10.108   62.217
 7200.5     72.933   10.114   69.461
 7201     76.981   10.121   76.515
 7201.5     79.506   10.128   81.001
 7202     81.607   10.134   85.487
 7202.5     80.689   10.141   86.178
 7203     78.876   10.148   85.531
 7203.5     76.099   10.154   84.883
 7204     73.322   10.156   84.236
 7204.5     72.234   10.157   83.589
 7205     72.023   10.158   82.942
 7205.5     73.555   10.159   86.774
 7206     75.307   10.161   94.663
 7206.5     74.278   10.162   102.551
 7207     73.166   10.163   90.251
 7207.5     71.056   10.164   74.654
 7208     68.829   10.165   66.438
 7208.5     61.551   10.166   58.222
 7209     62.516   10.167   50.006
 7209.5     65.895   10.168   41.79
 7210     69.274   10.169   35.468
 7210.5     70.178   10.17   41.786
 7211     68.837   10.171   48.104
 7211.5     67.915   10.173   54.422
 7212     67.579   10.173   57.331
 7212.5     67.196   10.173   57.99
 7213     66.001   10.173   59.502
 7213.5     70.495   10.173   65.34
 7214     74.989   10.173   71.179
 7214.5     79.483   10.173   77.017
 7215     82.556   10.173   94.676
 7215.5     83.05   10.158   106.723
 7216     78.693   10.141   103.46
 7216.5     77.537   10.125   104.398
 7217     78.229   10.108   105.821
 7217.5     78.922   10.091   107.243
 7218     79.614   10.075   108.665
 7218.5     73.485   10.058   97.809
 7219     61.536   10.041   59.149
 7219.5     59.049   10.025   35.025
 7220     58.674   10.008   34.649
 7220.5     61.287   10.005   42.591
 7221     63.9   10.027   50.541
 7221.5     66.513   10.048   58.491
 7222     69.125   10.069   66.441
 7222.5     75.055   10.09   79.318
 7223     80.103   10.111   97.582
 7223.5     81.225   10.133   108.633
 7224     80.85   10.138   102.895
 7224.5     78.317   10.138   97.156
 7225     76.694   10.138   91.485
 7225.5     75.072   10.138   85.955
 7226     75.087   10.138   80.425
 7226.5     77.347   10.138   80.017
 7227     79.607   10.138   81.688
 7227.5     80.797   10.138   83.358
 7228     79.142   10.138   90.415
 7228.5     75.526   10.138   98.61
 7229     76.812   10.139   101.774
 7229.5     78.099   10.139   100.762
 7230     76.888   10.139   99.356
 7230.5     75.138   10.139   95.437
 7231     72.567   10.139   90.724
 7231.5     71.494   10.139   86.01
 7232     75.426   10.139   93.016
 7232.5     77.931   10.134   103.818
 7233     79.694   10.13   109.484
 7233.5     78.735   10.125   106.608
 7234     77.355   10.121   103.731
 7234.5     76.492   10.117   100.855
 7235     77.299   10.112   97.979
 7235.5     78.251   10.108   95.717
 7236     80.846   10.103   94.603
 7236.5     81.312   10.099   93.289
 7237     81.778   10.095   91.63
 7237.5     82.244   10.09   89.972
 7238     78.211   10.086   88.313
 7238.5     77.798   10.081   86.655
 7239     79.865   10.077   86.208
 7239.5     79.863   10.072   86.429
 7240     79.165   10.058   86.651
 7240.5     78.139   9.969   86.86
 7241     77.113   9.88   85.849
 7241.5     76.087   9.886   84.838
 7242     76.6   9.897   84.019
 7242.5     77.404   9.908   83.314
 7243     76.147   9.919   81.857
 7243.5     74.816   9.93   79.963
 7244     73.485   9.941   78.069
 7244.5     72.37   9.952   76.175
 7245     71.399   9.964   75.555
 7245.5     72.406   9.975   75.456
 7246     73.511   9.986   81.478
 7246.5     73.638   9.997   90.137
 7247     73.413   10.008   88.491
 7247.5     73.188   10.019   85.261
 7248     75.068   10.03   94.234
 7248.5     78.486   10.042   98.724
 7249     78.102   10.053   98.724
 7249.5     77.718   10.064   98.725
 7250     77.335   10.075   98.725
 7250.5     76.951   10.086   98.725
 7251     77.709   10.104   98.726
 7251.5     78.639   10.122   99.201
 7252     81.039   10.14   104.108
 7252.5     79.395   10.158   109.014
 7253     75.458   10.176   112.285
 7253.5     69.688   10.194   92.933
 7254     68.918   10.212   77.765
 7254.5     71.68   10.23   83.286
 7255     74.442   10.249   88.807
 7255.5     78.642   10.252   94.328
 7256     79.298   10.201   99.848
 7256.5     79.955   10.151   96.637
 7257     79.521   10.101   91.277
 7257.5     74.519   10.051   85.916
 7258     74.095   10   84.711
