###############################################
##         ENVERUS                           ##
##         ESS - Open Hole                   ##
##         PERMIAN / DELAWARE                ##
##         Nov 04 2023  V4.0                 ##
##         42-389-32398-00-00                ##
###############################################
## Copyright 2017-2023  ENVERUS.  All Rights Reserved. 
## Confidential - Property of ENVERUS, use governed by terms and 
## conditions found within the existing Information Services Subscription Agreement 
## (as may be amended, the “ISSA”) between Customer and ENVERUS. 
## 
~VERSION INFORMATION
# MNEM.UNIT                               DATA : DESCRIPTION OF MNEMONIC
#-----.-----     ----------------------------- : -----------------------------
VERS.                                     2.00 : CWLS LOG ASCII STANDARD - VERSION 2.00
WRAP.                                       NO : MULTIPLE LINES PER DEPTH STEP
VEND.                                  ENVERUS : VENDOR
TYPE.                          ESS - OPEN HOLE : ENVERUS ESSENTIAL CURVES – ACCESSIBLE THROUGH ENVERUS PRISM(TM)
DOC.                                  31812117 : ENVERUS HEADER RAW DOCUMENT ID
#___________________________________________________________________________________________________ 
~WELL INFORMATION 
# uAwnbjLw6pKN5CeTb7gwROLhNOHLu74gercCwdGpUdKCBCGOTLsJuzWIBCYkU6KzQxtC+uHRBloynRtd0Ulspg== 
# MNEM.UNIT                                              DATA : DESCRIPTION OF MNEMONIC 
#-----.-----                    ----------------------------- : ----------------------------- 
CNTY.                                                  REEVES : COUNTY 
STATE.                                                  TEXAS : STATE 
CNTRY.                                                    USA : COUNTRY 
API.                                             42-389-32398 : API (10 Digit) 
API_14.                                    42-389-32398-00-00 : API (14 Digits) 
API_14_std.                                 42-389-32398-0000 : API (14 Digits Standard) 
UWI.                                           42389323980000 : UNIQUE WELL ID 
WELL.                                    BLOCK 58 STATE 32  1 : WELL NAME
STRT.FT                                                8311.0 : START DEPTH
STOP.FT                                               12834.0 : STOP DEPTH
STEP.FT                                                   0.5 : STEP BETWEEN DEPTHS
NULL.                                                 -999.25 : NULL VALUE
COMP.                                       SHELL WESTERN E&P : COMPANY 
DATE.                                             08-FEB-2006 : LOG DATE
#___________________________________________________________________________________________________ 
~CURVE INFORMATION 
# MNEM.UNIT           : CURVE DESCRIPTION 
#-----.-----          : ----------------------------- 
 DEPT.FT               : MEASURED DEPTH 
 CALI__B.IN            : CALIPER (CAL - CAL) 
 GR__B.API             : GAMMA RAY (GR) 
 DT__B.US/FT           : SONIC DELTA TRANSIT TIME (DT) 
 RESS__B.OHMM          : SHALLOW INDUCTION RESISTIVITY (ILS - ILS) 
 RESD__B.OHMM          : DEEP INDUCTION RESISTIVITY (ILD - ILD) 
 #___________________________________________________________________________________________________ 
~A         DEPT        CALI__B          GR__B          DT__B        RESS__B        RESD__B
# ...
         8795.0          8.318         45.990         54.724         43.639         31.448
         8795.5          8.318         48.771         54.950         38.488         29.464
         8796.0          8.318         50.869         55.226         35.139         27.481
         8796.5          8.318         51.057         55.027         32.719         25.497
         8797.0          8.318         44.156         55.056         37.359         27.828
         8797.5          8.318         36.862         55.232         42.440         30.603
         8798.0          8.318         32.788         55.383         44.450         31.542
         8798.5          8.318         32.282         55.499         40.025         29.098
         8799.0          8.318         38.951         55.326         35.600         26.655
         8799.5          8.318         45.854         55.267         31.176         24.211
         8800.0          8.318         44.147         55.623         33.567         25.147
         8800.5          8.318         39.468         55.581         36.720         28.572
         8801.0          8.315         34.095         55.243         37.266         30.261
         8801.5          8.313         33.246         54.444         36.121         30.389
         8802.0          8.310         35.261         54.173         34.975         30.517
         8802.5          8.308         37.871         54.498         35.888         33.010
         8803.0          8.305         46.416         55.447         36.925         33.411
         8803.5          8.303         54.961         56.576         37.532         32.640
         8804.0          8.300         57.996         57.107         37.244         33.886
         8804.5          8.301         51.037         57.615         39.873         36.034
         8805.0          8.308         39.535         58.386         42.502         44.737
         8805.5          8.316         37.167         58.106         44.260         54.106
         8806.0          8.323         37.283         57.015         45.534         63.474
         8806.5          8.330         38.521         56.388         44.114         64.073
         8807.0          8.336         36.179         56.453         42.206         53.195
         8807.5          8.336         32.425         56.771         39.669         42.316
         8808.0          8.336         39.310         57.318         31.024         35.166
         8808.5          8.336         48.568         58.819         40.595         43.350
         8809.0          8.336         62.459         62.055         41.863         46.027
         8809.5          8.336         76.350         65.959         35.817         40.132
         8810.0          8.336         90.242         67.817         31.625         34.236
         8810.5          8.336        106.366         67.939         28.760         29.097
         8811.0          8.336        105.678         67.752         28.685         28.735
         8811.5          8.336         94.808         67.774         29.240         28.373
         8812.0          8.336         88.282         67.752         27.774         27.499
         8812.5          8.336         90.010         67.274         26.019         25.677
         8813.0          8.336         91.738         67.176         24.990         24.130
         8813.5          8.336         90.411         67.384         25.670         25.629
         8814.0          8.336         86.685         67.080         26.282         25.379
         8814.5          8.336         82.490         66.645         26.114         24.719
         8815.0          8.336         78.295         66.121         25.566         25.674
         8815.5          8.336         74.100         65.983         25.733         25.711
         8816.0          8.336         77.356         67.389         25.338         28.128
         8816.5          8.336         92.698         69.299         31.585         31.151
         8817.0          8.336        106.021         70.877         31.019         27.865
         8817.5          8.336        115.635         70.776         27.399         23.339
         8818.0          8.336        113.894         70.402         27.041         25.369
         8818.5          8.336         94.511         69.365         34.958         32.018
         8819.0          8.336         79.316         67.443         46.986         38.645
         8819.5          8.336         72.998         65.801         47.810         34.430
         8820.0          8.336         70.122         64.783         41.099         30.216
         8820.5          8.336         67.774         63.536         43.063         31.657
         8821.0          8.336         59.851         62.241         45.196         32.425
         8821.5          8.336         49.563         60.947         48.052         30.219
         8822.0          8.336         46.700         60.729         35.238         28.013
         8822.5          8.336         48.952         61.315         31.554         25.808
         8823.0          8.336         58.016         64.207         29.036         24.155
         8823.5          8.336         69.301         67.269         29.429         24.966
         8824.0          8.336         78.664         68.750         30.511         25.776
         8824.5          8.336         81.922         69.328         30.686         26.887
         8825.0          8.336         80.318         68.607         31.115         28.846
         8825.5          8.336         76.811         66.380         32.056         30.805
         8826.0          8.336         73.303         64.449         32.996         32.764
         8826.5          8.336         72.288         64.120         30.663         31.239
         8827.0          8.336         84.483         64.726         27.566         28.163
         8827.5          8.336        101.092         66.830         25.223         25.086
         8828.0          8.336        113.442         69.849         22.997         22.009
         8828.5          8.336        114.591         72.703         20.772         21.086
         8829.0          8.336        114.223         73.702         23.340         23.071
         8829.5          8.336        112.360         74.014         25.988         25.055
         8830.0          8.336        108.712         73.656         24.698         25.031
         8830.5          8.336        104.789         73.201         23.518         24.709
         8831.0          8.336        103.015         73.071         24.575         26.696
         8831.5          8.336        106.031         73.397         28.626         30.276
         8832.0          8.336        109.144         73.172         29.096         28.300
         8832.5          8.336        112.431         71.766         24.261         23.572
         8833.0          8.336        108.936         69.772         21.892         19.190
         8833.5          8.336         98.260         66.274         20.305         21.228
         8834.0          8.336         73.400         62.777         21.314         23.266
         8834.5          8.336         48.541         59.934         23.781         25.304
         8835.0          8.336         37.603         57.353         26.007         27.342
         8835.5          8.336         30.255         56.097         26.675         28.372
         8836.0          8.336         30.873         56.314         24.464         25.336
         8836.5          8.336         40.547         57.116         26.725         22.477
         8837.0          8.336         52.270         58.652         26.165         22.099
         8837.5          8.336         63.346         60.188         23.625         21.722
         8838.0          8.336         64.670         62.840         21.175         19.775
         8838.5          8.336         65.769         63.409         18.837         17.027
