###############################################
##         ENVERUS                           ##
##         ESS - Open Hole                   ##
##         PERMIAN / DELAWARE                ##
##         Nov 04 2023  V4.0                 ##
##         42-389-30259-00-00                ##
###############################################
## Copyright 2017-2023  ENVERUS.  All Rights Reserved. 
## Confidential - Property of ENVERUS, use governed by terms and 
## conditions found within the existing Information Services Subscription Agreement 
## (as may be amended, the “ISSA”) between Customer and ENVERUS. 
## 
~VERSION INFORMATION
# MNEM.UNIT                               DATA : DESCRIPTION OF MNEMONIC
#-----.-----     ----------------------------- : -----------------------------
VERS.                                     2.00 : CWLS LOG ASCII STANDARD - VERSION 2.00
WRAP.                                       NO : MULTIPLE LINES PER DEPTH STEP
VEND.                                  ENVERUS : VENDOR
TYPE.                          ESS - OPEN HOLE : ENVERUS ESSENTIAL CURVES – ACCESSIBLE THROUGH ENVERUS PRISM(TM)
DOC.                                  32063127 : ENVERUS HEADER RAW DOCUMENT ID
#___________________________________________________________________________________________________ 
~WELL INFORMATION 
# gPsidqVjAScFWwbHY3NvrhVb9Q0dnpAvxUas8qP1mSjKWoj7hBgJ2nw/4lW9Nf69eTG+8mlPQw3CFq6Jh/Hagw== 
# MNEM.UNIT                                              DATA : DESCRIPTION OF MNEMONIC 
#-----.-----                    ----------------------------- : ----------------------------- 
CNTY.                                                  REEVES : COUNTY 
STATE.                                                  TEXAS : STATE 
CNTRY.                                                    USA : COUNTRY 
API.                                             42-389-30259 : API (10 Digit) 
API_14.                                    42-389-30259-00-00 : API (14 Digits) 
API_14_std.                                 42-389-30259-0000 : API (14 Digits Standard) 
UWI.                                           42389302590000 : UNIQUE WELL ID 
WELL.                                         FORTUNE UNIT  1 : WELL NAME
STRT.FT                                                     0 : START DEPTH
STOP.FT                                               15675.0 : STOP DEPTH
STEP.FT                                                   0.5 : STEP BETWEEN DEPTHS
NULL.                                                 -999.25 : NULL VALUE
COMP.                          SANDRIDGE EXPL. AND PROD.  LLC : COMPANY 
DATE.                                             19-FEB-2007 : LOG DATE
#___________________________________________________________________________________________________ 
~CURVE INFORMATION 
# MNEM.UNIT           : CURVE DESCRIPTION 
#-----.-----          : ----------------------------- 
 DEPT.FT               : MEASURED DEPTH 
 CALI__B.IN            : CALIPER (CAL - CAL) 
 GR__B.API             : GAMMA RAY (GR) 
 DT__B.US/FT           : SONIC DELTA TRANSIT TIME (DT) 
 #___________________________________________________________________________________________________ 
~A         DEPT        CALI__B          GR__B          DT__B
# ...
         8580.0         12.914         37.110         62.630
         8580.5         12.916         32.206         59.969
         8581.0         12.918         31.211         57.419
         8581.5         12.913         36.577         55.620
         8582.0         12.907         44.907         55.835
         8582.5         12.901         53.237         60.769
         8583.0         12.894         55.378         64.662
         8583.5         12.888         52.493         68.052
         8584.0         12.882         49.608         68.173
         8584.5         12.876         49.049         67.996
         8585.0         12.869         48.005         66.390
         8585.5         12.863         47.538         66.594
         8586.0         12.857         50.464         66.488
         8586.5         12.850         53.390         67.560
         8587.0         12.844         52.819         68.309
         8587.5         12.838         46.115         68.177
         8588.0         12.832         39.857         65.602
         8588.5         12.825         36.593         63.574
         8589.0         12.819         38.419         62.846
         8589.5         12.813         46.021         65.244
         8590.0         12.807         53.623         68.646
         8590.5         12.800         52.002         70.401
         8591.0         12.794         49.336         70.346
         8591.5         12.788         46.874         68.857
         8592.0         12.782         46.077         67.367
         8592.5         12.775         45.302         65.921
         8593.0         12.769         44.527         65.175
         8593.5         12.763         42.216         65.331
         8594.0         12.757         38.019         64.781
         8594.5         12.750         37.558         64.231
         8595.0         12.744         37.293         63.784
         8595.5         12.746         36.182         63.425
         8596.0         12.748         34.632         63.066
         8596.5         12.750         32.540         62.646
         8597.0         12.752         28.614         61.795
         8597.5         12.754         24.191         59.499
         8598.0         12.756         19.768         57.022
         8598.5         12.758         15.766         54.807
         8599.0         12.760         12.508         53.459
         8599.5         12.762         10.937         52.862
         8600.0         12.764         14.237         52.264
         8600.5         12.766         17.946         51.928
         8601.0         12.768         22.769         52.793
         8601.5         12.770         29.915         55.269
         8602.0         12.772         42.187         59.664
         8602.5         12.774         49.412         63.581
         8603.0         12.776         54.994         67.100
         8603.5         12.778         55.877         71.340
         8604.0         12.780         56.759         72.362
         8604.5         12.782         57.955         71.875
         8605.0         12.784         59.542         71.388
         8605.5         12.786         60.364         71.520
         8606.0         12.788         59.256         72.192
         8606.5         12.790         54.422         72.248
         8607.0         12.792         49.563         71.308
         8607.5         12.794         44.821         69.445
         8608.0         12.796         40.144         66.575
         8608.5         12.798         35.904         63.990
         8609.0         12.800         37.227         61.796
         8609.5         12.802         44.589         61.475
         8610.0         12.804         56.388         65.300
         8610.5         12.807         56.388         69.179
         8611.0         12.809         53.656         73.034
         8611.5         12.811         48.497         73.532
         8612.0         12.813         43.339         72.662
         8612.5         12.815         38.591         69.477
         8613.0         12.817         37.875         66.357
         8613.5         12.819         41.730         64.715
         8614.0         12.821         45.584         64.817
         8614.5         12.823         48.472         64.966
         8615.0         12.825         47.477         65.536
         8615.5         12.827         47.045         66.350
         8616.0         12.829         47.234         65.749
         8616.5         12.831         45.486         65.147
         8617.0         12.833         43.671         64.655
         8617.5         12.835         41.445         64.173
         8618.0         12.837         38.947         63.420
         8618.5         12.839         36.449         62.667
         8619.0         12.841         34.405         61.915
         8619.5         12.843         34.572         62.182
         8620.0         12.845         33.729         62.966
         8620.5         12.847         31.621         63.438
         8621.0         12.849         29.513         63.384
         8621.5         12.851         18.930         61.383
         8622.0         12.853         14.418         58.687
         8622.5         12.855         11.651         56.389
         8623.0         12.857          8.981         54.833
         8623.5         12.859         11.129         53.753
         8624.0         12.861         15.011         53.459
         8624.5         12.863         23.997         53.724
         8625.0         12.865         36.509         54.399
         8625.5         12.867         45.681         59.714
         8626.0         12.869         50.590         65.039
         8626.5         12.871         55.499         69.952
         8627.0         12.873         59.528         74.475
         8627.5         12.875         59.695         74.162
         8628.0         12.877         61.349         73.401
         8628.5         12.879         63.002         72.641
         8629.0         12.881         63.815         72.248
         8629.5         12.882         62.612         72.612
         8630.0         12.884         58.390         72.774
         8630.5         12.885         52.410         71.866
         8631.0         12.887         46.431         70.959
         8631.5         12.888         40.184         69.059
         8632.0         12.890         33.482         65.700
         8632.5         12.891         26.990         62.203
         8633.0         12.893         28.809         60.557
         8633.5         12.894         31.762         59.480
         8634.0         12.895         37.409         62.343
         8634.5         12.897         42.925         65.197
         8635.0         12.898         47.482         68.033
         8635.5         12.900         52.039         70.510
         8636.0         12.901         56.265         70.117
         8636.5         12.903         59.713         70.266
         8637.0         12.904         63.161         71.503
         8637.5         12.905         64.636         72.471
         8638.0         12.907         60.326         73.120
         8638.5         12.908         53.760         72.293
         8639.0         12.910         47.244         70.834
         8639.5         12.911         40.781         69.056
         8640.0         12.913         34.571         66.075
         8640.5         12.914         29.893         63.184
         8641.0         12.916         28.281         61.165
         8641.5         12.917         30.774         59.323
         8642.0         12.918         36.034         58.699
         8642.5         12.920         41.293         59.783
         8643.0         12.921         45.697         62.668
         8643.5         12.923         46.467         65.552
         8644.0         12.924         45.729         66.210
         8644.5         12.926         45.520         66.852
         8645.0         12.927         50.097         67.442
         8645.5         12.928         55.448         68.977
