#--------------------------------------------------#
#-------------------ENVERUS, INC.------------------#
#------------------WWW.ENVERUS.COM-----------------#
#------------------COPYRIGHT 2020------------------#
#--------------------------------------------------#
#THIS FILE MAY BE USED ONLY IN ACCORDANCE WITH A CURRENT SUBSCRIPTION AGREEMENT BETWEEN
#THE USER AND ENVERUS, INC. NO PART OF THIS FILE MAY BE REPRODUCED, USED, COPIED,
#MODIFIED, PROPAGATED, OR DISTRIBUTED EXCEPT IN ACCORDANCE WITH THE SUBSCRIPTION
#AGREEMENT. UNAUTHORIZED USE OR DISTRIBUTION OF ALL OR ANY PART OF THIS FILE MAY VIOLATE
#COPYRIGHT, TRADEMARK, AND/OR OTHER LAWS AND IS SUBJECT TO CIVIL AS WELL AS CRIMINAL
#SANCTIONS.
#--------------------------------------------------#
#THIS FILE IS PROVIDED "AS-IS" AND ALL WARRANTIES ARE EXPRESSLY DISCLAIMED, WHETHER
#EXPRESS, ORAL, IMPLIED, STATUTORY OR OTHERWISE, INCLUDING ANY IMPLIED WARRANTY OF FITNESS
#FOR A PARTICULAR PURPOSE, MERCHANTABILITY, TITLE OR NON-INFRINGEMENT, AND ANY WARRANTIES
#ARISING BY VIRTUE OF CUSTOM OF TRADE OR COURSE OF DEALING.  FURTHER, ENVERUS, INC.
#AND ITS LICENSORS DO NOT REPRESENT OR WARRANT THAT THIS FILE WILL MEET USER'S
#REQUIREMENTS OR ARE SUITABLE FOR USER'S NEEDS OR THAT THE DATA OR RESULTS PROVIDED IN
#CONJUNCTION THEREWITH ARE CORRECT, ACCURATE, TIMELY OR RELIABLE. THESE DISCLAIMERS SHALL
#APPLY REGARDLESS OF ANY FAILURE OF ESSENTIAL PURPOSE OF ANY LIMITED REMEDY.  SOME
#JURISDICTIONS DO NOT ALLOW THE EXCLUSION OF CERTAIN WARRANTIES SO SOME OF THE ABOVE
#EXCLUSIONS MAY NOT APPLY. IN NO EVENT SHALL ENVERUS, INC. OR ANY OF ITS AFFILIATES
#BE LIABLE UNDER ANY LEGAL THEORY, WHETHER IN TORT (INCLUDING WITHOUT LIMITATION
#NEGLIGENCE), CONTRACT, STRICT LIABILITY, STATUTORY OR OTHERWISE, FOR ANY SPECIAL,
#INCIDENTAL, CONSEQUENTIAL, EXEMPLARY, PUNITIVE OR INDIRECT DAMAGE OF ANY KIND, INCLUDING
#WITHOUT LIMITATION LOSS OF REVENUE, PROFITS, GOODWILL, USE, AND/OR DATA OR THE COST OF
#PROCUREMENT OF SUBSTITUTE GOODS OR SERVICES, EVEN IF APPRISED OF THE POSSIBILITY OF SUCH
#DAMAGES IN ADVANCE.
#--------------------------------------------------#

~VERSION INFORMATION
VERS. 2.0 : CWLS LOG ASCII STANDARD - VERSION 2.0
WRAP.  NO : ONE LINE PER DEPTH STEP
~WELL INFORMATION
#MNEMONIC     .UNIT              VALUE :DESCRIPTION
STRT       .FT                25 :START DEPTH
STOP       .FT                17136 :STOP DEPTH
STEP       .FT                   0.500 :STEP
NULL       .                  -999.250 :NULL
UWI        .              42389302310000 :UNIQUE WELL ID
API        .              42389302310000 :API NUMBER
COMP       .         EDISTO RESOURCES CORPORATION :COMPANY
WELL       .        WIGGINS  ORLA  1 :WELL
DATE       .                            :LOG DATE
~CURVE INFORMATION
#MNEMONIC     .UNIT      API CODE :CURVE DESCRIPTION
DEPTH       .FT                      :MEASURED DEPTH
CAL.INCH        UNKNOWN   :CAL
ILS.OHM        UNKNOWN   :ILS
SP.MV        UNKNOWN   :SP
DT.US/FT        UNKNOWN   :DT
GR.API        UNKNOWN   :GR
ILD.OHM        UNKNOWN   :ILD
~A    DEPTH    CAL    ILS    SP    DT    GR    ILD
# ...
 3956.5     13.086   72.444   -14.504   61.381   42.176   99.305
 3957     13.051   66.466   -14.509   61.024   39.814   78.9
 3957.5     13.016   60.488   -14.515   60.666   37.452   59.656
 3958     12.981   54.51   -13.852   58.739   35.09   54.131
 3958.5     12.95   50.032   -12.989   56.632   32.727   53.369
 3959     12.954   92.752   -12.125   54.525   31.757   59.088
 3959.5     12.957   135.472   -11.262   54.078   32.573   85.117
 3960     12.961   178.193   -10.399   56.481   37.39   145.267
 3960.5     12.964   220.913   -9.536   60.595   43.893   204.63
 3961     12.967   172.124   -8.672   61.408   49.476   181.56
 3961.5     12.971   122.99   -7.809   61.009   52.241   123.101
 3962     12.974   73.856   -6.946   59.7   48.386   71.878
 3962.5     12.978   49.131   -6.083   57.63   36.689   47.796
 3963     12.981   50.067   -5.455   55.898   33.416   48.171
 3963.5     12.985   88.893   -4.999   55.703   30.752   73.143
 3964     12.988   112.563   -4.543   55.508   28.277   120.073
 3964.5     12.991   125.565   -4.086   54.495   25.801   167.002
 3965     12.995   136.472   -3.63   53.23   23.325   205.708
 3965.5     12.998   142.049   -3.174   52.445   20.849   276.263
 3966     13.002   144.731   -2.717   52.444   20.975   365.052
 3966.5     13.005   130.134   -2.261   52.444   23.921   453.841
 3967     13.008   115.537   -1.804   52.632   28.299   539.121
 3967.5     13.012   100.94   -1.578   52.886   32.677   509.316
 3968     13.024   86.343   -1.515   53.577   37.821   479.512
 3968.5     13.049   71.746   -1.452   58.307   44.116   335.208
 3969     13.074   57.149   -1.389   61.853   50.411   180.462
 3969.5     13.098   42.552   -1.326   64.912   55.752   115.192
 3970     13.127   27.955   -1.263   67.005   58.693   70.517
 3970.5     13.156   25.624   -1.2   65.488   53.329   42.21
 3971     13.186   24.345   -1.137   64.583   44.764   29.739
 3971.5     13.216   23.065   -1.074   65.367   38.683   26.479
 3972     13.246   21.786   -1.011   66.15   38.733   30.401
 3972.5     13.276   20.35   -0.948   66.933   38.782   31.949
 3973     13.305   18.29   -0.885   67.716   38.831   29.582
 3973.5     13.335   16.229   -0.855   69.797   38.686   27.215
 3974     13.365   14.169   -0.861   73.915   37.01   24.848
 3974.5     13.395   12.109   -0.866   74.422   36.728   22.481
 3975     13.425   11.191   -0.871   73.895   36.447   19.902
 3975.5     13.455   10.608   -0.877   73.369   36.463   17.235
 3976     13.484   10.274   -0.882   72.843   38.331   14.568
 3976.5     13.517   10.779   -0.887   72.635   40.139   13.14
 3977     13.551   10.943   -0.892   73.781   40.93   13.598
 3977.5     13.584   10.685   -0.898   74.928   40.829   14.056
 3978     13.617   10.12   -0.903   76.075   39.811   14.513
 3978.5     13.651   9.554   -0.908   77.222   38.794   14.164
 3979     13.684   8.989   -0.914   78.265   38.686   13.133
 3979.5     13.711   8.424   -0.919   79.209   38.687   12.102
 3980     13.729   7.858   -1.058   80.154   38.688   11.071
 3980.5     13.746   7.293   -1.479   80.712   38.689   10.04
 3981     13.764   7.01   -1.9   79.507   38.69   9.336
 3981.5     13.782   7.073   -2.32   78.303   38.691   8.982
 3982     13.799   7.136   -2.741   77.099   46.075   8.627
 3982.5     13.817   7.199   -3.162   76.309   50.909   8.273
 3983     13.834   7.262   -3.583   76.575   51.536   8.306
 3983.5     13.852   7.326   -4.003   76.841   51.228   8.873
 3984     13.87   7.389   -4.424   77.106   49.19   9.441
 3984.5     13.887   7.452   -4.845   76.906   48.794   10.008
 3985     13.856   7.515   -5.265   76.372   48.832   10.124
 3985.5     13.822   7.578   -5.685   75.21   48.869   10.123
 3986     13.788   7.893   -6.071   74.048   48.907   10.122
 3986.5     13.755   8.289   -6.456   72.886   48.945   10.12
 3987     13.721   8.684   -6.842   71.724   46.989   10.119
 3987.5     13.687   9.08   -7.228   70.563   44.895   10.118
 3988     13.653   9.476   -7.613   69.401   42.801   11.609
 3988.5     13.619   9.871   -7.999   67.039   43.436   13.405
 3989     13.585   12.225   -8.384   64.593   44.116   15.201
 3989.5     13.529   18.3   -8.362   62.148   43.015   16.997
 3990     13.453   24.375   -8.202   59.702   41.718   20.842
 3990.5     13.376   29.705   -8.043   57.256   40.553   29.711
 3991     13.319   33.381   -8.017   56.536   38.092   38.581
 3991.5     13.278   37.057   -8.198   56.301   35.69   54.408
 3992     13.238   40.733   -8.378   56.066   34.799   84.61
 3992.5     13.222   50.132   -8.559   55.302   33.908   96.36
 3993     13.227   60.685   -8.74   54.498   32.705   99.837
 3993.5     13.232   66.18   -8.92   53.785   31.116   113.911
 3994     13.238   71.676   -9.101   53.956   29.526   127.556
 3994.5     13.243   77.171   -9.282   54.127   29.001   171.636
 3995     13.248   76.84   -9.462   54.297   29.002   184.815
 3995.5     13.253   75.73   -9.643   55.479   29.248   191.956
 3996     13.258   74.62   -9.824   56.745   32.848   194.218
 3996.5     13.263   73.509   -9.916   57.92   36.447   175.057
 3997     13.268   72.399   -9.855   58.439   38.713   148.93
 3997.5     13.274   71.289   -9.793   58.288   40.667   113.691
 3998     13.279   70.429   -9.732   57.642   39.505   91.764
 3998.5     13.284   76.697   -9.649   56.996   38.504   81.379
 3999     13.289   76.634   -9.475   56.349   38.759   95.233
 3999.5     13.294   72.675   -9.302   56.824   39.305   109.719
 4000     13.316   67.805   -9.128   58.812   40.232   124.55
 4000.5     13.375   51.587   -8.955   60.8   43.276   126.477
 4001     13.434   35.368   -8.781   62.788   48.237   104.194
 4001.5     13.494   24.499   -8.608   64.776   53.197   81.201
 4002     13.553   23.432   -8.434   66.764   55.369   57.756
 4002.5     13.613   22.365   -8.096   68.516   56.58   41.718
 4003     13.672   21.298   -7.518   68.977   56.658   30.732
 4003.5     13.732   20.231   -6.939   69.437   56.737   25.3
 4004     13.791   19.164   -6.361   69.898   54.596   21.319
 4004.5     13.849   18.097   -5.783   70.359   53.443   18.608
 4005     13.862   17.03   -5.204   70.819   52.499   17.559
 4005.5     13.875   15.963   -4.626   71.148   50.626   16.51
 4006     13.889   15.134   -4.009   70.922   47.668   15.552
 4006.5     13.902   14.956   -3.297   70.697   46.548   15.201
 4007     13.915   14.778   -2.586   70.471   46.924   14.85
 4007.5     13.928   14.823   -1.875   70.261   47.3   14.498
 4008     13.942   15.226   -1.163   70.625   48.299   14.147
 4008.5     13.955   15.629   -0.452   70.989   51.115   14.548
 4009     13.968   16.093   0.26   70.488   53.932   15.047
 4009.5     13.981   16.871   0.494   69.798   56.748   15.546
 4010     13.986   17.649   0.542   69.346   59.564   15.969
 4010.5     13.983   18.428   0.591   69.859   62.381   15.031
 4011     13.98   19.206   0.639   70.372   65.197   14.093
 4011.5     13.978   18.939   0.687   70.365   68.013   13.665
 4012     13.975   17.755   0.701   69.286   69.993   14.235
 4012.5     13.973   16.571   0.678   68.206   64.248   14.806
 4013     13.97   15.625   0.655   68.37   59.336   15.376
 4013.5     13.968   15.392   0.632   69.022   57.938   17.434
 4014     13.965   15.158   0.609   69.674   60.457   19.672
 4014.5     13.962   14.924   0.586   69.235   63.935   19.685
 4015     13.96   14.69   0.563   68.589   64.91   19.179
 4015.5     13.973   14.457   0.54   68.636   63.432   19.318
 4016     14.014   14.223   0.517   69.041   59.818   19.75
 4016.5     14.056   13.989   0.494   69.445   58.122   20.183
 4017     14.097   13.296   0.471   69.85   56.425   19.453
 4017.5     14.138   12.381   0.448   70.27   54.047   18.411
 4018     14.18   11.467   0.425   71.359   49.941   16.902
 4018.5     14.221   10.552   0.402   72.449   49.495   15.392
 4019     14.262   9.638   0.379   73.315   49.049   13.883
 4019.5     14.304   9.338   0.356   72.7   46.364   12.374
 4020     14.345   9.089   0.333   72.085   41.682   10.865
 4020.5     14.381   8.84   0.31   72.974   41.068   9.754
