#--------------------------------------------------#
#-------------------ENVERUS, INC.------------------#
#------------------WWW.ENVERUS.COM-----------------#
#------------------COPYRIGHT 2020------------------#
#--------------------------------------------------#
#THIS FILE MAY BE USED ONLY IN ACCORDANCE WITH A CURRENT SUBSCRIPTION AGREEMENT BETWEEN
#THE USER AND ENVERUS, INC. NO PART OF THIS FILE MAY BE REPRODUCED, USED, COPIED,
#MODIFIED, PROPAGATED, OR DISTRIBUTED EXCEPT IN ACCORDANCE WITH THE SUBSCRIPTION
#AGREEMENT. UNAUTHORIZED USE OR DISTRIBUTION OF ALL OR ANY PART OF THIS FILE MAY VIOLATE
#COPYRIGHT, TRADEMARK, AND/OR OTHER LAWS AND IS SUBJECT TO CIVIL AS WELL AS CRIMINAL
#SANCTIONS.
#--------------------------------------------------#
#THIS FILE IS PROVIDED "AS-IS" AND ALL WARRANTIES ARE EXPRESSLY DISCLAIMED, WHETHER
#EXPRESS, ORAL, IMPLIED, STATUTORY OR OTHERWISE, INCLUDING ANY IMPLIED WARRANTY OF FITNESS
#FOR A PARTICULAR PURPOSE, MERCHANTABILITY, TITLE OR NON-INFRINGEMENT, AND ANY WARRANTIES
#ARISING BY VIRTUE OF CUSTOM OF TRADE OR COURSE OF DEALING.  FURTHER, ENVERUS, INC.
#AND ITS LICENSORS DO NOT REPRESENT OR WARRANT THAT THIS FILE WILL MEET USER'S
#REQUIREMENTS OR ARE SUITABLE FOR USER'S NEEDS OR THAT THE DATA OR RESULTS PROVIDED IN
#CONJUNCTION THEREWITH ARE CORRECT, ACCURATE, TIMELY OR RELIABLE. THESE DISCLAIMERS SHALL
#APPLY REGARDLESS OF ANY FAILURE OF ESSENTIAL PURPOSE OF ANY LIMITED REMEDY.  SOME
#JURISDICTIONS DO NOT ALLOW THE EXCLUSION OF CERTAIN WARRANTIES SO SOME OF THE ABOVE
#EXCLUSIONS MAY NOT APPLY. IN NO EVENT SHALL ENVERUS, INC. OR ANY OF ITS AFFILIATES
#BE LIABLE UNDER ANY LEGAL THEORY, WHETHER IN TORT (INCLUDING WITHOUT LIMITATION
#NEGLIGENCE), CONTRACT, STRICT LIABILITY, STATUTORY OR OTHERWISE, FOR ANY SPECIAL,
#INCIDENTAL, CONSEQUENTIAL, EXEMPLARY, PUNITIVE OR INDIRECT DAMAGE OF ANY KIND, INCLUDING
#WITHOUT LIMITATION LOSS OF REVENUE, PROFITS, GOODWILL, USE, AND/OR DATA OR THE COST OF
#PROCUREMENT OF SUBSTITUTE GOODS OR SERVICES, EVEN IF APPRISED OF THE POSSIBILITY OF SUCH
#DAMAGES IN ADVANCE.
#--------------------------------------------------#

~VERSION INFORMATION
VERS. 2.0 : CWLS LOG ASCII STANDARD - VERSION 2.0
WRAP.  NO : ONE LINE PER DEPTH STEP
~WELL INFORMATION
#MNEMONIC     .UNIT              VALUE :DESCRIPTION
STRT       .FT                0 :START DEPTH
STOP       .FT                15770 :STOP DEPTH
STEP       .FT                   0.500 :STEP
NULL       .                  -999.250 :NULL
UWI        .              42389309020000 :UNIQUE WELL ID
API        .              42389309020000 :API NUMBER
COMP       .         WALSH & WATTS  INC. :COMPANY
WELL       .        SABRE  1WS :WELL
DATE       .                28-JAN-1987 :LOG DATE
~CURVE INFORMATION
#MNEMONIC     .UNIT      API CODE :CURVE DESCRIPTION
DEPTH       .FT                      :MEASURED DEPTH
CAL.INCH        UNKNOWN   :CAL
DT.US/FT        UNKNOWN   :DT
GR.API        UNKNOWN   :GR
~A    DEPTH    CAL    DT    GR
# ...
 6266     13.161   66.152   60.163
 6266.5     13.164   66.141   60.169
 6267     13.167   66.351   58.62
 6267.5     13.17   66.561   56.178
 6268     13.173   66.771   53.841
 6268.5     13.175   66.773   52.396
 6269     13.178   66.713   53.455
 6269.5     13.181   66.508   54.514
 6270     13.184   66.265   53.064
 6270.5     13.187   66.379   40.589
 6271     13.19   66.494   39.249
 6271.5     13.192   66.512   37.914
 6272     13.195   66.526   38.865
 6272.5     13.198   66.539   42.631
 6273     13.201   66.553   46.396
 6273.5     13.204   67.094   49.535
 6274     13.207   67.253   49.541
 6274.5     13.21   66.886   49.547
 6275     13.214   66.91   51.275
 6275.5     13.218   66.962   55.636
 6276     13.221   66.379   59.441
 6276.5     13.225   66.87   62.855
 6277     13.229   67.069   66.27
 6277.5     13.232   67.11   66.411
 6278     13.236   67.151   65.493
 6278.5     13.24   66.433   60.079
 6279     13.243   65.74   54.944
 6279.5     13.247   65.473   51.332
 6280     13.251   64.7   47.721
 6280.5     13.254   62.952   44.607
 6281     13.258   61.745   44.081
 6281.5     13.262   61.672   48.299
 6282     13.265   62.901   52.517
 6282.5     13.269   63.895   55.891
 6283     13.273   64.621   56.353
 6283.5     13.276   65.325   53.492
 6284     13.28   65.526   50.631
 6284.5     13.284   65.551   48.803
 6285     13.288   65.719   47.975
 6285.5     13.291   65.887   47.146
 6286     13.255   66.006   46.815
 6286.5     13.215   65.939   48.081
 6287     13.174   65.646   53.215
 6287.5     13.134   65.391   57.375
 6288     13.093   65.389   59.838
 6288.5     13.067   65.412   57.992
 6289     13.062   65.544   54.556
 6289.5     13.057   65.675   51.119
 6290     13.051   65.462   49.706
 6290.5     13.046   64.826   48.848
 6291     13.041   63.822   47.797
 6291.5     13.036   61.431   46.391
 6292     13.03   60.928   43.444
 6292.5     13.025   61.027   41.932
 6293     13.02   62.301   40.693
 6293.5     13.015   64.098   43.731
 6294     13.009   65.377   50.019
 6294.5     13.004   65.392   55.782
 6295     12.999   65.407   58.067
 6295.5     12.994   65.423   60.177
 6296     12.988   65.081   62.05
 6296.5     12.983   64.496   60.387
 6297     12.978   64.429   57.647
 6297.5     12.972   64.427   54.907
 6298     12.967   64.719   52.976
 6298.5     12.962   65.249   54.7
 6299     12.957   65.482   56.425
 6299.5     12.953   65.479   58.15
 6300     12.952   64.987   59.356
 6300.5     12.95   64.749   56.325
 6301     12.948   64.788   53.294
 6301.5     12.946   64.36   50.004
 6302     12.945   63.878   46.751
 6302.5     12.943   63.623   44.82
 6303     12.941   63.726   43.986
 6303.5     12.939   64.527   44.625
 6304     12.938   65.28   49.89
 6304.5     12.936   65.279   57.289
 6305     12.934   65.576   63.862
 6305.5     12.932   66.167   70.348
 6306     12.931   66.574   71.371
 6306.5     12.929   66.801   63.892
 6307     12.927   67.029   54.08
 6307.5     12.925   67.256   44.305
 6308     12.924   67.158   41.125
 6308.5     12.922   67.157   43.943
 6309     12.92   67.501   47.642
 6309.5     12.919   67.347   53.759
 6310     12.917   67.193   59.876
 6310.5     12.915   67.039   61.964
 6311     12.929   65.727   57.129
 6311.5     12.95   64.822   52.294
 6312     12.972   64.475   44.931
 6312.5     12.993   65.097   42.215
 6313     13.015   65.379   43.913
 6313.5     13.036   66.228   45.823
 6314     13.039   66.781   47.733
 6314.5     13.034   66.699   48.057
 6315     13.03   66.625   47.184
 6315.5     13.025   67.028   43.157
 6316     13.021   67.203   38.618
 6316.5     13.016   67.244   34.272
 6317     13.012   67.285   34.607
 6317.5     13.007   65.121   37.641
 6318     13.003   64.263   40.676
 6318.5     12.998   64.186   41.248
 6319     12.994   64.238   39.094
 6319.5     12.989   66.115   36.541
 6320     12.985   66.548   35.199
 6320.5     12.98   66.766   35.204
 6321     12.976   67.788   38.911
 6321.5     12.897   68.256   49.239
 6322     12.76   68.151   59.567
 6322.5     12.623   67.446   69.944
 6323     12.485   65.164   84.918
 6323.5     12.446   63.929   92.196
 6324     12.439   64.272   92.768
 6324.5     12.432   64.513   91.531
 6325     12.426   64.336   83.72
 6325.5     12.419   63.16   76.79
 6326     12.412   63.033   81.605
 6326.5     12.406   63.244   101.35
 6327     12.399   64.565   122.68
 6327.5     12.392   65.239   134.237
 6328     12.385   65.397   141.788
 6328.5     12.383   65.554   145.728
 6329     12.391   65.669   145.148
 6329.5     12.399   65.804   143.81
 6330     12.407   66.486   142.534
 6330.5     12.415   67.099   142.18
 6331     12.422   66.343   138.3
 6331.5     12.43   65.23   123.818
 6332     12.445   63.984   104.403
 6332.5     12.464   63.302   84.119
 6333     12.483   63.446   67.214
 6333.5     12.502   63.856   55.023
 6334     12.521   64.188   50.338
 6334.5     12.54   63.63   47.698
 6335     12.559   61.427   47.052
 6335.5     12.578   60.154   47.545
 6336     12.597   59.172   48.213
 6336.5     12.612   58.858   49.145
 6337     12.613   60.63   51.869
 6337.5     12.613   62.02   59.056
 6338     12.614   63.396   65.013
 6338.5     12.614   64.168   68.457
 6339     12.615   64.639   69.865
 6339.5     12.615   64.769   68.629
 6340     12.615   64.544   67.393
 6340.5     12.616   64.391   66.976
 6341     12.616   64.238   68.815
 6341.5     12.617   64.085   70.654
 6342     12.617   64.343   72.237
 6342.5     12.618   64.709   68.625
 6343     12.618   64.938   65.014
 6343.5     12.618   64.976   61.403
 6344     12.619   64.156   58.057
 6344.5     12.619   63.227   54.887
 6345     12.62   63.332   51.717
 6345.5     12.623   63.939   48.547
 6346     12.634   64.45   54.83
 6346.5     12.645   64.972   63.302
 6347     12.656   65.533   65.235
 6347.5     12.667   65.894   57.974
 6348     12.677   65.568   50.162
 6348.5     12.688   65.424   44.815
 6349     12.699   65.463   48.376
 6349.5     12.711   64.599   51.938
 6350     12.722   63.443   55.499
 6350.5     12.734   61.585   51.541
 6351     12.746   60.375   46.706
 6351.5     12.757   60.535   43.982
 6352     12.769   62.036   47.255
 6352.5     12.78   63.429   55.259
 6353     12.792   64.676   61.5
 6353.5     12.804   65.183   65.098
 6354     12.815   65.146   68.392
 6354.5     12.827   64.358   65.739
 6355     12.801   63.412   61.561
 6355.5     12.773   62.968   55.613
 6356     12.745   63.317   48.169
 6356.5     12.717   63.365   45.533
 6357     12.689   63.221   46.696
 6357.5     12.66   63.624   60.251
 6358     12.632   64.058   73.807
 6358.5     12.586   63.896   87.071
 6359     12.539   63.734   97.875
 6359.5     12.492   63.881   109.475
 6360     12.445   64.466   127.358
 6360.5     12.398   65.724   138.063
 6361     12.383   65.554   133.223
 6361.5     12.384   65.152   124.066
 6362     12.384   63.993   112.771
 6362.5     12.385   62.482   100.077
 6363     12.385   62.445   87.383
 6363.5     12.385   63.25   82.325
 6364     12.386   64.102   79.723
 6364.5     12.386   63.754   82.557
 6365     12.387   63.181   85.739
 6365.5     12.387   63.179   93.312
 6366     12.387   63.627   102.225
 6366.5     12.388   64.111   107.315
 6367     12.388   62.405   109.406
 6367.5     12.389   61.747   91.934
 6368     12.389   61.797   78.344
 6368.5     12.404   62.2   75.086
 6369     12.419   64.228   75.684
 6369.5     12.433   64.833   79.472
 6370     12.448   63.176   83.094
 6370.5     12.463   60.105   72.831
 6371     12.477   57.792   59.63
 6371.5     12.492   58.292   48.132
 6372     12.507   59.616   42.288
 6372.5     12.521   61.589   44.193
 6373     12.536   64.227   46.099
 6373.5     12.551   66.191   51.278
 6374     12.565   67.277   57.634
 6374.5     12.58   69.034   67.743
 6375     12.595   71.179   77.851
 6375.5     12.609   71.305   80.356
 6376     12.624   71.11   66.724
 6376.5     12.639   70.237   53.761
 6377     12.653   67.911   44.977
 6377.5     12.668   67.611   42.495
