#--------------------------------------------------#
#-------------------ENVERUS, INC.------------------#
#------------------WWW.ENVERUS.COM-----------------#
#------------------COPYRIGHT 2020------------------#
#--------------------------------------------------#
#THIS FILE MAY BE USED ONLY IN ACCORDANCE WITH A CURRENT SUBSCRIPTION AGREEMENT BETWEEN
#THE USER AND ENVERUS, INC. NO PART OF THIS FILE MAY BE REPRODUCED, USED, COPIED,
#MODIFIED, PROPAGATED, OR DISTRIBUTED EXCEPT IN ACCORDANCE WITH THE SUBSCRIPTION
#AGREEMENT. UNAUTHORIZED USE OR DISTRIBUTION OF ALL OR ANY PART OF THIS FILE MAY VIOLATE
#COPYRIGHT, TRADEMARK, AND/OR OTHER LAWS AND IS SUBJECT TO CIVIL AS WELL AS CRIMINAL
#SANCTIONS.
#--------------------------------------------------#
#THIS FILE IS PROVIDED "AS-IS" AND ALL WARRANTIES ARE EXPRESSLY DISCLAIMED, WHETHER
#EXPRESS, ORAL, IMPLIED, STATUTORY OR OTHERWISE, INCLUDING ANY IMPLIED WARRANTY OF FITNESS
#FOR A PARTICULAR PURPOSE, MERCHANTABILITY, TITLE OR NON-INFRINGEMENT, AND ANY WARRANTIES
#ARISING BY VIRTUE OF CUSTOM OF TRADE OR COURSE OF DEALING.  FURTHER, ENVERUS, INC.
#AND ITS LICENSORS DO NOT REPRESENT OR WARRANT THAT THIS FILE WILL MEET USER'S
#REQUIREMENTS OR ARE SUITABLE FOR USER'S NEEDS OR THAT THE DATA OR RESULTS PROVIDED IN
#CONJUNCTION THEREWITH ARE CORRECT, ACCURATE, TIMELY OR RELIABLE. THESE DISCLAIMERS SHALL
#APPLY REGARDLESS OF ANY FAILURE OF ESSENTIAL PURPOSE OF ANY LIMITED REMEDY.  SOME
#JURISDICTIONS DO NOT ALLOW THE EXCLUSION OF CERTAIN WARRANTIES SO SOME OF THE ABOVE
#EXCLUSIONS MAY NOT APPLY. IN NO EVENT SHALL ENVERUS, INC. OR ANY OF ITS AFFILIATES
#BE LIABLE UNDER ANY LEGAL THEORY, WHETHER IN TORT (INCLUDING WITHOUT LIMITATION
#NEGLIGENCE), CONTRACT, STRICT LIABILITY, STATUTORY OR OTHERWISE, FOR ANY SPECIAL,
#INCIDENTAL, CONSEQUENTIAL, EXEMPLARY, PUNITIVE OR INDIRECT DAMAGE OF ANY KIND, INCLUDING
#WITHOUT LIMITATION LOSS OF REVENUE, PROFITS, GOODWILL, USE, AND/OR DATA OR THE COST OF
#PROCUREMENT OF SUBSTITUTE GOODS OR SERVICES, EVEN IF APPRISED OF THE POSSIBILITY OF SUCH
#DAMAGES IN ADVANCE.
#--------------------------------------------------#

~VERSION INFORMATION
VERS. 2.0 : CWLS LOG ASCII STANDARD - VERSION 2.0
WRAP.  NO : ONE LINE PER DEPTH STEP
~WELL INFORMATION
#MNEMONIC     .UNIT              VALUE :DESCRIPTION
STRT       .FT                0 :START DEPTH
STOP       .FT                15761 :STOP DEPTH
STEP       .FT                   0.500 :STEP
NULL       .                  -999.250 :NULL
UWI        .              42389302550000 :UNIQUE WELL ID
API        .              42389302550000 :API NUMBER
COMP       .         COASTAL STATES GAS PROD. CO. :COMPANY
WELL       .        CHAPMAN  MCGUIRE & WYNNE  3B :WELL
DATE       .                            :LOG DATE
~CURVE INFORMATION
#MNEMONIC     .UNIT      API CODE :CURVE DESCRIPTION
DEPTH       .FT                      :MEASURED DEPTH
GR.API        UNKNOWN   :GR
DT.US/FT        UNKNOWN   :DT
CAL.INCH        UNKNOWN   :CAL
~A    DEPTH    GR    DT    CAL
# ...
 14908     72.318   95.687   -999.250
 14908.5     69.672   96.408   -999.250
 14909     66.967   94.662   -999.250
 14909.5     64.323   95.302   -999.250
 14910     61.698   93.051   -999.250
 14910.5     64.029   93.27   -999.250
 14911     67.422   94.722   -999.250
 14911.5     70.815   93.798   -999.250
 14912     68.292   96.092   -999.250
 14912.5     65.724   96.299   -999.250
 14913     64.032   99.121   -999.250
 14913.5     62.826   98.549   -999.250
 14914     63.707   98.597   -999.250
 14914.5     64.588   95.011   -999.250
 14915     65.468   97.318   -999.250
 14915.5     66.349   92.697   -999.250
 14916     67.407   92.976   -999.250
 14916.5     68.832   93.993   -999.250
 14917     70.257   96.511   -999.250
 14917.5     68.908   100.252   -999.250
 14918     66.847   97.227   -999.250
 14918.5     64.787   97.533   -999.250
 14919     64.244   95.055   -999.250
 14919.5     63.164   101.075   -999.250
 14920     61.413   99.322   -999.250
 14920.5     60.64   97.69   -999.250
 14921     61.405   98.624   -999.250
 14921.5     63.364   97.418   -999.250
 14922     66.953   99.497   -999.250
 14922.5     70.542   94.554   -999.250
 14923     74.131   91.352   -999.250
 14923.5     74.316   94.62   -999.250
 14924     73.318   95.919   -999.250
 14924.5     72.32   103.518   -999.250
 14925     71.322   107.04   -999.250
 14925.5     72.807   106.775   -999.250
 14926     74.785   105.688   -999.250
 14926.5     73.785   96.238   -999.250
 14927     72.303   95.566   -999.250
 14927.5     69.162   97.028   -999.250
 14928     65.058   98.49   -999.250
 14928.5     61.886   98.393   -999.250
 14929     64.156   97.979   -999.250
 14929.5     66.427   91.133   -999.250
 14930     68.698   91.639   -999.250
 14930.5     70.969   92.815   -999.250
 14931     68.854   93.291   -999.250
 14931.5     66.331   98.518   -999.250
 14932     63.808   97.992   -999.250
 14932.5     63.78   97.747   -999.250
 14933     65.532   96.11   -999.250
 14933.5     67.283   91.901   -999.250
 14934     69.034   95.421   -999.250
 14934.5     69.836   96.228   -999.250
 14935     70.105   96.958   -999.250
 14935.5     70.373   94.965   -999.250
 14936     69.879   92.279   -999.250
 14936.5     67.409   92.754   -999.250
 14937     65.764   92.383   -999.250
 14937.5     65.764   94.013   -999.250
 14938     66.709   95.036   -999.250
 14938.5     69.235   94.417   -999.250
 14939     71.36   97.037   -999.250
 14939.5     70.419   97.609   -999.250
 14940     69.478   96.089   -999.250
 14940.5     74.136   95.824   -999.250
 14941     72.75   94.92   -999.250
 14941.5     71.168   97.015   -999.250
 14942     67.262   97.032   -999.250
 14942.5     66.528   99.513   -999.250
 14943     67.186   97.644   -999.250
 14943.5     67.845   95.379   -999.250
 14944     68.401   94.649   -999.250
 14944.5     66.874   96.012   -999.250
 14945     65.348   99.295   -999.250
 14945.5     63.821   97.23   -999.250
 14946     64.995   96.445   -999.250
 14946.5     67.267   95.244   -999.250
 14947     66.514   89.751   -999.250
 14947.5     65.762   91.795   -999.250
 14948     64.702   92.445   -999.250
 14948.5     62.543   95.483   -999.250
 14949     60.383   97.413   -999.250
 14949.5     58.224   96.453   -999.250
 14950     58.57   94.993   -999.250
 14950.5     60.56   92.045   -999.250
 14951     62.549   91.122   -999.250
 14951.5     64.538   95.062   -999.250
 14952     66.057   94.573   -999.250
 14952.5     66.798   97.595   -999.250
 14953     67.539   96.052   -999.250
 14953.5     68.281   95.985   -999.250
 14954     65.446   89.5   -999.250
 14954.5     61.758   94.162   -999.250
 14955     64.286   94.991   -999.250
 14955.5     66.813   92.512   -999.250
 14956     66.327   93.979   -999.250
 14956.5     65.153   92.522   -999.250
 14957     63.979   89.069   -999.250
 14957.5     64.917   92.859   -999.250
 14958     66.577   93.767   -999.250
 14958.5     68.08   91.845   -999.250
 14959     68.996   95.569   -999.250
 14959.5     69.423   98.154   -999.250
 14960     68.348   97.366   -999.250
 14960.5     67.888   95.578   -999.250
 14961     67.888   90.903   -999.250
 14961.5     67.314   88.592   -999.250
 14962     65.589   90.441   -999.250
 14962.5     65.738   91.984   -999.250
 14963     66.006   92.845   -999.250
 14963.5     66.275   95.352   -999.250
 14964     63.66   95.631   -999.250
 14964.5     58.942   95.744   -999.250
 14965     59.748   92.406   -999.250
 14965.5     61.011   93.862   -999.250
 14966     62.274   95.099   -999.250
 14966.5     66.29   103.446   -999.250
 14967     70.122   93.589   -999.250
 14967.5     68.736   92.675   -999.250
 14968     68.027   93.649   -999.250
 14968.5     68.988   97.46   -999.250
 14969     66.829   97.015   -999.250
 14969.5     65.041   92.843   -999.250
 14970     63.858   91.621   -999.250
 14970.5     62.674   89.555   -999.250
 14971     63.453   95.629   -999.250
 14971.5     65.583   91.26   -999.250
 14972     67.714   91.051   -999.250
 14972.5     69.844   88.199   -999.250
 14973     71.691   90.663   -999.250
 14973.5     70.319   89.317   -999.250
 14974     68.947   92.364   -999.250
 14974.5     67.617   91.812   -999.250
 14975     68.784   93.991   -999.250
 14975.5     69.95   94.883   -999.250
 14976     71.117   93.192   -999.250
 14976.5     70.042   95.797   -999.250
 14977     68.787   96.675   -999.250
 14977.5     67.531   99.177   -999.250
 14978     70.309   96.098   -999.250
 14978.5     70.99   92.342   -999.250
 14979     71.672   92.466   -999.250
 14979.5     72.354   92.406   -999.250
 14980     71.814   96.803   -999.250
 14980.5     71.17   93.431   -999.250
 14981     70.525   96.067   -999.250
 14981.5     69.881   94.553   -999.250
 14982     71.521   94.308   -999.250
 14982.5     71.81   92.175   -999.250
 14983     71.81   93.576   -999.250
 14983.5     72.586   96.318   -999.250
 14984     74.715   94.16   -999.250
 14984.5     73.097   92.923   -999.250
 14985     71.299   93.937   -999.250
 14985.5     70.31   95.689   -999.250
 14986     70.31   94.247   -999.250
 14986.5     70.311   96.278   -999.250
 14987     70.936   98.028   -999.250
 14987.5     72.625   98.832   -999.250
 14988     74.314   99.489   -999.250
 14988.5     76.003   101.239   -999.250
 14989     72.591   96.477   -999.250
 14989.5     69.136   97.19   -999.250
 14990     65.68   99.005   -999.250
 14990.5     62.224   100.111   -999.250
 14991     61.601   96.163   -999.250
 14991.5     63.201   100.569   -999.250
 14992     64.802   105.62   -999.250
 14992.5     66.979   108.981   -999.250
 14993     69.354   112.341   -999.250
 14993.5     71.73   106.599   -999.250
 14994     73.725   97.283   -999.250
 14994.5     71.254   95.973   -999.250
 14995     69.142   96.084   -999.250
 14995.5     69.337   97.409   -999.250
 14996     69.533   97.038   -999.250
 14996.5     69.615   97.746   -999.250
 14997     67.689   95.581   -999.250
 14997.5     65.764   94.715   -999.250
 14998     63.838   96.177   -999.250
 14998.5     62.828   94.517   -999.250
 14999     66.803   92.049   -999.250
 14999.5     70.778   91.854   -999.250
 15000     70.361   94.22   -999.250
 15000.5     69.393   96.586   -999.250
 15001     68.351   96.271   -999.250
 15001.5     66.628   96.821   -999.250
 15002     65.928   93.857   -999.250
 15002.5     65.659   94.086   -999.250
 15003     64.407   96.039   -999.250
 15003.5     62.287   105.734   -999.250
 15004     63.238   113.274   -999.250
 15004.5     64.189   103.974   -999.250
 15005     62.471   98.38   -999.250
 15005.5     58.942   95.678   -999.250
 15006     57.327   98.056   -999.250
 15006.5     57.895   95.984   -999.250
 15007     60.707   91.345   -999.250
 15007.5     63.519   92.402   -999.250
 15008     66.331   90.817   -999.250
 15008.5     67.622   94.077   -999.250
 15009     67.622   92.822   -999.250
 15009.5     67.018   90.562   -999.250
 15010     65.015   91.922   -999.250
 15010.5     64.197   91.467   -999.250
