#--------------------------------------------------#
#-------------------ENVERUS, INC.------------------#
#------------------WWW.ENVERUS.COM-----------------#
#------------------COPYRIGHT 2020------------------#
#--------------------------------------------------#
#THIS FILE MAY BE USED ONLY IN ACCORDANCE WITH A CURRENT SUBSCRIPTION AGREEMENT BETWEEN
#THE USER AND ENVERUS, INC. NO PART OF THIS FILE MAY BE REPRODUCED, USED, COPIED,
#MODIFIED, PROPAGATED, OR DISTRIBUTED EXCEPT IN ACCORDANCE WITH THE SUBSCRIPTION
#AGREEMENT. UNAUTHORIZED USE OR DISTRIBUTION OF ALL OR ANY PART OF THIS FILE MAY VIOLATE
#COPYRIGHT, TRADEMARK, AND/OR OTHER LAWS AND IS SUBJECT TO CIVIL AS WELL AS CRIMINAL
#SANCTIONS.
#--------------------------------------------------#
#THIS FILE IS PROVIDED "AS-IS" AND ALL WARRANTIES ARE EXPRESSLY DISCLAIMED, WHETHER
#EXPRESS, ORAL, IMPLIED, STATUTORY OR OTHERWISE, INCLUDING ANY IMPLIED WARRANTY OF FITNESS
#FOR A PARTICULAR PURPOSE, MERCHANTABILITY, TITLE OR NON-INFRINGEMENT, AND ANY WARRANTIES
#ARISING BY VIRTUE OF CUSTOM OF TRADE OR COURSE OF DEALING.  FURTHER, ENVERUS, INC.
#AND ITS LICENSORS DO NOT REPRESENT OR WARRANT THAT THIS FILE WILL MEET USER'S
#REQUIREMENTS OR ARE SUITABLE FOR USER'S NEEDS OR THAT THE DATA OR RESULTS PROVIDED IN
#CONJUNCTION THEREWITH ARE CORRECT, ACCURATE, TIMELY OR RELIABLE. THESE DISCLAIMERS SHALL
#APPLY REGARDLESS OF ANY FAILURE OF ESSENTIAL PURPOSE OF ANY LIMITED REMEDY.  SOME
#JURISDICTIONS DO NOT ALLOW THE EXCLUSION OF CERTAIN WARRANTIES SO SOME OF THE ABOVE
#EXCLUSIONS MAY NOT APPLY. IN NO EVENT SHALL ENVERUS, INC. OR ANY OF ITS AFFILIATES
#BE LIABLE UNDER ANY LEGAL THEORY, WHETHER IN TORT (INCLUDING WITHOUT LIMITATION
#NEGLIGENCE), CONTRACT, STRICT LIABILITY, STATUTORY OR OTHERWISE, FOR ANY SPECIAL,
#INCIDENTAL, CONSEQUENTIAL, EXEMPLARY, PUNITIVE OR INDIRECT DAMAGE OF ANY KIND, INCLUDING
#WITHOUT LIMITATION LOSS OF REVENUE, PROFITS, GOODWILL, USE, AND/OR DATA OR THE COST OF
#PROCUREMENT OF SUBSTITUTE GOODS OR SERVICES, EVEN IF APPRISED OF THE POSSIBILITY OF SUCH
#DAMAGES IN ADVANCE.
#--------------------------------------------------#

~VERSION INFORMATION
VERS. 2.0 : CWLS LOG ASCII STANDARD - VERSION 2.0
WRAP.  NO : ONE LINE PER DEPTH STEP
~WELL INFORMATION
#MNEMONIC     .UNIT              VALUE :DESCRIPTION
STRT       .FT                0 :START DEPTH
STOP       .FT                3396 :STOP DEPTH
STEP       .FT                   0.500 :STEP
NULL       .                  -999.250 :NULL
UWI        .              42389305140000 :UNIQUE WELL ID
API        .              42389305140000 :API NUMBER
COMP       .         SLEDGE BROS. OIL CO. :COMPANY
WELL       .        BOLLINGER  5 :WELL
DATE       .                            :LOG DATE
~CURVE INFORMATION
#MNEMONIC     .UNIT      API CODE :CURVE DESCRIPTION
DEPTH       .FT                      :MEASURED DEPTH
ILS.OHM        UNKNOWN   :ILS
GR.API        UNKNOWN   :GR
DT.US/FT        UNKNOWN   :DT
CAL.INCH        UNKNOWN   :CAL
ILD.OHM        UNKNOWN   :ILD
~A    DEPTH    ILS    GR    DT    CAL    ILD
# ...
 2848     -999.250   6.73   49.101   7.279   -999.250
 2848.5     -999.250   8.072   49.207   7.287   -999.250
 2849     -999.250   9.415   49.307   7.295   -999.250
 2849.5     -999.250   10.758   49.288   7.303   -999.250
 2850     -999.250   10.168   49.274   7.311   -999.250
 2850.5     -999.250   9.56   49.455   7.319   -999.250
 2851     -999.250   8.951   49.636   7.328   -999.250
 2851.5     -999.250   8.343   49.682   7.336   -999.250
 2852     -999.250   7.845   49.553   7.344   -999.250
 2852.5     -999.250   8.285   49.425   7.352   -999.250
 2853     -999.250   10.53   49.297   7.36   -999.250
 2853.5     -999.250   11.464   49.173   7.368   -999.250
 2854     -999.250   12.146   49.049   7.376   -999.250
 2854.5     -999.250   12.884   48.926   7.384   -999.250
 2855     -999.250   13.649   48.93   7.392   -999.250
 2855.5     -999.250   13.876   48.98   7.4   -999.250
 2856     -999.250   13.055   49.048   7.408   -999.250
 2856.5     -999.250   10.422   49.223   7.416   -999.250
 2857     -999.250   7.789   49.398   7.424   -999.250
 2857.5     -999.250   6.558   49.574   7.432   -999.250
 2858     -999.250   6.892   49.449   7.44   -999.250
 2858.5     -999.250   8.697   49.221   7.449   -999.250
 2859     -999.250   10.463   49.027   7.457   -999.250
 2859.5     -999.250   10.299   49.035   7.465   -999.250
 2860     -999.250   10.665   49.044   7.473   -999.250
 2860.5     -999.250   11.969   49.052   7.481   -999.250
 2861     -999.250   13.274   49.06   7.489   -999.250
 2861.5     -999.250   12.119   49.069   7.497   -999.250
 2862     -999.250   11.805   49.011   7.505   -999.250
 2862.5     -999.250   11.803   48.923   7.524   -999.250
 2863     -999.250   11.801   48.835   7.543   -999.250
 2863.5     -999.250   10.596   48.746   7.562   -999.250
 2864     -999.250   9.154   48.658   7.581   -999.250
 2864.5     -999.250   7.746   48.782   7.6   -999.250
 2865     -999.250   7.685   48.928   7.619   -999.250
 2865.5     -999.250   7.624   48.864   7.638   -999.250
 2866     -999.250   8.466   48.767   7.656   -999.250
 2866.5     -999.250   9.619   48.599   7.675   -999.250
 2867     -999.250   10.703   48.235   7.692   -999.250
 2867.5     -999.250   10.642   47.871   7.708   -999.250
 2868     -999.250   10.581   48.05   7.724   -999.250
 2868.5     -999.250   10.955   47.968   7.74   -999.250
 2869     -999.250   11.455   47.888   7.764   -999.250
 2869.5     -999.250   11.825   47.841   7.816   -999.250
 2870     -999.250   10.794   47.926   7.868   -999.250
 2870.5     -999.250   9.762   48.329   7.92   -999.250
 2871     -999.250   8.795   48.251   7.972   -999.250
 2871.5     -999.250   8.685   47.431   8.024   -999.250
 2872     -999.250   10.321   46.713   8.076   -999.250
 2872.5     -999.250   12.326   46.208   8.128   -999.250
 2873     -999.250   14.331   46.092   8.18   -999.250
 2873.5     -999.250   13.835   46.449   8.524   -999.250
 2874     -999.250   11.534   48.635   9.113   -999.250
 2874.5     -999.250   9.234   55.607   10.165   -999.250
 2875     -999.250   6.933   63.348   11.253   -999.250
 2875.5     -999.250   5.393   67.805   11.589   -999.250
 2876     -999.250   4.759   68.014   11.68   -999.250
 2876.5     -999.250   4.124   66.869   11.924   -999.250
 2877     -999.250   3.489   65.268   12.202   -999.250
 2877.5     -999.250   3.234   65.823   12.058   -999.250
 2878     -999.250   3.533   65.513   11.781   -999.250
 2878.5     -999.250   3.832   65.268   11.604   -999.250
 2879     -999.250   4.131   65.932   11.455   -999.250
 2879.5     -999.250   4.319   65.769   11.175   -999.250
 2880     -999.250   4.317   65.519   10.772   -999.250
 2880.5     -999.250   4.315   65.815   10.869   -999.250
 2881     -999.250   4.314   65.692   11.375   -999.250
 2881.5     -999.250   4.535   65.646   12.182   -999.250
 2882     -999.250   4.884   65.851   12.277   -999.250
 2882.5     -999.250   5.232   66.573   12.327   -999.250
 2883     -999.250   4.364   65.99   12.313   -999.250
 2883.5     -999.250   3.422   66.244   12.284   -999.250
 2884     -999.250   2.48   66.446   12.175   -999.250
 2884.5     -999.250   2.954   66.138   12.066   -999.250
 2885     -999.250   3.535   66.347   12.018   -999.250
 2885.5     -999.250   4.116   66.726   12.312   -999.250
 2886     -999.250   4.697   67.097   12.504   -999.250
 2886.5     -999.250   4.439   67.041   12.645   -999.250
 2887     -999.250   4.177   66.724   12.786   -999.250
 2887.5     -999.250   3.915   66.275   12.825   -999.250
 2888     -999.250   3.653   66.574   12.818   -999.250
 2888.5     -999.250   3.763   66.874   12.811   -999.250
 2889     -999.250   3.941   67.173   12.803   -999.250
 2889.5     -999.250   4.119   66.91   12.817   -999.250
 2890     -999.250   3.942   67.638   12.871   -999.250
 2890.5     -999.250   3.698   67.303   12.925   -999.250
 2891     -999.250   3.454   67.321   12.972   -999.250
 2891.5     -999.250   3.21   67.513   12.985   -999.250
 2892     -999.250   3.119   67.156   12.997   -999.250
 2892.5     -999.250   3.274   66.736   13.01   -999.250
 2893     -999.250   3.429   67.018   12.986   -999.250
 2893.5     -999.250   3.585   67.316   12.938   -999.250
 2894     -999.250   3.74   67.475   12.89   -999.250
 2894.5     -999.250   3.895   67.456   12.842   -999.250
 2895     -999.250   3.836   67.223   12.889   -999.250
 2895.5     -999.250   3.415   66.589   12.977   -999.250
 2896     -999.250   2.994   66.525   12.992   -999.250
 2896.5     -999.250   2.723   67.261   12.982   -999.250
 2897     -999.250   3.28   67.902   12.973   -999.250
 2897.5     -999.250   3.837   67.739   12.992   -999.250
 2898     -999.250   4.126   67.327   13.076   -999.250
 2898.5     -999.250   3.637   67.194   13.153   -999.250
 2899     -999.250   3.712   67.287   13.141   -999.250
 2899.5     -999.250   4.173   67.434   13.129   -999.250
 2900     -999.250   4.633   67.863   13.117   -999.250
 2900.5     -999.250   4.827   68.291   13.106   -999.250
 2901     -999.250   4.596   68.275   13.096   -999.250
 2901.5     -999.250   4.364   68.038   13.086   -999.250
 2902     -999.250   4.133   67.219   13.076   -999.250
 2902.5     -999.250   3.902   67.322   13.066   -999.250
 2903     -999.250   3.719   67.716   13.06   -999.250
 2903.5     -999.250   4.007   67.462   13.068   -999.250
 2904     -999.250   4.159   67.165   13.076   -999.250
 2904.5     -999.250   3.857   67.234   13.084   -999.250
 2905     -999.250   3.555   67.301   13.039   -999.250
 2905.5     -999.250   3.539   67.231   12.935   -999.250
 2906     -999.250   3.774   67.006   12.907   -999.250
 2906.5     -999.250   4.008   66.781   12.915   -999.250
 2907     -999.250   4.243   66.704   12.842   -999.250
 2907.5     -999.250   4.478   66.802   12.753   -999.250
 2908     -999.250   3.85   66.949   12.63   -999.250
 2908.5     -999.250   3.199   67.223   12.484   -999.250
 2909     -999.250   3.365   67.446   12.339   -999.250
 2909.5     -999.250   3.9   67.225   12.194   -999.250
 2910     -999.250   4.434   67.019   12.049   -999.250
 2910.5     -999.250   4.807   66.878   12.02   -999.250
 2911     -999.250   4.389   66.834   12.169   -999.250
 2911.5     -999.250   3.972   66.835   12.431   -999.250
 2912     -999.250   3.732   67.459   12.693   -999.250
 2912.5     -999.250   3.624   67.637   12.628   -999.250
 2913     -999.250   3.516   67.123   12.538   -999.250
 2913.5     -999.250   3.408   66.938   12.589   -999.250
 2914     -999.250   3.3   67.335   12.708   -999.250
 2914.5     -999.250   3.378   67.539   12.794   -999.250
 2915     -999.250   3.647   67.343   12.771   -999.250
 2915.5     -999.250   3.916   67.148   12.72   -999.250
 2916     -999.250   4.186   66.887   12.661   -999.250
 2916.5     -999.250   4.455   66.602   12.633   -999.250
 2917     -999.250   4.397   67.135   12.703   -999.250
 2917.5     -999.250   4.038   67.716   12.774   -999.250
 2918     -999.250   3.68   68.203   12.844   -999.250
 2918.5     -999.250   3.321   68.391   12.909   -999.250
