#   WellGreen Tech Inc.   Digitizing Services
#   www.wellgreentech.com
#   email: sales@wellgreentech.com
#
~Version Information Block
 VERS.                2.00:     CWLS LOG ASCII STANDARD - VERSION 2.000000
 WRAP.                  NO:     One Line Per Depth Step
#
~Well Information Block
#MNEM.UNIT                     Data                         Information
#----------   ------------------------------------------   ----------------
 STRT.FT                                     4000.0000:     START DEPTH
 STOP.FT                                    15710.0000:     STOP DEPTH
 STEP.FT                                        0.5000:     STEP
 NULL.                                       -999.2500:     NULL VALUE
 COMP.                        THE SUPERIOR OIL COMPANY:     COMPANY
 WELL.                                FORTUNE STATE #1:     WELL
 FLD .                                    CHAPMAN DEEP:     FIELD
 LOC .                                                :     LOCATION
 CNTY.                                          REEVES:     COUNTY
 STAT.                                              TX:     STATE
 CTRY.                                             USA:     COUNTRY
 SRVC.                                    SCHLUMBERGER:     SERVICE COMPANY
 DATE.                                      11/10/1974:     DATE
 API .               42389302950000:    API NUMBER
 UWI .               42389302950000:    UWI NUMBER
 TVD .                                              NO:     TVD flag
 MATRIX .G/CC                  :    Matrix Density
#
~Curve Information Block
#MNEM.UNIT       API CODE      Curve Description
#----------    -------------   -------------------
 DEPT.FT                   :   Depth in Feet
 CALI.IN       70 280 01 01:   Caliper
 GR  .API      35 310 01 01:   Gamma Ray
 DT  .US/F     60 520 08 01:   Sonic transit time
#
~Parameter Information Block
#MNEM.UNIT            Value               Description
#----------    --------------------    -------------------
 RUN .                         ONE:    Run Number
 PDAT.                          GL:    Permanent Datum
 EPD .FT                  000.0000:    Elevation Of Perm. Datum
 LMF .               KELLY BUSHING:    Log Measured From
 EKB .FT                  3065.0:    Elevation Of Kelly Bushing
 DF .FT                    000.0:    Elevation Of Derrick Floor
 GL .FT                   3034.0:    Elevation Of Ground Level
 TD .FT                  15710.0000:    Total Depth
 BHT .DEGF               260.00 :  Bottom Hole Temperature
 BLI .FT               15710.0000:   Bottom Log Interval
 CSGSIZE.IN              9.6250:   Casing Size
 BITSIZE.IN               8.750 :  BitSize
 CSGD.FT                  4000.0:    Casing Bottom (Driller) 1
 CSGL.FT                  400.0:    Casing Bottom (Logger) 1
 MUD . BRINE                                :    Drilling Fluid Type
 MUDV .CP                  27.0:    Drilling Fluid Viscosity
 MUDD .LB/USG              9.25:    Drilling Fluid Density
 PH.                        6.2:    Drilling Fluid Ph
 FL .ML/30MIN              11.0:    Drilling Fluid Loss
 MUDS .FLOW LINE                        :    Mud Sample Source
 RM .OHMM                   0.09:    Resistivity Of Mud Sample
 RMT .DEGF                 60.00:    Mud Sample Temperature
 RMF .OHMM                  0.09:    Mud Filtrate Resistivity
 RMFT.DEGF                 60.00:    Mud Filtrate Sample Temperature
 RMC .OHMM                  0.00:    Mud Cake Resistivity
 RMCT.DEGF                 00.00:    Mud Cake Sample Temperature
 RMB .OHMM                 0.027:    Mud Resistivity At Bht
 TMAX .DEGF               260.00:    Bottom Hole Temperature
#
~Other Information Block
<DescLogPlotStart>   NEURALOG PLOT DEFINITION
PLOTDEFVERSION: 3
LASFILE: D:\nds\projects\G\DAVE\new work\RS Energy - Texas - May 17 - Folder 2\
DEPTHSCALE: 240.000000
RESOLUTION: 400
DEPTHLABELFREQ: 100.000000
HEAVYGRIDFREQ: 100.000000
MEDIUMGRIDFREQ: 50.000000
LIGHTGRIDFREQ: 10.000000
#
#   TRACK 1
#
STARTTRACK: 
 LEFTX: 0.500000 inch
 RIGHTX: 3.000000 inch
 SCALETYPE: Linear
 NUMCHARTDIVISIONS: 10
CURVE: CALI  6.000000   16.000000  (0,0,255)      Solid             2     N    
CURVE: GR    0.000000   125.000000 (0,131,131)    Dot               2     Y    
BACKUP: 125.000000 250.000000 (0,131,131)    Dot               2    
ENDTRACK: 
#
#   TRACK 2
#
STARTTRACK: 
 LEFTX: 3.500000 inch
 RIGHTX: 8.500000 inch
 SCALETYPE: Linear
 NUMCHARTDIVISIONS: 10
CURVE: DT    100.000000 40.000000  (255,0,255)    Solid             2     Y    
BACKUP: 160.000000 100.000000 (255,0,255)    Solid             2    
ENDTRACK: 
<DescLogPlotEnd>
~A DEPTH     CALI             GR               DT              
# ...
    7875.000 12.241           70.993           61.060          
    7875.500 12.242           63.791           61.392          
    7876.000 12.242           65.312           61.831          
    7876.500 12.243           71.424           60.230          
    7877.000 12.243           75.852           58.582          
    7877.500 12.244           69.359           58.738          
    7878.000 12.244           61.322           59.452          
    7878.500 12.245           55.273           62.263          
    7879.000 12.245           61.996           66.745          
    7879.500 12.246           65.119           69.806          
    7880.000 12.246           55.962           67.843          
    7880.500 12.247           47.145           67.565          
    7881.000 12.247           42.311           67.323          
    7881.500 12.248           42.005           66.785          
    7882.000 12.248           44.451           67.162          
    7882.500 12.249           48.628           66.635          
    7883.000 12.249           52.805           67.443          
    7883.500 12.250           55.698           66.904          
    7884.000 12.250           56.554           67.891          
    7884.500 12.251           61.931           65.209          
    7885.000 12.251           69.087           67.635          
    7885.500 12.252           72.851           70.550          
    7886.000 12.252           64.983           71.495          
    7886.500 12.253           55.307           72.285          
    7887.000 12.253           47.368           72.764          
    7887.500 12.254           42.519           70.289          
    7888.000 12.254           37.675           69.116          
    7888.500 12.255           34.247           68.771          
    7889.000 12.255           33.181           68.672          
    7889.500 12.256           33.315           68.590          
    7890.000 12.256           37.384           68.556          
    7890.500 12.257           41.486           68.815          
    7891.000 12.257           44.751           69.059          
    7891.500 12.258           47.074           69.267          
    7892.000 12.258           48.839           69.475          
    7892.500 12.259           47.963           69.268          
    7893.000 12.259           47.066           68.836          
    7893.500 12.258           48.589           69.370          
    7894.000 12.258           51.840           69.901          
    7894.500 12.258           56.608           69.366          
    7895.000 12.258           61.932           69.150          
    7895.500 12.258           67.260           67.987          
    7896.000 12.258           72.612           66.353          
    7896.500 12.257           75.914           66.036          
    7897.000 12.257           73.764           66.419          
    7897.500 12.257           70.702           65.968          
    7898.000 12.257           71.775           65.537          
    7898.500 12.257           73.714           65.511          
    7899.000 12.257           75.655           64.497          
    7899.500 12.256           76.006           63.405          
    7900.000 12.256           72.970           63.469          
    7900.500 12.256           69.926           64.012          
    7901.000 12.256           71.108           65.415          
    7901.500 12.256           82.796           66.257          
    7902.000 12.256           93.041           66.360          
    7902.500 12.256           99.073           67.060          
    7903.000 12.255           97.700           67.795          
    7903.500 12.255           99.728           68.247          
    7904.000 12.255           104.774          66.942          
    7904.500 12.255           100.096          65.004          
    7905.000 12.255           92.388           62.160          
    7905.500 12.255           87.653           61.401          
    7906.000 12.254           87.641           62.036          
    7906.500 12.254           91.584           63.938          
    7907.000 12.254           100.187          66.235          
    7907.500 12.254           115.613          68.525          
    7908.000 12.254           123.133          69.351          
    7908.500 12.254           117.115          69.751          
    7909.000 12.253           110.070          71.345          
    7909.500 12.253           118.340          72.253          
    7910.000 12.253           126.911          71.743          
    7910.500 12.253           143.187          71.090          
    7911.000 12.253           133.215          68.331          
    7911.500 12.253           119.745          65.990          
    7912.000 12.252           108.218          65.474          
    7912.500 12.252           96.693           64.486          
    7913.000 12.252           90.112           66.152          
    7913.500 12.252           98.360           68.428          
    7914.000 12.252           108.118          68.989          
    7914.500 12.252           124.176          71.242          
    7915.000 12.251           134.752          75.339          
    7915.500 12.251           147.337          74.769          
    7916.000 12.251           129.836          70.978          
    7916.500 12.251           106.836          66.942          
    7917.000 12.251           84.256           64.362          
    7917.500 12.251           71.213           65.189          
    7918.000 12.250           77.809           67.316          
    7918.500 12.250           94.433           71.284          
    7919.000 12.250           114.950          74.651          
    7919.500 12.250           125.600          76.595          
    7920.000 12.250           140.784          75.608          
    7920.500 12.250           142.703          73.308          
    7921.000 12.249           130.509          71.048          
    7921.500 12.249           115.885          70.502          
    7922.000 12.249           108.787          69.689          
    7922.500 12.249           107.772          68.582          
    7923.000 12.249           111.242          69.199          
    7923.500 12.249           107.117          70.334          
    7924.000 12.248           101.535          71.611          
    7924.500 12.248           105.332          72.617          
    7925.000 12.248           111.219          72.601          
    7925.500 12.248           114.235          72.043          
    7926.000 12.248           98.472           71.541          
    7926.500 12.248           88.236           73.262          
    7927.000 12.247           85.452           74.113          
    7927.500 12.247           79.856           70.150          
    7928.000 12.247           72.768           69.028          
    7928.500 12.247           66.689           69.028          
    7929.000 12.247           61.373           69.985          
    7929.500 12.247           68.915           72.049          
    7930.000 12.246           75.058           73.096          
    7930.500 12.246           78.737           69.933          
    7931.000 12.246           75.644           69.162          
    7931.500 12.246           71.211           68.115          
    7932.000 12.246           65.622           64.068          
    7932.500 12.246           60.969           48.838          
    7933.000 12.245           60.893           52.159          
    7933.500 12.245           59.859           54.606          
    7934.000 12.245           55.138           62.836          
    7934.500 12.245           58.004           64.446          
    7935.000 12.245           66.346           68.639          
    7935.500 12.245           81.768           72.832          
    7936.000 12.244           97.162           76.087          
    7936.500 12.244           111.628          76.391          
    7937.000 12.244           113.889          75.118          
