#--------------------------------------------------#
#-------------------ENVERUS, INC.------------------#
#------------------WWW.ENVERUS.COM-----------------#
#------------------COPYRIGHT 2020------------------#
#--------------------------------------------------#
#THIS FILE MAY BE USED ONLY IN ACCORDANCE WITH A CURRENT SUBSCRIPTION AGREEMENT BETWEEN
#THE USER AND ENVERUS, INC. NO PART OF THIS FILE MAY BE REPRODUCED, USED, COPIED,
#MODIFIED, PROPAGATED, OR DISTRIBUTED EXCEPT IN ACCORDANCE WITH THE SUBSCRIPTION
#AGREEMENT. UNAUTHORIZED USE OR DISTRIBUTION OF ALL OR ANY PART OF THIS FILE MAY VIOLATE
#COPYRIGHT, TRADEMARK, AND/OR OTHER LAWS AND IS SUBJECT TO CIVIL AS WELL AS CRIMINAL
#SANCTIONS.
#--------------------------------------------------#
#THIS FILE IS PROVIDED "AS-IS" AND ALL WARRANTIES ARE EXPRESSLY DISCLAIMED, WHETHER
#EXPRESS, ORAL, IMPLIED, STATUTORY OR OTHERWISE, INCLUDING ANY IMPLIED WARRANTY OF FITNESS
#FOR A PARTICULAR PURPOSE, MERCHANTABILITY, TITLE OR NON-INFRINGEMENT, AND ANY WARRANTIES
#ARISING BY VIRTUE OF CUSTOM OF TRADE OR COURSE OF DEALING.  FURTHER, ENVERUS, INC.
#AND ITS LICENSORS DO NOT REPRESENT OR WARRANT THAT THIS FILE WILL MEET USER'S
#REQUIREMENTS OR ARE SUITABLE FOR USER'S NEEDS OR THAT THE DATA OR RESULTS PROVIDED IN
#CONJUNCTION THEREWITH ARE CORRECT, ACCURATE, TIMELY OR RELIABLE. THESE DISCLAIMERS SHALL
#APPLY REGARDLESS OF ANY FAILURE OF ESSENTIAL PURPOSE OF ANY LIMITED REMEDY.  SOME
#JURISDICTIONS DO NOT ALLOW THE EXCLUSION OF CERTAIN WARRANTIES SO SOME OF THE ABOVE
#EXCLUSIONS MAY NOT APPLY. IN NO EVENT SHALL ENVERUS, INC. OR ANY OF ITS AFFILIATES
#BE LIABLE UNDER ANY LEGAL THEORY, WHETHER IN TORT (INCLUDING WITHOUT LIMITATION
#NEGLIGENCE), CONTRACT, STRICT LIABILITY, STATUTORY OR OTHERWISE, FOR ANY SPECIAL,
#INCIDENTAL, CONSEQUENTIAL, EXEMPLARY, PUNITIVE OR INDIRECT DAMAGE OF ANY KIND, INCLUDING
#WITHOUT LIMITATION LOSS OF REVENUE, PROFITS, GOODWILL, USE, AND/OR DATA OR THE COST OF
#PROCUREMENT OF SUBSTITUTE GOODS OR SERVICES, EVEN IF APPRISED OF THE POSSIBILITY OF SUCH
#DAMAGES IN ADVANCE.
#--------------------------------------------------#

~VERSION INFORMATION
VERS. 2.0 : CWLS LOG ASCII STANDARD - VERSION 2.0
WRAP.  NO : ONE LINE PER DEPTH STEP
~WELL INFORMATION
#MNEMONIC     .UNIT              VALUE :DESCRIPTION
STRT       .FT                24 :START DEPTH
STOP       .FT                5035 :STOP DEPTH
STEP       .FT                   0.500 :STEP
NULL       .                  -999.250 :NULL
UWI        .              42389314500000 :UNIQUE WELL ID
API        .              42389314500000 :API NUMBER
COMP       .         SLEDGE BROS. OIL CO. :COMPANY
WELL       .        ELIZABETH MITCHELL  1 :WELL
DATE       .                18-DEC-1983 :LOG DATE
~CURVE INFORMATION
#MNEMONIC     .UNIT      API CODE :CURVE DESCRIPTION
DEPTH       .FT                      :MEASURED DEPTH
CAL.INCH        UNKNOWN   :CAL
DT.US/FT        UNKNOWN   :DT
GR.API        UNKNOWN   :GR
~A    DEPTH    CAL    DT    GR
# ...
 2964.5     9.666   49.734   6.73
 2965     9.667   49.72   6.764
 2965.5     9.668   49.705   6.799
 2966     9.669   49.691   6.833
 2966.5     9.67   49.677   6.868
 2967     9.671   49.663   6.902
 2967.5     9.672   49.649   7.547
 2968     9.66   49.635   8.207
 2968.5     9.643   49.621   8.867
 2969     9.626   49.609   9.528
 2969.5     9.608   49.615   10.188
 2970     9.591   49.62   10.364
 2970.5     9.574   49.625   9.668
 2971     9.556   49.631   8.98
 2971.5     9.539   49.636   8.971
 2972     9.522   49.641   8.962
 2972.5     9.504   49.647   8.953
 2973     9.487   49.652   8.944
 2973.5     9.47   49.657   8.935
 2974     9.452   49.663   8.926
 2974.5     9.435   49.668   8.575
 2975     9.418   49.673   8.159
 2975.5     9.4   49.679   7.743
 2976     9.383   49.684   7.326
 2976.5     9.366   49.69   7.145
 2977     9.348   49.642   7.26
 2977.5     9.331   49.543   7.374
 2978     9.314   49.444   7.488
 2978.5     9.296   49.344   7.603
 2979     9.279   49.245   7.717
 2979.5     9.262   49.146   7.831
 2980     9.244   49.047   7.946
 2980.5     9.227   49.096   8.06
 2981     9.21   49.192   8.174
 2981.5     9.198   49.288   8.289
 2982     9.194   49.384   8.403
 2982.5     9.189   49.48   8.517
 2983     9.184   49.576   8.632
 2983.5     9.18   49.672   8.746
 2984     9.175   49.692   8.86
 2984.5     9.17   49.623   8.974
 2985     9.166   49.553   9.089
 2985.5     9.161   49.484   9.203
 2986     9.156   49.415   9.317
 2986.5     9.152   49.345   9.554
 2987     9.147   49.276   10.65
 2987.5     9.142   49.206   11.746
 2988     9.137   49.088   12.842
 2988.5     9.133   48.968   13.29
 2989     9.128   48.847   13.228
 2989.5     9.17   48.727   13.167
 2990     9.22   48.606   13.031
 2990.5     9.269   48.486   12.43
 2991     9.319   48.365   11.828
 2991.5     9.368   48.244   11.227
 2992     9.417   48.18   10.626
 2992.5     9.467   48.34   10.025
 2993     9.548   48.501   9.495
 2993.5     9.632   48.661   9.694
 2994     9.716   48.821   9.892
 2994.5     9.8   48.869   10.09
 2995     9.884   48.583   9.845
 2995.5     9.968   48.296   9.346
 2996     10.052   48.01   8.846
 2996.5     10.136   47.723   8.347
 2997     10.22   45.016   8.185
 2997.5     10.304   43.778   9.021
 2998     10.388   43.853   9.857
 2998.5     10.472   43.983   10.692
 2999     10.556   44.113   11.488
 2999.5     11.123   45.029   9.705
 3000     11.787   64.058   7.923
 3000.5     12.452   66.866   6.14
 3001     14.071   67.865   5.739
 3001.5     14.136   68.532   5.717
 3002     14.202   67.82   5.695
 3002.5     14.268   67.109   5.673
 3003     14.303   66.094   5.651
 3003.5     14.219   62.671   5.629
 3004     14.135   59.247   5.607
 3004.5     14.051   59.795   5.585
 3005     13.967   63.491   5.563
 3005.5     13.883   69.195   5.541
 3006     13.81   69.99   5.519
 3006.5     14.042   69.681   5.498
 3007     14.18   69.372   5.476
 3007.5     14.2   69.063   5.454
 3008     14.22   68.754   5.357
 3008.5     14.24   68.09   5.234
 3009     14.26   67.091   5.111
 3009.5     14.28   66.092   4.987
 3010     14.291   65.093   4.864
 3010.5     14.293   66.384   4.741
 3011     14.296   68.236   4.617
 3011.5     14.298   70.878   4.494
 3012     14.3   73.878   4.491
 3012.5     14.303   73.089   4.503
 3013     14.305   69.422   4.515
 3013.5     14.308   65.756   4.528
 3014     14.31   65.695   4.54
 3014.5     14.313   66.631   4.553
 3015     14.315   67.567   4.565
 3015.5     14.318   68.071   4.577
 3016     14.32   67.871   4.59
 3016.5     14.319   67.671   4.602
 3017     14.316   67.472   4.615
 3017.5     14.314   67.272   4.627
 3018     14.312   67.062   4.64
 3018.5     14.309   66.842   4.652
 3019     14.307   66.718   4.664
 3019.5     14.305   67.324   4.677
 3020     14.302   67.691   4.689
 3020.5     14.3   67.581   4.702
 3021     14.298   67.47   4.714
 3021.5     14.295   67.36   4.726
 3022     14.293   67.25   4.739
 3022.5     14.291   67.259   4.751
 3023     14.288   67.361   4.764
 3023.5     14.286   67.463   4.776
 3024     14.284   67.565   4.789
 3024.5     14.281   67.668   4.804
 3025     14.279   67.715   4.82
 3025.5     14.277   67.515   4.835
 3026     14.274   67.316   4.851
 3026.5     14.272   67.116   4.866
 3027     14.27   66.916   4.882
 3027.5     14.267   66.716   4.897
 3028     14.265   66.53   3.489
 3028.5     14.263   66.428   2.664
 3029     14.26   66.326   2.981
 3029.5     14.242   66.224   3.298
 3030     14.203   66.122   3.615
 3030.5     14.164   66.02   3.932
 3031     14.125   66.408   4.249
 3031.5     14.086   66.81   4.566
 3032     14.069   67.211   4.61
 3032.5     14.066   67.613   4.57
 3033     14.063   67.732   4.53
 3033.5     14.061   66.706   4.49
 3034     14.058   65.679   4.449
 3034.5     14.055   65.916   4.409
 3035     14.052   66.343   5.216
 3035.5     14.05   66.769   6.076
 3036     14.047   67.196   6.078
 3036.5     14.044   67.622   5.109
 3037     14.045   68.048   4.139
 3037.5     14.053   68.054   3.55
 3038     14.062   67.828   3.365
 3038.5     14.07   67.602   3.18
 3039     14.078   67.376   2.995
 3039.5     14.086   67.156   2.81
 3040     14.094   66.935   2.625
 3040.5     14.092   66.714   2.696
 3041     14.08   66.493   3.233
 3041.5     14.068   66.273   3.771
 3042     14.056   66.515   4.308
 3042.5     14.044   66.916   4.846
 3043     14.032   67.17   5.319
 3043.5     14.02   66.708   5.289
 3044     14.009   66.245   5.26
 3044.5     14.001   65.783   5.23
 3045     13.994   65.321   5.2
 3045.5     13.986   66.085   5.171
 3046     13.978   66.898   5.141
 3046.5     13.97   67.413   5.111
 3047     13.962   66.644   5.082
 3047.5     13.955   65.876   4.961
 3048     13.947   65.107   4.496
 3048.5     13.957   65.318   4.031
 3049     13.991   66.083   3.566
 3049.5     14.025   66.848   3.102
 3050     14.059   67.267   2.637
 3050.5     14.094   67.339   2.172
 3051     14.128   67.41   1.828
 3051.5     14.162   67.482   2.305
 3052     14.145   67.525   2.782
 3052.5     14.127   67.486   3.259
 3053     14.109   67.447   3.736
 3053.5     14.091   67.408   4.214
 3054     14.073   67.866   4.691
 3054.5     14.055   68.249   4.865
 3055     14.037   67.982   4.741
 3055.5     14.019   67.714   4.618
 3056     14   67.447   4.494
 3056.5     13.982   67.179   4.37
 3057     13.965   67.321   4.247
 3057.5     13.948   68.061   4.123
 3058     13.932   68.801   4
 3058.5     13.916   67.837   4.212
 3059     13.899   66.791   4.604
 3059.5     13.883   65.746   4.995
 3060     13.866   65.839   5.16
 3060.5     13.85   66.443   5.122
 3061     13.833   67.048   5.083
 3061.5     13.817   67.54   5.045
 3062     13.801   67.201   5.006
 3062.5     13.784   66.863   4.967
 3063     13.768   66.524   5.088
 3063.5     13.761   66.723   5.487
 3064     13.802   67.038   5.885
 3064.5     13.842   67.354   6.283
 3065     13.883   67.669   6.682
 3065.5     13.924   67.984   7.08
 3066     13.964   67.495   7.478
 3066.5     14.005   66.99   7.877
 3067     14.045   66.636   8.228
 3067.5     14.086   66.306   6.427
 3068     14.126   65.976   4.626
 3068.5     14.167   65.646   3.073
 3069     14.161   65.842   3.323
 3069.5     14.14   66.217   3.572
 3070     14.119   66.593   3.822
 3070.5     14.098   66.969   4.071
 3071     14.078   67.303   4.321
 3071.5     14.057   67.618   4.57
 3072     14.036   67.933   4.819
 3072.5     14.015   68.249   5.069
 3073     13.994   68.564   5.28
 3073.5     14.007   68.111   5.243
 3074     14.047   67.516   5.206
 3074.5     14.088   66.922   5.169
 3075     14.128   66.569   5.132
 3075.5     14.164   66.572   5.094
 3076     14.134   66.574   5.057
 3076.5     14.105   66.565   5.02
 3077     14.076   66.526   4.983
 3077.5     14.047   66.487   4.946
 3078     14.052   66.448   4.908
 3078.5     14.071   66.409   4.871
 3079     14.089   66.37   4.834
 3079.5     14.107   66.323   4.797
 3080     14.125   66.263   4.76
 3080.5     14.126   66.204   4.722
