###############################################
##         ENVERUS                           ##
##         ESS - Open Hole                   ##
##         PERMIAN / DELAWARE                ##
##         Nov 04 2023  V4.0                 ##
##         42-389-30283-00-00                ##
###############################################
## Copyright 2017-2023  ENVERUS.  All Rights Reserved. 
## Confidential - Property of ENVERUS, use governed by terms and 
## conditions found within the existing Information Services Subscription Agreement 
## (as may be amended, the “ISSA”) between Customer and ENVERUS. 
## 
~VERSION INFORMATION
# MNEM.UNIT                               DATA : DESCRIPTION OF MNEMONIC
#-----.-----     ----------------------------- : -----------------------------
VERS.                                     2.00 : CWLS LOG ASCII STANDARD - VERSION 2.00
WRAP.                                       NO : MULTIPLE LINES PER DEPTH STEP
VEND.                                  ENVERUS : VENDOR
TYPE.                          ESS - OPEN HOLE : ENVERUS ESSENTIAL CURVES – ACCESSIBLE THROUGH ENVERUS PRISM(TM)
DOC.                                  32052778 : ENVERUS HEADER RAW DOCUMENT ID
#___________________________________________________________________________________________________ 
~WELL INFORMATION 
# CKTmoz7OsKELnwE/IP0i4B9qEmEewtam1JWnvb6ghWZsYWfxLv+2EOc67unJ6Yof0W+RqImtxqI23GomxkzDLA== 
# MNEM.UNIT                                              DATA : DESCRIPTION OF MNEMONIC 
#-----.-----                    ----------------------------- : ----------------------------- 
CNTY.                                                  REEVES : COUNTY 
STATE.                                                  TEXAS : STATE 
CNTRY.                                                    USA : COUNTRY 
API.                                             42-389-30283 : API (10 Digit) 
API_14.                                    42-389-30283-00-00 : API (14 Digits) 
API_14_std.                                 42-389-30283-0000 : API (14 Digits Standard) 
UWI.                                           42389302830000 : UNIQUE WELL ID 
WELL.                       RANDOLPH  A. T.  ET AL-STATE  1 L : WELL NAME
STRT.FT                                                 155.0 : START DEPTH
STOP.FT                                               15740.0 : STOP DEPTH
STEP.FT                                                   0.5 : STEP BETWEEN DEPTHS
NULL.                                                 -999.25 : NULL VALUE
COMP.                                     RIO PETROLEUM  INC. : COMPANY
#___________________________________________________________________________________________________ 
~CURVE INFORMATION 
# MNEM.UNIT           : CURVE DESCRIPTION 
#-----.-----          : ----------------------------- 
 DEPT.FT               : MEASURED DEPTH 
 CALI__A.IN            : CALIPER (CAL - CAL) 
 GR__A.API             : GAMMA RAY (GR) 
 SP__A.MV              : SPONTANEOUS POTENTIAL (SP) 
 DT__A.US/FT           : SONIC DELTA TRANSIT TIME (DT) 
 RESD__A.OHMM          : DEEP INDUCTION RESISTIVITY (ILD - ILD) 
 NPHI__A.V/V           : NEUTRON POROSITY (NPH - NPH) 
 #___________________________________________________________________________________________________ 
~A         DEPT        CALI__A          GR__A          SP__A          DT__A        RESD__A        NPHI__A
# ...
        15697.0       -999.250         14.369       -999.250         44.045       6572.354        0.01628
        15697.5       -999.250         15.158       -999.250         44.358       5850.509        0.01872
        15698.0       -999.250         15.947       -999.250         44.671       4330.908        0.01987
        15698.5       -999.250         16.736       -999.250         44.983       3795.470        0.02017
        15699.0       -999.250         16.013       -999.250         45.036       4632.337        0.02046
        15699.5       -999.250         14.636       -999.250         44.677       5469.204        0.02010
        15700.0       -999.250         13.260       -999.250         44.318       5282.126        0.01290
        15700.5       -999.250         14.332       -999.250         43.959       5229.852        0.01119
        15701.0       -999.250         15.363       -999.250         43.978       5230.751        0.01436
        15701.5       -999.250         15.356       -999.250         44.306       5231.651        0.02434
        15702.0       -999.250         15.349       -999.250         44.634       5232.551        0.03431
        15702.5       -999.250         15.342       -999.250         44.500       5869.910        0.03702
        15703.0       -999.250         15.408       -999.250         44.105       6351.321        0.03170
        15703.5       -999.250         18.649       -999.250         43.710       6346.124        0.02639
        15704.0       -999.250         18.511       -999.250         41.743       7672.688        0.02107
        15704.5       -999.250         16.067       -999.250         39.875       8999.253        0.02052
        15705.0       -999.250         15.757       -999.250         39.877       9542.723        0.02140
        15705.5       -999.250         15.446       -999.250         39.880       9621.344        0.02529
        15706.0       -999.250         15.317       -999.250         39.882       9699.965        0.03241
        15706.5       -999.250         15.350       -999.250         43.575       9161.785        0.03848
        15707.0       -999.250         15.383       -999.250         40.096       8301.074        0.03380
        15707.5       -999.250         15.417       -999.250         40.083       7440.363        0.03403
        15708.0       -999.250         15.450       -999.250         40.070       6998.019        0.03427
        15708.5       -999.250         15.483       -999.250         40.057       6971.692        0.03450
        15709.0       -999.250         15.516       -999.250         40.043       7945.935        0.03473
        15709.5       -999.250         15.550       -999.250         40.030       8920.178        0.03497
        15710.0       -999.250         15.583       -999.250         40.017       9465.843        0.03508
        15710.5       -999.250         15.616       -999.250         40.004       9550.007        0.03497
        15711.0       -999.250         15.650       -999.250         39.991       9152.286        0.03487
        15711.5       -999.250         15.683       -999.250         40.028       8754.565        0.03476
        15712.0       -999.250         15.716       -999.250         40.055       8102.950        0.03466
        15712.5       -999.250         15.750       -999.250         40.058       7363.115        0.03455
        15713.0       -999.250         15.783       -999.250         44.102       6797.445        0.03445
        15713.5       -999.250         15.816       -999.250         43.942       6722.284        0.03434
        15714.0       -999.250         15.850       -999.250         43.962       7602.177        0.03423
        15714.5       -999.250         15.883       -999.250         44.181       8482.070        0.03413
        15715.0       -999.250         15.916       -999.250         43.802       9361.964        0.03402
        15715.5       -999.250         15.950       -999.250         42.707       9751.574        0.03392
        15716.0       -999.250         15.974       -999.250         43.883      10028.200        0.03381
        15716.5       -999.250         15.997       -999.250         42.186      10304.825        0.03370
        15717.0       -999.250         16.019       -999.250         41.783      12565.112        0.03360
        15717.5       -999.250         16.042       -999.250         43.902      18469.350        0.03349
        15718.0       -999.250         16.065       -999.250         46.021      24373.586        0.03339
        15718.5       -999.250         16.088       -999.250         44.577      30277.824        0.03328
        15719.0       -999.250         16.110       -999.250         45.778      30008.377        0.03317
        15719.5       -999.250         16.133       -999.250         46.980      23423.375        0.03307
        15720.0       -999.250         16.156       -999.250         47.526      16838.373        0.03296
        15720.5       -999.250         16.179       -999.250         43.051      13637.764        0.03286
        15721.0       -999.250         16.201       -999.250         42.675      11932.724        0.03275
        15721.5       -999.250         16.224       -999.250         43.247      11645.835        0.03265
        15722.0       -999.250         16.247       -999.250         40.952      11454.505        0.03254
        15722.5       -999.250          8.332       -999.250         39.995      11263.175        0.03245
        15723.0       -999.250         -0.007       -999.250         40.801      11071.845        0.03243
        15723.5       -999.250         -0.185       -999.250         42.537      11018.823        0.03241
        15724.0       -999.250         -0.341       -999.250         44.273      11020.520        0.03239
        15724.5       -999.250         -0.336       -999.250         44.212      11022.216        0.03237
        15725.0       -999.250         -0.331       -999.250         42.857      11023.912        0.03235
        15725.5       -999.250         -0.327       -999.250         41.502      11025.609        0.03233
        15726.0       -999.250         -0.322       -999.250         42.962      11027.306        0.03231
        15726.5       -999.250         -0.317       -999.250         43.151      10973.143        0.03229
        15727.0       -999.250         -0.313       -999.250         42.713      10902.100        0.03227
        15727.5       -999.250         -0.308       -999.250         42.447      10831.057        0.03225
        15728.0       -999.250         -0.303       -999.250         42.679      10760.014        0.03223
        15728.5       -999.250         -0.298       -999.250         42.911      10688.971        0.03221
        15729.0       -999.250         -0.294       -999.250         43.143      10617.927        0.03219
        15729.5       -999.250         -0.289       -999.250         43.271      10546.884        0.03217
        15730.0       -999.250         -0.284       -999.250         43.270      10475.841        0.03215
        15730.5       -999.250         -0.280       -999.250         43.269      10404.798        0.03213
        15731.0       -999.250         -0.275       -999.250         43.268      10333.755        0.03211
        15731.5       -999.250         -0.270       -999.250         43.267      10262.711        0.03209
        15732.0       -999.250         -0.265       -999.250         43.266      10191.668        0.03207
        15732.5       -999.250         -0.261       -999.250         43.265      10159.157        0.03205
        15733.0       -999.250         -0.256       -999.250         43.264      10151.078        0.03203
        15733.5       -999.250         -0.251       -999.250         43.263      10142.999        0.03201
        15734.0       -999.250         -0.247       -999.250         43.262      10134.920        0.03199
        15734.5       -999.250         -0.242       -999.250         43.262      10126.840        0.03197
