#--------------------------------------------------#
#-------------------ENVERUS, INC.------------------#
#------------------WWW.ENVERUS.COM-----------------#
#------------------COPYRIGHT 2020------------------#
#--------------------------------------------------#
#THIS FILE MAY BE USED ONLY IN ACCORDANCE WITH A CURRENT SUBSCRIPTION AGREEMENT BETWEEN
#THE USER AND ENVERUS, INC. NO PART OF THIS FILE MAY BE REPRODUCED, USED, COPIED,
#MODIFIED, PROPAGATED, OR DISTRIBUTED EXCEPT IN ACCORDANCE WITH THE SUBSCRIPTION
#AGREEMENT. UNAUTHORIZED USE OR DISTRIBUTION OF ALL OR ANY PART OF THIS FILE MAY VIOLATE
#COPYRIGHT, TRADEMARK, AND/OR OTHER LAWS AND IS SUBJECT TO CIVIL AS WELL AS CRIMINAL
#SANCTIONS.
#--------------------------------------------------#
#THIS FILE IS PROVIDED "AS-IS" AND ALL WARRANTIES ARE EXPRESSLY DISCLAIMED, WHETHER
#EXPRESS, ORAL, IMPLIED, STATUTORY OR OTHERWISE, INCLUDING ANY IMPLIED WARRANTY OF FITNESS
#FOR A PARTICULAR PURPOSE, MERCHANTABILITY, TITLE OR NON-INFRINGEMENT, AND ANY WARRANTIES
#ARISING BY VIRTUE OF CUSTOM OF TRADE OR COURSE OF DEALING.  FURTHER, ENVERUS, INC.
#AND ITS LICENSORS DO NOT REPRESENT OR WARRANT THAT THIS FILE WILL MEET USER'S
#REQUIREMENTS OR ARE SUITABLE FOR USER'S NEEDS OR THAT THE DATA OR RESULTS PROVIDED IN
#CONJUNCTION THEREWITH ARE CORRECT, ACCURATE, TIMELY OR RELIABLE. THESE DISCLAIMERS SHALL
#APPLY REGARDLESS OF ANY FAILURE OF ESSENTIAL PURPOSE OF ANY LIMITED REMEDY.  SOME
#JURISDICTIONS DO NOT ALLOW THE EXCLUSION OF CERTAIN WARRANTIES SO SOME OF THE ABOVE
#EXCLUSIONS MAY NOT APPLY. IN NO EVENT SHALL ENVERUS, INC. OR ANY OF ITS AFFILIATES
#BE LIABLE UNDER ANY LEGAL THEORY, WHETHER IN TORT (INCLUDING WITHOUT LIMITATION
#NEGLIGENCE), CONTRACT, STRICT LIABILITY, STATUTORY OR OTHERWISE, FOR ANY SPECIAL,
#INCIDENTAL, CONSEQUENTIAL, EXEMPLARY, PUNITIVE OR INDIRECT DAMAGE OF ANY KIND, INCLUDING
#WITHOUT LIMITATION LOSS OF REVENUE, PROFITS, GOODWILL, USE, AND/OR DATA OR THE COST OF
#PROCUREMENT OF SUBSTITUTE GOODS OR SERVICES, EVEN IF APPRISED OF THE POSSIBILITY OF SUCH
#DAMAGES IN ADVANCE.
#--------------------------------------------------#

~VERSION INFORMATION
VERS. 2.0 : CWLS LOG ASCII STANDARD - VERSION 2.0
WRAP.  NO : ONE LINE PER DEPTH STEP
~WELL INFORMATION
#MNEMONIC     .UNIT              VALUE :DESCRIPTION
STRT       .FT                25 :START DEPTH
STOP       .FT                17136 :STOP DEPTH
STEP       .FT                   0.500 :STEP
NULL       .                  -999.250 :NULL
UWI        .              42389302310000 :UNIQUE WELL ID
API        .              42389302310000 :API NUMBER
COMP       .         EDISTO RESOURCES CORPORATION :COMPANY
WELL       .        WIGGINS  ORLA  1 :WELL
DATE       .                            :LOG DATE
~CURVE INFORMATION
#MNEMONIC     .UNIT      API CODE :CURVE DESCRIPTION
DEPTH       .FT                      :MEASURED DEPTH
CAL.INCH        UNKNOWN   :CAL
ILS.OHM        UNKNOWN   :ILS
SP.MV        UNKNOWN   :SP
DT.US/FT        UNKNOWN   :DT
GR.API        UNKNOWN   :GR
ILD.OHM        UNKNOWN   :ILD
~A    DEPTH    CAL    ILS    SP    DT    GR    ILD
# ...
 9646     13.201   6.389   -11.385   73.855   44.121   9.419
 9646.5     13.191   6.391   -11.709   73.498   45.184   9.617
 9647     13.181   6.363   -12.033   73.142   48.157   9.526
 9647.5     13.172   6.286   -12.357   72.785   48.08   9.435
 9648     13.162   6.209   -12.84   72.429   47.537   9.345
 9648.5     13.167   6.133   -13.333   72.693   46.994   9.254
 9649     13.174   6.056   -13.827   73.422   46.451   9.034
 9649.5     13.181   5.98   -14.32   74.152   45.909   8.789
 9650     13.187   5.903   -14.813   73.14   45.404   8.545
 9650.5     13.194   5.827   -15.306   71.911   48.627   8.301
 9651     13.201   5.75   -15.799   70.789   50.657   8.033
 9651.5     13.207   5.674   -16.292   69.816   52.502   8.228
 9652     13.212   5.597   -16.785   69.659   56.336   8.195
 9652.5     13.198   5.521   -17.278   71.049   59.903   7.524
 9653     13.185   5.444   -17.771   71.704   57.121   6.899
 9653.5     13.172   5.368   -18.264   71.627   54.339   6.706
 9654     13.158   5.291   -18.757   71.549   51.556   6.513
 9654.5     13.145   5.272   -19.251   72.669   49.858   6.32
 9655     13.132   5.459   -19.721   72.911   50.167   6.388
 9655.5     13.118   5.647   -20.125   72.85   49.083   6.831
 9656     13.105   5.835   -20.53   72.788   47.253   7.275
 9656.5     13.091   6.023   -20.935   72.422   45.423   7.455
 9657     13.078   6.029   -21.34   71.782   46.698   8.207
 9657.5     13.065   5.894   -21.744   69.51   49.514   7.859
 9658     13.051   5.758   -22.149   66.628   50.015   7.318
 9658.5     13.063   5.622   -22.554   66.417   50.134   6.381
 9659     13.08   5.486   -22.958   66.207   50.253   5.689
 9659.5     13.097   5.35   -23.363   68.912   54.038   5.554
 9660     13.114   5.214   -23.768   69.389   57.983   5.419
 9660.5     13.131   5.078   -24.172   68.64   57.849   5.284
 9661     13.148   5.074   -24.577   67.891   54.845   5.144
 9661.5     13.165   5.075   -24.982   67.141   50.657   5.005
 9662     13.182   5.541   -25.386   67.355   46.469   5.122
 9662.5     13.2   6.602   -25.791   67.623   42.321   5.738
 9663     13.206   7.663   -26.196   67.891   41.752   7.104
 9663.5     13.201   8.724   -26.601   68.404   42.716   8.23
 9664     13.196   9.185   -27.005   69.044   45.466   8.963
 9664.5     13.19   7.833   -27.41   69.684   48.216   8.393
 9665     13.185   8.298   -27.815   70.323   50.083   7.804
 9665.5     13.18   8.764   -28.219   69.891   50.167   7.78
 9666     13.175   9.229   -28.624   68.887   51.93   8.598
 9666.5     13.169   9.695   -29.029   68.807   57.969   9.008
 9667     13.164   10.16   -29.433   70.298   63.728   11.307
 9667.5     13.159   10.626   -29.838   72.152   65.715   11.347
 9668     13.154   10.945   -30.243   72.523   67.702   11.492
 9668.5     13.141   11.197   -30.648   72.293   69.323   12.072
 9669     13.127   11.448   -30.995   72.063   69.787   12.651
 9669.5     13.113   11.699   -31.156   72.121   70.251   12.9
 9670     13.098   11.945   -31.316   72.386   70.716   12.753
 9670.5     13.084   11.803   -31.476   72.651   79.35   12.667
 9671     13.069   11.661   -31.636   75.965   79.792   12.977
 9671.5     13.055   11.519   -31.796   75.297   80.234   13.07
 9672     13.041   11.377   -31.956   74.084   73.334   12.385
 9672.5     13.026   11.235   -32.117   69.166   63.632   11.694
 9673     13.012   11.379   -32.277   63.692   52.378   10.908
 9673.5     12.998   11.718   -32.437   61.661   46.823   11.18
 9674     12.983   12.056   -32.597   62.217   46.114   11.578
 9674.5     12.969   12.391   -32.757   66.609   46.688   11.976
 9675     12.974   12.437   -32.917   66.796   50.286   12.373
 9675.5     13.004   12.482   -33.078   65.305   50.889   12.45
 9676     13.034   12.527   -33.126   64.518   50.887   12.48
 9676.5     13.064   12.572   -33.094   65.6   51.32   12.51
 9677     13.094   12.618   -33.063   66.683   52.955   12.54
 9677.5     13.124   15.82   -33.031   68.074   57.99   13.913
 9678     13.143   19.111   -33   72.394   64.088   16.064
 9678.5     13.117   21.835   -32.968   75.544   70.185   23.146
 9679     13.091   22.102   -32.936   74.935   73.561   32.506
 9679.5     13.065   22.369   -32.905   74.326   70.473   33.221
 9680     13.039   22.301   -32.873   72.702   65.238   30.041
 9680.5     13.013   21.487   -32.842   70.983   60.003   28.108
 9681     12.987   23.795   -32.779   69.478   56.724   30.315
 9681.5     12.961   27.021   -32.674   70.108   55.707   35.847
 9682     12.935   27.59   -32.569   70.739   55.509   36.577
 9682.5     12.944   28.159   -32.464   71.134   55.226   36.863
 9683     12.96   28.728   -32.36   70.588   51.326   32.006
 9683.5     12.975   29.297   -32.255   70.043   50.951   29.851
 9684     12.991   29.866   -32.15   69.497   53.231   29.829
 9684.5     13.007   30.435   -32.045   68.951   56.145   30.646
 9685     13.022   31.004   -31.941   69.501   58.847   31.463
 9685.5     13.038   32.855   -31.836   70.401   63.824   32.28
 9686     13.054   35.72   -31.731   72.58   67.956   39.774
 9686.5     13.07   38.371   -31.627   78.003   78.611   50.344
 9687     13.085   38.381   -31.522   79.493   81.989   55.595
 9687.5     13.071   38.39   -31.417   78.269   79.084   58.312
 9688     13.042   38.631   -31.337   77.045   71.496   57.978
 9688.5     13.014   39.85   -31.256   75.822   63.907   55.425
 9689     13.006   41.069   -31.176   74.653   60.524   52.871
 9689.5     13.004   42.287   -31.095   73.511   59.707   50.719
 9690     13.001   43.506   -31.015   72.369   58.89   53.907
 9690.5     12.998   44.724   -30.935   72.086   58.073   62.489
 9691     12.995   45.943   -30.854   72.56   57.936   75.496
 9691.5     12.992   47.162   -30.774   71.001   59.375   88.92
 9692     12.99   47.437   -30.693   69.443   56.741   93.199
 9692.5     12.987   45.553   -30.613   67.885   53.934   90.384
 9693     12.984   43.669   -30.533   66.327   54.842   87.569
 9693.5     12.981   41.785   -30.452   68.301   56.525   76.619
 9694     12.984   39.901   -30.372   72.908   59.234   61.708
 9694.5     12.996   38.017   -30.292   74.66   64.108   46.797
 9695     13.007   36.133   -30.211   72.487   67.527   36.496
 9695.5     13.019   34.249   -30.131   70.314   66.24   34.916
 9696     13.031   35.178   -30.05   68.142   61.531   39.596
 9696.5     13.042   37.478   -29.97   72.07   69.089   44.276
 9697     13.054   39.778   -29.856   77.047   77.659   48.7
 9697.5     13.065   42.078   -29.741   82.024   86.229   52.159
 9698     13.077   43.78   -29.625   79.845   94.799   58.316
 9698.5     13.089   44.56   -29.509   76.503   89.563   70.436
 9699     13.1   45.34   -29.394   74.67   76.409   81.288
 9699.5     13.112   46.119   -29.278   72.69   65.589   70.46
 9700     13.124   46.899   -29.162   69.774   55.493   55.385
 9700.5     13.135   47.917   -29.046   66.857   45.812   50.793
 9701     13.147   49.35   -28.931   63.941   38.687   50.231
 9701.5     13.159   50.783   -28.815   61.025   38.117   70.758
 9702     13.154   52.216   -28.06   58.108   40.94   99.648
 9702.5     13.133   49.031   -27.233   62.344   45.403   95.476
 9703     13.113   44.515   -26.406   67.077   50.713   83.995
 9703.5     13.092   39.999   -25.578   71.81   56.114   52.677
 9704     13.071   35.482   -24.88   73.085   61.516   36.568
 9704.5     13.056   36.486   -24.314   69.498   60.82   33.584
 9705     13.055   46.841   -23.748   65.91   60.161   48.188
 9705.5     13.055   57.197   -23.181   66.002   61.606   79.196
 9706     13.055   63.718   -22.615   68.582   75.206   110.204
 9706.5     13.055   67.677   -22.049   71.162   83.472   141.526
 9707     13.055   71.636   -21.483   73.742   86.033   174.504
 9707.5     13.054   71.927   -20.916   74.452   81.011   207.482
 9708     13.054   66.476   -20.363   73.456   74.997   173.57
 9708.5     13.054   61.025   -19.821   73.819   70.031   136.54
 9709     13.054   55.574   -19.28   74.182   67.875   105.577
 9709.5     13.053   50.123   -18.739   71.493   65.718   74.614
