#--------------------------------------------------#
#-------------------ENVERUS, INC.------------------#
#------------------WWW.ENVERUS.COM-----------------#
#------------------COPYRIGHT 2020------------------#
#--------------------------------------------------#
#THIS FILE MAY BE USED ONLY IN ACCORDANCE WITH A CURRENT SUBSCRIPTION AGREEMENT BETWEEN
#THE USER AND ENVERUS, INC. NO PART OF THIS FILE MAY BE REPRODUCED, USED, COPIED,
#MODIFIED, PROPAGATED, OR DISTRIBUTED EXCEPT IN ACCORDANCE WITH THE SUBSCRIPTION
#AGREEMENT. UNAUTHORIZED USE OR DISTRIBUTION OF ALL OR ANY PART OF THIS FILE MAY VIOLATE
#COPYRIGHT, TRADEMARK, AND/OR OTHER LAWS AND IS SUBJECT TO CIVIL AS WELL AS CRIMINAL
#SANCTIONS.
#--------------------------------------------------#
#THIS FILE IS PROVIDED "AS-IS" AND ALL WARRANTIES ARE EXPRESSLY DISCLAIMED, WHETHER
#EXPRESS, ORAL, IMPLIED, STATUTORY OR OTHERWISE, INCLUDING ANY IMPLIED WARRANTY OF FITNESS
#FOR A PARTICULAR PURPOSE, MERCHANTABILITY, TITLE OR NON-INFRINGEMENT, AND ANY WARRANTIES
#ARISING BY VIRTUE OF CUSTOM OF TRADE OR COURSE OF DEALING.  FURTHER, ENVERUS, INC.
#AND ITS LICENSORS DO NOT REPRESENT OR WARRANT THAT THIS FILE WILL MEET USER'S
#REQUIREMENTS OR ARE SUITABLE FOR USER'S NEEDS OR THAT THE DATA OR RESULTS PROVIDED IN
#CONJUNCTION THEREWITH ARE CORRECT, ACCURATE, TIMELY OR RELIABLE. THESE DISCLAIMERS SHALL
#APPLY REGARDLESS OF ANY FAILURE OF ESSENTIAL PURPOSE OF ANY LIMITED REMEDY.  SOME
#JURISDICTIONS DO NOT ALLOW THE EXCLUSION OF CERTAIN WARRANTIES SO SOME OF THE ABOVE
#EXCLUSIONS MAY NOT APPLY. IN NO EVENT SHALL ENVERUS, INC. OR ANY OF ITS AFFILIATES
#BE LIABLE UNDER ANY LEGAL THEORY, WHETHER IN TORT (INCLUDING WITHOUT LIMITATION
#NEGLIGENCE), CONTRACT, STRICT LIABILITY, STATUTORY OR OTHERWISE, FOR ANY SPECIAL,
#INCIDENTAL, CONSEQUENTIAL, EXEMPLARY, PUNITIVE OR INDIRECT DAMAGE OF ANY KIND, INCLUDING
#WITHOUT LIMITATION LOSS OF REVENUE, PROFITS, GOODWILL, USE, AND/OR DATA OR THE COST OF
#PROCUREMENT OF SUBSTITUTE GOODS OR SERVICES, EVEN IF APPRISED OF THE POSSIBILITY OF SUCH
#DAMAGES IN ADVANCE.
#--------------------------------------------------#

# EXPORTED FROM TRANSFORM SOFTWARE 5.2.0 ON 31-MAY-2019 BY USER BRIAN.UMLANG
# DI TRANSFORM - A PRODUCT OF DRILLINGINFO, INC. - WWW.DRILLINGINFO.COM
#
~VERSION INFORMATION
 VERS.        2.0 : LAS ASCII STANDARD - VERSION 2.0
 WRAP.         NO : ONE LINE PER DEPTH STEP

~WELL INFORMATION
#MNEM.UNIT       DATA TYPE       INFORMATION
#---------       ---------       -----------
 STRT.FT                 256 : START DEPTH
 STOP.FT                4706 : STOP DEPTH
 STEP.FT                 0.5 : STEP LENGTH
 NULL.               -999.25 : NULL VALUE
 UWI.         42301312890000 : UNIQUE WELL ID
 API.         42301312890000 : WELL IDENTIFIER
 COMP.                       : COMPANY
 WELL.  42301312890000_API14 : WELL NAME
 FLD.                        : FIELD NAME
 LOC.                        : WELL LOCATION
 CNTY.                       : COUNTY
 STAT.                       : STATE OR PROVINCE
 CTRY.                       : COUNTRY
 SRVC.                       : SERVICE COMPANY
 DATE.                       : DATE

~CURVE INFORMATION
#MNEM.UNIT       API CODE       CURVE DESCRIPTION
#---------       --------       -----------------
 DEPT.FT          : <MEASURED DEPTH>
 CAL.IN           : CALIPER
 DPHI.%           : DENSITY POROSITY
 DT.US/FT         : SONIC
 GR.GAPI          : GAMMA RAY
 ILD.OHMM         : DEEP RESISTIVITY
 ILS.OHMM         : SHALLOW RESISTIVITY
 NPHI.%           : NEUTRON POROSITY
 PE.B/ELEC        : PHOTOELECTRIC FACTOR
 RHOB.G/CM3       : DENSITY

~PARAMETER INFORMATION
#MNEM.UNIT       VALUE       DESCRIPTION
#---------       -----       -----------
 EKB.FT      2822 : ELEVATION ABOVE MSL

~A      DEPT         CAL        DPHI          DT          GR         ILD         ILS        NPHI          PE        RHOB
# ...
      4041.5         9.3     16.8205     77.1543     77.8673      7.2552      4.8709     20.6841      2.5251      2.4272
        4042         9.3     15.7348     76.8193     75.1574      7.7167      5.2401     19.3402      2.5251      2.4357
      4042.5      9.2492     14.9586     75.2624     72.1557      9.0695      5.8297     18.3441      2.5651       2.458
        4043      9.1879     14.3328     73.9613     73.1762     10.2062      6.6531     17.9648      2.6253      2.4715
      4043.5        9.16     13.6027       72.66     78.8879     12.3795      7.6106      18.319      2.6534      2.4808
        4044      9.1455     12.4985     71.8399     87.3247       14.32      9.1613     18.9805      2.7255      2.4901
      4044.5         9.1     11.6512     71.1004     89.2216     16.1107     10.1998     19.1411      2.7655      2.5148
        4045       9.023     11.3116     70.2315     87.2176     17.0852     10.6509     18.3227      2.8578      2.5235
      4045.5      8.9218     12.0379     69.1147     78.6226     16.6422     10.1765     17.4688      2.9259      2.5275
        4046        8.92     13.6298     69.0269     71.6734     15.2979      9.1131     17.5389      2.9259      2.5141
      4046.5        8.92     14.5055     69.7912     68.7785     12.9355      8.3288     17.8873      2.8295      2.4776
        4047        8.92     14.4254     70.5154     66.8923      11.685      7.6335     17.4456       2.728      2.4814
      4047.5        8.92     14.3098     69.8943     63.8804      12.261       7.892     15.1654      2.7255      2.4835
        4048        8.86     12.7946     68.9321      61.213     13.3919      9.1105     12.8882      2.7255      2.4908
      4048.5        8.82     11.9421     66.7069      60.479     16.0397     10.3767     11.9753      2.7655      2.5087
        4049        8.82     11.5574     65.4295      60.479     17.9719     11.5773     11.7525      2.7655      2.5165
      4049.5      8.7519     11.3467     65.1304     62.8378     18.5243     11.7938     12.0474      2.7655      2.5244
        4050        8.74     11.3891     65.3646     65.9342     18.3459     11.7593     12.9528       2.771      2.5278
      4050.5        8.74     12.0632       66.41     73.0509     17.1297     11.2151     14.5656      2.7856      2.5276
        4051      8.7203      13.079     67.7833      76.373      15.486     10.0651      15.236      2.7655      2.5079
      4051.5       8.707     13.6169     69.0159     78.1787     14.1361      9.2304     15.7995      2.7455        2.49
        4052         8.7     14.1085     69.5403     79.8697     13.6785      9.0572     16.3593      2.7455      2.4862
      4052.5        8.66     13.7842     69.6593     82.9259     13.4274      8.7676     17.2317      2.7133      2.4858
        4053        8.64     13.1638     69.5743     85.7174     13.7528      9.0987     17.5654      2.6854        2.49
      4053.5        8.62     12.6332     69.3687     86.5269      14.545       9.675     17.5462      2.7054      2.5007
        4054         8.6     12.1769     68.9165     86.5269     15.5261     10.2324     16.9234      2.7054      2.5095
      4054.5        8.58     11.6249     68.3612     86.8263     16.5733     10.9225     16.0548       2.743      2.5155
        4055        8.56     11.0938     67.7066     87.4251     17.8167     11.6496     14.9198      2.8245      2.5245
      4055.5        8.54     10.6019     67.2004      88.024     19.5625     12.6671      14.246      2.8858      2.5332
        4056        8.52     10.2279      66.842      88.024     21.2812     13.7867     13.5621      2.9058      2.5403
      4056.5        8.52      9.9355     66.5265     87.5108     22.9597     14.3131      13.432      2.9058      2.5441
        4057      8.4934      9.7417     66.3434     85.7983     25.4193     15.7092     13.1369      2.8858      2.5476
      4057.5        8.46      9.4337      66.191     84.1817      27.657     17.2414     12.7431      2.8858      2.5534
        4058        8.46      8.8045       65.82     84.0997     30.6372     18.0778     12.1817      2.8657      2.5602
      4058.5        8.46      8.2214     65.4609     88.5659     33.6255     20.0132     11.8937      2.8657      2.5723
        4059        8.46      7.8492     65.3576    101.4079      37.371     22.3522     12.4187      2.8858      2.5818
      4059.5        8.44      8.2631     66.0041    120.6802     45.0548     25.9798     13.9868      2.8858      2.5814
        4060        8.44      9.2674     67.0535    143.9254     58.9618     33.1951     16.2719      2.8858      2.5741
      4060.5        8.44     11.1561     70.0986    173.8568     82.3841     45.0106     20.5144      2.8457      2.5415
        4061        8.44      13.573     75.5547    190.5174    120.2433     67.3875     22.9933      2.8807      2.5013
      4061.5        8.44     14.9251     78.7575    193.5121     181.786     101.535     24.7006      3.0022      2.4736
        4062      8.4516     15.0754     78.8756    185.2295    264.6381    156.3419     23.8758      3.0661      2.4625
      4062.5        8.44     14.4178     78.3789    167.1271    375.8839    223.5949     19.8817      3.0661      2.4761
        4063        8.44      13.315     75.5769    159.0004    511.3308    318.9278     18.5123      3.0661      2.4887
      4063.5        8.46     12.1203     71.2976    155.1425    643.1129    424.0241     17.6169      3.0461      2.5077
        4064        8.46     10.9045     69.4078    147.6046    874.3305    531.5906     16.5103      3.0461      2.5298
      4064.5        8.48      10.264     68.7305    148.0549   1017.2765    620.0042     16.2468      3.0461      2.5393
        4065        8.52     10.5491     69.0021    152.7523   1075.0095    674.2021     18.6203      3.0204      2.5443
      4065.5        8.54     11.5618     70.3766    160.4156   1035.8949    640.3651     21.9295      2.9459      2.5242
        4066        8.54     12.0704     72.5237    169.4873    951.2488    560.7042     23.0724      2.9459       2.518
      4066.5        8.54     11.9007      74.587    179.7742    733.9275    472.2267     23.6892      3.0156      2.5166
        4067      8.6182     11.7889     76.1612    190.3849    547.8965    341.5601     23.3446      3.1172      2.5184
      4067.5        8.64     11.8291     76.6693    190.4192    380.0864    237.7332     22.1518      3.2187      2.5186
        4068      8.6937     11.7319     76.8337    191.0439    261.6181    134.2299     20.8381      3.2465      2.5194
      4068.5       8.735     11.5685     76.4154    151.5584    151.0204     84.1983      18.486      3.1313      2.5214
        4069      8.7962     11.5699     74.8985    113.6961     63.0609       30.76     16.0235      3.0298      2.5225
      4069.5         8.8     11.6281     71.6375     87.2073     27.1536     19.2641     12.5648      2.8457      2.5226
        4070        8.86      11.736      69.761     63.7866     22.2784     14.9268     10.5994      2.7455      2.5216
      4070.5        8.86     12.2459      67.922     56.7709     17.6219     11.5392      9.8762      2.7455      2.5192
        4071        8.86     13.4856     67.8465     56.5868     14.7711      9.3908     10.9541      2.7655      2.4866
      4071.5      8.8624     14.9198     68.2022     57.3367     11.9896      8.1206     11.9563      2.7024      2.4437
        4072        8.88     17.6115     71.2845     58.8516     10.2552       6.524     14.7066       2.641      2.4252
      4072.5      8.8812     17.1753     73.5467      58.982      8.3763      5.7084     15.1713      2.5651      2.4173
        4073      8.9661     16.7729      74.866     58.6826      7.8192      5.2183     15.2592      2.5251      2.4418
      4073.5      9.0673      16.802     74.6094     57.8613      7.7587      5.2183     14.3162      2.5251      2.4544
        4074      9.1685     15.7688     73.1358     56.3464      8.4836      5.6956     13.4885       2.505      2.4597
      4074.5        9.26     16.5874      72.188     55.1309      8.9316      5.8863     13.6454       2.505      2.4426
