#--------------------------------------------------#
#-------------------ENVERUS, INC.------------------#
#------------------WWW.ENVERUS.COM-----------------#
#------------------COPYRIGHT 2020------------------#
#--------------------------------------------------#
#THIS FILE MAY BE USED ONLY IN ACCORDANCE WITH A CURRENT SUBSCRIPTION AGREEMENT BETWEEN
#THE USER AND ENVERUS, INC. NO PART OF THIS FILE MAY BE REPRODUCED, USED, COPIED,
#MODIFIED, PROPAGATED, OR DISTRIBUTED EXCEPT IN ACCORDANCE WITH THE SUBSCRIPTION
#AGREEMENT. UNAUTHORIZED USE OR DISTRIBUTION OF ALL OR ANY PART OF THIS FILE MAY VIOLATE
#COPYRIGHT, TRADEMARK, AND/OR OTHER LAWS AND IS SUBJECT TO CIVIL AS WELL AS CRIMINAL
#SANCTIONS.
#--------------------------------------------------#
#THIS FILE IS PROVIDED "AS-IS" AND ALL WARRANTIES ARE EXPRESSLY DISCLAIMED, WHETHER
#EXPRESS, ORAL, IMPLIED, STATUTORY OR OTHERWISE, INCLUDING ANY IMPLIED WARRANTY OF FITNESS
#FOR A PARTICULAR PURPOSE, MERCHANTABILITY, TITLE OR NON-INFRINGEMENT, AND ANY WARRANTIES
#ARISING BY VIRTUE OF CUSTOM OF TRADE OR COURSE OF DEALING.  FURTHER, ENVERUS, INC.
#AND ITS LICENSORS DO NOT REPRESENT OR WARRANT THAT THIS FILE WILL MEET USER'S
#REQUIREMENTS OR ARE SUITABLE FOR USER'S NEEDS OR THAT THE DATA OR RESULTS PROVIDED IN
#CONJUNCTION THEREWITH ARE CORRECT, ACCURATE, TIMELY OR RELIABLE. THESE DISCLAIMERS SHALL
#APPLY REGARDLESS OF ANY FAILURE OF ESSENTIAL PURPOSE OF ANY LIMITED REMEDY.  SOME
#JURISDICTIONS DO NOT ALLOW THE EXCLUSION OF CERTAIN WARRANTIES SO SOME OF THE ABOVE
#EXCLUSIONS MAY NOT APPLY. IN NO EVENT SHALL ENVERUS, INC. OR ANY OF ITS AFFILIATES
#BE LIABLE UNDER ANY LEGAL THEORY, WHETHER IN TORT (INCLUDING WITHOUT LIMITATION
#NEGLIGENCE), CONTRACT, STRICT LIABILITY, STATUTORY OR OTHERWISE, FOR ANY SPECIAL,
#INCIDENTAL, CONSEQUENTIAL, EXEMPLARY, PUNITIVE OR INDIRECT DAMAGE OF ANY KIND, INCLUDING
#WITHOUT LIMITATION LOSS OF REVENUE, PROFITS, GOODWILL, USE, AND/OR DATA OR THE COST OF
#PROCUREMENT OF SUBSTITUTE GOODS OR SERVICES, EVEN IF APPRISED OF THE POSSIBILITY OF SUCH
#DAMAGES IN ADVANCE.
#--------------------------------------------------#

# EXPORTED FROM TRANSFORM SOFTWARE 5.2.0 ON 31-MAY-2019 BY USER BRIAN.UMLANG
# DI TRANSFORM - A PRODUCT OF DRILLINGINFO, INC. - WWW.DRILLINGINFO.COM
#
~VERSION INFORMATION
 VERS.        2.0 : LAS ASCII STANDARD - VERSION 2.0
 WRAP.         NO : ONE LINE PER DEPTH STEP

~WELL INFORMATION
#MNEM.UNIT       DATA TYPE       INFORMATION
#---------       ---------       -----------
 STRT.FT                 256 : START DEPTH
 STOP.FT                4706 : STOP DEPTH
 STEP.FT                 0.5 : STEP LENGTH
 NULL.               -999.25 : NULL VALUE
 UWI.         42301312890000 : UNIQUE WELL ID
 API.         42301312890000 : WELL IDENTIFIER
 COMP.                       : COMPANY
 WELL.  42301312890000_API14 : WELL NAME
 FLD.                        : FIELD NAME
 LOC.                        : WELL LOCATION
 CNTY.                       : COUNTY
 STAT.                       : STATE OR PROVINCE
 CTRY.                       : COUNTRY
 SRVC.                       : SERVICE COMPANY
 DATE.                       : DATE

~CURVE INFORMATION
#MNEM.UNIT       API CODE       CURVE DESCRIPTION
#---------       --------       -----------------
 DEPT.FT          : <MEASURED DEPTH>
 CAL.IN           : CALIPER
 DPHI.%           : DENSITY POROSITY
 DT.US/FT         : SONIC
 GR.GAPI          : GAMMA RAY
 ILD.OHMM         : DEEP RESISTIVITY
 ILS.OHMM         : SHALLOW RESISTIVITY
 NPHI.%           : NEUTRON POROSITY
 PE.B/ELEC        : PHOTOELECTRIC FACTOR
 RHOB.G/CM3       : DENSITY

~PARAMETER INFORMATION
#MNEM.UNIT       VALUE       DESCRIPTION
#---------       -----       -----------
 EKB.FT      2822 : ELEVATION ABOVE MSL

~A      DEPT         CAL        DPHI          DT          GR         ILD         ILS        NPHI          PE        RHOB
# ...
        3874     10.0348     23.0244     83.1801     62.8522      4.6568      2.6956     24.6106      2.4449      2.3451
      3874.5     10.0348     21.9247     82.3248     63.7683      4.8455      2.8246     23.9859       2.485      2.3615
        3875     10.0348     20.7699     81.4442     63.7725      4.9729      2.8839     23.4388       2.505      2.3752
      3875.5     10.0348     20.3537     81.0099     63.7725      5.1225      2.9928     23.3157       2.485       2.382
        3876     10.0348     20.3116     81.2156     62.6503      5.0752      2.9108      23.273      2.4449      2.3825
      3876.5     10.0348     20.3116     81.6008      60.378      5.0752      2.9379     22.5634      2.4248      2.3836
        3877     10.0348     19.8915     81.3019     57.9986      5.0752      2.9102     20.2077      2.4248      2.3933
      3877.5     10.0348     18.7177     78.9939     57.2887      5.1712      2.9658     19.5372       2.485      2.4089
        3878     10.0348      17.848     78.1925     60.8707      5.5749      3.1659     19.4567      2.5305      2.4201
      3878.5     10.0348     17.4957     77.9502     67.4021      6.0026      3.2868     19.9338      2.5651      2.4333
        3879     10.0348     16.7758     77.8682     77.2805      6.2898      3.5085     20.5547      2.5651      2.4464
      3879.5     10.0348     15.8002     77.7862     84.5682      6.3982      3.5689     20.9926      2.5651      2.4517
        3880     10.0348     15.7908     77.8357     84.3564      6.3838       3.536     21.2532      2.5651      2.4512
      3880.5     10.0348     17.0871     78.0949     75.6075      6.2063      3.4941     21.4286      2.5451      2.4279
        3881     10.0348     18.2996     78.9472     65.2833        5.69      3.3451     21.2063      2.5316      2.4119
      3881.5     10.0348     19.0149     79.8618     58.8427      5.2791      3.1238     21.0592      2.4902       2.403
        3882     10.0348     19.5288     80.6369     56.6223      4.8979      2.9423     21.2935       2.485       2.394
      3882.5     10.0348      20.876      81.103      57.758      4.7126       2.831     21.3292      2.4449      2.3913
        3883     10.0348     19.8048     81.2603     60.1796      4.8236      2.9254     20.2814      2.4449      2.3972
      3883.5     10.0348     19.0237     80.7893     58.9639      5.2238      3.1347     19.0519      2.4449      2.4095
        3884     10.0348     18.0234     79.1313     58.0838      5.6827      3.4582     18.4909       2.485      2.4202
      3884.5     10.0348     17.4688     78.0961     58.8174      6.2023      3.6346     18.5239      2.4878      2.4308
        3885     10.0348      17.139     77.2659     63.6104      6.7016      3.8793     19.1742       2.505      2.4384
      3885.5     10.0348     16.4412     76.6034     70.3879       7.133       4.091     19.9476       2.505      2.4502
        3886     10.0348      15.546     76.1096       78.95      7.6141      4.3266     20.3967      2.5251      2.4655
      3886.5     10.0348     14.6909     75.5435     85.7298      8.1899      4.4993     20.6078      2.5651      2.4739
        3887     10.0348     14.5036     75.2336     86.3121      8.7567      4.8008     20.2826      2.6148      2.4761
      3887.5     10.0348     14.5845     75.1503     83.2798      9.2611       4.932     20.1408      2.6453      2.4765
        3888     10.0348     14.5787     75.0301     79.4926      9.6188      5.1679     20.1408      2.6453      2.4764
      3888.5     10.0348     14.2877     74.8261     76.8005      9.7084      5.2183     20.0741      2.6317      2.4797
        3889     10.0348     13.8794     74.5428     74.8699     10.0789       5.318     19.8216      2.6253      2.4852
      3889.5     10.0348     13.7265     74.3547     73.1207     10.3589      5.4197     18.7015      2.6253      2.4874
        3890     10.0348     13.7938     74.1003     71.6058     10.5527      5.5166     18.0845      2.5876      2.4884
      3890.5     10.0348     14.2386      74.158     71.8252     10.5527      5.4657     17.3788      2.5852       2.484
        3891     10.0348     14.6232     74.3517     72.4551     10.4342      5.4153     17.0056      2.5852      2.4789
      3891.5     10.0348      14.847     74.6827     73.6574      10.144      5.3654     17.0026      2.5852      2.4733
        3892     10.0348     15.0104     74.9727     74.5509      9.7084      5.2035       17.33      2.5881      2.4703
      3892.5     10.0348     15.1256     75.2761     74.5509      9.4422      5.0121     18.3289      2.6253      2.4683
        3893     10.0348     15.0452     75.5794     74.2515      9.0654      4.8277     19.2069      2.6052      2.4684
      3893.5     10.0384     14.9112     75.8524     74.6271      8.8593      4.6261     19.8189      2.5382      2.4703
        3894     10.0467     14.9889     76.2462     76.4414      8.2935      4.4993     19.9925       2.505      2.4682
      3894.5      10.055      15.364     76.6341     78.9104      8.1014      4.3546     20.1258      2.4649      2.4639
        3895     10.0633     15.7098     77.0333      81.033       7.918      4.2728     19.7525      2.4649      2.4593
      3895.5     10.0717      15.584     77.1944      83.453      7.9917      4.2805     19.4031      2.4248      2.4646
        3896     10.0759     14.8718     76.8642     87.0235      8.1914      4.4167      19.631      2.4385      2.4798
      3896.5     10.0661     13.8588     75.9177     91.6842      8.3161      4.3759     20.6665       2.485      2.4857
        3897     10.0552     14.3642     75.5511     91.7048      7.8088      4.1299      21.637      2.5414       2.484
      3897.5     10.0442     16.4869     76.6241       86.26      6.4133      3.5297     22.6275      2.5451      2.4449
        3898     10.0295     19.6637     78.6776      78.674      5.4145       2.933     22.8689      2.5261      2.4254
      3898.5      9.9917     21.2351     80.4183     67.3936       4.081      2.3533     22.4457      2.4847      2.4284
        3899      9.9539     21.7636     81.3648     57.9842      3.5057      2.0852     21.1724      2.4449      2.4189
      3899.5      9.9527     22.3493     81.7662     53.2934      3.2539      1.8664     20.2319      2.4419      2.3483
        3900      9.9527     22.5706     81.8437      52.994      3.1053      1.8146     20.0823      2.4248       2.338
      3900.5      9.9677     23.0057     81.8437     49.8242      3.0207      1.8146      21.337      2.4248      2.3343
        3901      9.9866     23.4266     82.5176     49.5292      3.0237      1.7978     22.5302      2.4048      2.3332
      3901.5       9.999     23.5041     83.3116     51.5474      3.0772      1.8315      22.837      2.4048      2.3379
        3902     10.0073     23.1325      83.619     51.6746      3.1404      1.8865     22.6676      2.4048      2.3431
      3902.5     10.0156     22.6509     83.5598     50.1999      3.2907      1.9226     21.1609      2.4048      2.3522
        3903     10.0239     22.1073     82.6525     49.4214      3.4803       1.996     20.5254      2.3848      2.3589
      3903.5     10.0322     21.4108     81.3454     49.5894      3.5689      2.0531     19.5997      2.3848      2.3662
        3904     10.0348      20.966     80.3529     51.4854      3.6695      2.0852     19.4069      2.3848      2.3698
      3904.5     10.0348     21.1588     79.7595     52.5793      3.6695       2.028     19.7928      2.3848      2.3627
        3905     10.0348     21.6725     80.6411     53.0938      3.7037      2.0852     20.3902      2.3848       2.353
      3905.5     10.0686     22.7558     82.3463     53.4983      3.7037      2.0852     21.0538      2.3647      2.3422
        3906     10.1535     22.9643     83.0325     52.8536      3.7573      2.0852     21.0363      2.3647      2.3423
      3906.5     10.1206      22.713     82.4317     51.9374      3.8081      2.0852     20.7523      2.3647      2.3485
        3907     10.0878     21.6688     81.2517     51.5199      3.8435      2.1046        20.9      2.3678      2.3628
