~Version Information
 VERS.                  2.0:   CWLS log ASCII Standard -VERSION 2.0
 WRAP.                   NO:   One line per depth step
~Well Information Block
#MNEM.UNIT     VALUE/NAME     DESCRIPTION
#---------     -----------    ---------------------------
 STRT.F              8800.0000: START DEPTH
 STOP.F             14300.0000: STOP DEPTH
 STEP.F                 0.5000: STEP DEPTH
 NULL.                 -999.25: NULL VALUE
 LOC .     336'' FSL & 729' FWL:  LOCATION
 FL6 .        API 42-389-36322:  LOCATIONLINE6
 FL4 .           ABSTRACT 3622:  LOCATIONLINE4
 FL3 .        T&P RR CO SURVEY:  LOCATIONLINE3
 FL2 .     SECTION 36, BLOCK 58 T2:  LOCATIONLINE2
 FL1 .     336'' FSL & 729' FWL:  LOCATIONLINE1
 DMF .                      KB:  DRILL MEAS FROM
 PDAT.                      GL:  PERMANENT DATUM
 CNTY.                  REEVES:  COUNTY NAME
 FLD .     FORD, WEST (WOLFCAMP):  FIELD NAME
 WELL.        AVA STATE 36 #2H:  WELL NAME
 COMP.     CAPITAN ENERGY INC.:  COMPANY
 DATE.             01-Nov-2017:  DATE
 SVCO.             Halliburton:  SERVICECONAME
 PROV.                   TEXAS:  PROVINCE
 STAT.                   TEXAS:  STATE NAME
 CTRY.           UNITED STATES:  COUNTRY NAME
 HIDE.                        :  WELLNAMEOPERAT
 BASI.                 PERMIAN:  BASIN
 UWI .            42-389-36322LAT:  UNIQUE WELL IDENTIFIER
 API .            42-389-36322LAT:  API NUMBER
 RANG.                     N/A:  RANGE
 TOWN.                     N/A:  TOWNSHIP
 SECT.                     N/A:  SECTION
 SON .               904399722:  JOB NUMBER
 SRVC.             Halliburton:  SERVICE COMPANY
 LMF .                      KB:  LOG MEASURED FROM
 EGL .ft             3011.0000:  GROUND ELEVATION
 BAP .ft                0.0000:  GL ELEV ONSHORE
 GVFD.g                 1.0000:  GRAVITY FIELD
 EKB .ft             3037.0000:  KB ELEVATION
 EDF .ft             3036.0000:  DF ELEVATION
~Curve Information Block
#MNEM.UNIT                 API CODE     Curve Description
#---------               -----------    ---------------------------
 DEPT.F                 00 000 000 000:  Depth
 CCL .V                 00 000 000 000:  Casing Collar Locator
 NPHI_OH.pu             00 000 000 000:  NPHI_OH
 NPHI_CHI.pu            00 000 000 000:  NPHI_CHI
 GR_CHI.api             00 000 000 000:  GR_CHI
 GR_OH.api              00 000 000 000:  GR_OH
 RHOB_OH.g/cc           00 000 000 000:  RHOB_OH
 RHOB_CHI.g/cc          00 000 000 000:  RHOB_CHI
 PE_CHI.b/e             00 000 000 000:  PE_CHI
 PE_OH.b/e              00 000 000 000:  PE_OH
 DTC_OH.uspf            00 000 000 000:  DTC_OH
 DTC_CHI.uspf           00 000 000 000:  DTC_CHI
 SPHI_CHI.pu            00 000 000 000:  Acou Porosity CHI
 RT10_OH.ohmm           00 000 000 000:  RT10_OH
 RT10_CHI.ohmm          00 000 000 000:  RT10_CHI
 RT30_OH.ohmm           00 000 000 000:  RT30_OH
 RT30_CHI.ohmm          00 000 000 000:  RT30_CHI
 RT90_OH.ohmm           00 000 000 000:  RT90_OH
 RT90_CHI.ohmm          00 000 000 000:  RT90_CHI
 SGF .cu                00 000 000 000:  Formation Sigma
 CRNF.NONE              00 000 000 000:  CM GrsCaptRatio
 RIN .NONE              00 000 000 000:  CM GrsInelRatio
#Other Information
#
#WARRANTY: Halliburton will use its best efforts to furnish customers with 
#accurate information and interpretations that are part of, and incident to, the services 
#provided.  However, Halliburton cannot and does not warrant the accuracy 
#or correctness of such information and interpretations.  Under no circumstances should any 
#such information or interpretation be relied upon as the sole basis for any drilling, 
#completion, production, or financial decision or any procedure involving any risk to the 
#safety of any drilling venture, drilling rig or its crew or any other third party.  The 
#Customer has full responsibility for all drilling, completion and production operation.  
#Halliburton makes no representations or warranties, either expressed or 
#implied, including, but not limited to, the implied warranties of merchantability or fitness 
#for a particular purpose, with respect to the services rendered.  In no event will 
#Halliburton be liable for failure to obtain any particular results or for 
#any damages, including, but not limited to, indirect, special or consequential damages, 
#resulting from the use of any information or interpretation provided by Halliburton.
#
~A    DEPT      CCL   NPHI_OH NPHI_CHI   GR_CHI   GR_OH   RHOB_OH RHOB_CHI  PE_CHI   PE_OH  DTC_OH  DTC_CHI SPHI_CHI RT10_OH  RT10_CHI RT30_OH  RT30_CHI RT90_OH  RT90_CHI   SGF    CRNF   RIN   
# ...
   13189.0000  0.0000 -999.25   12.6506 104.3435  -999.25 -999.25    2.5508  3.9127 -999.25 -999.25 69.7303  15.6500  -999.25  39.3583  -999.25  38.8309  -999.25  41.6742 24.5282 1.0724 1.0443
   13189.5000  0.0000 -999.25   12.6087 104.0171  -999.25 -999.25    2.5514  3.9187 -999.25 -999.25 69.7432  15.6600  -999.25  39.1932  -999.25  38.5346  -999.25  41.3209 24.7681 1.0749 1.0459
   13190.0000  0.0000 -999.25   12.7556 110.2008  -999.25 -999.25    2.5506  3.8954 -999.25 -999.25 70.0554  15.8800  -999.25  39.2413  -999.25  38.7187  -999.25  41.5093 25.0276 1.0763 1.0457
   13190.5000  0.0000 -999.25   12.6402  97.5379  -999.25 -999.25    2.5504  3.9107 -999.25 -999.25 69.9843  15.8300  -999.25  38.6258  -999.25  37.5115  -999.25  40.1404 25.3053 1.0712 1.0449
   13191.0000  0.0000 -999.25   12.7097  99.1517  -999.25 -999.25    2.5498  3.8966 -999.25 -999.25 70.1574  15.9500  -999.25  38.5428  -999.25  37.4073  -999.25  40.0114 25.3906 1.0616 1.0444
   13191.5000  0.0000 -999.25   12.7388 103.0957  -999.25 -999.25    2.5503  3.8983 -999.25 -999.25 70.3144  16.0600  -999.25  38.4555  -999.25  37.3142  -999.25  39.8773 25.2153 1.0545 1.0466
   13192.0000  0.0000 -999.25   12.6412 103.4859  -999.25 -999.25    2.5514  3.9013 -999.25 -999.25 70.1234  15.9300  -999.25  38.5590  -999.25  37.4434  -999.25  40.0296 24.8397 1.0479 1.0474
   13192.5000  0.0000 -999.25   12.5144 102.8643  -999.25 -999.25    2.5522  3.8986 -999.25 -999.25 69.7356  15.6500  -999.25  38.9136  -999.25  37.9565  -999.25  40.6469 24.5381 1.0485 1.0463
   13193.0000  0.0000 -999.25   12.6277 109.7320  -999.25 -999.25    2.5513  3.8735 -999.25 -999.25 69.6876  15.6200  -999.25  39.5424  -999.25  39.0952  -999.25  41.9709 24.3122 1.0555 1.0437
   13193.5000  0.0000 -999.25   12.7328 114.2904  -999.25 -999.25    2.5500  3.8417 -999.25 -999.25 69.6091  15.5700  -999.25  40.1306  -999.25  40.1431  -999.25  43.2057 24.1795 1.0638 1.0398
   13194.0000  0.0000 -999.25   12.7169 109.0718  -999.25 -999.25    2.5491  3.8407 -999.25 -999.25 69.5173  15.5000  -999.25  40.1396  -999.25  40.0896  -999.25  43.1758 24.1488 1.0727 1.0370
   13194.5000  0.0000 -999.25   12.9335 108.3653  -999.25 -999.25    2.5462  3.8124 -999.25 -999.25 69.8816  15.7600  -999.25  40.1222  -999.25  40.1327  -999.25  43.2393 23.9739 1.0723 1.0325
   13195.0000  0.0000 -999.25   13.1503 107.1435  -999.25 -999.25    2.5433  3.7837 -999.25 -999.25 70.2661  16.0300  -999.25  39.9911  -999.25  39.9916  -999.25  43.0869 23.8987 1.0630 1.0282
   13195.5000  0.0000 -999.25   13.3440 104.4226  -999.25 -999.25    2.5406  3.7662 -999.25 -999.25 70.5799  16.2500  -999.25  39.8184  -999.25  39.7716  -999.25  42.8460 23.7780 1.0522 1.0243
   13196.0000  0.0000 -999.25   13.4313 105.9757  -999.25 -999.25    2.5395  3.7479 -999.25 -999.25 70.6589  16.3100  -999.25  39.9833  -999.25  40.0958  -999.25  43.2316 23.7836 1.0381 1.0220
   13196.5000  0.0000 -999.25   13.2781 105.8397  -999.25 -999.25    2.5410  3.7570 -999.25 -999.25 70.2866  16.0400  -999.25  40.3016  -999.25  40.5535  -999.25  43.7820 23.7675 1.0337 1.0223
   13197.0000  0.0000 -999.25   13.0023 104.7875  -999.25 -999.25    2.5441  3.7856 -999.25 -999.25 69.7536  15.6700  -999.25  40.4960  -999.25  40.7458  -999.25  44.0136 23.6659 1.0312 1.0254
   13197.5000  0.0000 -999.25   12.7454 105.0448  -999.25 -999.25    2.5468  3.8000 -999.25 -999.25 69.1264  15.2200  -999.25  40.9077  -999.25  41.3215  -999.25  44.7059 23.5614 1.0289 1.0266
   13198.0000  0.0000 -999.25   12.8422 112.5090  -999.25 -999.25    2.5465  3.7824 -999.25 -999.25 69.1359  15.2300  -999.25  41.3370  -999.25  42.1443  -999.25  45.6488 23.4956 1.0297 1.0268
   13198.5000  0.0000 -999.25   12.7211 108.1814  -999.25 -999.25    2.5472  3.7975 -999.25 -999.25 68.8974  15.0600  -999.25  41.3293  -999.25  42.0419  -999.25  45.5542 23.5832 1.0305 1.0262
   13199.0000  0.0000 -999.25   12.2732  92.4517  -999.25 -999.25    2.5505  3.8647 -999.25 -999.25 68.3368  14.6700  -999.25  40.8333  -999.25  40.9225  -999.25  44.3027 23.7310 1.0336 1.0271
   13199.5000  0.0000 -999.25   12.4322  99.9442  -999.25 -999.25    2.5498  3.8445 -999.25 -999.25 68.5369  14.8100  -999.25  40.9843  -999.25  41.2817  -999.25  44.6828 23.8787 1.0385 1.0289
   13200.0000  0.0000 -999.25   12.5976 109.7274  -999.25 -999.25    2.5495  3.8258 -999.25 -999.25 68.7921  14.9900  -999.25  41.1186  -999.25  41.6648  -999.25  45.0760 23.9719 1.0393 1.0319
   13200.5000  0.0000 -999.25   12.7087 114.9598  -999.25 -999.25    2.5492  3.8172 -999.25 -999.25 69.0617  15.1800  -999.25  41.0554  -999.25  41.6690  -999.25  45.0446 24.0431 1.0406 1.0338
   13201.0000  0.0000 -999.25   12.6222 109.0835  -999.25 -999.25    2.5497  3.8396 -999.25 -999.25 69.0895  15.2000  -999.25  40.6343  -999.25  40.8715  -999.25  44.1177 24.1117 1.0363 1.0351
   13201.5000  0.0000 -999.25   12.5379 105.3490  -999.25 -999.25    2.5503  3.8516 -999.25 -999.25 69.0088  15.1400  -999.25  40.4491  -999.25  40.4900  -999.25  43.6814 24.0986 1.0339 1.0356
   13202.0000  0.0000 -999.25   12.8257 116.0646  -999.25 -999.25    2.5482  3.8071 -999.25 -999.25 69.4343  15.4400  -999.25  40.7897  -999.25  41.2772  -999.25  44.5668 24.0428 1.0331 1.0340
   13202.5000  0.0000 -999.25   12.8488 117.7349  -999.25 -999.25    2.5477  3.7883 -999.25 -999.25 69.3318  15.3700  -999.25  41.0726  -999.25  41.7612  -999.25  45.1454 23.8785 1.0343 1.0319
   13203.0000  0.0000 -999.25   12.7371 112.1077  -999.25 -999.25    2.5480  3.7944 -999.25 -999.25 69.0836  15.1900  -999.25  41.0546  -999.25  41.6192  -999.25  45.0150 23.8200 1.0392 1.0301
   13203.5000  0.0000 -999.25   12.8563 118.0243  -999.25 -999.25    2.5474  3.7832 -999.25 -999.25 69.2111  15.2800  -999.25  41.3222  -999.25  42.1878  -999.25  45.6596 23.9620 1.0401 1.0303
   13204.0000  0.0000 -999.25   12.7962 116.9744  -999.25 -999.25    2.5483  3.8043 -999.25 -999.25 69.1802  15.2600  -999.25  41.1662  -999.25  41.9113  -999.25  45.3260 24.1515 1.0386 1.0326
   13204.5000  0.0000 -999.25   12.5577 104.1374  -999.25 -999.25    2.5497  3.8453 -999.25 -999.25 69.0032  15.1400  -999.25  40.5114  -999.25  40.5854  -999.25  43.8070 24.3584 1.0393 1.0338
   13205.0000  0.0000 -999.25   12.5841 105.1648  -999.25 -999.25    2.5495  3.8365 -999.25 -999.25 69.0845  15.1900  -999.25  40.4478  -999.25  40.4939  -999.25  43.6933 24.2989 1.0347 1.0339
   13205.5000  0.0000 -999.25   12.6220 108.2360  -999.25 -999.25    2.5493  3.8202 -999.25 -999.25 69.1255  15.2200  -999.25  40.5297  -999.25  40.6650  -999.25  43.8845 24.0695 1.0301 1.0337
   13206.0000  0.0000 -999.25   12.4507  99.2528  -999.25 -999.25    2.5501  3.8443 -999.25 -999.25 68.9073  15.0700  -999.25  40.2410  -999.25  40.0487  -999.25  43.2003 23.7343 1.0241 1.0331
   13206.5000  0.0000 -999.25   12.4414 102.8376  -999.25 -999.25    2.5507  3.8498 -999.25 -999.25 68.7634  14.9700  -999.25  40.5589  -999.25  40.5995  -999.25  43.8345 23.6248 1.0224 1.0341
   13207.0000  0.0000 -999.25   12.3021  98.0384  -999.25 -999.25    2.5514  3.8690 -999.25 -999.25 68.4335  14.7300  -999.25  40.7206  -999.25  40.7761  -999.25  44.0773 23.5970 1.0288 1.0325
   13207.5000  0.0000 -999.25   12.4057 107.4037  -999.25 -999.25    2.5514  3.8503 -999.25 -999.25 68.3782  14.6900  -999.25  41.2182  -999.25  41.7384  -999.25  45.1758 23.6123 1.0403 1.0334
   13208.0000  0.0000 -999.25   12.4778 110.1653  -999.25 -999.25    2.5507  3.8333 -999.25 -999.25 68.4033  14.7100  -999.25  41.4302  -999.25  42.1442  -999.25  45.6518 23.6557 1.0470 1.0320
   13208.5000  0.0000 -999.25   12.5169 107.8560  -999.25 -999.25    2.5502  3.8408 -999.25 -999.25 68.6358  14.8800  -999.25  41.1254  -999.25  41.6330  -999.25  45.0466 23.6536 1.0442 1.0325
   13209.0000  0.0000 -999.25   12.8897 117.4117  -999.25 -999.25    2.5476  3.8111 -999.25 -999.25 69.4519  15.4500  -999.25  41.0031  -999.25  41.7119  -999.25  45.0779 23.7061 1.0381 1.0332
   13209.5000  0.0000 -999.25   12.6846 103.8126  -999.25 -999.25    2.5486  3.8556 -999.25 -999.25 69.3074  15.3500  -999.25  40.3446  -999.25  40.3827  -999.25  43.5576 23.7910 1.0386 1.0341
