#--------------------------------------------------#
#-------------------ENVERUS, INC.------------------#
#------------------WWW.ENVERUS.COM-----------------#
#------------------COPYRIGHT 2020------------------#
#--------------------------------------------------#
#THIS FILE MAY BE USED ONLY IN ACCORDANCE WITH A CURRENT SUBSCRIPTION AGREEMENT BETWEEN
#THE USER AND ENVERUS, INC. NO PART OF THIS FILE MAY BE REPRODUCED, USED, COPIED,
#MODIFIED, PROPAGATED, OR DISTRIBUTED EXCEPT IN ACCORDANCE WITH THE SUBSCRIPTION
#AGREEMENT. UNAUTHORIZED USE OR DISTRIBUTION OF ALL OR ANY PART OF THIS FILE MAY VIOLATE
#COPYRIGHT, TRADEMARK, AND/OR OTHER LAWS AND IS SUBJECT TO CIVIL AS WELL AS CRIMINAL
#SANCTIONS.
#--------------------------------------------------#
#THIS FILE IS PROVIDED "AS-IS" AND ALL WARRANTIES ARE EXPRESSLY DISCLAIMED, WHETHER
#EXPRESS, ORAL, IMPLIED, STATUTORY OR OTHERWISE, INCLUDING ANY IMPLIED WARRANTY OF FITNESS
#FOR A PARTICULAR PURPOSE, MERCHANTABILITY, TITLE OR NON-INFRINGEMENT, AND ANY WARRANTIES
#ARISING BY VIRTUE OF CUSTOM OF TRADE OR COURSE OF DEALING.  FURTHER, ENVERUS, INC.
#AND ITS LICENSORS DO NOT REPRESENT OR WARRANT THAT THIS FILE WILL MEET USER'S
#REQUIREMENTS OR ARE SUITABLE FOR USER'S NEEDS OR THAT THE DATA OR RESULTS PROVIDED IN
#CONJUNCTION THEREWITH ARE CORRECT, ACCURATE, TIMELY OR RELIABLE. THESE DISCLAIMERS SHALL
#APPLY REGARDLESS OF ANY FAILURE OF ESSENTIAL PURPOSE OF ANY LIMITED REMEDY.  SOME
#JURISDICTIONS DO NOT ALLOW THE EXCLUSION OF CERTAIN WARRANTIES SO SOME OF THE ABOVE
#EXCLUSIONS MAY NOT APPLY. IN NO EVENT SHALL ENVERUS, INC. OR ANY OF ITS AFFILIATES
#BE LIABLE UNDER ANY LEGAL THEORY, WHETHER IN TORT (INCLUDING WITHOUT LIMITATION
#NEGLIGENCE), CONTRACT, STRICT LIABILITY, STATUTORY OR OTHERWISE, FOR ANY SPECIAL,
#INCIDENTAL, CONSEQUENTIAL, EXEMPLARY, PUNITIVE OR INDIRECT DAMAGE OF ANY KIND, INCLUDING
#WITHOUT LIMITATION LOSS OF REVENUE, PROFITS, GOODWILL, USE, AND/OR DATA OR THE COST OF
#PROCUREMENT OF SUBSTITUTE GOODS OR SERVICES, EVEN IF APPRISED OF THE POSSIBILITY OF SUCH
#DAMAGES IN ADVANCE.
#--------------------------------------------------#

# EXPORTED FROM TRANSFORM SOFTWARE 5.2.0 ON 31-MAY-2019 BY USER BRIAN.UMLANG
# DI TRANSFORM - A PRODUCT OF DRILLINGINFO, INC. - WWW.DRILLINGINFO.COM
#
~VERSION INFORMATION
 VERS.        2.0 : LAS ASCII STANDARD - VERSION 2.0
 WRAP.         NO : ONE LINE PER DEPTH STEP

~WELL INFORMATION
#MNEM.UNIT       DATA TYPE       INFORMATION
#---------       ---------       -----------
 STRT.FT                 256 : START DEPTH
 STOP.FT                4706 : STOP DEPTH
 STEP.FT                 0.5 : STEP LENGTH
 NULL.               -999.25 : NULL VALUE
 UWI.         42301312890000 : UNIQUE WELL ID
 API.         42301312890000 : WELL IDENTIFIER
 COMP.                       : COMPANY
 WELL.  42301312890000_API14 : WELL NAME
 FLD.                        : FIELD NAME
 LOC.                        : WELL LOCATION
 CNTY.                       : COUNTY
 STAT.                       : STATE OR PROVINCE
 CTRY.                       : COUNTRY
 SRVC.                       : SERVICE COMPANY
 DATE.                       : DATE

~CURVE INFORMATION
#MNEM.UNIT       API CODE       CURVE DESCRIPTION
#---------       --------       -----------------
 DEPT.FT          : <MEASURED DEPTH>
 CAL.IN           : CALIPER
 DPHI.%           : DENSITY POROSITY
 DT.US/FT         : SONIC
 GR.GAPI          : GAMMA RAY
 ILD.OHMM         : DEEP RESISTIVITY
 ILS.OHMM         : SHALLOW RESISTIVITY
 NPHI.%           : NEUTRON POROSITY
 PE.B/ELEC        : PHOTOELECTRIC FACTOR
 RHOB.G/CM3       : DENSITY

~PARAMETER INFORMATION
#MNEM.UNIT       VALUE       DESCRIPTION
#---------       -----       -----------
 EKB.FT      2822 : ELEVATION ABOVE MSL

~A      DEPT         CAL        DPHI          DT          GR         ILD         ILS        NPHI          PE        RHOB
# ...
      3572.5        8.64      13.196     70.5861      76.756     11.7915      6.6398     14.7431      2.7054      2.4945
        3573        8.62     13.3541     71.2764     84.2676      13.065      7.3207     15.4908      2.7455      2.4927
      3573.5        8.62     13.6783     72.6755    104.4095     15.9154      8.4785     17.2059      2.7655      2.4894
        3574        8.62     13.9222      73.609    118.0871     20.2285     10.9626       19.05      2.7655      2.4866
      3574.5      8.6795     14.0857     75.8327     162.831     34.4007     19.7216     22.1218      2.8194      2.4837
        3575      8.6795     14.3856     77.8214    188.9362     73.6276      34.996     23.1637      2.9209      2.4765
      3575.5      8.6795     15.5044     78.9897    209.7951    137.0334     78.4766     26.0318      3.0425      2.4516
        3576      8.6795     16.9007     79.5925    220.0268    218.9916    103.1896     27.5907      3.0661      2.4278
      3576.5      8.7014     18.3455     80.6998    223.3533    277.7605    139.1308      29.641      3.0661      2.4212
        3577      8.7233     18.2829     81.5381    219.4269    285.7325    156.4553     29.6189      3.0657      2.4183
      3577.5      8.7452     17.0742     81.4247    205.2655     253.988    141.7783     28.1796      3.0261      2.4472
        3578      8.7788     15.6418      80.894    194.0095    188.7613    119.1073     26.6004       3.006      2.4723
      3578.5      8.8058     14.3633     78.6015    167.4771     98.2894       56.45     23.1091      2.9214      2.4878
        3579      8.8557     13.4793      76.503     139.414     69.3338     37.2551     19.7065      2.7769      2.4924
      3579.5      8.9056      13.056     74.6458    119.6511     31.6796      27.081     18.2095       2.611      2.4995
        3580      8.9555     12.7105     73.3568    104.8725      32.082     21.4851      17.446      2.5166      2.5107
      3580.5      9.0054     11.9075     71.4603     89.5731     24.8847     17.7817     16.8053       2.505      2.5258
        3581      9.0515     11.0872     70.4366      82.225     22.2568     15.7573     16.2417       2.505      2.5343
      3581.5      9.0704      10.947     70.1023     79.3413     21.5389     15.4296     15.7137      2.5576      2.5277
        3582      9.0893     11.5651     70.3001     80.1298     21.1786     14.8682     15.5135      2.5651      2.5145
      3582.5      9.1082     12.7163     71.3321     84.9387     21.1434     14.6134     15.6088      2.5651      2.5057
        3583      9.1271      13.267     72.5771     92.6439     20.9659     14.0641     16.2599      2.5451       2.491
      3583.5      9.1313     13.8923     73.1193     96.4072     19.3055     13.4331     16.3984       2.583      2.4773
        3584      9.1313     14.7536     73.6178     93.5007     17.2449     11.3655     16.2251      2.6052      2.4636
      3584.5      9.1313     15.6647     73.8766     81.6103     14.5836        9.31     16.0423      2.5246      2.4545
        3585      9.1313     16.2055     74.2446     73.9785      11.923       8.175     15.9924       2.423       2.444
      3585.5      9.1803      16.925     75.1696     68.6447      10.686      7.0425     16.8008      2.3647      2.4309
        3586      9.2397     18.7492     77.2127     66.2094      9.1246      6.2307     16.8008      2.3647      2.3917
      3586.5      9.2975     21.0653     79.1036     63.1114      8.1837      5.5511     16.7363      2.3647      2.3643
        3587      9.3295     22.1893      80.468     59.8816      7.6299        5.11     16.4187      2.3647      2.3488
      3587.5      9.3614     21.5266     80.5215     58.1667      7.2845      5.0429     15.7096      2.3562      2.3699
        3588      9.4017     18.7753     77.3743     58.0838      7.1507      4.9658     15.2804      2.3447       2.413
      3588.5      9.4507     16.4127     71.6709      57.485      7.0588      4.8906     15.0768      2.3759      2.4438
        3589      9.4996     16.7164      71.854     56.8862      7.0194      4.8455     16.0818      2.4248      2.4507
      3589.5       9.542     19.5926     73.3419     57.4737      6.7964      4.6054     18.5911      2.4248      2.4193
        3590       9.542      20.445     75.7646     58.9886      6.4262       4.436     18.7735      2.4248      2.3894
      3590.5      9.6208     21.2162      78.177     60.8028      6.0762      4.1173     19.0108      2.3682      2.3666
        3591      9.6241     20.6958     78.0963      62.788      5.5877      3.8709     18.6377      2.3447      2.3805
      3591.5      9.6241      20.125     77.4085     64.4314      5.3325      3.6471     18.4024      2.3447      2.3844
        3592      9.6328       19.78     77.2709     64.6707      5.1364      3.5129     19.1872      2.3241      2.3837
      3592.5      9.6773     20.7342     77.7728     62.3831      5.0752      3.3837     20.6761      2.2846      2.3779
        3593      9.7219     20.9378     78.5972     60.7784      5.1702      3.4074     20.9207      2.2846      2.3759
      3593.5      9.7474     20.6332     78.3665      60.479      5.3575      3.4983     20.1161      2.3092      2.3793
        3594      9.7474     20.3004     77.3341      60.479      5.6139      3.6318     19.1752      2.3706      2.3853
      3594.5      9.7474     19.8291     76.0618      60.479      5.8282      3.7037     18.8129      2.3848      2.3866
        3595      9.7489     19.9923     75.5601     61.0778      5.9411      3.8072     19.1012      2.3647      2.3816
      3595.5      9.7707     20.7483     75.4893     61.3772      5.9974      3.8081     19.6594      2.3647      2.3763
        3596      9.7926     20.8744     75.8427     61.8976      6.2228      3.8458     19.9588      2.3134      2.3768
      3596.5      9.8145     20.4079     76.2597     63.9508       6.411      4.0298     20.8164      2.2445      2.3884
        3597      9.8377     19.4967     75.8497      67.836      6.7736      4.1011     21.1009      2.2445       2.397
      3597.5      9.8637     18.8573     75.4544     71.2327      7.0068      4.1086     21.1502      2.2445       2.405
        3598       9.896     18.8233     75.6371     71.8563      6.8753      4.1393     20.8086      2.2611       2.405
      3598.5      9.9307     19.6405     77.1858     68.5355      6.6398      3.9996     19.9293      2.2846      2.3922
        3599      9.9527     19.7263     78.6032     62.9087      6.2617      3.7268     19.2745      2.2653      2.3863
      3599.5      9.9583     19.7438     78.7976     59.9599      6.0314       3.617     18.5212      2.2645      2.3841
        3600      9.9731     19.7085     78.7976     58.6826      5.8096      3.4258     17.7982      2.2846      2.3821
      3600.5       9.988     19.9266     78.9592     58.3832      5.5959      3.3448     17.5136      2.3246      2.3752
        3601     10.0028     21.5049      79.332      57.485      5.3901      3.1785     18.2227      2.3246      2.3527
      3601.5     10.0177     22.6737     80.8041     56.1693      5.2183      3.1058     19.4763      2.3447      2.3406
        3602     10.0325     22.8937     81.8206      55.852      5.1702      3.0942     20.0347      2.3246      2.3491
      3602.5     10.0641      21.283     81.7468      54.491      5.3475      3.1934     19.9385      2.3046      2.3779
        3603     10.0759     19.5194     80.5495     52.6946      5.5005      3.2436     19.4851      2.2846      2.3975
      3603.5     10.0759     19.1853     79.1198     52.6946       5.568      3.1934     19.3213      2.3159      2.3916
        3604     10.0759     19.6213     79.2806     52.6946      5.3768      3.1934     19.7867      2.3774      2.3745
      3604.5      10.082     22.8603     80.9287     52.6946      4.9992      2.9284     21.8262      2.3848      2.3439
        3605     10.0942     23.7318     83.3205     52.9379      4.6752      2.8049     22.4736      2.3647      2.3132
      3605.5     10.1065     24.7599     84.7182     54.7522      4.4993      2.6555     23.0219      2.3246      2.3136
