###############################################
##         ENVERUS                           ##
##         ESS - Open Hole                   ##
##         PERMIAN / DELAWARE                ##
##         Nov 04 2023  V4.0                 ##
##         42-389-30422-00-00                ##
###############################################
## Copyright 2017-2023  ENVERUS.  All Rights Reserved. 
## Confidential - Property of ENVERUS, use governed by terms and 
## conditions found within the existing Information Services Subscription Agreement 
## (as may be amended, the “ISSA”) between Customer and ENVERUS. 
## 
~VERSION INFORMATION
# MNEM.UNIT                               DATA : DESCRIPTION OF MNEMONIC
#-----.-----     ----------------------------- : -----------------------------
VERS.                                     2.00 : CWLS LOG ASCII STANDARD - VERSION 2.00
WRAP.                                       NO : MULTIPLE LINES PER DEPTH STEP
VEND.                                  ENVERUS : VENDOR
TYPE.                          ESS - OPEN HOLE : ENVERUS ESSENTIAL CURVES – ACCESSIBLE THROUGH ENVERUS PRISM(TM)
DOC.                                  31749874 : ENVERUS HEADER RAW DOCUMENT ID
#___________________________________________________________________________________________________ 
~WELL INFORMATION 
# u82sU1u0B8de5w9HEAjaYOtqLlVzfD+KUeD2ZoqivGgiUzwSeb1LYInaR9MNeJxDUIxxjb7EPbXz9g+KH10l6Q== 
# MNEM.UNIT                                              DATA : DESCRIPTION OF MNEMONIC 
#-----.-----                    ----------------------------- : ----------------------------- 
CNTY.                                                  REEVES : COUNTY 
STATE.                                                  TEXAS : STATE 
CNTRY.                                                    USA : COUNTRY 
API.                                             42-389-30422 : API (10 Digit) 
API_14.                                    42-389-30422-00-00 : API (14 Digits) 
API_14_std.                                 42-389-30422-0000 : API (14 Digits Standard) 
UWI.                                           42389304220000 : UNIQUE WELL ID 
WELL.                                    BECKHAM  AGNES 26  1 : WELL NAME
STRT.FT                                                  89.0 : START DEPTH
STOP.FT                                               15719.0 : STOP DEPTH
STEP.FT                                                   0.5 : STEP BETWEEN DEPTHS
NULL.                                                 -999.25 : NULL VALUE
COMP.                                     WALSH & WATTS  INC. : COMPANY
#___________________________________________________________________________________________________ 
~CURVE INFORMATION 
# MNEM.UNIT           : CURVE DESCRIPTION 
#-----.-----          : ----------------------------- 
 DEPT.FT               : MEASURED DEPTH 
 CALI.IN               : CALIPER (CAL - CAL) 
 GR.API                : GAMMA RAY (GR) 
 DT.US/FT              : SONIC DELTA TRANSIT TIME (DT) 
 #___________________________________________________________________________________________________ 
~A         DEPT           CALI             GR             DT
# ...
         9857.0         12.585         70.516         72.053
         9857.5         12.586         70.909         73.044
         9858.0         12.586         71.302         74.034
         9858.5         12.587         73.481         76.013
         9859.0         12.587         78.824         78.913
         9859.5         12.588         84.166         81.814
         9860.0         12.588         89.508         84.715
         9860.5         12.589         94.000         87.012
         9861.0         12.589         91.368         86.157
         9861.5         12.589         88.736         85.302
         9862.0         12.590         86.103         84.447
         9862.5         12.590         83.471         83.592
         9863.0         12.591         80.839         82.423
         9863.5         12.591         78.206         81.184
         9864.0         12.592         75.107         79.945
         9864.5         12.592         71.698         78.707
         9865.0         12.593         69.577         77.420
         9865.5         12.593         68.837         76.067
         9866.0         12.593         68.097         74.715
         9866.5         12.594         67.357         74.145
         9867.0         12.594         66.618         73.665
         9867.5         12.595         65.878         73.184
         9868.0         12.595         65.907         72.703
         9868.5         12.596         67.294         72.231
         9869.0         12.596         68.681         72.477
         9869.5         12.597         69.721         72.722
         9870.0         12.597         66.751         72.968
         9870.5         12.597         63.782         73.213
         9871.0         12.598         62.399         73.459
         9871.5         12.598         62.173         73.704
         9872.0         12.599         61.948         73.950
         9872.5         12.599         61.723         74.195
         9873.0         12.600         61.498         74.440
         9873.5         12.600         61.142         74.243
         9874.0         12.601         59.939         73.565
         9874.5         12.601         58.737         72.887
         9875.0         12.601         57.534         72.209
         9875.5         12.602         56.770         71.719
         9876.0         12.602         56.772         71.278
         9876.5         12.603         56.775         70.837
         9877.0         12.603         56.777         70.396
         9877.5         12.604         55.282         69.956
         9878.0         12.604         53.499         69.515
         9878.5         12.604         51.717         69.211
         9879.0         12.605         51.769         70.343
         9879.5         12.605         63.453         71.474
         9880.0         12.606         75.138         72.606
         9880.5         12.606         78.309         73.738
         9881.0         12.607         76.382         74.869
         9881.5         12.607         74.456         76.001
         9882.0         12.608         72.085         77.132
         9882.5         12.608         68.704         78.264
         9883.0         12.608         65.322         79.396
         9883.5         12.609         61.941         79.708
         9884.0         12.609         58.559         77.700
         9884.5         12.610         57.059         75.692
         9885.0         12.610         58.882         73.685
         9885.5         12.611         60.705         71.677
         9886.0         12.611         62.528         70.021
         9886.5         12.612         64.351         71.722
         9887.0         12.612         66.173         73.423
         9887.5         12.612         67.996         75.124
         9888.0         12.613         69.819         76.825
         9888.5         12.613         65.564         73.942
         9889.0         12.614         60.421         67.428
         9889.5         12.614         55.278         63.031
         9890.0         12.615         52.313         64.744
         9890.5         12.615         59.327         66.458
         9891.0         12.616         66.341         68.172
         9891.5         12.616         72.264         69.886
         9892.0         12.616         71.729         71.600
         9892.5         12.617         71.195         73.314
         9893.0         12.617         70.661         75.028
         9893.5         12.618         70.729         76.742
         9894.0         12.618         71.079         74.900
         9894.5         12.619         71.430         71.793
         9895.0         12.619         71.780         72.050
         9895.5         12.620         72.130         73.648
         9896.0         12.620         72.481         75.246
         9896.5         12.620         72.831         76.843
         9897.0         12.621         73.181         76.332
         9897.5         12.621         73.532         75.068
         9898.0         12.622         73.882         74.888
         9898.5         12.622         74.233         78.537
         9899.0         12.623         74.583         81.648
         9899.5         12.623         74.933         80.183
         9900.0         12.624         73.797         78.718
         9900.5         12.624         52.654         77.253
         9901.0         12.624         49.980         75.788
         9901.5         12.625         47.306         72.142
         9902.0         12.625         44.631         67.372
         9902.5         12.626         41.957         62.602
         9903.0         12.626         39.283         58.548
         9903.5         12.631         43.366         60.572
         9904.0         12.639         47.833         62.596
         9904.5         12.647         52.300         64.621
         9905.0         12.655         56.767         66.645
         9905.5         12.663         55.148         68.669
         9906.0         12.671         52.265         70.694
         9906.5         12.679         49.382         71.726
         9907.0         12.686         46.499         70.834
         9907.5         12.694         43.616         69.943
         9908.0         12.702         43.191         69.052
         9908.5         12.710         45.673         68.153
         9909.0         12.718         48.155         66.242
         9909.5         12.726         50.636         64.331
         9910.0         12.723         53.118         62.420
         9910.5         12.718         55.600         60.508
         9911.0         12.714         58.082         62.030
         9911.5         12.709         60.563         66.586
         9912.0         12.705         61.328         71.142
         9912.5         12.700         59.243         75.699
         9913.0         12.695         57.158         80.255
         9913.5         12.691         55.073         78.794
         9914.0         12.686         52.988         76.382
         9914.5         12.682         50.903         73.970
         9915.0         12.686         49.826         71.558
         9915.5         12.697         54.875         69.146
         9916.0         12.709         59.923         66.734
         9916.5         12.721         64.972         64.322
         9917.0         12.733         70.021         65.643
         9917.5         12.745         72.206         69.024
         9918.0         12.756         71.215         72.406
         9918.5         12.768         70.223         75.788
         9919.0         12.780         69.232         75.120
         9919.5         12.792         68.241         73.926
         9920.0         12.804         67.250         72.732
         9920.5         12.815         66.390         71.537
         9921.0         12.827         70.118         70.343
         9921.5         12.824         73.845         69.783
         9922.0         12.819         74.649         71.213
         9922.5         12.813         74.764         72.642
