#--------------------------------------------------#
#-------------------ENVERUS, INC.------------------#
#------------------WWW.ENVERUS.COM-----------------#
#------------------COPYRIGHT 2020------------------#
#--------------------------------------------------#
#THIS FILE MAY BE USED ONLY IN ACCORDANCE WITH A CURRENT SUBSCRIPTION AGREEMENT BETWEEN
#THE USER AND ENVERUS, INC. NO PART OF THIS FILE MAY BE REPRODUCED, USED, COPIED,
#MODIFIED, PROPAGATED, OR DISTRIBUTED EXCEPT IN ACCORDANCE WITH THE SUBSCRIPTION
#AGREEMENT. UNAUTHORIZED USE OR DISTRIBUTION OF ALL OR ANY PART OF THIS FILE MAY VIOLATE
#COPYRIGHT, TRADEMARK, AND/OR OTHER LAWS AND IS SUBJECT TO CIVIL AS WELL AS CRIMINAL
#SANCTIONS.
#--------------------------------------------------#
#THIS FILE IS PROVIDED "AS-IS" AND ALL WARRANTIES ARE EXPRESSLY DISCLAIMED, WHETHER
#EXPRESS, ORAL, IMPLIED, STATUTORY OR OTHERWISE, INCLUDING ANY IMPLIED WARRANTY OF FITNESS
#FOR A PARTICULAR PURPOSE, MERCHANTABILITY, TITLE OR NON-INFRINGEMENT, AND ANY WARRANTIES
#ARISING BY VIRTUE OF CUSTOM OF TRADE OR COURSE OF DEALING.  FURTHER, ENVERUS, INC.
#AND ITS LICENSORS DO NOT REPRESENT OR WARRANT THAT THIS FILE WILL MEET USER'S
#REQUIREMENTS OR ARE SUITABLE FOR USER'S NEEDS OR THAT THE DATA OR RESULTS PROVIDED IN
#CONJUNCTION THEREWITH ARE CORRECT, ACCURATE, TIMELY OR RELIABLE. THESE DISCLAIMERS SHALL
#APPLY REGARDLESS OF ANY FAILURE OF ESSENTIAL PURPOSE OF ANY LIMITED REMEDY.  SOME
#JURISDICTIONS DO NOT ALLOW THE EXCLUSION OF CERTAIN WARRANTIES SO SOME OF THE ABOVE
#EXCLUSIONS MAY NOT APPLY. IN NO EVENT SHALL ENVERUS, INC. OR ANY OF ITS AFFILIATES
#BE LIABLE UNDER ANY LEGAL THEORY, WHETHER IN TORT (INCLUDING WITHOUT LIMITATION
#NEGLIGENCE), CONTRACT, STRICT LIABILITY, STATUTORY OR OTHERWISE, FOR ANY SPECIAL,
#INCIDENTAL, CONSEQUENTIAL, EXEMPLARY, PUNITIVE OR INDIRECT DAMAGE OF ANY KIND, INCLUDING
#WITHOUT LIMITATION LOSS OF REVENUE, PROFITS, GOODWILL, USE, AND/OR DATA OR THE COST OF
#PROCUREMENT OF SUBSTITUTE GOODS OR SERVICES, EVEN IF APPRISED OF THE POSSIBILITY OF SUCH
#DAMAGES IN ADVANCE.
#--------------------------------------------------#

~VERSION INFORMATION
VERS. 2.0 : CWLS LOG ASCII STANDARD - VERSION 2.0
WRAP.  NO : ONE LINE PER DEPTH STEP
~WELL INFORMATION
#MNEMONIC     .UNIT              VALUE :DESCRIPTION
STRT       .FT                25 :START DEPTH
STOP       .FT                17136 :STOP DEPTH
STEP       .FT                   0.500 :STEP
NULL       .                  -999.250 :NULL
UWI        .              42389302310000 :UNIQUE WELL ID
API        .              42389302310000 :API NUMBER
COMP       .         EDISTO RESOURCES CORPORATION :COMPANY
WELL       .        WIGGINS  ORLA  1 :WELL
DATE       .                            :LOG DATE
~CURVE INFORMATION
#MNEMONIC     .UNIT      API CODE :CURVE DESCRIPTION
DEPTH       .FT                      :MEASURED DEPTH
CAL.INCH        UNKNOWN   :CAL
ILS.OHM        UNKNOWN   :ILS
SP.MV        UNKNOWN   :SP
DT.US/FT        UNKNOWN   :DT
GR.API        UNKNOWN   :GR
ILD.OHM        UNKNOWN   :ILD
~A    DEPTH    CAL    ILS    SP    DT    GR    ILD
# ...
 11541     10.733   -999.99   -8.865   76.417   66.651   18.69
 11541.5     10.728   -999.99   -8.776   75.983   63.071   19.044
 11542     10.733   -999.99   -9.097   76.263   60.273   19.398
 11542.5     10.738   -999.99   -9.43   76.574   58.958   19.751
 11543     10.743   -999.99   -9.762   77.018   57.642   20.105
 11543.5     10.748   -999.99   -10.095   77.404   57.34   20.458
 11544     10.753   -999.99   -10.427   77.538   58.143   20.812
 11544.5     10.758   -999.99   -10.76   77.671   58.946   21.165
 11545     10.763   -999.99   -11.092   77.31   59.64   22.374
 11545.5     10.768   -999.99   -11.425   75.98   59.281   23.795
 11546     10.773   -999.99   -11.758   69.95   57.452   25.216
 11546.5     10.778   -999.99   -12.09   58.269   55.624   27.912
 11547     10.792   -999.99   -12.423   54.345   47.879   30.797
 11547.5     10.807   -999.99   -12.755   50.422   37.478   33.682
 11548     10.822   -999.99   -12.823   53.438   30.6   36.838
 11548.5     10.837   -999.99   -12.241   55.581   26.869   40.299
 11549     10.852   -999.99   -11.659   57.724   26.981   43.761
 11549.5     10.867   -999.99   -11.077   60.477   32.465   48.444
 11550     10.882   -999.99   -10.495   59.901   37.463   55.082
 11550.5     10.897   -999.99   -9.968   59.278   42.348   61.72
 11551     10.912   -999.99   -9.766   60.457   45.025   61.63
 11551.5     10.927   -999.99   -9.563   62.935   42.375   49.465
 11552     10.942   -999.99   -9.36   71.336   43.505   32.792
 11552.5     10.957   -999.99   -9.157   77.175   45.955   21.549
 11553     10.972   -999.99   -8.955   79.171   63.001   18.464
 11553.5     10.987   -999.99   -8.752   78.683   70.084   15.465
 11554     11.002   -999.99   -8.549   78.194   69.919   13.852
 11554.5     11.017   -999.99   -8.346   78.111   68.317   12.238
 11555     11.068   -999.99   -8.144   79.1   66.925   10.625
 11555.5     11.092   -999.99   -7.941   80.09   68.279   10.262
 11556     11.078   -999.99   -7.951   79.268   69.155   10.039
 11556.5     11.064   -999.99   -8.055   77.409   69.921   10.245
 11557     11.05   -999.99   -8.16   76.198   70.061   10.584
 11557.5     11.047   -999.99   -8.265   75.524   65.872   10.924
 11558     11.055   -999.99   -8.369   75.305   65.546   11.264
 11558.5     11.063   -999.99   -8.474   75.56   65.471   11.603
 11559     11.071   -999.99   -8.575   75.815   63.806   11.736
 11559.5     11.079   -999.99   -8.289   76.069   61.758   11.689
 11560     11.087   -999.99   -8.003   76.106   61.413   11.642
 11560.5     11.095   -999.99   -7.716   75.715   60.967   11.595
 11561     11.06   -999.99   -7.87   75.324   60.233   11.547
 11561.5     11.018   -999.99   -8.06   74.934   59.499   11.5
 11562     10.976   -999.99   -8.25   75.094   60.697   11.332
 11562.5     11   -999.99   -8.44   75.783   62.059   11.133
 11563     11.028   -999.99   -8.489   76.021   61.297   10.933
 11563.5     11.056   -999.99   -8.206   76.52   59.468   10.734
 11564     11.084   -999.99   -7.922   78.372   59.756   10.534
 11564.5     11.109   -999.99   -7.638   79.217   60.618   10.334
 11565     11.115   -999.99   -7.355   80.063   61.596   10.146
 11565.5     11.122   -999.99   -7.252   80.216   62.574   10.123
 11566     11.129   -999.99   -7.522   79.79   61.827   10.101
 11566.5     11.135   -999.99   -7.791   77.226   60.883   10.078
 11567     11.142   -999.99   -8.061   73.175   57.649   10.09
 11567.5     11.149   -999.99   -8.33   69.323   53.52   10.123
 11568     11.156   -999.99   -8.599   68.883   49.736   10.156
 11568.5     11.162   -999.99   -8.869   71.201   50.925   10.19
 11569     11.169   -999.99   -8.841   75.002   54.268   10.223
 11569.5     11.176   -999.99   -8.746   78.574   58.244   10.257
 11570     11.182   -999.99   -8.652   79.376   62.065   10.29
 11570.5     11.175   -999.99   -8.557   78.572   65.699   10.433
 11571     11.148   -999.99   -8.462   77.767   66.071   10.736
 11571.5     11.12   -999.99   -8.368   77.131   65.144   11.038
 11572     11.093   -999.99   -8.273   76.664   64.005   11.341
 11572.5     11.065   -999.99   -8.178   75.443   61.045   12.222
 11573     11.038   -999.99   -8.083   71.934   56.938   13.714
 11573.5     11.01   -999.99   -7.989   69.195   52.625   15.488
 11574     10.983   -999.99   -7.894   66.931   48.311   17.464
 11574.5     10.955   -999.99   -7.799   64.668   45.478   17.063
 11575     10.943   -999.99   -7.705   65.082   42.948   16.662
 11575.5     10.946   -999.99   -7.61   67.083   41.573   15.866
 11576     10.949   -999.99   -7.515   69.798   40.748   14.61
 11576.5     10.953   -999.99   -7.42   75.13   45.081   13.355
 11577     10.965   -999.99   -7.326   78.675   56.015   12.099
 11577.5     10.984   -999.99   -7.231   79.384   70.448   10.844
 11578     11.004   -999.99   -8.982   79.643   70.07   9.835
 11578.5     11.023   -999.99   -22.74   79.903   69.742   9.339
 11579     11.042   -999.99   -36.499   80.134   69.533   8.843
 11579.5     11.061   -999.99   -44.411   79.709   69.324   8.363
 11580     11.074   -999.99   -43.385   79.284   69.34   8.558
 11580.5     11.074   -999.99   -42.359   79.942   69.408   8.753
 11581     11.074   -999.99   -31.68   80.65   69.201   8.948
 11581.5     11.074   -999.99   -18.909   80.794   68.467   9.142
 11582     11.071   -999.99   -7.208   80.886   67.735   9.487
 11582.5     11.055   -999.99   -8.015   80.978   67.733   10.018
 11583     11.039   -999.99   -8.822   78.97   66.208   10.549
 11583.5     11.023   -999.99   -8.122   76.664   61.944   11.079
 11584     11.008   -999.99   -6.721   74.358   58.239   11.239
 11584.5     10.992   -999.99   -34.648   72.91   56.41   11.239
 11585     10.976   -999.99   -69.989   72.539   55.435   11.239
 11585.5     10.96   -999.99   -72.162   73.6   55.996   11.339
 11586     10.944   -999.99   -71.073   74.66   56.558   11.51
 11586.5     10.988   -999.99   -69.984   71.812   57.12   11.68
 11587     11.087   -999.99   -76.573   68.792   57.618   11.279
 11587.5     11.168   -999.99   -6.554   66.242   57.616   10.859
 11588     11.004   -999.99   -6.815   67.734   57.364   10.439
 11588.5     11.051   -999.99   -7.076   72.202   56.96   10.018
 11589     11.098   -999.99   -7.337   76.913   56.557   9.598
 11589.5     11.145   -999.99   -7.598   79.668   58.649   9.177
 11590     11.192   -999.99   -7.859   80.145   62.162   8.757
 11590.5     11.198   -999.99   -8.119   79.655   64.36   8.337
 11591     11.187   -999.99   -8.38   79.165   63.491   7.916
 11591.5     11.177   -999.99   -8.641   78.65   62.731   7.738
 11592     11.166   -999.99   -8.447   78.111   62.729   7.739
 11592.5     11.156   -999.99   -8.072   76.444   63.828   7.901
 11593     11.145   -999.99   -7.697   76.181   65.191   8.265
 11593.5     11.128   -999.99   -7.322   75.917   65.403   8.629
 11594     11.085   -999.99   -7.601   74.981   63.996   8.994
 11594.5     11.042   -999.99   -7.917   73.992   61.508   9.358
 11595     10.999   -999.99   -8.233   73.003   63.498   9.7
 11595.5     10.956   -999.99   -8.548   71.166   64.272   9.715
 11596     10.913   -999.99   -8.709   71.367   62.534   9.73
 11596.5     10.87   -999.99   -8.709   73.007   60.796   9.745
 11597     10.916   -999.99   -8.708   74.647   59.912   9.759
 11597.5     10.975   -999.99   -8.707   76.979   59.966   9.774
 11598     11.034   -999.99   -8.707   79.646   64.047   10.375
 11598.5     11.092   -999.99   -8.706   79.002   68.129   11.108
 11599     11.151   -999.99   -8.702   74.775   68.745   11.84
 11599.5     11.064   -999.99   -8.684   68.182   64.595   12.46
 11600     10.956   -999.99   -8.665   59.57   59.563   12.994
 11600.5     10.939   -999.99   -8.647   62.591   54.431   13.528
 11601     10.923   -999.99   -8.628   66.641   49.298   14.119
 11601.5     10.906   -999.99   -8.609   71.154   47.832   15.071
 11602     10.889   -999.99   -8.591   75.666   50.169   16.022
 11602.5     10.872   -999.99   -8.572   75.009   59.531   16.974
 11603     10.855   -999.99   -8.553   73.145   63.783   17.425
