###############################################
##         ENVERUS                           ##
##         ESS - Open Hole                   ##
##         PERMIAN / DELAWARE                ##
##         Nov 04 2023  V4.0                 ##
##         42-389-32245-00-00                ##
###############################################
## Copyright 2017-2023  ENVERUS.  All Rights Reserved. 
## Confidential - Property of ENVERUS, use governed by terms and 
## conditions found within the existing Information Services Subscription Agreement 
## (as may be amended, the “ISSA”) between Customer and ENVERUS. 
## 
~VERSION INFORMATION
# MNEM.UNIT                               DATA : DESCRIPTION OF MNEMONIC
#-----.-----     ----------------------------- : -----------------------------
VERS.                                     2.00 : CWLS LOG ASCII STANDARD - VERSION 2.00
WRAP.                                       NO : MULTIPLE LINES PER DEPTH STEP
VEND.                                  ENVERUS : VENDOR
TYPE.                          ESS - OPEN HOLE : ENVERUS ESSENTIAL CURVES – ACCESSIBLE THROUGH ENVERUS PRISM(TM)
DOC.                                  31784178 : ENVERUS HEADER RAW DOCUMENT ID
#___________________________________________________________________________________________________ 
~WELL INFORMATION 
# v5kOeJgG8V8Fdrn76qwaaSXPAkEfLGq57aawfXlCwOXh55ROPeN2VCvB7JmY2/dENYnWxxZwl4Ma/Wu+4c2YGQ== 
# MNEM.UNIT                                              DATA : DESCRIPTION OF MNEMONIC 
#-----.-----                    ----------------------------- : ----------------------------- 
CNTY.                                                  REEVES : COUNTY 
STATE.                                                  TEXAS : STATE 
CNTRY.                                                    USA : COUNTRY 
API.                                             42-389-32245 : API (10 Digit) 
API_14.                                    42-389-32245-00-00 : API (14 Digits) 
API_14_std.                                 42-389-32245-0000 : API (14 Digits Standard) 
UWI.                                           42389322450000 : UNIQUE WELL ID 
WELL.                          TEXAS PACIFIC LAND TRUST 25 1H : WELL NAME
STRT.FT                                                2519.0 : START DEPTH
STOP.FT                                               10624.0 : STOP DEPTH
STEP.FT                                                   0.5 : STEP BETWEEN DEPTHS
NULL.                                                 -999.25 : NULL VALUE
#___________________________________________________________________________________________________ 
~CURVE INFORMATION 
# MNEM.UNIT           : CURVE DESCRIPTION 
#-----.-----          : ----------------------------- 
 DEPT.FT               : MEASURED DEPTH 
 CALI__B.IN            : CALIPER (CAL - CAL) 
 GR__B.API             : GAMMA RAY (GR) 
 DT__B.US/FT           : SONIC DELTA TRANSIT TIME (DT) 
 #___________________________________________________________________________________________________ 
~A         DEPT        CALI__B          GR__B          DT__B
# ...
         9515.0         12.748         71.612         70.827
         9515.5         12.753         75.323         70.366
         9516.0         12.757         76.131         68.415
         9516.5         12.762         74.652         66.436
         9517.0         12.767         68.553         64.457
         9517.5         12.771         62.453         63.948
         9518.0         12.776         66.511         65.474
         9518.5         12.781         74.059         68.139
         9519.0         12.785         82.292         70.804
         9519.5         12.790         82.179         73.222
         9520.0         12.794         81.610         73.929
         9520.5         12.799         81.041         73.713
         9521.0         12.804         81.529         72.033
         9521.5         12.808         80.699         70.353
         9522.0         12.813         75.859         69.138
         9522.5         12.818         71.019         68.505
         9523.0         12.822         69.439         68.098
         9523.5         12.827         71.025         68.333
         9524.0         12.832         72.612         70.162
         9524.5         12.836         71.048         71.992
         9525.0         12.841         68.901         72.839
         9525.5         12.845         66.759         72.322
         9526.0         12.850         68.238         73.138
         9526.5         12.855         79.164         74.979
         9527.0         12.859         91.242         76.856
         9527.5         12.864        107.106         78.733
         9528.0         12.869        102.371         79.129
         9528.5         12.873         94.404         76.422
         9529.0         12.878         86.227         73.448
         9529.5         12.883         81.933         71.925
         9530.0         12.886         79.666         73.848
         9530.5         12.885         83.956         75.771
         9531.0         12.884         91.202         76.926
         9531.5         12.883         95.514         77.910
         9532.0         12.882         98.235         79.011
         9532.5         12.881        100.956         79.263
         9533.0         12.880        103.084         77.160
         9533.5         12.879         99.485         73.628
         9534.0         12.878         87.894         70.096
         9534.5         12.877         76.303         70.564
         9535.0         12.876         70.873         73.405
         9535.5         12.875         88.475         76.247
         9536.0         12.874        112.227         79.088
         9536.5         12.872        126.820         80.944
         9537.0         12.871        134.743         82.744
         9537.5         12.870        119.780         82.764
         9538.0         12.869        104.818         79.941
         9538.5         12.868         88.880         77.118
         9539.0         12.867         81.439         76.128
         9539.5         12.866         83.168         76.216
         9540.0         12.865         84.796         76.042
         9540.5         12.864         83.941         75.505
         9541.0         12.863         73.670         74.968
         9541.5         12.862         62.815         72.967
         9542.0         12.861         51.961         69.894
         9542.5         12.860         47.056         66.821
         9543.0         12.859         48.929         69.672
         9543.5         12.857         58.505         75.580
         9544.0         12.856         73.530         81.487
         9544.5         12.855         88.555         85.919
         9545.0         12.854        111.509         86.736
         9545.5         12.853        119.313         86.596
         9546.0         12.852        110.230         85.488
         9546.5         12.851         92.730         83.686
         9547.0         12.850         74.200         81.885
         9547.5         12.849         70.690         81.086
         9548.0         12.848         82.686         82.260
         9548.5         12.847         96.769         83.435
         9549.0         12.846        104.716         83.721
         9549.5         12.845        109.433         83.632
         9550.0         12.844        108.005         83.471
         9550.5         12.842        106.578         83.233
         9551.0         12.841        105.150         82.488
         9551.5         12.841        105.382         81.272
         9552.0         12.841        103.653         77.324
         9552.5         12.841         88.833         66.860
         9553.0         12.840         67.798         58.353
         9553.5         12.833         46.763         54.225
         9554.0         12.826         29.293         53.975
         9554.5         12.819         22.944         53.878
         9555.0         12.812         16.595         54.145
         9555.5         12.806         18.876         55.652
         9556.0         12.799         23.914         59.518
         9556.5         12.792         30.292         65.611
         9557.0         12.785         51.253         74.294
         9557.5         12.778         71.476         80.734
         9558.0         12.772         87.590         82.615
         9558.5         12.765         95.701         82.704
         9559.0         12.758         96.302         82.553
         9559.5         12.752         92.983         82.350
         9560.0         12.756         87.641         81.302
         9560.5         12.760         82.299         77.839
         9561.0         12.763         73.634         73.043
         9561.5         12.767         64.211         68.246
         9562.0         12.771         54.955         67.855
         9562.5         12.774         51.654         70.615
         9563.0         12.778         60.053         73.234
         9563.5         12.782         68.451         74.364
         9564.0         12.785         74.840         75.244
         9564.5         12.789         74.266         75.979
         9565.0         12.793         73.691         75.689
         9565.5         12.796         73.668         74.989
         9566.0         12.800         74.610         75.559
         9566.5         12.804         76.268         77.649
         9567.0         12.808         79.139         79.908
         9567.5         12.811         82.009         81.690
         9568.0         12.815         83.862         81.998
         9568.5         12.819         84.967         81.958
         9569.0         12.822         85.604         81.918
         9569.5         12.826         89.923         82.082
         9570.0         12.830         99.835         82.857
         9570.5         12.833        109.073         83.669
         9571.0         12.837        115.485         83.849
         9571.5         12.841        108.488         82.299
         9572.0         12.844        101.047         81.478
         9572.5         12.848         90.851         80.961
         9573.0         12.852         80.001         79.774
         9573.5         12.855         69.151         77.408
         9574.0         12.859         58.301         73.903
         9574.5         12.863         53.654         70.397
         9575.0         12.866         54.594         71.598
         9575.5         12.870         65.960         74.729
         9576.0         12.874         78.416         77.019
         9576.5         12.877         86.861         77.483
         9577.0         12.881         85.310         76.537
         9577.5         12.885         71.517         74.269
         9578.0         12.888         59.830         69.877
         9578.5         12.892         49.544         66.325
         9579.0         12.896         49.857         66.839
         9579.5         12.899         56.067         70.861
         9580.0         12.903         65.943         74.882
         9580.5         12.907         75.819         78.563
