#--------------------------------------------------#
#-------------------ENVERUS, INC.------------------#
#------------------WWW.ENVERUS.COM-----------------#
#------------------COPYRIGHT 2020------------------#
#--------------------------------------------------#
#THIS FILE MAY BE USED ONLY IN ACCORDANCE WITH A CURRENT SUBSCRIPTION AGREEMENT BETWEEN
#THE USER AND ENVERUS, INC. NO PART OF THIS FILE MAY BE REPRODUCED, USED, COPIED,
#MODIFIED, PROPAGATED, OR DISTRIBUTED EXCEPT IN ACCORDANCE WITH THE SUBSCRIPTION
#AGREEMENT. UNAUTHORIZED USE OR DISTRIBUTION OF ALL OR ANY PART OF THIS FILE MAY VIOLATE
#COPYRIGHT, TRADEMARK, AND/OR OTHER LAWS AND IS SUBJECT TO CIVIL AS WELL AS CRIMINAL
#SANCTIONS.
#--------------------------------------------------#
#THIS FILE IS PROVIDED "AS-IS" AND ALL WARRANTIES ARE EXPRESSLY DISCLAIMED, WHETHER
#EXPRESS, ORAL, IMPLIED, STATUTORY OR OTHERWISE, INCLUDING ANY IMPLIED WARRANTY OF FITNESS
#FOR A PARTICULAR PURPOSE, MERCHANTABILITY, TITLE OR NON-INFRINGEMENT, AND ANY WARRANTIES
#ARISING BY VIRTUE OF CUSTOM OF TRADE OR COURSE OF DEALING.  FURTHER, ENVERUS, INC.
#AND ITS LICENSORS DO NOT REPRESENT OR WARRANT THAT THIS FILE WILL MEET USER'S
#REQUIREMENTS OR ARE SUITABLE FOR USER'S NEEDS OR THAT THE DATA OR RESULTS PROVIDED IN
#CONJUNCTION THEREWITH ARE CORRECT, ACCURATE, TIMELY OR RELIABLE. THESE DISCLAIMERS SHALL
#APPLY REGARDLESS OF ANY FAILURE OF ESSENTIAL PURPOSE OF ANY LIMITED REMEDY.  SOME
#JURISDICTIONS DO NOT ALLOW THE EXCLUSION OF CERTAIN WARRANTIES SO SOME OF THE ABOVE
#EXCLUSIONS MAY NOT APPLY. IN NO EVENT SHALL ENVERUS, INC. OR ANY OF ITS AFFILIATES
#BE LIABLE UNDER ANY LEGAL THEORY, WHETHER IN TORT (INCLUDING WITHOUT LIMITATION
#NEGLIGENCE), CONTRACT, STRICT LIABILITY, STATUTORY OR OTHERWISE, FOR ANY SPECIAL,
#INCIDENTAL, CONSEQUENTIAL, EXEMPLARY, PUNITIVE OR INDIRECT DAMAGE OF ANY KIND, INCLUDING
#WITHOUT LIMITATION LOSS OF REVENUE, PROFITS, GOODWILL, USE, AND/OR DATA OR THE COST OF
#PROCUREMENT OF SUBSTITUTE GOODS OR SERVICES, EVEN IF APPRISED OF THE POSSIBILITY OF SUCH
#DAMAGES IN ADVANCE.
#--------------------------------------------------#

~VERSION INFORMATION
VERS. 2.0 : CWLS LOG ASCII STANDARD - VERSION 2.0
WRAP.  NO : ONE LINE PER DEPTH STEP
~WELL INFORMATION
#MNEMONIC     .UNIT              VALUE :DESCRIPTION
STRT       .FT                0 :START DEPTH
STOP       .FT                13134 :STOP DEPTH
STEP       .FT                   0.500 :STEP
NULL       .                  -999.250 :NULL
UWI        .              42389303540000 :UNIQUE WELL ID
API        .              42389303540000 :API NUMBER
COMP       .         SMC OIL & GAS  INC. :COMPANY
WELL       .        TIFFANY STATE  1 :WELL
DATE       .                18-OCT-1995 :LOG DATE
~CURVE INFORMATION
#MNEMONIC     .UNIT      API CODE :CURVE DESCRIPTION
DEPTH       .FT                      :MEASURED DEPTH
DT.US/FT        UNKNOWN   :DT
CAL.INCH        UNKNOWN   :CAL
GR.API        UNKNOWN   :GR
~A    DEPTH    DT    CAL    GR
# ...
 1941     -999.250   -999.250   15.86
 1941.5     -999.250   -999.250   15.912
 1942     -999.250   -999.250   15.47
 1942.5     -999.250   -999.250   15.028
 1943     -999.250   -999.250   14.676
 1943.5     -999.250   -999.250   14.932
 1944     -999.250   -999.250   15.188
 1944.5     -999.250   -999.250   15.444
 1945     -999.250   -999.250   15.743
 1945.5     -999.250   -999.250   16.39
 1946     -999.250   -999.250   17.037
 1946.5     -999.250   -999.250   17.405
 1947     -999.250   -999.250   17.075
 1947.5     -999.250   -999.250   16.745
 1948     -999.250   -999.250   16.415
 1948.5     -999.250   -999.250   16.085
 1949     -999.250   -999.250   15.755
 1949.5     -999.250   -999.250   15.644
 1950     -999.250   -999.250   16.078
 1950.5     -999.250   -999.250   16.511
 1951     -999.250   -999.250   16.945
 1951.5     -999.250   -999.250   17.379
 1952     -999.250   -999.250   17.813
 1952.5     -999.250   -999.250   17.627
 1953     -999.250   -999.250   17.103
 1953.5     -999.250   -999.250   16.579
 1954     -999.250   -999.250   16.055
 1954.5     -999.250   -999.250   15.53
 1955     -999.250   -999.250   15.006
 1955.5     -999.250   -999.250   14.482
 1956     -999.250   -999.250   13.958
 1956.5     -999.250   -999.250   14.034
 1957     -999.250   -999.250   14.415
 1957.5     -999.250   -999.250   14.795
 1958     -999.250   -999.250   14.96
 1958.5     -999.250   -999.250   14.854
 1959     -999.250   -999.250   14.747
 1959.5     -999.250   -999.250   14.641
 1960     -999.250   -999.250   15.937
 1960.5     -999.250   -999.250   17.508
 1961     -999.250   -999.250   18.142
 1961.5     -999.250   -999.250   17.329
 1962     -999.250   -999.250   16.515
 1962.5     -999.250   -999.250   15.701
 1963     -999.250   -999.250   14.888
 1963.5     -999.250   -999.250   14.074
 1964     -999.250   -999.250   13.26
 1964.5     -999.250   -999.250   12.446
 1965     -999.250   -999.250   11.697
 1965.5     -999.250   -999.250   12.696
 1966     -999.250   -999.250   13.696
 1966.5     -999.250   -999.250   14.695
 1967     -999.250   -999.250   15.695
 1967.5     -999.250   -999.250   16.694
 1968     -999.250   -999.250   17.694
 1968.5     -999.250   -999.250   17.316
 1969     -999.250   -999.250   16.88
 1969.5     -999.250   -999.250   16.444
 1970     -999.250   -999.250   16.008
 1970.5     -999.250   -999.250   15.572
 1971     -999.250   -999.250   15.136
 1971.5     -999.250   -999.250   14.993
 1972     -999.250   -999.250   15.07
 1972.5     -999.250   -999.250   15.147
 1973     -999.250   -999.250   15.224
 1973.5     -999.250   -999.250   15.301
 1974     -999.250   -999.250   15.378
 1974.5     -999.250   -999.250   15.426
 1975     -999.250   -999.250   15.473
 1975.5     -999.250   -999.250   15.521
 1976     -999.250   -999.250   15.568
 1976.5     -999.250   -999.250   15.615
 1977     -999.250   -999.250   15.662
 1977.5     -999.250   -999.250   15.709
 1978     -999.250   -999.250   15.756
 1978.5     -999.250   -999.250   15.803
 1979     -999.250   -999.250   15.89
 1979.5     -999.250   -999.250   16.062
 1980     -999.250   -999.250   16.234
 1980.5     -999.250   -999.250   16.407
 1981     -999.250   -999.250   16.579
 1981.5     -999.250   -999.250   16.751
 1982     -999.250   -999.250   16.843
 1982.5     -999.250   -999.250   16.743
 1983     -999.250   -999.250   16.642
 1983.5     -999.250   -999.250   16.541
 1984     -999.250   -999.250   16.441
 1984.5     -999.250   -999.250   16.34
 1985     -999.250   -999.250   16.24
 1985.5     -999.250   -999.250   16.139
 1986     56.62   10.033   16.11
 1986.5     57.001   10.077   16.116
 1987     56.777   10.12   16.121
 1987.5     56.553   10.164   16.126
 1988     56.33   10.157   16.131
 1988.5     56.106   10.142   16.245
 1989     56.575   10.126   16.375
 1989.5     57.16   10.111   16.506
 1990     57.746   10.096   16.736
 1990.5     58.331   10.081   17.019
 1991     56.13   10.081   17.302
 1991.5     55.236   10.093   17.586
 1992     54.965   10.106   17.869
 1992.5     54.694   10.119   18.152
 1993     54.424   10.132   18.435
 1993.5     54.153   10.144   18.718
 1994     53.958   10.157   19.001
 1994.5     53.777   10.17   19.285
 1995     53.85   10.151   19.568
 1995.5     54.421   10.122   18.902
 1996     54.991   10.094   17.989
 1996.5     55.562   10.084   17.076
 1997     56.132   10.105   16.163
 1997.5     56.702   10.127   15.249
 1998     57.273   10.149   14.336
 1998.5     57.176   10.171   13.876
 1999     56.651   10.192   14.006
 1999.5     56.126   10.213   14.137
 2000     55.919   10.186   14.267
 2000.5     56.101   10.159   14.398
 2001     56.283   10.133   14.528
 2001.5     56.465   10.106   14.658
 2002     56.395   10.079   14.789
 2002.5     56.234   10.052   14.571
 2003     56.073   10.026   13.836
 2003.5     55.911   10.053   13.1
 2004     56.027   10.096   12.364
 2004.5     56.148   10.14   11.628
 2005     56.269   10.183   10.892
 2005.5     57.066   10.227   10.157
 2006     57.953   10.27   9.421
 2006.5     58.84   10.267   8.685
 2007     59.727   10.26   7.949
 2007.5     59.576   10.252   7.214
 2008     58.835   10.244   7.048
 2008.5     58.148   10.237   8.536
 2009     57.982   10.257   10.024
 2009.5     57.816   10.277   11.512
 2010     57.65   10.298   12.999
 2010.5     57.484   10.318   14.487
 2011     57.351   10.325   14.497
 2011.5     57.553   10.264   13.317
 2012     57.549   10.204   12.136
 2012.5     56.866   10.143   10.955
 2013     56.184   10.082   11.26
 2013.5     55.502   10.022   11.583
 2014     54.82   9.961   11.906
 2014.5     54.215   9.901   12.229
 2015     54.042   9.881   12.327
 2015.5     53.87   9.914   12.248
 2016     53.697   9.946   12.248
 2016.5     53.525   9.978   12.669
 2017     53.897   10.01   13.091
 2017.5     54.429   10.005   13.979
 2018     54.962   9.972   15.032
 2018.5     55.542   9.938   16.085
 2019     56.564   9.938   16.992
 2019.5     57.587   9.954   16.414
 2020     58.494   9.97   15.836
 2020.5     58.042   9.986   15.258
 2021     57.59   10.003   14.68
 2021.5     57.139   10.004   14.102
 2022     56.687   10.002   14.591
 2022.5     56.236   10   15.188
 2023     56.177   9.998   15.785
 2023.5     56.703   9.995   16.382
 2024     57.23   9.993   16.979
 2024.5     57.756   9.991   17.576
 2025     58.218   9.989   17.794
 2025.5     58.178   9.995   17.547
 2026     58.137   10.007   17.3
 2026.5     58.096   10.02   17.053
 2027     58.093   10.033   16.806
 2027.5     58.153   10.045   17.105
 2028     58.213   10.058   17.7
 2028.5     58.274   10.071   18.295
 2029     58.334   10.084   18.889
 2029.5     58.268   10.096   18.648
 2030     58.018   10.109   15.276
 2030.5     57.768   10.122   13.986
 2031     57.518   10.134   13.767
 2031.5     57.269   10.147   13.549
 2032     57.019   10.16   13.363
 2032.5     56.769   10.173   13.708
 2033     56.519   10.185   14.053
 2033.5     56.327   10.182   14.398
 2034     56.306   10.177   14.742
 2034.5     56.285   10.173   15.087
 2035     56.265   10.168   15.432
 2035.5     56.244   10.164   15.777
 2036     56.223   10.159   16.122
 2036.5     56.203   10.154   16.466
 2037     56.182   10.15   16.811
 2037.5     56.593   10.176   16.917
 2038     57.125   10.216   17.022
 2038.5     57.079   10.256   17.127
 2039     56.998   10.296   17.232
 2039.5     56.918   10.336   17.64
 2040     57.148   10.331   18.053
 2040.5     58.623   10.314   18.467
 2041     60.384   10.297   18.881
 2041.5     62.55   10.289   18.852
 2042     64.715   10.295   18.463
 2042.5     64.724   10.301   18.073
 2043     62.51   10.307   17.684
 2043.5     60.295   10.313   17.295
 2044     58.386   10.319   16.906
 2044.5     58.106   10.324   16.516
 2045     58.601   10.33   16.127
 2045.5     60.364   10.336   15.738
 2046     56.404   10.342   15.349
 2046.5     56.492   10.343   14.96
 2047     57.477   10.319   14.57
 2047.5     58.462   10.295   14.181
 2048     59.447   10.271   14.384
