###############################################
##         ENVERUS                           ##
##         ESS - Open Hole                   ##
##         PERMIAN / DELAWARE                ##
##         Nov 04 2023  V4.0                 ##
##         42-389-32421-01-00                ##
###############################################
## Copyright 2017-2023  ENVERUS.  All Rights Reserved. 
## Confidential - Property of ENVERUS, use governed by terms and 
## conditions found within the existing Information Services Subscription Agreement 
## (as may be amended, the “ISSA”) between Customer and ENVERUS. 
## 
~VERSION INFORMATION
# MNEM.UNIT                               DATA : DESCRIPTION OF MNEMONIC
#-----.-----     ----------------------------- : -----------------------------
VERS.                                     2.00 : CWLS LOG ASCII STANDARD - VERSION 2.00
WRAP.                                       NO : MULTIPLE LINES PER DEPTH STEP
VEND.                                  ENVERUS : VENDOR
TYPE.                          ESS - OPEN HOLE : ENVERUS ESSENTIAL CURVES – ACCESSIBLE THROUGH ENVERUS PRISM(TM)
DOC.                                  51226874 : ENVERUS HEADER RAW DOCUMENT ID
#___________________________________________________________________________________________________ 
~WELL INFORMATION 
# Tb73rb1SL3MkDZoC3l18/hn1AqNnLhXquKbAWMIBLpWCEGQs+cUq/9XFz1I3dh1trdNBSXyPtAuUBW0L3ONtkQ== 
# MNEM.UNIT                                              DATA : DESCRIPTION OF MNEMONIC 
#-----.-----                    ----------------------------- : ----------------------------- 
CNTY.                                                  REEVES : COUNTY 
STATE.                                                  TEXAS : STATE 
CNTRY.                                                    USA : COUNTRY 
API.                                             42-389-32421 : API (10 Digit) 
API_14.                                    42-389-32421-01-00 : API (14 Digits) 
API_14_std.                                 42-389-32421-0100 : API (14 Digits Standard) 
UWI.                                           42389324210100 : UNIQUE WELL ID 
WELL.                                      ARMSTRONG STATE  1 : WELL NAME
STRT.FT                                                 182.0 : START DEPTH
STOP.FT                                               14775.0 : STOP DEPTH
STEP.FT                                                   0.5 : STEP BETWEEN DEPTHS
NULL.                                                 -999.25 : NULL VALUE
PREV_UWI.                                      42389324210000 : UNIQUE WELL ID 
PREV_API.                                      42389324210000 : API NUMBER 
COMP.                                    STALEY OPERATING CO. : COMPANY 
DATE.                                             26-JUN-2006 : LOG DATE
#___________________________________________________________________________________________________ 
~CURVE INFORMATION 
# MNEM.UNIT           : CURVE DESCRIPTION 
#-----.-----          : ----------------------------- 
 DEPT.FT               : MEASURED DEPTH 
 CALI__A.IN            : CALIPER (CAL - CAL) 
 GR__A.API             : GAMMA RAY (GR) 
 DT__A.US/FT           : SONIC DELTA TRANSIT TIME (DT) 
 DPHI__A.V/V           : DENSITY POROSITY (DPHI) 
 NPHI__A.V/V           : NEUTRON POROSITY (NPHI) 
 RHOB__A.G/CC          : BULK DENSITY (RHOB) 
 #___________________________________________________________________________________________________ 
~A         DEPT        CALI__A          GR__A          DT__A        DPHI__A        NPHI__A        RHOB__A
# ...
         2842.0         12.084          8.928         48.421       -0.14339       -0.02432         2.9500
         2842.5         12.084          8.927         48.397       -0.13448       -0.02349         2.9400
         2843.0         12.085          8.848         48.447       -0.13264       -0.02282         2.9380
         2843.5         12.091          8.628         48.497       -0.13197       -0.02248         2.9430
         2844.0         12.096          8.288         48.547       -0.13548       -0.02239         2.9480
         2844.5         12.101          7.656         48.597       -0.14928       -0.02310         2.9540
         2845.0         12.106          7.140         48.647       -0.14830       -0.02380         2.9590
         2845.5         12.111          6.971         48.697       -0.14729       -0.02469         2.9640
         2846.0         12.116          6.802         48.747       -0.13933       -0.02603         2.9620
         2846.5         12.121          6.656         48.797       -0.14092       -0.02610         2.9540
         2847.0         12.125          6.535         48.847       -0.13475       -0.02565         2.9450
         2847.5         12.127          6.979         48.897       -0.12991       -0.02520         2.9370
         2848.0         12.129          7.763         48.945       -0.13134       -0.02475         2.9430
         2848.5         12.132          8.360         48.987       -0.14148       -0.02433         2.9590
         2849.0         12.134          8.687         49.029       -0.15400       -0.02514         2.9750
         2849.5         12.137          8.193         49.071       -0.15681       -0.02594         2.9790
         2850.0         12.139          7.433         49.012       -0.15648       -0.02675         2.9740
         2850.5         12.141          6.692         48.933       -0.14876       -0.02715         2.9700
         2851.0         12.142          6.244         48.853       -0.15201       -0.02723         2.9730
         2851.5         12.139          6.031         48.774       -0.15527       -0.02732         2.9790
         2852.0         12.137          6.463         48.695       -0.15852       -0.02740         2.9840
         2852.5         12.134          6.823         48.702       -0.15863       -0.02765         2.9780
         2853.0         12.132          7.036         48.834       -0.15393       -0.02815         2.9710
         2853.5         12.129          6.804         48.966       -0.15371       -0.02865         2.9730
         2854.0         12.127          6.857         49.098       -0.15371       -0.02915         2.9770
         2854.5         12.124          7.053         49.230       -0.15894       -0.02874         2.9800
         2855.0         12.122          7.053         49.362       -0.15649       -0.02825         2.9780
         2855.5         12.120          6.876         49.364       -0.15447       -0.02776         2.9730
         2856.0         12.117          6.520         49.364       -0.14746       -0.02727         2.9680
         2856.5         12.115          6.303         49.358       -0.14712       -0.02678         2.9670
         2857.0         12.112          6.242         49.320       -0.14840       -0.02629         2.9660
         2857.5         12.110          6.241         49.281       -0.14583       -0.02604         2.9650
         2858.0         12.107          6.361         49.243       -0.13144       -0.02604         2.9320
         2858.5         12.105          6.573         49.212       -0.12647       -0.02698         2.9360
         2859.0         12.104          6.775         49.192       -0.12808       -0.02798         2.9410
         2859.5         12.110          7.012         49.172       -0.13349       -0.02813         2.9450
         2860.0         12.116          7.634         49.152       -0.13480       -0.02813         2.9500
         2860.5         12.122          8.079         49.131       -0.13381       -0.02813         2.9540
         2861.0         12.128          8.841         49.111       -0.13782       -0.02813         2.9590
         2861.5         12.134          8.831         49.091       -0.14626       -0.02813         2.9630
         2862.0         12.140          8.544         49.071       -0.14784       -0.02813         2.9680
         2862.5         12.146          8.210         49.051       -0.14663       -0.02813         2.9630
         2863.0         12.152          8.319         49.031       -0.14603       -0.02813         2.9570
         2863.5         12.159          8.987         49.010       -0.14212       -0.02824         2.9510
         2864.0         12.162          9.438         48.990       -0.13821       -0.02841         2.9450
         2864.5         12.162          9.654         48.970       -0.13430       -0.02858         2.9430
         2865.0         12.161          9.776         48.950       -0.13595       -0.02875         2.9510
         2865.5         12.161         10.029         48.964       -0.14193       -0.02847         2.9600
         2866.0         12.161         11.229         49.190       -0.14597       -0.02780         2.9650
         2866.5         12.161         11.229         49.417       -0.14353       -0.02749         2.9580
         2867.0         12.161         10.058         49.643       -0.13920       -0.02763         2.9500
         2867.5         12.161          8.782         49.869       -0.14103       -0.02778         2.9500
         2868.0         12.161          8.127         50.095       -0.14453       -0.02792         2.9530
         2868.5         12.161          7.505         50.150       -0.14557       -0.02806         2.9560
         2869.0         12.161          6.994         49.983       -0.14298       -0.02840         2.9590
         2869.5         12.161          6.697         49.816       -0.13587       -0.02887         2.9490
         2870.0         12.161          7.410         49.648       -0.13679       -0.02934         2.9380
         2870.5         12.163          8.122         49.481       -0.13006       -0.02925         2.9350
         2871.0         12.166          8.772         49.314       -0.13525       -0.02882         2.9400
         2871.5         12.169          8.638         49.147       -0.13288       -0.02839         2.9440
         2872.0         12.172          8.503         48.980       -0.13408       -0.02817         2.9490
         2872.5         12.175          8.369         49.080       -0.13927       -0.02835         2.9540
         2873.0         12.178          8.234         49.287       -0.13976       -0.02852         2.9550
         2873.5         12.181          8.100         49.494       -0.14356       -0.02870         2.9470
         2874.0         12.184          7.965         49.701       -0.14230       -0.02876         2.9390
         2874.5         12.187          7.676         49.908       -0.13714       -0.02860         2.9310
         2875.0         12.190          7.202         49.761       -0.13533       -0.02845         2.9240
         2875.5         12.193          6.995         49.561       -0.12684       -0.02829         2.9160
         2876.0         12.197          7.393         49.361       -0.12330       -0.02813         2.9080
         2876.5         12.200          7.791         49.160       -0.11618       -0.02790         2.9140
         2877.0         12.198          8.189         49.563       -0.11754       -0.02765         2.9250
         2877.5         12.196          9.275         49.701       -0.12551       -0.02743         2.9360
         2878.0         12.194          9.346         49.575       -0.14659       -0.02785         2.9460
         2878.5         12.192          9.030         49.726       -0.14858       -0.02827         2.9570
         2879.0         12.190          7.976         50.229       -0.14969       -0.02868         2.9680
         2879.5         12.188          7.325         50.644       -0.14804       -0.02910         2.9650
