###############################################
##         ENVERUS                           ##
##         ESS - Open Hole                   ##
##         PERMIAN / DELAWARE                ##
##         Nov 04 2023  V4.0                 ##
##         42-389-30297-00-00                ##
###############################################
## Copyright 2017-2023  ENVERUS.  All Rights Reserved. 
## Confidential - Property of ENVERUS, use governed by terms and 
## conditions found within the existing Information Services Subscription Agreement 
## (as may be amended, the “ISSA”) between Customer and ENVERUS. 
## 
~VERSION INFORMATION
# MNEM.UNIT                               DATA : DESCRIPTION OF MNEMONIC
#-----.-----     ----------------------------- : -----------------------------
VERS.                                     2.00 : CWLS LOG ASCII STANDARD - VERSION 2.00
WRAP.                                       NO : MULTIPLE LINES PER DEPTH STEP
VEND.                                  ENVERUS : VENDOR
TYPE.                          ESS - OPEN HOLE : ENVERUS ESSENTIAL CURVES – ACCESSIBLE THROUGH ENVERUS PRISM(TM)
DOC.                                  32306493 : ENVERUS HEADER RAW DOCUMENT ID
#___________________________________________________________________________________________________ 
~WELL INFORMATION 
# rQStLE5sYsP+YdYw4QOWpp6z6mWwFJBvCxgTqRv2Ioz+qyoYLl+79qTOna8BSHgUk5jTgp49hkgrAQ1kFKyHCg== 
# MNEM.UNIT                                              DATA : DESCRIPTION OF MNEMONIC 
#-----.-----                    ----------------------------- : ----------------------------- 
CNTY.                                                  REEVES : COUNTY 
STATE.                                                  TEXAS : STATE 
CNTRY.                                                    USA : COUNTRY 
API.                                             42-389-30297 : API (10 Digit) 
API_14.                                    42-389-30297-00-00 : API (14 Digits) 
API_14_std.                                 42-389-30297-0000 : API (14 Digits Standard) 
UWI.                                           42389302970000 : UNIQUE WELL ID 
WELL.                              R.S. BRENNAND, JR. ET AL 1 : WELL NAME
STRT.FT                                                   3.0 : START DEPTH
STOP.FT                                               13007.0 : STOP DEPTH
STEP.FT                                                   0.5 : STEP BETWEEN DEPTHS
NULL.                                                 -999.25 : NULL VALUE
#___________________________________________________________________________________________________ 
~CURVE INFORMATION 
# MNEM.UNIT           : CURVE DESCRIPTION 
#-----.-----          : ----------------------------- 
 DEPT.FT               : MEASURED DEPTH 
 CALI.IN               : CALIPER (CAL - CAL) 
 GR.API                : GAMMA RAY (GR) 
 DT.US/FT              : SONIC DELTA TRANSIT TIME (DT) 
 NPHI.V/V              : NEUTRON POROSITY (NPHI) 
 RHOB.G/CC             : BULK DENSITY (RHOB) 
 #___________________________________________________________________________________________________ 
~A         DEPT           CALI             GR             DT           NPHI           RHOB
# ...
         1983.0       -999.250         17.138       -999.250        0.07721      -999.2500
         1983.5       -999.250         16.637       -999.250        0.07282      -999.2500
         1984.0       -999.250         16.136       -999.250        0.06843      -999.2500
         1984.5       -999.250         14.997       -999.250        0.06404      -999.2500
         1985.0       -999.250         14.178       -999.250        0.05965      -999.2500
         1985.5       -999.250         13.358       -999.250        0.05526      -999.2500
         1986.0       -999.250         13.151       -999.250        0.05088      -999.2500
         1986.5       -999.250         12.776       -999.250        0.04649      -999.2500
         1987.0       -999.250         12.608       -999.250        0.04210      -999.2500
         1987.5       -999.250         12.506       -999.250        0.03771      -999.2500
         1988.0       -999.250         12.506       -999.250        0.03332      -999.2500
         1988.5       -999.250         12.507       -999.250        0.03326      -999.2500
         1989.0       -999.250         12.508       -999.250        0.04084      -999.2500
         1989.5       -999.250         12.509       -999.250        0.04843      -999.2500
         1990.0       -999.250         12.509       -999.250        0.05601      -999.2500
         1990.5       -999.250         12.510       -999.250        0.06360      -999.2500
         1991.0       -999.250         12.511       -999.250        0.07118      -999.2500
         1991.5       -999.250         12.564       -999.250        0.07877      -999.2500
         1992.0       -999.250         12.634       -999.250        0.08052      -999.2500
         1992.5       -999.250         12.704       -999.250        0.07756      -999.2500
         1993.0       -999.250         12.775       -999.250        0.07460      -999.2500
         1993.5       -999.250         12.845       -999.250        0.07164      -999.2500
         1994.0         10.124         12.915       -999.250        0.06868      -999.2500
         1994.5         10.125         12.985       -999.250        0.06572      -999.2500
         1995.0         10.126         13.055       -999.250        0.06276      -999.2500
         1995.5         10.126         13.126       -999.250        0.06136      -999.2500
         1996.0         10.127         13.196       -999.250        0.06198      -999.2500
         1996.5         10.128         13.266       -999.250        0.06260      -999.2500
         1997.0         10.129         13.336       -999.250        0.06323      -999.2500
         1997.5         10.129         13.407       -999.250        0.06385      -999.2500
         1998.0         10.130         13.477       -999.250        0.06447      -999.2500
         1998.5         10.131         13.717       -999.250        0.06509      -999.2500
         1999.0         10.131         14.003       -999.250        0.06571      -999.2500
         1999.5         10.132         14.288       -999.250        0.06960      -999.2500
         2000.0         10.133         14.574       -999.250        0.07894      -999.2500
         2000.5         10.134         14.860       -999.250        0.08015      -999.2500
         2001.0         10.134         16.846       -999.250        0.08118      -999.2500
         2001.5         10.135         15.572       -999.250        0.08221      -999.2500
         2002.0         10.136         14.297       -999.250        0.08324      -999.2500
         2002.5         10.136         13.022       -999.250        0.08809      -999.2500
         2003.0         10.137         13.491       -999.250        0.09532      -999.2500
         2003.5         10.138         14.230       -999.250        0.10254      -999.2500
         2004.0         10.139         14.969       -999.250        0.10823      -999.2500
         2004.5         10.139         15.707       -999.250        0.11378      -999.2500
         2005.0         10.140         16.446       -999.250        0.11932      -999.2500
         2005.5         10.141         17.185       -999.250        0.12486      -999.2500
         2006.0         10.141         17.924       -999.250        0.13040      -999.2500
         2006.5         10.142         18.663       -999.250        0.13594      -999.2500
         2007.0         10.143         19.402       -999.250        0.14149      -999.2500
         2007.5         10.144         20.141       -999.250        0.14703      -999.2500
         2008.0         10.144         20.880       -999.250        0.14992      -999.2500
         2008.5         10.145         21.594       -999.250        0.14711      -999.2500
         2009.0         10.146         21.460       -999.250        0.14430      -999.2500
         2009.5         10.147         21.325       -999.250        0.14148      -999.2500
         2010.0         10.147         21.191       -999.250        0.06953      -999.2500
         2010.5         10.148         21.056       -999.250        0.06651      -999.2500
         2011.0         10.149         20.922       -999.250        0.06348      -999.2500
         2011.5         10.149         20.787       -999.250        0.06046      -999.2500
         2012.0         10.150         20.653       -999.250        0.05743      -999.2500
         2012.5         10.150         20.518       -999.250        0.05441      -999.2500
         2013.0         10.150         20.384       -999.250        0.05138      -999.2500
         2013.5         10.150         20.248       -999.250        0.04836      -999.2500
         2014.0         10.150         20.110       -999.250        0.04533      -999.2500
         2014.5         10.150         19.973       -999.250        0.04231      -999.2500
         2015.0         10.150         19.835       -999.250        0.03928      -999.2500
         2015.5         10.150         19.698       -999.250        0.03626      -999.2500
         2016.0         10.150         19.560       -999.250        0.03323      -999.2500
         2016.5         10.150         19.423       -999.250        0.03021      -999.2500
         2017.0         10.151         19.576       -999.250        0.03170      -999.2500
         2017.5         10.151         20.115       -999.250        0.03465      -999.2500
         2018.0         10.151         20.654       -999.250        0.03759      -999.2500
         2018.5         10.151         21.193       -999.250        0.04053      -999.2500
         2019.0         10.151         21.732       -999.250        0.04347      -999.2500
         2019.5         10.151         22.271       -999.250        0.04642      -999.2500
         2020.0         10.151         22.810       -999.250        0.04936      -999.2500
         2020.5         10.151         23.349       -999.250        0.05230      -999.2500
         2021.0         10.151         23.888       -999.250        0.05525      -999.2500
         2021.5         10.151         24.427       -999.250        0.05819      -999.2500
         2022.0         10.151         24.965       -999.250        0.06113      -999.2500
         2022.5         10.151         25.504       -999.250        0.06408      -999.2500
         2023.0         10.151         26.043       -999.250        0.06702      -999.2500
         2023.5         10.152         26.582       -999.250        0.06277      -999.2500
         2024.0         10.155         27.121       -999.250        0.05841      -999.2500
         2024.5         10.158         27.483       -999.250        0.05404      -999.2500
         2025.0         10.161         27.577       -999.250        0.04967      -999.2500
         2025.5         10.164         27.670       -999.250        0.04531      -999.2500
         2026.0         10.167         27.764       -999.250        0.04094      -999.2500
         2026.5         10.170         27.857       -999.250        0.03658      -999.2500
