#--------------------------------------------------#
#-------------------ENVERUS, INC.------------------#
#------------------WWW.ENVERUS.COM-----------------#
#------------------COPYRIGHT 2020------------------#
#--------------------------------------------------#
#THIS FILE MAY BE USED ONLY IN ACCORDANCE WITH A CURRENT SUBSCRIPTION AGREEMENT BETWEEN
#THE USER AND ENVERUS, INC. NO PART OF THIS FILE MAY BE REPRODUCED, USED, COPIED,
#MODIFIED, PROPAGATED, OR DISTRIBUTED EXCEPT IN ACCORDANCE WITH THE SUBSCRIPTION
#AGREEMENT. UNAUTHORIZED USE OR DISTRIBUTION OF ALL OR ANY PART OF THIS FILE MAY VIOLATE
#COPYRIGHT, TRADEMARK, AND/OR OTHER LAWS AND IS SUBJECT TO CIVIL AS WELL AS CRIMINAL
#SANCTIONS.
#--------------------------------------------------#
#THIS FILE IS PROVIDED "AS-IS" AND ALL WARRANTIES ARE EXPRESSLY DISCLAIMED, WHETHER
#EXPRESS, ORAL, IMPLIED, STATUTORY OR OTHERWISE, INCLUDING ANY IMPLIED WARRANTY OF FITNESS
#FOR A PARTICULAR PURPOSE, MERCHANTABILITY, TITLE OR NON-INFRINGEMENT, AND ANY WARRANTIES
#ARISING BY VIRTUE OF CUSTOM OF TRADE OR COURSE OF DEALING.  FURTHER, ENVERUS, INC.
#AND ITS LICENSORS DO NOT REPRESENT OR WARRANT THAT THIS FILE WILL MEET USER'S
#REQUIREMENTS OR ARE SUITABLE FOR USER'S NEEDS OR THAT THE DATA OR RESULTS PROVIDED IN
#CONJUNCTION THEREWITH ARE CORRECT, ACCURATE, TIMELY OR RELIABLE. THESE DISCLAIMERS SHALL
#APPLY REGARDLESS OF ANY FAILURE OF ESSENTIAL PURPOSE OF ANY LIMITED REMEDY.  SOME
#JURISDICTIONS DO NOT ALLOW THE EXCLUSION OF CERTAIN WARRANTIES SO SOME OF THE ABOVE
#EXCLUSIONS MAY NOT APPLY. IN NO EVENT SHALL ENVERUS, INC. OR ANY OF ITS AFFILIATES
#BE LIABLE UNDER ANY LEGAL THEORY, WHETHER IN TORT (INCLUDING WITHOUT LIMITATION
#NEGLIGENCE), CONTRACT, STRICT LIABILITY, STATUTORY OR OTHERWISE, FOR ANY SPECIAL,
#INCIDENTAL, CONSEQUENTIAL, EXEMPLARY, PUNITIVE OR INDIRECT DAMAGE OF ANY KIND, INCLUDING
#WITHOUT LIMITATION LOSS OF REVENUE, PROFITS, GOODWILL, USE, AND/OR DATA OR THE COST OF
#PROCUREMENT OF SUBSTITUTE GOODS OR SERVICES, EVEN IF APPRISED OF THE POSSIBILITY OF SUCH
#DAMAGES IN ADVANCE.
#--------------------------------------------------#

~VERSION INFORMATION
VERS. 2.0 : CWLS LOG ASCII STANDARD - VERSION 2.0
WRAP.  NO : ONE LINE PER DEPTH STEP
~WELL INFORMATION
#MNEMONIC     .UNIT              VALUE :DESCRIPTION
STRT       .FT                47 :START DEPTH
STOP       .FT                15730 :STOP DEPTH
STEP       .FT                   0.500 :STEP
NULL       .                  -999.250 :NULL
UWI        .              42389303580000 :UNIQUE WELL ID
API        .              42389303580000 :API NUMBER
COMP       .         CIMAREX ENERGY CO. OF COLORADO :COMPANY
WELL       .        REEVES  AZ  FEE  1 :WELL
DATE       .                08-JAN-2006 :LOG DATE
~CURVE INFORMATION
#MNEMONIC     .UNIT      API CODE :CURVE DESCRIPTION
DEPTH       .FT                      :MEASURED DEPTH
NEUT.API        UNKNOWN   :NEUT
GR.API        UNKNOWN   :GR
DT.US/FT        UNKNOWN   :DT
CAL.INCH        UNKNOWN   :CAL
~A    DEPTH    NEUT    GR    DT    CAL
# ...
 8576     -999.250   60.104   63.028   12.341
 8576.5     -999.250   63.329   64.471   12.333
 8577     -999.250   64.786   67.436   12.324
 8577.5     -999.250   62.93   72.037   12.316
 8578     -999.250   61.075   73.997   12.307
 8578.5     -999.250   59.219   73.012   12.299
 8579     -999.250   57.363   72.027   12.29
 8579.5     -999.250   55.507   69.465   12.282
 8580     -999.250   54.389   66.901   12.273
 8580.5     -999.250   53.342   65.286   12.266
 8581     -999.250   52.295   65.425   12.271
 8581.5     -999.250   51.248   65.565   12.276
 8582     -999.250   50.201   65.705   12.281
 8582.5     -999.250   49.154   65.845   12.286
 8583     -999.250   47.607   65.985   12.291
 8583.5     -999.250   45.739   65.47   12.296
 8584     -999.250   43.871   64.919   12.301
 8584.5     -999.250   42.003   64.368   12.306
 8585     -999.250   40.135   63.817   12.311
 8585.5     -999.250   38.267   63.266   12.317
 8586     -999.250   36.399   62.714   12.322
 8586.5     -999.250   34.531   62.163   12.327
 8587     -999.250   32.663   62.184   12.332
 8587.5     -999.250   30.794   62.503   12.337
 8588     -999.250   28.926   62.822   12.342
 8588.5     -999.250   27.058   62.825   12.347
 8589     -999.250   25.19   62.102   12.352
 8589.5     -999.250   24.294   61.379   12.357
 8590     -999.250   26.709   60.655   12.362
 8590.5     -999.250   29.124   59.932   12.367
 8591     -999.250   31.539   59.209   12.373
 8591.5     -999.250   33.955   58.508   12.378
 8592     -999.250   36.37   60.107   12.383
 8592.5     -999.250   39.554   61.379   12.386
 8593     -999.250   43.174   62.188   12.386
 8593.5     -999.250   46.795   62.32   12.386
 8594     -999.250   50.415   61.585   12.386
 8594.5     -999.250   54.036   60.85   12.386
 8595     -999.250   57.656   60.115   12.386
 8595.5     -999.250   60.785   59.38   12.387
 8596     -999.250   60.778   60.912   12.387
 8596.5     -999.250   60.77   64.367   12.387
 8597     -999.250   60.763   73.93   12.387
 8597.5     -999.250   60.756   74.937   12.387
 8598     -999.250   60.748   73.906   12.387
 8598.5     -999.250   60.741   72.875   12.387
 8599     -999.250   60.65   71.783   12.388
 8599.5     -999.250   60.413   70.523   12.388
 8600     -999.250   60.176   69.263   12.388
 8600.5     -999.250   59.939   68.457   12.388
 8601     -999.250   59.702   68.316   12.388
 8601.5     -999.250   59.466   68.174   12.388
 8602     -999.250   59.229   68.033   12.389
 8602.5     -999.250   58.992   67.892   12.389
 8603     -999.250   58.481   68.328   12.389
 8603.5     -999.250   57.882   68.785   12.389
 8604     -999.250   57.283   69.549   12.389
 8604.5     -999.250   56.683   70.495   12.389
 8605     -999.250   56.084   71.44   12.389
 8605.5     -999.250   55.485   72.339   12.39
 8606     -999.250   54.886   71.546   12.39
 8606.5     -999.250   54.287   70.753   12.39
 8607     -999.250   53.688   69.995   12.39
 8607.5     -999.250   52.407   69.363   12.39
 8608     -999.250   51.05   68.73   12.39
 8608.5     -999.250   49.694   68.097   12.391
 8609     -999.250   48.338   67.551   12.391
 8609.5     -999.250   46.982   68.955   12.391
 8610     -999.250   45.626   68.355   12.391
 8610.5     -999.250   44.27   67.102   12.391
 8611     -999.250   42.913   65.85   12.391
 8611.5     -999.250   41.557   68.982   12.391
 8612     -999.250   40.201   67.551   12.392
 8612.5     -999.250   38.845   66.12   12.392
 8613     -999.250   39.002   64.67   12.392
 8613.5     -999.250   40.311   63.2   12.392
 8614     -999.250   41.619   61.776   12.392
 8614.5     -999.250   42.928   60.375   12.392
 8615     -999.250   44.236   58.974   12.392
 8615.5     -999.250   45.544   57.63   12.393
 8616     -999.250   42.625   56.299   12.393
 8616.5     -999.250   36.792   54.968   12.393
 8617     -999.250   30.959   54.431   12.393
 8617.5     -999.250   25.126   56.641   12.393
 8618     -999.250   27.08   61.624   12.393
 8618.5     -999.250   29.725   64.992   12.394
 8619     -999.250   32.37   63.85   12.393
 8619.5     -999.250   35.015   61.998   12.393
 8620     -999.250   37.66   55.775   12.393
 8620.5     -999.250   41.568   52.245   12.392
 8621     -999.250   48.172   49.423   12.392
 8621.5     -999.250   54.776   49.654   12.392
 8622     -999.250   61.38   64.491   12.391
 8622.5     -999.250   67.984   65.898   12.391
 8623     -999.250   74.588   65.776   12.391
 8623.5     -999.250   77.005   65.654   12.39
 8624     -999.250   76.281   67.882   12.39
 8624.5     -999.250   75.556   71.017   12.39
 8625     -999.250   74.832   72.24   12.39
 8625.5     -999.250   74.107   72.693   12.389
 8626     -999.250   72.949   73.145   12.389
 8626.5     -999.250   67.508   73.598   12.389
 8627     -999.250   62.066   74.667   12.388
 8627.5     -999.250   56.625   75.768   12.388
 8628     -999.250   51.183   75.923   12.388
 8628.5     -999.250   49.861   74.255   12.387
 8629     -999.250   51.386   72.587   12.387
 8629.5     -999.250   52.911   70.919   12.387
 8630     -999.250   54.436   69.251   12.387
 8630.5     -999.250   55.961   66.001   12.386
 8631     -999.250   57.486   65.431   12.386
 8631.5     -999.250   59.011   67.046   12.386
 8632     -999.250   60.537   68.956   12.385
 8632.5     -999.250   62.062   71.126   12.385
 8633     -999.250   63.587   68.886   12.385
 8633.5     -999.250   60.92   66.481   12.384
 8634     -999.250   49.697   66.6   12.384
 8634.5     -999.250   38.473   67.725   12.384
 8635     -999.250   27.25   68.851   12.383
 8635.5     -999.250   16.027   68.598   12.383
 8636     -999.250   9.057   67.968   12.383
 8636.5     -999.250   20.306   67.339   12.383
 8637     -999.250   31.555   66.71   12.382
 8637.5     -999.250   42.804   66.08   12.382
 8638     -999.250   54.053   67.065   12.382
 8638.5     -999.250   65.302   68.208   12.381
 8639     -999.250   63.301   69.352   12.381
 8639.5     -999.250   56.106   69.313   12.381
 8640     -999.250   48.912   68.651   12.38
 8640.5     -999.250   42.477   67.989   12.38
 8641     -999.250   45.753   67.326   12.38
 8641.5     -999.250   49.03   65.665   12.379
 8642     -999.250   52.306   62.705   12.379
 8642.5     -999.250   54.816   60.936   12.379
 8643     -999.250   56.845   62.154   12.379
 8643.5     -999.250   58.874   63.325   12.378
 8644     -999.250   60.903   64.352   12.378
 8644.5     -999.250   62.931   65.378   12.378
 8645     -999.250   64.438   66.405   12.377
 8645.5     -999.250   65.884   67.432   12.377
 8646     -999.250   67.329   68.142   12.377
 8646.5     -999.250   68.774   68.85   12.376
 8647     -999.250   70.219   69.558   12.376
 8647.5     -999.250   71.664   70.237   12.376
 8648     -999.250   73.11   70.903   12.376
 8648.5     -999.250   74.555   71.569   12.375
 8649     -999.250   72.915   72.234   12.374
 8649.5     -999.250   70.362   72.812   12.374
 8650     -999.250   67.81   71.586   12.373
 8650.5     -999.250   68.696   70.36   12.372
 8651     -999.250   70.165   69.134   12.372
 8651.5     -999.250   71.634   67.908   12.371
 8652     -999.250   73.103   66.682   12.37
 8652.5     -999.250   74.572   65.566   12.37
 8653     -999.250   76.041   64.664   12.369
 8653.5     -999.250   77.51   64.05   12.369
 8654     -999.250   78.313   64.414   12.368
 8654.5     -999.250   75.619   64.779   12.367
 8655     -999.250   72.926   71.405   12.367
 8655.5     -999.250   70.232   70.947   12.366
 8656     -999.250   67.538   70.532   12.365
 8656.5     -999.250   64.845   70.188   12.365
 8657     -999.250   62.151   69.843   12.364
 8657.5     -999.250   59.801   67.523   12.363
 8658     -999.250   57.801   64.056   12.363
 8658.5     -999.250   55.8   64.507   12.362
 8659     -999.250   53.8   66.854   12.361
 8659.5     -999.250   51.799   69.201   12.361
 8660     -999.250   52.568   69.09   12.36
 8660.5     -999.250   53.659   68.021   12.359
 8661     -999.250   54.749   63.237   12.359
 8661.5     -999.250   55.84   60.647   12.358
