#   WellGreen Tech Inc.   Digitizing Services
#   www.wellgreentech.com
#   email: sales@wellgreentech.com
#
~Version Information Block
 VERS.                2.00:     CWLS LOG ASCII STANDARD - VERSION 2.000000
 WRAP.                  NO:     One Line Per Depth Step
#
~Well Information Block
#MNEM.UNIT                     Data                         Information
#----------   ------------------------------------------   ----------------
 STRT.FT                                     4000.0000:     START DEPTH
 STOP.FT                                    15710.0000:     STOP DEPTH
 STEP.FT                                        0.5000:     STEP
 NULL.                                       -999.2500:     NULL VALUE
 COMP.                        THE SUPERIOR OIL COMPANY:     COMPANY
 WELL.                                FORTUNE STATE #1:     WELL
 FLD .                                    CHAPMAN DEEP:     FIELD
 LOC .                                                :     LOCATION
 CNTY.                                          REEVES:     COUNTY
 STAT.                                              TX:     STATE
 CTRY.                                             USA:     COUNTRY
 SRVC.                                    SCHLUMBERGER:     SERVICE COMPANY
 DATE.                                      11/10/1974:     DATE
 API .               42389302950000:    API NUMBER
 UWI .               42389302950000:    UWI NUMBER
 TVD .                                              NO:     TVD flag
 MATRIX .G/CC                  :    Matrix Density
#
~Curve Information Block
#MNEM.UNIT       API CODE      Curve Description
#----------    -------------   -------------------
 DEPT.FT                   :   Depth in Feet
 CALI.IN       70 280 01 01:   Caliper
 GR  .API      35 310 01 01:   Gamma Ray
 DT  .US/F     60 520 08 01:   Sonic transit time
#
~Parameter Information Block
#MNEM.UNIT            Value               Description
#----------    --------------------    -------------------
 RUN .                         ONE:    Run Number
 PDAT.                          GL:    Permanent Datum
 EPD .FT                  000.0000:    Elevation Of Perm. Datum
 LMF .               KELLY BUSHING:    Log Measured From
 EKB .FT                  3065.0:    Elevation Of Kelly Bushing
 DF .FT                    000.0:    Elevation Of Derrick Floor
 GL .FT                   3034.0:    Elevation Of Ground Level
 TD .FT                  15710.0000:    Total Depth
 BHT .DEGF               260.00 :  Bottom Hole Temperature
 BLI .FT               15710.0000:   Bottom Log Interval
 CSGSIZE.IN              9.6250:   Casing Size
 BITSIZE.IN               8.750 :  BitSize
 CSGD.FT                  4000.0:    Casing Bottom (Driller) 1
 CSGL.FT                  400.0:    Casing Bottom (Logger) 1
 MUD . BRINE                                :    Drilling Fluid Type
 MUDV .CP                  27.0:    Drilling Fluid Viscosity
 MUDD .LB/USG              9.25:    Drilling Fluid Density
 PH.                        6.2:    Drilling Fluid Ph
 FL .ML/30MIN              11.0:    Drilling Fluid Loss
 MUDS .FLOW LINE                        :    Mud Sample Source
 RM .OHMM                   0.09:    Resistivity Of Mud Sample
 RMT .DEGF                 60.00:    Mud Sample Temperature
 RMF .OHMM                  0.09:    Mud Filtrate Resistivity
 RMFT.DEGF                 60.00:    Mud Filtrate Sample Temperature
 RMC .OHMM                  0.00:    Mud Cake Resistivity
 RMCT.DEGF                 00.00:    Mud Cake Sample Temperature
 RMB .OHMM                 0.027:    Mud Resistivity At Bht
 TMAX .DEGF               260.00:    Bottom Hole Temperature
#
~Other Information Block
<DescLogPlotStart>   NEURALOG PLOT DEFINITION
PLOTDEFVERSION: 3
LASFILE: D:\nds\projects\G\DAVE\new work\RS Energy - Texas - May 17 - Folder 2\
DEPTHSCALE: 240.000000
RESOLUTION: 400
DEPTHLABELFREQ: 100.000000
HEAVYGRIDFREQ: 100.000000
MEDIUMGRIDFREQ: 50.000000
LIGHTGRIDFREQ: 10.000000
#
#   TRACK 1
#
STARTTRACK: 
 LEFTX: 0.500000 inch
 RIGHTX: 3.000000 inch
 SCALETYPE: Linear
 NUMCHARTDIVISIONS: 10
CURVE: CALI  6.000000   16.000000  (0,0,255)      Solid             2     N    
CURVE: GR    0.000000   125.000000 (0,131,131)    Dot               2     Y    
BACKUP: 125.000000 250.000000 (0,131,131)    Dot               2    
ENDTRACK: 
#
#   TRACK 2
#
STARTTRACK: 
 LEFTX: 3.500000 inch
 RIGHTX: 8.500000 inch
 SCALETYPE: Linear
 NUMCHARTDIVISIONS: 10
CURVE: DT    100.000000 40.000000  (255,0,255)    Solid             2     Y    
BACKUP: 160.000000 100.000000 (255,0,255)    Solid             2    
ENDTRACK: 
<DescLogPlotEnd>
~A DEPTH     CALI             GR               DT              
# ...
   13312.500 10.644           69.008           77.336          
   13313.000 10.689           74.638           80.203          
   13313.500 10.734           80.288           82.199          
   13314.000 10.778           80.282           77.821          
   13314.500 10.809           78.324           72.935          
   13315.000 10.775           69.920           66.203          
   13315.500 10.740           61.531           66.861          
   13316.000 10.706           56.232           69.005          
   13316.500 10.710           59.653           71.066          
   13317.000 10.715           62.202           72.889          
   13317.500 10.719           65.121           73.817          
   13318.000 10.724           63.461           73.572          
   13318.500 10.729           60.720           72.982          
   13319.000 10.734           61.396           72.179          
   13319.500 10.739           62.295           71.322          
   13320.000 10.744           63.191           70.624          
   13320.500 10.692           64.088           70.243          
   13321.000 10.609           64.576           72.165          
   13321.500 10.527           63.366           72.451          
   13322.000 10.567           65.554           71.091          
   13322.500 10.652           66.252           69.514          
   13323.000 10.524           65.226           67.305          
   13323.500 10.360           60.250           66.811          
   13324.000 10.327           56.553           67.849          
   13324.500 10.390           57.467           69.483          
   13325.000 10.464           59.428           70.522          
   13325.500 10.538           62.104           72.314          
   13326.000 10.612           64.948           73.589          
   13326.500 10.676           63.999           73.976          
   13327.000 10.679           66.305           72.595          
   13327.500 10.682           67.137           71.176          
   13328.000 10.683           64.129           69.821          
   13328.500 10.586           58.882           70.777          
   13329.000 10.568           53.500           73.190          
   13329.500 10.598           57.171           75.764          
   13330.000 10.713           63.424           77.861          
   13330.500 10.823           70.914           79.877          
   13331.000 10.794           78.400           81.895          
   13331.500 10.762           80.998           83.465          
   13332.000 10.811           82.727           84.010          
   13332.500 10.874           87.390           84.715          
   13333.000 10.858           89.800           80.679          
   13333.500 10.887           80.680           76.068          
   13334.000 10.898           70.839           71.895          
   13334.500 10.776           62.928           68.505          
   13335.000 10.732           56.658           67.937          
   13335.500 10.726           51.599           69.292          
   13336.000 10.721           50.923           71.022          
   13336.500 10.716           53.941           70.622          
   13337.000 10.711           59.442           69.880          
   13337.500 10.706           57.426           72.550          
   13338.000 10.712           58.641           74.435          
   13338.500 10.719           59.805           75.323          
   13339.000 10.727           60.399           74.909          
   13339.500 10.735           59.176           74.460          
   13340.000 10.759           58.502           74.010          
   13340.500 10.783           57.845           74.517          
   13341.000 10.807           56.453           76.099          
   13341.500 10.831           55.027           76.218          
   13342.000 10.799           56.999           74.306          
   13342.500 10.690           59.398           71.643          
   13343.000 10.580           57.162           67.540          
   13343.500 10.476           54.378           65.735          
   13344.000 10.509           50.063           64.826          
   13344.500 10.527           45.241           64.662          
   13345.000 10.428           44.004           64.497          
   13345.500 10.386           42.834           65.874          
   13346.000 10.445           43.852           67.691          
   13346.500 10.504           45.591           69.578          
   13347.000 10.563           44.474           71.464          
   13347.500 10.622           47.033           72.818          
   13348.000 10.649           49.751           73.247          
   13348.500 10.655           52.295           72.365          
   13349.000 10.661           51.225           70.810          
   13349.500 10.662           50.324           69.372          
   13350.000 10.628           49.682           68.871          
   13350.500 10.497           47.993           68.206          
   13351.000 10.403           47.354           68.765          
   13351.500 10.395           49.580           69.253          
   13352.000 10.388           49.948           68.416          
   13352.500 10.380           51.773           70.100          
   13353.000 10.395           54.307           71.185          
   13353.500 10.469           59.492           72.909          
   13354.000 10.542           64.801           74.328          
   13354.500 10.616           70.102           74.477          
   13355.000 10.606           74.015           75.155          
   13355.500 10.595           73.904           76.478          
   13356.000 10.710           78.458           78.973          
   13356.500 10.796           79.931           80.342          
   13357.000 10.862           79.242           80.840          
   13357.500 10.928           77.557           81.866          
   13358.000 10.994           81.930           82.399          
   13358.500 11.028           86.889           82.235          
   13359.000 11.047           87.673           81.016          
   13359.500 11.065           83.912           79.439          
   13360.000 11.084           77.179           77.857          
   13360.500 11.104           71.859           77.470          
   13361.000 11.044           66.701           77.591          
   13361.500 10.985           67.519           77.294          
   13362.000 11.025           68.863           79.566          
   13362.500 11.034           68.877           81.001          
   13363.000 11.009           67.651           80.882          
   13363.500 10.984           68.376           79.687          
   13364.000 10.873           72.520           76.837          
   13364.500 10.796           70.878           74.896          
   13365.000 10.767           68.273           74.884          
   13365.500 10.655           66.180           75.257          
   13366.000 10.485           69.280           77.029          
   13366.500 10.357           71.928           77.564          
   13367.000 10.369           69.898           76.240          
   13367.500 10.380           69.735           76.756          
   13368.000 10.391           67.735           76.423          
   13368.500 10.434           66.063           76.467          
   13369.000 10.499           67.408           76.116          
   13369.500 10.563           63.710           74.409          
   13370.000 10.511           61.121           72.631          
   13370.500 10.455           60.610           74.631          
   13371.000 10.463           60.797           76.366          
   13371.500 10.484           62.530           77.216          
   13372.000 10.506           66.438           77.176          
   13372.500 10.528           69.606           76.243          
   13373.000 10.528           67.989           75.020          
   13373.500 10.445           62.805           73.734          
   13374.000 10.363           62.192           73.199          
   13374.500 10.281           60.961           74.886          
