###############################################
##         ENVERUS                           ##
##         ESS - Open Hole                   ##
##         PERMIAN / DELAWARE                ##
##         Nov 04 2023  V4.0                 ##
##         42-389-30259-00-00                ##
###############################################
## Copyright 2017-2023  ENVERUS.  All Rights Reserved. 
## Confidential - Property of ENVERUS, use governed by terms and 
## conditions found within the existing Information Services Subscription Agreement 
## (as may be amended, the “ISSA”) between Customer and ENVERUS. 
## 
~VERSION INFORMATION
# MNEM.UNIT                               DATA : DESCRIPTION OF MNEMONIC
#-----.-----     ----------------------------- : -----------------------------
VERS.                                     2.00 : CWLS LOG ASCII STANDARD - VERSION 2.00
WRAP.                                       NO : MULTIPLE LINES PER DEPTH STEP
VEND.                                  ENVERUS : VENDOR
TYPE.                          ESS - OPEN HOLE : ENVERUS ESSENTIAL CURVES – ACCESSIBLE THROUGH ENVERUS PRISM(TM)
DOC.                                  32063127 : ENVERUS HEADER RAW DOCUMENT ID
#___________________________________________________________________________________________________ 
~WELL INFORMATION 
# gPsidqVjAScFWwbHY3NvrhVb9Q0dnpAvxUas8qP1mSjKWoj7hBgJ2nw/4lW9Nf69eTG+8mlPQw3CFq6Jh/Hagw== 
# MNEM.UNIT                                              DATA : DESCRIPTION OF MNEMONIC 
#-----.-----                    ----------------------------- : ----------------------------- 
CNTY.                                                  REEVES : COUNTY 
STATE.                                                  TEXAS : STATE 
CNTRY.                                                    USA : COUNTRY 
API.                                             42-389-30259 : API (10 Digit) 
API_14.                                    42-389-30259-00-00 : API (14 Digits) 
API_14_std.                                 42-389-30259-0000 : API (14 Digits Standard) 
UWI.                                           42389302590000 : UNIQUE WELL ID 
WELL.                                         FORTUNE UNIT  1 : WELL NAME
STRT.FT                                                     0 : START DEPTH
STOP.FT                                               15675.0 : STOP DEPTH
STEP.FT                                                   0.5 : STEP BETWEEN DEPTHS
NULL.                                                 -999.25 : NULL VALUE
COMP.                          SANDRIDGE EXPL. AND PROD.  LLC : COMPANY 
DATE.                                             19-FEB-2007 : LOG DATE
#___________________________________________________________________________________________________ 
~CURVE INFORMATION 
# MNEM.UNIT           : CURVE DESCRIPTION 
#-----.-----          : ----------------------------- 
 DEPT.FT               : MEASURED DEPTH 
 CALI__B.IN            : CALIPER (CAL - CAL) 
 GR__B.API             : GAMMA RAY (GR) 
 DT__B.US/FT           : SONIC DELTA TRANSIT TIME (DT) 
 #___________________________________________________________________________________________________ 
~A         DEPT        CALI__B          GR__B          DT__B
# ...
        13266.0         10.554        108.916         83.403
        13266.5         10.596        111.809         82.674
        13267.0         10.603        106.348         82.378
        13267.5         10.607        100.790         80.913
        13268.0         10.611         96.239         79.449
        13268.5         10.614         94.906         79.544
        13269.0         10.618         95.374         79.726
        13269.5         10.651         95.906         80.658
        13270.0         10.687         96.439         81.591
        13270.5         10.673         96.971         82.523
        13271.0         10.575         95.262         81.033
        13271.5         10.490         92.657         79.502
        13272.0         10.483         90.051         78.300
        13272.5         10.477         87.446         77.260
        13273.0         10.470         85.955         77.600
        13273.5         10.464         87.618         78.492
        13274.0         10.457         89.281         79.028
        13274.5         10.443         87.580         78.819
        13275.0         10.425         84.498         77.208
        13275.5         10.408         81.415         77.133
        13276.0         10.390         81.567         77.551
        13276.5         10.372         81.874         77.970
        13277.0         10.371         82.512         78.222
        13277.5         10.385         84.543         75.743
        13278.0         10.399         86.574         73.796
        13278.5         10.413         88.605         75.616
        13279.0         10.427         90.235         77.437
        13279.5         10.436         89.569         79.258
        13280.0         10.436         88.483         79.005
        13280.5         10.436         86.882         78.579
        13281.0         10.436         85.281         78.258
        13281.5         10.436         83.680         76.145
        13282.0         10.436         82.078         74.425
        13282.5         10.445         81.314         74.448
        13283.0         10.458         85.460         76.543
        13283.5         10.471         87.442         79.703
        13284.0         10.458         86.658         80.601
        13284.5         10.438         85.874         78.590
        13285.0         10.418         85.089         75.964
        13285.5         10.399         85.693         74.309
        13286.0         10.379         86.582         74.416
        13286.5         10.360         91.729         76.291
        13287.0         10.346         97.265         78.216
        13287.5         10.348        102.800         80.142
        13288.0         10.349        108.336         82.068
        13288.5         10.350        113.794         83.993
        13289.0         10.352        107.687         85.123
        13289.5         10.353        101.581         83.877
        13290.0         10.354         95.475         82.242
        13290.5         10.356         89.368         80.607
        13291.0         10.357         83.262         79.426
        13291.5         10.358         84.629         78.726
        13292.0         10.360         83.677         78.026
        13292.5         10.361         79.999         76.963
        13293.0         10.363         76.682         75.884
        13293.5         10.364         76.111         74.805
        13294.0         10.365         78.479         74.128
        13294.5         10.367         82.578         75.497
        13295.0         10.368         86.677         76.956
        13295.5         10.369         90.776         78.415
        13296.0         10.371         94.876         79.874
        13296.5         10.372         95.519         80.905
        13297.0         10.373         94.851         80.894
        13297.5         10.375         94.872         80.883
        13298.0         10.376         98.123         80.872
        13298.5         10.377        102.041         81.509
        13299.0         10.379        107.873         82.181
        13299.5         10.380        113.706         82.853
        13300.0         10.381        119.538         85.156
        13300.5         10.383        125.371         87.814
        13301.0         10.395        121.484         89.756
        13301.5         10.407        119.304         90.172
        13302.0         10.419        121.520         89.504
        13302.5         10.431        123.736         88.836
        13303.0         10.444        124.227         88.830
        13303.5         10.456        124.107         89.639
        13304.0         10.468        123.294         90.448
        13304.5         10.480        121.446         90.189
        13305.0         10.492        119.597         88.838
        13305.5         10.418        114.516         84.838
        13306.0         10.340        107.643         80.838
        13306.5         10.261        100.770         78.745
        13307.0         10.284         98.179         78.852
        13307.5         10.352        107.431         80.613
        13308.0         10.363        116.683         82.975
        13308.5         10.361        117.218         84.524
        13309.0         10.358        113.929         84.007
        13309.5         10.356        110.639         83.783
        13310.0         10.353        111.908         84.648
        13310.5         10.351        113.461         85.513
        13311.0         10.349        115.013         85.751
        13311.5         10.362        116.573         84.615
        13312.0         10.419        118.190         85.140
        13312.5         10.475        119.808         86.800
        13313.0         10.531        120.657         87.363
        13313.5         10.588        116.509         86.847
        13314.0         10.644        112.255         85.583
        13314.5         10.637        101.721         86.100
        13315.0         10.553         91.187         94.020
        13315.5         10.469         80.654         91.469
        13316.0         10.385         70.120         69.207
        13316.5         10.359         61.969         59.918
        13317.0         10.449         64.791         59.349
        13317.5         10.522         93.066         64.824
        13318.0         10.451        118.733         70.298
        13318.5         10.391        133.027         79.951
        13319.0         10.540        129.393         83.947
        13319.5         10.690        114.492         84.994
        13320.0         10.753        100.417         84.218
        13320.5         10.727         86.342         82.188
        13321.0         10.700         79.140         80.962
        13321.5         10.864         75.464         79.548
        13322.0         10.863         71.787         79.003
        13322.5         10.930         69.494         79.699
        13323.0         10.812         70.909         79.298
        13323.5         10.695         72.324         79.618
        13324.0         10.578         73.738         76.939
        13324.5         10.504         69.052         71.575
        13325.0         10.444         63.440         66.164
        13325.5         10.385         57.828         62.108
        13326.0         10.325         55.928         60.498
        13326.5         10.291         57.923         62.784
        13327.0         10.286         59.918         65.426
        13327.5         10.282         61.912         68.068
        13328.0         10.277         62.715         69.035
        13328.5         10.272         59.539         67.798
        13329.0         10.268         56.364         66.560
        13329.5         10.263         53.188         65.415
        13330.0         10.258         56.664         65.359
        13330.5         10.254         61.383         66.405
        13331.0         10.249         66.103         67.451
        13331.5         10.244         70.814         67.553
