###############################################
##         ENVERUS                           ##
##         ESS - Open Hole                   ##
##         PERMIAN / DELAWARE                ##
##         Nov 04 2023  V4.0                 ##
##         42-389-32421-01-00                ##
###############################################
## Copyright 2017-2023  ENVERUS.  All Rights Reserved. 
## Confidential - Property of ENVERUS, use governed by terms and 
## conditions found within the existing Information Services Subscription Agreement 
## (as may be amended, the “ISSA”) between Customer and ENVERUS. 
## 
~VERSION INFORMATION
# MNEM.UNIT                               DATA : DESCRIPTION OF MNEMONIC
#-----.-----     ----------------------------- : -----------------------------
VERS.                                     2.00 : CWLS LOG ASCII STANDARD - VERSION 2.00
WRAP.                                       NO : MULTIPLE LINES PER DEPTH STEP
VEND.                                  ENVERUS : VENDOR
TYPE.                          ESS - OPEN HOLE : ENVERUS ESSENTIAL CURVES – ACCESSIBLE THROUGH ENVERUS PRISM(TM)
DOC.                                  51227099 : ENVERUS HEADER RAW DOCUMENT ID
#___________________________________________________________________________________________________ 
~WELL INFORMATION 
# zrraAS4ibxVPgm4F4FjILRFQbgMcjf5VKWH9QXz9oP+5l3DBeEvHFHP9dTNjNwXm2+WMaTXZz7qhRLDoyN0AVg== 
# MNEM.UNIT                                              DATA : DESCRIPTION OF MNEMONIC 
#-----.-----                    ----------------------------- : ----------------------------- 
CNTY.                                                  REEVES : COUNTY 
STATE.                                                  TEXAS : STATE 
CNTRY.                                                    USA : COUNTRY 
API.                                             42-389-32421 : API (10 Digit) 
API_14.                                    42-389-32421-01-00 : API (14 Digits) 
API_14_std.                                 42-389-32421-0100 : API (14 Digits Standard) 
UWI.                                           42389324210100 : UNIQUE WELL ID 
WELL.                                      ARMSTRONG STATE #1 : WELL NAME
STRT.FT                                                2000.0 : START DEPTH
STOP.FT                                               14700.0 : STOP DEPTH
STEP.FT                                                   0.5 : STEP BETWEEN DEPTHS
NULL.                                                 -999.25 : NULL VALUE
COMP.                                   BULLDOG OPERATING CO. : COMPANY 
FLD.                                                  WILDCAT : FIELD 
LOC.                                                3-59-2778 : LOCATION 
SRVC.                                            SCHLUMBERGER : SERVICE COMPANY 
DATE.                                              08/28/2006 : DATE 
PREV_APII.                                       423893242100 : API NUMBER 
PREV_UWI.                                        423893242100 : UWI NUMBER 
TVD.                                                       NO : TVD FLAG
#___________________________________________________________________________________________________ 
~PARAMETER INFORMATION 
# MNEM.UNIT                                              DATA : DESCRIPTION OF MNEMONIC 
#-----.-----                    ----------------------------- : ----------------------------- 
RUN.                                                      ONE : RUN NUMBER 
PDAT.                                                      GL : PERMANENT DATUM 
EPD.FT                                              3134.8000 : ELEVATION OF PERM. DATUM 
LMF.                                            KELLY BUSHING : LOG MEASURED FROM 
EKB.FT                                              3157.8000 : ELEVATION OF KELLY BUSHING 
DF.FT                                               3156.8000 : ELEVATION OF DERRICK FLOOR 
GL.FT                                               3134.8000 : ELEVATION OF GROUND LEVEL 
TD.FT                                              14700.0000 : TOTAL DEPTH 
BHT.DEGF                                               230.00 : BOTTOM HOLE TEMPERATURE 
BLI.FT                                             14700.0000 : BOTTOM LOG INTERVAL 
CSGSIZE.IN                                             9.6250 : CASING SIZE 
BITSIZE.IN                                              8.750 : BITSIZE 
CSGD.FT                                                  2014 : CASING BOTTOM (DRILLER) 1 
CSGL.FT                                                  2014 : CASING BOTTOM (LOGGER) 1 
MUD.                                                    BRINE : DRILLING FLUID TYPE 
MUDV.CP                                               31.0000 : DRILLING FLUID VISCOSITY 
MUDD.LB/USG                                            9.3000 : DRILLING FLUID DENSITY 
FL.ML/30MIN                                           13.0000 : DRILLING FLUID LOSS 
PH.                                                   10.0000 : DRILLING FLUID PH 
MUDS.                                        CIRCULATION TANK : MUD SAMPLE SOURCE 
RM.OHMM                                                0.0540 : RESISTIVITY OF MUD SAMPLE 
RMT.DEGF                                              90.0000 : MUD SAMPLE TEMPERATURE 
RMF.OHMM                                               0.0640 : MUD FILTRATE RESISTIVITY 
RMFT.DEGF                                             80.0000 : MUD FILTRATE SAMPLE TEMPERATURE
#___________________________________________________________________________________________________ 
~CURVE INFORMATION 
# MNEM.UNIT           : CURVE DESCRIPTION 
#-----.-----          : ----------------------------- 
 DEPT.FT               : MEASURED DEPTH 
 DT.US/FT              : SONIC DELTA TRANSIT TIME (DELTA T) 
 SPHI.V/V              : SONIC POROSITY (SONIC POROSITY) 
 #___________________________________________________________________________________________________ 
~A         DEPT             DT           SPHI
# ...
         7916.0         49.982        0.02400
         7916.5         50.365        0.02200
         7917.0         50.629        0.02700
         7917.5         52.458        0.04600
         7918.0         54.477        0.06900
         7918.5         58.953        0.09200
         7919.0         62.663        0.11500
         7919.5         64.934        0.12900
         7920.0         65.027        0.13000
         7920.5         61.024        0.10400
         7921.0         57.778        0.08300
         7921.5         55.594        0.06100
         7922.0         55.091        0.05600
         7922.5         55.881        0.07800
         7923.0         58.612        0.09500
         7923.5         61.342        0.11300
         7924.0         62.971        0.11800
         7924.5         63.865        0.12300
         7925.0         64.760        0.12800
         7925.5         65.654        0.13500
         7926.0         65.654        0.13200
         7926.5         64.522        0.12700
         7927.0         63.579        0.12000
         7927.5         62.636        0.11400
         7928.0         64.764        0.13000
         7928.5         66.891        0.14700
         7929.0         69.000        0.16400
         7929.5         71.110        0.18000
         7930.0         73.474        0.18800
         7930.5         72.837        0.18900
         7931.0         72.032        0.18000
         7931.5         69.420        0.16800
         7932.0         67.245        0.15000
         7932.5         65.070        0.13200
         7933.0         62.894        0.11100
         7933.5         61.692        0.10300
         7934.0         62.002        0.11300
         7934.5         63.979        0.13000
         7935.0         66.447        0.14600
         7935.5         68.911        0.16300
         7936.0         69.944        0.16400
         7936.5         70.018        0.16500
         7937.0         70.069        0.17100
         7937.5         71.018        0.17500
         7938.0         71.651        0.17400
         7938.5         67.604        0.14800
         7939.0         64.247        0.12600
         7939.5         60.899        0.10400
         7940.0         58.228        0.07700
         7940.5         58.511        0.08800
         7941.0         58.813        0.10700
         7941.5         62.819        0.12900
         7942.0         66.157        0.15100
         7942.5         69.495        0.17300
         7943.0         73.501        0.19000
         7943.5         73.367        0.18900
         7944.0         71.127        0.17300
         7944.5         67.505        0.14700
         7945.0         63.883        0.11500
         7945.5         60.262        0.09900
         7946.0         58.612        0.08300
         7946.5         61.630        0.10300
         7947.0         64.145        0.11900
         7947.5         66.660        0.13600
         7948.0         68.571        0.15200
         7948.5         70.080        0.16900
         7949.0         71.288        0.17300
         7949.5         71.087        0.16700
         7950.0         68.356        0.15200
         7950.5         65.625        0.13700
         7951.0         63.441        0.11900
         7951.5         63.239        0.12100
         7952.0         65.293        0.13100
         7952.5         67.347        0.14600
         7953.0         69.401        0.16000
         7953.5         71.455        0.17500
         7954.0         73.099        0.18700
         7954.5         72.696        0.18600
         7955.0         71.439        0.18600
         7955.5         69.376        0.15800
         7956.0         66.121        0.13400
         7956.5         62.862        0.11000
         7957.0         59.605        0.08100
         7957.5         56.347        0.06400
         7958.0         52.436        0.03900
         7958.5         52.287        0.03800
         7959.0         52.052        0.03500
         7959.5         52.374        0.03700
         7960.0         52.777        0.05600
         7960.5         58.209        0.08600
         7961.0         62.736        0.11500
         7961.5         67.264        0.14500
         7962.0         67.264        0.14800
         7962.5         65.704        0.13400
         7963.0         63.755        0.11600
         7963.5         61.063        0.10200
         7964.0         61.709        0.11000
         7964.5         62.902        0.11700
         7965.0         64.095        0.12500
         7965.5         65.290        0.13200
         7966.0         66.250        0.13800
         7966.5         65.959        0.13600
         7967.0         65.720        0.13400
         7967.5         65.453        0.13200
         7968.0         65.252        0.13900
         7968.5         67.398        0.15300
         7969.0         69.186        0.16400
         7969.5         70.975        0.17500
         7970.0         71.690        0.17500
         7970.5         71.690        0.17600
         7971.0         70.282        0.17000
         7971.5         67.867        0.15500
         7972.0         64.849        0.13300
         7972.5         61.831        0.11000
         7973.0         61.328        0.10100
         7973.5         62.334        0.11300
         7974.0         65.604        0.14000
         7974.5         68.873        0.15700
         7975.0         68.471        0.15900
         7975.5         66.459        0.14400
         7976.0         63.944        0.11900
         7976.5         61.429        0.10400
         7977.0         62.233        0.11600
         7977.5         65.424        0.13600
         7978.0         68.083        0.15900
         7978.5         69.628        0.16400
         7979.0         69.477        0.16100
         7979.5         68.538        0.15300
         7980.0         66.732        0.13800
         7980.5         64.504        0.12400
         7981.0         61.831        0.10600
         7981.5         61.831        0.10700
         7982.0         63.441        0.12100
         7982.5         66.085        0.14500
         7983.0         69.328        0.16900
         7983.5         72.642        0.18400
         7984.0         72.433        0.18600
         7984.5         72.228        0.18300
         7985.0         72.021        0.18000
         7985.5         72.071        0.18100
         7986.0         72.505        0.18600
         7986.5         72.929        0.18600
         7987.0         71.729        0.18600
         7987.5         69.447        0.16400
         7988.0         65.407        0.13700
         7988.5         62.884        0.10800
         7989.0         62.584        0.11400
         7989.5         63.684        0.12400
         7990.0         65.058        0.13400
         7990.5         66.459        0.13900
         7991.0         66.207        0.13700
         7991.5         65.956        0.13400
         7992.0         66.278        0.13800
         7992.5         66.982        0.14500
         7993.0         66.861        0.14300
         7993.5         66.132        0.13900
         7994.0         65.314        0.13200
         7994.5         64.497        0.12500
         7995.0         63.843        0.12000
         7995.5         64.290        0.12500
         7996.0         65.911        0.13800
         7996.5         67.532        0.15100
         7997.0         69.477        0.16600
         7997.5         70.483        0.16800
         7998.0         70.080        0.16500
         7998.5         69.647        0.15900
         7999.0         67.556        0.14700
         7999.5         65.463        0.13100
         8000.0         63.366        0.11600
         8000.5         61.266        0.10000
         8001.0         59.162        0.08100
         8001.5         57.057        0.07200
         8002.0         55.372        0.06100
         8002.5         54.444        0.05000
