###############################################
##         ENVERUS                           ##
##         ESS - Open Hole                   ##
##         PERMIAN / DELAWARE                ##
##         Nov 02 2023  V4.0                 ##
##         42-301-31112-00-00                ##
###############################################
## Copyright 2017-2023  ENVERUS.  All Rights Reserved. 
## Confidential - Property of ENVERUS, use governed by terms and 
## conditions found within the existing Information Services Subscription Agreement 
## (as may be amended, the “ISSA”) between Customer and ENVERUS. 
## 
~VERSION INFORMATION
# MNEM.UNIT                               DATA : DESCRIPTION OF MNEMONIC
#-----.-----     ----------------------------- : -----------------------------
VERS.                                     2.00 : CWLS LOG ASCII STANDARD - VERSION 2.00
WRAP.                                       NO : MULTIPLE LINES PER DEPTH STEP
VEND.                                  ENVERUS : VENDOR
TYPE.                          ESS - OPEN HOLE : ENVERUS ESSENTIAL CURVES – ACCESSIBLE THROUGH ENVERUS PRISM(TM)
DOC.                                  31879965 : ENVERUS HEADER RAW DOCUMENT ID
#___________________________________________________________________________________________________ 
~WELL INFORMATION 
# p11foxtE5QnwhaJbtzBz2LJF4p4dkL7jzyXNzohJvMqLCglFSJK87xuVm3WB3m+8huK6qzS+fp5X73xeHrMy5w== 
# MNEM.UNIT                                              DATA : DESCRIPTION OF MNEMONIC 
#-----.-----                    ----------------------------- : ----------------------------- 
CNTY.                                                  LOVING : COUNTY 
STATE.                                                  TEXAS : STATE 
CNTRY.                                                    USA : COUNTRY 
API.                                             42-301-31112 : API (10 Digit) 
API_14.                                    42-301-31112-00-00 : API (14 Digits) 
API_14_std.                                 42-301-31112-0000 : API (14 Digits Standard) 
UWI.                                           42301311120000 : UNIQUE WELL ID 
WELL.                                                    JR 1 : WELL NAME
STRT.FT                                                3102.0 : START DEPTH
STOP.FT                                               15993.0 : STOP DEPTH
STEP.FT                                                   0.5 : STEP BETWEEN DEPTHS
NULL.                                                 -999.25 : NULL VALUE
LOC.                                                      UNK : LOCATION 
SRVC.                                                     UNK : SERVICE COMPANY
#___________________________________________________________________________________________________ 
~CURVE INFORMATION 
# MNEM.UNIT           : CURVE DESCRIPTION 
#-----.-----          : ----------------------------- 
 DEPT.FT               : MEASURED DEPTH 
 CALI.IN               : CALIPER (CAL - CAL) 
 GR.API                : GAMMA RAY (GR) 
 DT.US/FT              : SONIC DELTA TRANSIT TIME (DT) 
 #___________________________________________________________________________________________________ 
~A         DEPT           CALI             GR             DT
# ...
        10824.0         13.306         53.977        100.978
        10824.5         13.310         52.071         86.938
        10825.0         13.314         49.636         89.153
        10825.5         13.318         47.202         87.640
        10826.0         13.322         44.768         96.759
        10826.5         13.319         43.596        101.070
        10827.0         13.315         43.297         99.766
        10827.5         13.311         43.316         91.282
        10828.0         13.307         45.250         82.798
        10828.5         13.332         47.184        152.362
        10829.0         13.460         49.118        160.259
        10829.5         13.830         49.625        160.196
        10830.0         14.377         48.457        129.337
        10830.5         14.880         47.289        100.038
        10831.0         14.543         47.071        135.889
        10831.5         14.014         47.842        149.829
        10832.0         13.468         48.074        128.420
        10832.5         13.387         47.714        112.850
        10833.0         13.307         47.353        107.524
        10833.5         13.273         48.174        135.976
        10834.0         13.259         49.931        159.132
        10834.5         13.244         51.129        129.437
        10835.0         13.229         50.392         87.758
        10835.5         13.214         49.133         72.662
        10836.0         13.199         47.470         72.323
        10836.5         13.184         45.807         72.068
        10837.0         13.169         44.685         71.486
        10837.5         13.154         46.385         72.598
        10838.0         13.153         49.771         76.468
        10838.5         13.155         54.874         80.339
        10839.0         13.158         58.421         84.210
        10839.5         13.160         58.127         85.786
        10840.0         13.163         57.462         83.966
        10840.5         13.166         57.500         83.106
        10841.0         13.168         59.016         81.762
        10841.5         13.171         58.847         79.674
        10842.0         13.173         56.098         77.587
        10842.5         13.176         53.349         76.202
        10843.0         13.179         50.600         75.128
        10843.5         13.181         52.291         76.504
        10844.0         13.184         55.513         78.829
        10844.5         13.186         57.729         81.177
        10845.0         13.189         58.714         81.972
        10845.5         13.192         59.673         82.386
        10846.0         13.194         60.629         82.751
        10846.5         13.197         61.584         82.371
        10847.0         13.200         60.107         81.991
        10847.5         13.202         57.570         80.794
        10848.0         13.205         54.790         79.548
        10848.5         13.207         52.543         78.301
        10849.0         13.210         51.420         77.074
        10849.5         13.213         50.298         76.583
        10850.0         13.215         51.008         76.589
        10850.5         13.218         51.790         76.613
        10851.0         13.220         50.742         75.173
        10851.5         13.223         46.227         72.663
        10852.0         13.226         39.917         64.853
        10852.5         13.228         33.607         55.518
        10853.0         13.231         27.297         46.293
        10853.5         13.233         25.084         46.093
        10854.0         13.236         29.892         53.930
        10854.5         13.239         35.110         65.977
        10855.0         13.241         40.260         74.611
        10855.5         13.244         43.615         76.838
        10856.0         13.246         45.178         77.922
        10856.5         13.247         49.812         78.237
        10857.0         13.248         53.330         78.277
        10857.5         13.249         56.848         81.517
        10858.0         13.250         56.162         82.964
        10858.5         13.251         54.232         82.445
        10859.0         13.252         52.709         81.531
        10859.5         13.253         51.590         80.618
        10860.0         13.253         50.471         79.704
        10860.5         13.254         49.353         78.790
        10861.0         13.255         50.137         78.296
        10861.5         13.256         51.570         78.661
        10862.0         13.257         53.003         79.027
        10862.5         13.258         53.333         79.392
        10863.0         13.259         52.091         79.267
        10863.5         13.260         51.991         79.115
        10864.0         13.261         52.993         79.361
        10864.5         13.262         54.571         79.607
        10865.0         13.263         54.751         79.784
        10865.5         13.263         53.751         79.771
        10866.0         13.264         53.118         79.759
        10866.5         13.265         53.618         79.747
        10867.0         13.266         54.118         80.068
        10867.5         13.267         54.617         81.092
        10868.0         13.268         55.028         81.427
        10868.5         13.269         53.411         81.582
        10869.0         13.270         51.825         82.093
        10869.5         13.271         50.466         82.521
        10870.0         13.272         50.333         81.668
        10870.5         13.273         52.243         79.614
        10871.0         13.274         54.152         77.238
        10871.5         13.274         52.962         74.863
        10872.0         13.275         50.710         72.637
        10872.5         13.276         49.757         74.001
        10873.0         13.277         51.423         75.364
        10873.5         13.278         52.031         76.728
        10874.0         13.279         52.628         76.875
        10874.5         13.280         53.768         76.421
        10875.0         13.281         55.379         75.967
        10875.5         13.282         57.047         76.203
        10876.0         13.283         58.752         77.565
        10876.5         13.284         60.457         79.477
        10877.0         13.317         61.463         80.808
        10877.5         13.366         62.192         80.557
        10878.0         13.414         60.678         78.194
        10878.5         13.421         60.685         77.382
        10879.0         13.425         64.343         78.342
        10879.5         13.428         68.183         81.281
        10880.0         13.432         68.946         84.447
        10880.5         13.435         66.200         85.377
        10881.0         13.439         63.468         82.274
        10881.5         13.443         60.736         78.958
        10882.0         13.446         58.005         75.643
        10882.5         13.450         55.279         74.877
        10883.0         13.453         56.496         75.336
        10883.5         13.457         58.823         78.486
        10884.0         13.461         61.210         81.635
        10884.5         13.464         63.338         84.331
        10885.0         13.468         65.420         83.193
        10885.5         13.471         67.502         82.056
        10886.0         13.475         69.162         80.998
        10886.5         13.464         70.248         81.963
        10887.0         13.454         72.742         84.918
        10887.5         13.444         78.217         87.874
        10888.0         13.434         82.988         89.373
        10888.5         13.424         81.889         85.407
        10889.0         13.404         71.914         81.667
        10889.5         13.368         56.043         77.928
