#--------------------------------------------------#
#-------------------ENVERUS, INC.------------------#
#------------------WWW.ENVERUS.COM-----------------#
#------------------COPYRIGHT 2020------------------#
#--------------------------------------------------#
#THIS FILE MAY BE USED ONLY IN ACCORDANCE WITH A CURRENT SUBSCRIPTION AGREEMENT BETWEEN
#THE USER AND ENVERUS, INC. NO PART OF THIS FILE MAY BE REPRODUCED, USED, COPIED,
#MODIFIED, PROPAGATED, OR DISTRIBUTED EXCEPT IN ACCORDANCE WITH THE SUBSCRIPTION
#AGREEMENT. UNAUTHORIZED USE OR DISTRIBUTION OF ALL OR ANY PART OF THIS FILE MAY VIOLATE
#COPYRIGHT, TRADEMARK, AND/OR OTHER LAWS AND IS SUBJECT TO CIVIL AS WELL AS CRIMINAL
#SANCTIONS.
#--------------------------------------------------#
#THIS FILE IS PROVIDED "AS-IS" AND ALL WARRANTIES ARE EXPRESSLY DISCLAIMED, WHETHER
#EXPRESS, ORAL, IMPLIED, STATUTORY OR OTHERWISE, INCLUDING ANY IMPLIED WARRANTY OF FITNESS
#FOR A PARTICULAR PURPOSE, MERCHANTABILITY, TITLE OR NON-INFRINGEMENT, AND ANY WARRANTIES
#ARISING BY VIRTUE OF CUSTOM OF TRADE OR COURSE OF DEALING.  FURTHER, ENVERUS, INC.
#AND ITS LICENSORS DO NOT REPRESENT OR WARRANT THAT THIS FILE WILL MEET USER'S
#REQUIREMENTS OR ARE SUITABLE FOR USER'S NEEDS OR THAT THE DATA OR RESULTS PROVIDED IN
#CONJUNCTION THEREWITH ARE CORRECT, ACCURATE, TIMELY OR RELIABLE. THESE DISCLAIMERS SHALL
#APPLY REGARDLESS OF ANY FAILURE OF ESSENTIAL PURPOSE OF ANY LIMITED REMEDY.  SOME
#JURISDICTIONS DO NOT ALLOW THE EXCLUSION OF CERTAIN WARRANTIES SO SOME OF THE ABOVE
#EXCLUSIONS MAY NOT APPLY. IN NO EVENT SHALL ENVERUS, INC. OR ANY OF ITS AFFILIATES
#BE LIABLE UNDER ANY LEGAL THEORY, WHETHER IN TORT (INCLUDING WITHOUT LIMITATION
#NEGLIGENCE), CONTRACT, STRICT LIABILITY, STATUTORY OR OTHERWISE, FOR ANY SPECIAL,
#INCIDENTAL, CONSEQUENTIAL, EXEMPLARY, PUNITIVE OR INDIRECT DAMAGE OF ANY KIND, INCLUDING
#WITHOUT LIMITATION LOSS OF REVENUE, PROFITS, GOODWILL, USE, AND/OR DATA OR THE COST OF
#PROCUREMENT OF SUBSTITUTE GOODS OR SERVICES, EVEN IF APPRISED OF THE POSSIBILITY OF SUCH
#DAMAGES IN ADVANCE.
#--------------------------------------------------#

~VERSION INFORMATION
VERS. 2.0 : CWLS LOG ASCII STANDARD - VERSION 2.0
WRAP.  NO : ONE LINE PER DEPTH STEP
~WELL INFORMATION
#MNEMONIC     .UNIT              VALUE :DESCRIPTION
STRT       .FT                0 :START DEPTH
STOP       .FT                15761 :STOP DEPTH
STEP       .FT                   0.500 :STEP
NULL       .                  -999.250 :NULL
UWI        .              42389302550000 :UNIQUE WELL ID
API        .              42389302550000 :API NUMBER
COMP       .         COASTAL STATES GAS PROD. CO. :COMPANY
WELL       .        CHAPMAN  MCGUIRE & WYNNE  3B :WELL
DATE       .                            :LOG DATE
~CURVE INFORMATION
#MNEMONIC     .UNIT      API CODE :CURVE DESCRIPTION
DEPTH       .FT                      :MEASURED DEPTH
GR.API        UNKNOWN   :GR
DT.US/FT        UNKNOWN   :DT
CAL.INCH        UNKNOWN   :CAL
~A    DEPTH    GR    DT    CAL
# ...
 14186     80.958   92.334   -999.250
 14186.5     79.947   92.833   -999.250
 14187     78.935   94.255   -999.250
 14187.5     79.198   96.704   -999.250
 14188     80.259   96.596   -999.250
 14188.5     80.83   96.967   -999.250
 14189     81.362   95.66   -999.250
 14189.5     82.19   95.958   -999.250
 14190     83.155   96.812   -999.250
 14190.5     84.121   96.083   -999.250
 14191     83.32   96.861   -999.250
 14191.5     81.28   97.267   -999.250
 14192     79.29   97.187   -999.250
 14192.5     77.751   97.107   -999.250
 14193     76.698   97.765   -999.250
 14193.5     78.286   98.811   -999.250
 14194     78.842   99.858   -999.250
 14194.5     78.199   100.623   -999.250
 14195     77.556   101.286   -999.250
 14195.5     78.165   100.488   -999.250
 14196     79.376   100.155   -999.250
 14196.5     78.98   101.563   -999.250
 14197     77.906   101.168   -999.250
 14197.5     76.831   101.087   -999.250
 14198     76.005   101.048   -999.250
 14198.5     77.364   101.789   -999.250
 14199     79.233   102.325   -999.250
 14199.5     81.103   102.085   -999.250
 14200     82.198   103.579   -999.250
 14200.5     78.271   101.962   -999.250
 14201     78.155   101.032   -999.250
 14201.5     78.965   97.419   -999.250
 14202     79.319   98.448   -999.250
 14202.5     79.674   100.413   -999.250
 14203     78.319   101.102   -999.250
 14203.5     76.625   99.09   -999.250
 14204     77.631   95.767   -999.250
 14204.5     76.839   93.038   -999.250
 14205     75.605   94.04   -999.250
 14205.5     76.136   94.82   -999.250
 14206     76.668   94.265   -999.250
 14206.5     77.2   95.663   -999.250
 14207     77.732   95.129   -999.250
 14207.5     75.262   93.993   -999.250
 14208     73.365   93.827   -999.250
 14208.5     73.765   93.564   -999.250
 14209     73.885   95.241   -999.250
 14209.5     73.272   93.884   -999.250
 14210     73.467   97.45   -999.250
 14210.5     75.345   103.98   -999.250
 14211     77.222   108.92   -999.250
 14211.5     76.8   111.009   -999.250
 14212     75.68   105.942   -999.250
 14212.5     74.199   100.875   -999.250
 14213     72.718   90.407   -999.250
 14213.5     70.633   85.954   -999.250
 14214     68.874   81.501   -999.250
 14214.5     68.446   79.653   -999.250
 14215     68.017   79.556   -999.250
 14215.5     67.836   80.718   -999.250
 14216     67.969   82.832   -999.250
 14216.5     67.859   84.947   -999.250
 14217     66.784   86.905   -999.250
 14217.5     66.928   88.397   -999.250
 14218     68.139   89.889   -999.250
 14218.5     68.97   90.71   -999.250
 14219     69.503   91.088   -999.250
 14219.5     70.685   92.642   -999.250
 14220     71.957   93.266   -999.250
 14220.5     73.23   93.643   -999.250
 14221     74.502   93.603   -999.250
 14221.5     74.807   94.012   -999.250
 14222     74.815   95.155   -999.250
 14222.5     75.48   96.661   -999.250
 14223     76.113   98.605   -999.250
 14223.5     72.187   100.218   -999.250
 14224     68.772   98.786   -999.250
 14224.5     65.648   96.505   -999.250
 14225     65.055   94.923   -999.250
 14225.5     67.72   94.746   -999.250
 14226     70.386   97.1   -999.250
 14226.5     73.051   99.453   -999.250
 14227     74.969   100.77   -999.250
 14227.5     73.431   99.417   -999.250
 14228     72.751   96.61   -999.250
 14228.5     74.862   97.385   -999.250
 14229     74.678   99.026   -999.250
 14229.5     72.516   100.406   -999.250
 14230     73.186   96.57   -999.250
 14230.5     74.247   94.239   -999.250
 14231     75.214   92.843   -999.250
 14231.5     74.785   94.174   -999.250
 14232     75.353   96.406   -999.250
 14232.5     75.645   96.327   -999.250
 14233     74.209   95.83   -999.250
 14233.5     75.249   92.467   -999.250
 14234     75.553   89.104   -999.250
 14234.5     75.78   87.557   -999.250
 14235     74.902   86.803   -999.250
 14235.5     74.023   86.988   -999.250
 14236     73.145   86.503   -999.250
 14236.5     72.154   83.736   -999.250
 14237     71.163   80.529   -999.250
 14237.5     70.172   77.044   -999.250
 14238     71.112   75.913   -999.250
 14238.5     75.139   77.651   -999.250
 14239     77.271   82.653   -999.250
 14239.5     76.331   86.247   -999.250
 14240     75.391   85.506   -999.250
 14240.5     74.452   84.765   -999.250
 14241     73.512   84.024   -999.250
 14241.5     72.573   87.255   -999.250
 14242     71.633   93.192   -999.250
 14242.5     72.561   95.927   -999.250
 14243     74.279   97.291   -999.250
 14243.5     74.968   95.368   -999.250
 14244     74.356   89.973   -999.250
 14244.5     73.743   90.372   -999.250
 14245     73.131   91.05   -999.250
 14245.5     73.277   93.395   -999.250
 14246     74.074   96.88   -999.250
 14246.5     74.016   100.28   -999.250
 14247     71.853   97.435   -999.250
 14247.5     70.818   99.288   -999.250
 14248     69.899   97.613   -999.250
 14248.5     73.371   97.66   -999.250
 14249     74.517   98.901   -999.250
 14249.5     75.097   96.484   -999.250
 14250     75.678   97.562   -999.250
 14250.5     78.006   96.984   -999.250
 14251     80.852   96.685   -999.250
 14251.5     78.142   95.544   -999.250
 14252     75.541   93.02   -999.250
 14252.5     73.128   89.098   -999.250
 14253     70.715   87.115   -999.250
 14253.5     68.301   85.459   -999.250
 14254     69.573   83.804   -999.250
 14254.5     71.893   86.883   -999.250
 14255     74.213   92.711   -999.250
 14255.5     76.533   95.639   -999.250
 14256     76.357   95.738   -999.250
 14256.5     73.954   91.546   -999.250
 14257     71.555   87.337   -999.250
 14257.5     69.257   83.646   -999.250
 14258     66.958   81.031   -999.250
 14258.5     69.725   78.608   -999.250
 14259     73.517   79.804   -999.250
 14259.5     77.308   82.204   -999.250
 14260     81.1   91.716   -999.250
 14260.5     83.504   100.658   -999.250
 14261     81.965   104.797   -999.250
 14261.5     80.425   106.605   -999.250
 14262     78.886   101.692   -999.250
 14262.5     78.061   97.413   -999.250
 14263     78.416   93.711   -999.250
 14263.5     78.772   94.112   -999.250
 14264     77.214   93.834   -999.250
 14264.5     75.326   93.798   -999.250
 14265     73.438   94.203   -999.250
 14265.5     71.55   92.884   -999.250
 14266     71.05   89.868   -999.250
 14266.5     72.463   89.37   -999.250
 14267     73.877   88.903   -999.250
 14267.5     75.29   92.589   -999.250
 14268     76.703   98.658   -999.250
 14268.5     78.086   102.069   -999.250
 14269     79.412   101.509   -999.250
 14269.5     80.495   101.556   -999.250
 14270     79.149   100.173   -999.250
 14270.5     77.803   97.646   -999.250
 14271     79.008   98.273   -999.250
 14271.5     80.223   95.244   -999.250
 14272     79.687   93.212   -999.250
 14272.5     79.152   93.525   -999.250
 14273     78.616   94.73   -999.250
 14273.5     80.166   95.406   -999.250
 14274     82.147   98.645   -999.250
 14274.5     82.444   99.762   -999.250
 14275     81.447   98.51   -999.250
 14275.5     80.449   98.75   -999.250
 14276     79.452   100.271   -999.250
 14276.5     80.536   105.812   -999.250
 14277     81.947   111.754   -999.250
 14277.5     81.304   116.919   -999.250
 14278     80.661   112.734   -999.250
 14278.5     79.412   106.498   -999.250
 14279     77.28   92.945   -999.250
 14279.5     72.994   90.076   -999.250
 14280     68.708   87.207   -999.250
 14280.5     64.422   84.338   -999.250
 14281     63.3   80.533   -999.250
 14281.5     65.047   81.392   -999.250
 14282     66.793   84.025   -999.250
 14282.5     68.539   90.294   -999.250
 14283     70.285   96.563   -999.250
 14283.5     72.031   101.803   -999.250
 14284     74.386   104.963   -999.250
 14284.5     76.828   101.709   -999.250
 14285     79.27   92.225   -999.250
 14285.5     81.712   87.701   -999.250
 14286     84.153   90.316   -999.250
 14286.5     85.182   95.443   -999.250
 14287     84.736   100.62   -999.250
 14287.5     84.29   115.039   -999.250
 14288     83.491   119.822   -999.250
 14288.5     80.532   110.883   -999.250
