#--------------------------------------------------#
#-------------------ENVERUS, INC.------------------#
#------------------WWW.ENVERUS.COM-----------------#
#------------------COPYRIGHT 2020------------------#
#--------------------------------------------------#
#THIS FILE MAY BE USED ONLY IN ACCORDANCE WITH A CURRENT SUBSCRIPTION AGREEMENT BETWEEN
#THE USER AND ENVERUS, INC. NO PART OF THIS FILE MAY BE REPRODUCED, USED, COPIED,
#MODIFIED, PROPAGATED, OR DISTRIBUTED EXCEPT IN ACCORDANCE WITH THE SUBSCRIPTION
#AGREEMENT. UNAUTHORIZED USE OR DISTRIBUTION OF ALL OR ANY PART OF THIS FILE MAY VIOLATE
#COPYRIGHT, TRADEMARK, AND/OR OTHER LAWS AND IS SUBJECT TO CIVIL AS WELL AS CRIMINAL
#SANCTIONS.
#--------------------------------------------------#
#THIS FILE IS PROVIDED "AS-IS" AND ALL WARRANTIES ARE EXPRESSLY DISCLAIMED, WHETHER
#EXPRESS, ORAL, IMPLIED, STATUTORY OR OTHERWISE, INCLUDING ANY IMPLIED WARRANTY OF FITNESS
#FOR A PARTICULAR PURPOSE, MERCHANTABILITY, TITLE OR NON-INFRINGEMENT, AND ANY WARRANTIES
#ARISING BY VIRTUE OF CUSTOM OF TRADE OR COURSE OF DEALING.  FURTHER, ENVERUS, INC.
#AND ITS LICENSORS DO NOT REPRESENT OR WARRANT THAT THIS FILE WILL MEET USER'S
#REQUIREMENTS OR ARE SUITABLE FOR USER'S NEEDS OR THAT THE DATA OR RESULTS PROVIDED IN
#CONJUNCTION THEREWITH ARE CORRECT, ACCURATE, TIMELY OR RELIABLE. THESE DISCLAIMERS SHALL
#APPLY REGARDLESS OF ANY FAILURE OF ESSENTIAL PURPOSE OF ANY LIMITED REMEDY.  SOME
#JURISDICTIONS DO NOT ALLOW THE EXCLUSION OF CERTAIN WARRANTIES SO SOME OF THE ABOVE
#EXCLUSIONS MAY NOT APPLY. IN NO EVENT SHALL ENVERUS, INC. OR ANY OF ITS AFFILIATES
#BE LIABLE UNDER ANY LEGAL THEORY, WHETHER IN TORT (INCLUDING WITHOUT LIMITATION
#NEGLIGENCE), CONTRACT, STRICT LIABILITY, STATUTORY OR OTHERWISE, FOR ANY SPECIAL,
#INCIDENTAL, CONSEQUENTIAL, EXEMPLARY, PUNITIVE OR INDIRECT DAMAGE OF ANY KIND, INCLUDING
#WITHOUT LIMITATION LOSS OF REVENUE, PROFITS, GOODWILL, USE, AND/OR DATA OR THE COST OF
#PROCUREMENT OF SUBSTITUTE GOODS OR SERVICES, EVEN IF APPRISED OF THE POSSIBILITY OF SUCH
#DAMAGES IN ADVANCE.
#--------------------------------------------------#

# EXPORTED FROM DI TRANSFORM
# DI TRANSFORM - A PRODUCT OF DRILLINGINFO, INC. - WWW.DRILLINGINFO.COM
#
~VERSION INFORMATION
 VERS.        2.0 : LAS ASCII STANDARD - VERSION 2.0
 WRAP.         NO : ONE LINE PER DEPTH STEP

~WELL INFORMATION
#MNEM.UNIT       DATA TYPE       INFORMATION
#---------       ---------       -----------
 STRT.FT          3310 : START DEPTH
 STOP.FT         11910 : STOP DEPTH
 STEP.FT           0.5 : STEP LENGTH
 NULL.         -999.25 : NULL VALUE
 UWI.   42389328760000 : UNIQUE WELL ID
 API.   42389328760000 : WELL IDENTIFIER
 COMP.                 : COMPANY
 WELL.          DRD_55 : WELL NAME
 FLD.                  : FIELD NAME
 LOC.                  : WELL LOCATION
 CNTY.                 : COUNTY
 STAT.                 : STATE OR PROVINCE
 CTRY.                 : COUNTRY
 SRVC.                 : SERVICE COMPANY
 DATE.                 : DATE

~CURVE INFORMATION
#MNEM.UNIT       API CODE       CURVE DESCRIPTION
#---------       --------       -----------------
 DEPT.FT        : <MEASURED DEPTH>
 CAL.IN         : CALIPER
 DT.US/FT       : SONIC
 GR.GAPI        : GAMMA RAY
 ILD.OHMM       : DEEP RESISTIVITY
 ILS.OHMM       : SHALLOW RESISTIVITY

~PARAMETER INFORMATION
#MNEM.UNIT       VALUE       DESCRIPTION
#---------       -----       -----------
 EKB.FT      3168.5 : ELEVATION ABOVE MSL

~A       DEPT         CAL          DT          GR         ILD         ILS
# ...
      10122.5      8.4701     74.5987     45.7297    415.4212    302.9529
        10123      8.4701    101.7459     66.3964    369.8582    247.7619
      10123.5      8.4701    106.9282      93.767    207.6802    170.1504
        10124      8.4701     88.3413    101.5167    161.3161    132.7533
      10124.5      8.4701     78.0528     100.996    171.5734    138.8207
        10125      8.4701     78.1355     100.996    176.5397    145.3785
      10125.5      8.4701     77.6704    101.0237    185.1324    149.7983
        10126      8.4701     75.3844     95.4812    209.4384    170.1398
      10126.5      8.4701     73.4164     87.7409    252.7519    193.1595
        10127      8.4701      72.303      84.963    280.9673    209.5418
      10127.5      8.4701     71.2218     79.4073    286.8722    200.6259
        10128      8.4701      70.989     80.4176    213.5214    134.0447
      10128.5      8.4701     71.1048     92.1332     95.5128     73.0953
        10129      8.4701      72.506    102.9106     67.4021     58.2641
      10129.5      8.4701     74.0646    106.4207     67.0008     56.6288
        10130      8.4701     75.4806    101.4666     68.7482     57.1976
      10130.5      8.4701     76.2699     90.9491     89.9072     72.1824
        10131      8.4701     74.9092     81.2286     100.594    113.8067
      10131.5      8.4701     73.5485     76.0852    105.4345    117.1032
        10132      8.4701     72.1167     75.3152    110.5008    108.1306
      10132.5      8.4701      70.668     83.2766    116.5181    105.7808
        10133      8.4701      71.065     80.4033    135.5981    131.4376
      10133.5      8.4701     72.3388     84.0917    224.6947    234.0891
        10134      8.4701     73.8239     89.8021    225.3684    222.9222
      10134.5      8.4701     75.3401     94.1625     215.028    220.8649
        10135      8.4701      76.725     98.8929    194.9965    193.2902
      10135.5      8.4701     77.4393    103.5829    126.1895    145.3384
        10136      8.4701     77.8544     113.372     77.0108     74.9772
      10136.5      8.4701     77.7583    118.0302     73.4751     74.0843
        10137      8.4701     77.6623    120.1753     64.8902     67.9532
      10137.5      8.4701     77.4873    125.6876     33.3982     43.9846
        10138      8.4701     77.6571    139.0841     23.7802     26.8116
      10138.5      8.4701     78.1334    132.0051     22.2108     23.9777
        10139      8.4701     78.5344    119.9169     22.2511     24.1882
      10139.5      8.4701     78.0043     108.641     24.2245     26.0224
        10140      8.4701     76.6338     95.2283     33.8417     37.5061
      10140.5      8.4701     74.3342      81.773     62.9372     64.8497
        10141      8.4701     68.8913     72.8794     81.7122     94.5805
      10141.5      8.4701     66.1904     66.9341     86.2314     96.5602
        10142      8.4701     65.1624     63.3575    112.0887    127.2427
      10142.5      8.4701     64.9291     67.3994     76.5769    113.3504
        10143      8.4701     65.4189     92.6461     57.4152      60.943
      10143.5      8.4701     68.4447    111.0911     51.1565     53.0659
        10144      8.4701     70.9484    114.8335     46.1798      46.568
      10144.5      8.4701     71.5878    104.1825     45.2902     49.3511
        10145      8.4701     70.7268     72.1946     74.0483     80.6189
      10145.5      8.4701     66.8064     48.0614     86.4345     220.986
        10146      8.4701     63.5807      31.315    148.4416    253.1334
      10146.5      8.4701     61.7097     36.8351    140.7978    181.6616
        10147      8.4701     61.4279      55.455     90.0129     76.1442
      10147.5      8.4701     62.9443     75.1708     28.9519     31.2786
        10148      8.4701     68.6459     93.9076     28.6644     30.4703
      10148.5      8.4701     74.2689     99.8375     28.1724      31.304
        10149      8.4701     75.9658     99.8008     29.5278     32.4531
      10149.5      8.4701     76.3387    103.0268     29.6609     33.9843
        10150      8.4701     76.7783    119.8141     28.1213     31.0679
      10150.5      8.4701     77.2088    151.1253     26.0237     28.2253
        10151      8.4701      77.617    150.0812     24.8298     26.7762
      10151.5      8.4701      77.643    145.2196     25.3432     25.5287
        10152      8.4701     76.6907      99.663     34.7392     34.5018
      10152.5      8.4701     73.8952     83.7676     52.8448     59.5926
        10153      8.4701     71.0377      83.043     65.6286     65.7404
      10153.5      8.4701     68.5811      80.558     77.4684     73.0306
        10154      8.4701      68.079      67.521     93.4861     91.3872
      10154.5      8.4701     67.6647     57.5225     83.2338    117.3129
        10155      8.4701     68.2822     64.4688     69.6545      62.887
      10155.5      8.4701      71.328     73.4549     62.6043     58.1195
        10156      8.4701     74.0735     87.9558     55.3686     54.3107
      10156.5      8.4701     74.6814    101.2877     45.6442     36.2518
        10157      8.4701      74.797    103.2103     46.8531     38.4444
      10157.5      8.4701     74.3401     92.4632     56.5963     49.6589
        10158      8.4701     72.8239     84.1442     59.5408      51.476
      10158.5      8.4701     68.8583     73.5593     83.4123     86.1149
        10159      8.4701     65.8251     58.0255    182.4447     204.703
      10159.5      8.4701     63.5572     53.3665    172.1271    153.4627
        10160      8.4701     63.6176     56.5652     105.789    117.7082
      10160.5      8.4701       64.23     61.6866     99.9097     97.0377
        10161      8.4701     65.3758     73.2918     65.3049     52.7326
      10161.5      8.4701     68.3694     93.6397     32.1457     32.2252
        10162      8.4701     72.3162    102.1239     33.0752     31.0374
      10162.5      8.4701      75.191    101.6263     33.8444     31.5307
        10163      8.4701     77.3264     97.9943      35.015     32.3156
      10163.5      8.4701     77.9485      95.027     37.7134     37.4076
        10164      8.4701     78.5705    103.6457     32.1725     33.6735
      10164.5      8.4701     79.1926    112.8526      27.583     27.3451
        10165      8.4701     79.8146    117.7552     25.1901     25.5776
      10165.5      8.4701      79.382    116.7692     25.6594     25.1269
        10166      8.4701     78.9423    107.5672     26.6767     25.7798
      10166.5      8.4701     77.5646     94.3781     37.0774     33.3539
        10167      8.4701     68.4322     87.9156     47.7485     48.9967
      10167.5      8.4701     64.8901       82.89     64.9994      65.062
        10168      8.4701     64.2464     71.9455     115.999    108.8108
      10168.5      8.4701      64.428     73.7277     72.7712     80.3439
        10169      8.4701     66.0609     93.3715     49.7836     38.5239
      10169.5      8.4701     67.9937    108.5331     45.5443     36.6113
        10170      8.4701     70.1007    108.9949     45.4719      37.083
      10170.5      8.4701     70.2012    100.1929      58.974      59.118
        10171      8.4701     69.7587      77.862     92.8293     94.0056
      10171.5      8.4701     69.4185     58.8987     43.2235     38.0505
        10172      8.4701     69.2231     68.0913     30.5471     31.2479
      10172.5      8.4701     69.2633     92.3509     26.7719      22.712
        10173      8.4701     73.1422    118.4387     16.7594     16.4486
      10173.5      8.4701     74.0055     116.374      18.882     14.4906
        10174      8.4701      72.437    109.7217     26.5011     25.4596
      10174.5      8.4701     66.0221     94.6925     29.3919     28.5018
        10175      8.4701     62.6012     64.1251     30.8043     30.0639
      10175.5      8.4701     61.4099     43.6601     34.6744      54.822
        10176      8.4701     61.3567     44.7782     70.4715     84.7548
      10176.5      8.4701     65.0763     53.0233     48.7169     47.2029
