###############################################
##         ENVERUS                           ##
##         ESS - Open Hole                   ##
##         PERMIAN / DELAWARE                ##
##         Nov 04 2023  V4.0                 ##
##         42-389-31391-00-00                ##
###############################################
## Copyright 2017-2023  ENVERUS.  All Rights Reserved. 
## Confidential - Property of ENVERUS, use governed by terms and 
## conditions found within the existing Information Services Subscription Agreement 
## (as may be amended, the “ISSA”) between Customer and ENVERUS. 
## 
~VERSION INFORMATION
# MNEM.UNIT                               DATA : DESCRIPTION OF MNEMONIC
#-----.-----     ----------------------------- : -----------------------------
VERS.                                     2.00 : CWLS LOG ASCII STANDARD - VERSION 2.00
WRAP.                                       NO : MULTIPLE LINES PER DEPTH STEP
VEND.                                  ENVERUS : VENDOR
TYPE.                          ESS - OPEN HOLE : ENVERUS ESSENTIAL CURVES – ACCESSIBLE THROUGH ENVERUS PRISM(TM)
DOC.                                  23866972 : ENVERUS HEADER RAW DOCUMENT ID
#___________________________________________________________________________________________________ 
~WELL INFORMATION 
# fYFWm3OWRd9IdMsmH1sgiJ8+yI47SyIf11h8n9fSv2EtxvNnkQHcFoeZabdKB/2nhpfFDZXLrBDJ+4Q2ZBaHeQ== 
# MNEM.UNIT                                              DATA : DESCRIPTION OF MNEMONIC 
#-----.-----                    ----------------------------- : ----------------------------- 
CNTY.                                                  REEVES : COUNTY 
STATE.                                                  TEXAS : STATE 
CNTRY.                                                    USA : COUNTRY 
API.                                             42-389-31391 : API (10 Digit) 
API_14.                                    42-389-31391-00-00 : API (14 Digits) 
API_14_std.                                 42-389-31391-0000 : API (14 Digits Standard) 
UWI.                                           42389313910000 : UNIQUE WELL ID 
WELL.                                       DIXIELAND # 3 - 1 : WELL NAME
STRT.FT                                                4000.0 : START DEPTH
STOP.FT                                               12000.0 : STOP DEPTH
STEP.FT                                                   0.5 : STEP BETWEEN DEPTHS
NULL.                                                 -999.25 : NULL VALUE
COMP.                             R. K. PETROLEUM CORPORATION : COMPANY 
FLD.                                                  WILDCAT : FIELD 
DATE.                                              08/13/2015 : DATE 
TVD.                                                       NO : TVD FLAG 
WSTA.                                                     LOC : WELL STATUS
#___________________________________________________________________________________________________ 
~PARAMETER INFORMATION 
# MNEM.UNIT                                              DATA : DESCRIPTION OF MNEMONIC 
#-----.-----                    ----------------------------- : ----------------------------- 
RUN.                                                      ONE : RUN NUMBER 
PDAT.                                                      GL : PERMANENT DATUM 
LMF.                                            KELLY BUSHING : LOG MEASURED FROM
#___________________________________________________________________________________________________ 
~CURVE INFORMATION 
# MNEM.UNIT           : CURVE DESCRIPTION 
#-----.-----          : ----------------------------- 
 DEPT.FT               : MEASURED DEPTH 
 CALI.IN               : CALIPER (CALIPER) 
 GR.API                : GAMMA RAY (GAMMA RAY) 
 DT.US/FT              : SONIC DELTA TRANSIT TIME (DELTA-T) 
 RESD.OHMM             : DEEP INDUCTION RESISTIVITY (ILD - DEEP INDUCTION STANDARD PROCESSED RESISTIVITY) 
 RESD_LL.OHMM          : DEEP LATEROLOG (LLD - LATERO-LOG DEEP (RESISTIVITY)) 
 NPHI.V/V              : NEUTRON POROSITY (NEUTRON POROSITY) 
 #___________________________________________________________________________________________________ 
~A         DEPT           CALI             GR             DT           RESD        RESD_LL           NPHI
# ...
        10916.0         13.756         75.179         78.931       -999.250        52.8566     -999.25000
        10916.5         13.749         70.788         74.731       -999.250        23.5540     -999.25000
        10917.0         13.745         68.502         73.887       -999.250        12.8711     -999.25000
        10917.5         13.743         67.155         74.208       -999.250         8.0069     -999.25000
        10918.0         13.846         72.370         76.654       -999.250         9.2976     -999.25000
        10918.5         13.972         76.029         80.662       -999.250         7.8108     -999.25000
        10919.0         14.102         75.852         84.671       -999.250         7.1578     -999.25000
        10919.5         14.142         75.803         89.359       -999.250         6.2804     -999.25000
        10920.0         14.129         76.152         90.372       -999.250         7.9303     -999.25000
        10920.5         14.116         76.111         89.161       -999.250        10.2656     -999.25000
        10921.0         14.104         75.785         83.602       -999.250        12.7733     -999.25000
        10921.5         14.098         78.584         79.259       -999.250        13.7644     -999.25000
        10922.0         14.093         82.440         79.499       -999.250        13.0207     -999.25000
        10922.5         14.088        113.460         83.090       -999.250        12.2209     -999.25000
        10923.0         14.083        111.549         86.348       -999.250        11.6342     -999.25000
        10923.5         14.078        112.663         87.194       -999.250        12.0771     -999.25000
        10924.0         14.073        103.755         87.194       -999.250        13.9743     -999.25000
        10924.5         14.068         89.611         84.957       -999.250        16.5045     -999.25000
        10925.0         14.063         74.458         83.038       -999.250        18.9099     -999.25000
        10925.5         14.058         60.325         81.423       -999.250        19.2665     -999.25000
        10926.0         14.053         41.925         77.833       -999.250        16.8627     -999.25000
        10926.5         14.048         45.256         72.532       -999.250        14.3912     -999.25000
        10927.0         14.043         46.561         74.011       -999.250        12.7733     -999.25000
        10927.5         14.038         47.734         82.265       -999.250        12.5369     -999.25000
        10928.0         14.033         52.761         80.052       -999.250        15.4173     -999.25000
        10928.5         14.028         58.091         76.613       -999.250        18.2087     -999.25000
        10929.0         14.023         63.994         77.575       -999.250        21.1529     -999.25000
        10929.5         14.018         69.735         76.974       -999.250        23.8889     -999.25000
        10930.0         14.013         74.053         79.547       -999.250        28.6650     -999.25000
        10930.5         14.008         74.631         81.380       -999.250        35.0298     -999.25000
        10931.0         14.003         75.674         83.948       -999.250        39.9239     -999.25000
        10931.5         13.998         76.993         82.385       -999.250        53.8332     -999.25000
        10932.0         13.993         80.036         81.306       -999.250        57.2908     -999.25000
        10932.5         13.988         84.747         80.163       -999.250        61.3544     -999.25000
        10933.0         13.983         88.685         80.430       -999.250        56.9365     -999.25000
        10933.5         13.978         90.392         81.182       -999.250        62.9254     -999.25000
        10934.0         13.972         87.866         81.904       -999.250        67.0437     -999.25000
        10934.5         13.967         84.909         82.046       -999.250        71.2450     -999.25000
        10935.0         13.963         81.508         82.177       -999.250        87.4991     -999.25000
        10935.5         13.957         78.320         82.385       -999.250        93.9235     -999.25000
        10936.0         13.952         78.680         82.866       -999.250       106.6714     -999.25000
        10936.5         13.948         77.758         82.264       -999.250       124.3363     -999.25000
        10937.0         13.942         76.805         81.740       -999.250       140.5444     -999.25000
        10937.5         13.938         75.260         80.741       -999.250       166.5889     -999.25000
        10938.0         13.916         72.832         79.221       -999.250       171.9566     -999.25000
        10938.5         13.897         70.234         78.479       -999.250       170.3403     -999.25000
        10939.0         13.876         67.801         77.738       -999.250       173.0631     -999.25000
        10939.5         13.855         64.935         77.214       -999.250       130.5785     -999.25000
        10940.0         13.835         64.465         76.233       -999.250        82.6457     -999.25000
        10940.5         13.814         63.965         75.126       -999.250        47.9396     -999.25000
        10941.0         13.793         63.706         73.487       -999.250        27.8079     -999.25000
        10941.5         13.796         63.356         73.848       -999.250        16.1303     -999.25000
        10942.0         13.831         65.427         75.698       -999.250        11.4530     -999.25000
        10942.5         13.849         67.817         77.967       -999.250         9.2976     -999.25000
        10943.0         13.868         70.326         80.236       -999.250         9.8336     -999.25000
        10943.5         13.888         72.276         81.826       -999.250         9.1256     -999.25000
        10944.0         13.907         71.963         82.402       -999.250        10.5910     -999.25000
        10944.5         13.927         71.670         82.550       -999.250        11.3861     -999.25000
        10945.0         13.946         71.439         82.697       -999.250        13.6162     -999.25000
        10945.5         13.966         71.466         82.745       -999.250        14.9293     -999.25000
        10946.0         13.979         73.374         82.501       -999.250        18.0506     -999.25000
        10946.5         13.976         74.040         81.518       -999.250        22.0907     -999.25000
        10947.0         13.973         74.860         80.602       -999.250        28.0584     -999.25000
        10947.5         13.970         75.220         79.615       -999.250        27.9662     -999.25000
        10948.0         13.967         73.269         79.258       -999.250        27.1232     -999.25000
        10948.5         13.964         72.508         79.459       -999.250        26.4622     -999.25000
        10949.0         13.961         71.615         79.637       -999.250        27.0084     -999.25000
        10949.5         13.957         70.653         80.446       -999.250        33.1105     -999.25000
        10950.0         13.954         69.043         79.651       -999.250        40.9317     -999.25000
        10950.5         13.951         67.795         78.260       -999.250        35.3425     -999.25000
        10951.0         13.948         66.390         76.857       -999.250        35.4317     -999.25000
        10951.5         13.945         69.208         75.531       -999.250        23.5017     -999.25000
        10952.0         13.942         75.308         76.132       -999.250        21.3443     -999.25000
        10952.5         13.939         79.884         78.822       -999.250        17.7556     -999.25000
        10953.0         13.936         83.263         81.927       -999.250        18.3178     -999.25000
        10953.5         13.932         77.234         85.150       -999.250        21.2392     -999.25000
