###############################################
##         ENVERUS                           ##
##         ESS - Open Hole                   ##
##         PERMIAN / DELAWARE                ##
##         Nov 04 2023  V4.0                 ##
##         42-389-32421-01-00                ##
###############################################
## Copyright 2017-2023  ENVERUS.  All Rights Reserved. 
## Confidential - Property of ENVERUS, use governed by terms and 
## conditions found within the existing Information Services Subscription Agreement 
## (as may be amended, the “ISSA”) between Customer and ENVERUS. 
## 
~VERSION INFORMATION
# MNEM.UNIT                               DATA : DESCRIPTION OF MNEMONIC
#-----.-----     ----------------------------- : -----------------------------
VERS.                                     2.00 : CWLS LOG ASCII STANDARD - VERSION 2.00
WRAP.                                       NO : MULTIPLE LINES PER DEPTH STEP
VEND.                                  ENVERUS : VENDOR
TYPE.                          ESS - OPEN HOLE : ENVERUS ESSENTIAL CURVES – ACCESSIBLE THROUGH ENVERUS PRISM(TM)
DOC.                                  51226874 : ENVERUS HEADER RAW DOCUMENT ID
#___________________________________________________________________________________________________ 
~WELL INFORMATION 
# Tb73rb1SL3MkDZoC3l18/hn1AqNnLhXquKbAWMIBLpWCEGQs+cUq/9XFz1I3dh1trdNBSXyPtAuUBW0L3ONtkQ== 
# MNEM.UNIT                                              DATA : DESCRIPTION OF MNEMONIC 
#-----.-----                    ----------------------------- : ----------------------------- 
CNTY.                                                  REEVES : COUNTY 
STATE.                                                  TEXAS : STATE 
CNTRY.                                                    USA : COUNTRY 
API.                                             42-389-32421 : API (10 Digit) 
API_14.                                    42-389-32421-01-00 : API (14 Digits) 
API_14_std.                                 42-389-32421-0100 : API (14 Digits Standard) 
UWI.                                           42389324210100 : UNIQUE WELL ID 
WELL.                                      ARMSTRONG STATE  1 : WELL NAME
STRT.FT                                                 182.0 : START DEPTH
STOP.FT                                               14775.0 : STOP DEPTH
STEP.FT                                                   0.5 : STEP BETWEEN DEPTHS
NULL.                                                 -999.25 : NULL VALUE
PREV_UWI.                                      42389324210000 : UNIQUE WELL ID 
PREV_API.                                      42389324210000 : API NUMBER 
COMP.                                    STALEY OPERATING CO. : COMPANY 
DATE.                                             26-JUN-2006 : LOG DATE
#___________________________________________________________________________________________________ 
~CURVE INFORMATION 
# MNEM.UNIT           : CURVE DESCRIPTION 
#-----.-----          : ----------------------------- 
 DEPT.FT               : MEASURED DEPTH 
 CALI__A.IN            : CALIPER (CAL - CAL) 
 GR__A.API             : GAMMA RAY (GR) 
 DT__A.US/FT           : SONIC DELTA TRANSIT TIME (DT) 
 DPHI__A.V/V           : DENSITY POROSITY (DPHI) 
 NPHI__A.V/V           : NEUTRON POROSITY (NPHI) 
 RHOB__A.G/CC          : BULK DENSITY (RHOB) 
 #___________________________________________________________________________________________________ 
~A         DEPT        CALI__A          GR__A          DT__A        DPHI__A        NPHI__A        RHOB__A
# ...
         2006.0         10.524         11.642         53.477     -999.25000        0.12450      -999.2500
         2006.5         10.526         12.250         53.714     -999.25000        0.12153      -999.2500
         2007.0         10.528         12.646         53.682     -999.25000        0.11951      -999.2500
         2007.5         10.531         13.101         53.631     -999.25000        0.12112      -999.2500
         2008.0         10.533         13.639         53.531     -999.25000        0.12404      -999.2500
         2008.5         10.536         14.274         54.737     -999.25000        0.13182      -999.2500
         2009.0         10.538         15.269         57.590     -999.25000        0.13969      -999.2500
         2009.5         10.541         16.751         58.694     -999.25000        0.14539      -999.2500
         2010.0         10.543         17.522         56.851     -999.25000        0.14811      -999.2500
         2010.5         10.545         17.634         54.205     -999.25000        0.14861      -999.2500
         2011.0         10.548         17.429         52.986     -999.25000        0.14791      -999.2500
         2011.5         10.550         17.324         54.913     -999.25000        0.14807      -999.2500
         2012.0         10.552         17.169         59.888     -999.25000        0.16291      -999.2500
         2012.5         10.552         15.748         64.817     -999.25000        0.18447      -999.2500
         2013.0         10.562         13.817         64.606     -999.25000        0.19389      -999.2500
         2013.5         10.613         12.262         62.433     -999.25000        0.19148      -999.2500
         2014.0         10.681         12.261         56.795     -999.25000        0.17667      -999.2500
         2014.5         10.773         12.713         53.623     -999.25000        0.12888      -999.2500
         2015.0         11.100         12.160         52.467        0.11664        0.08109      -999.2500
         2015.5         11.377         10.326         51.384        0.06358        0.04158      -999.2500
         2016.0         11.620          8.075         50.928       -0.01911        0.00840         2.9910
         2016.5         11.708          5.823         50.471       -0.10499       -0.02172         2.9900
         2017.0         11.775          4.835         50.073       -0.15473       -0.02561         2.9890
         2017.5         11.809          4.219         49.846       -0.16010       -0.02949         2.9770
         2018.0         11.844          3.727         49.618       -0.16024       -0.03291         2.9650
         2018.5         11.880          4.029         49.513       -0.16038       -0.03348         2.9600
         2019.0         11.919          4.332         49.513       -0.15418       -0.03334         2.9630
         2019.5         11.959          4.444         49.644       -0.14507       -0.03308         2.9660
         2020.0         11.998          4.521         50.333       -0.14452       -0.03282         2.9680
         2020.5         12.038          4.599         50.442       -0.14662       -0.03256         2.9710
         2021.0         12.079          4.732         50.442       -0.14871       -0.03230         2.9730
         2021.5         12.120          4.875         50.395       -0.14940       -0.03207         2.9760
         2022.0         12.160          5.018         50.207       -0.14961       -0.03204         2.9790
         2022.5         12.201          5.067         50.019       -0.15262       -0.03202         2.9740
         2023.0         12.241          4.938         49.884       -0.15573       -0.03200         2.9690
         2023.5         12.275          4.254         49.884       -0.15550       -0.03198         2.9640
         2024.0         12.305          4.253         49.976       -0.15321       -0.03204         2.9630
         2024.5         12.336          4.356         50.110       -0.14934       -0.03217         2.9650
         2025.0         12.366          4.561         50.245       -0.14599       -0.03231         2.9680
         2025.5         12.396          4.777         50.380       -0.14559       -0.03245         2.9710
         2026.0         12.427          5.186         50.515       -0.14874       -0.03259         2.9720
         2026.5         12.457          5.600         50.440       -0.15009       -0.03225         2.9720
         2027.0         12.488          5.562         50.240       -0.15133       -0.03142         2.9660
         2027.5         12.516          5.173         50.040       -0.15147       -0.03059         2.9510
         2028.0         12.540          4.800         49.840       -0.14818       -0.02972         2.9430
         2028.5         12.563          5.301         49.640       -0.14092       -0.02881         2.9390
         2029.0         12.586          5.964         49.440       -0.13366       -0.02790         2.9400
         2029.5         12.609          6.680         49.328       -0.13223       -0.02695         2.9440
         2030.0         12.617          7.128         49.328       -0.13277       -0.02544         2.9510
         2030.5         12.611          7.110         49.328       -0.13386       -0.02469         2.9570
         2031.0         12.620          6.493         49.328       -0.14020       -0.02428         2.9460
         2031.5         12.631          6.591         49.433       -0.14165       -0.02412         2.9360
         2032.0         12.656          6.656         49.646       -0.13690       -0.02572         2.9430
         2032.5         12.681          7.128         49.858       -0.13184       -0.02591         2.9500
         2033.0         12.696          7.576         50.070       -0.13578       -0.02610         2.9500
         2033.5         12.708          7.696         50.280       -0.13968       -0.02629         2.9490
         2034.0         12.720          7.613         50.323       -0.13967       -0.02647         2.9500
         2034.5         12.731          7.027         50.328       -0.13829       -0.02666         2.9640
         2035.0         12.738          6.441         50.333       -0.13685       -0.02613         2.9790
         2035.5         12.745          5.207         50.338       -0.13949       -0.02546         2.9930
         2036.0         12.751          4.775         50.343       -0.14575       -0.02478         2.9870
         2036.5         12.758          4.807         50.348       -0.15686       -0.02520         2.9800
         2037.0         12.764          4.961         50.352       -0.16352       -0.02606         2.9790
         2037.5         12.771          5.114         50.357       -0.15977       -0.02655         2.9800
         2038.0         12.779          5.268         50.362       -0.15573       -0.02609         2.9800
         2038.5         12.786          5.428         50.367       -0.15542       -0.02563         2.9810
         2039.0         12.787          5.602         50.372       -0.15607       -0.02517         2.9810
         2039.5         12.787          5.776         50.377       -0.15756       -0.02523         2.9730
         2040.0         12.787          5.621         50.383       -0.15737       -0.02590         2.9680
         2040.5         12.792          5.314         50.395       -0.15664       -0.02657         2.9650
         2041.0         12.810          5.024         50.407       -0.15222       -0.02707         2.9640
         2041.5         12.827          5.068         50.419       -0.14694       -0.02723         2.9630
         2042.0         12.826          5.112         50.431       -0.14700       -0.02695         2.9620
         2042.5         12.822          4.897         50.419       -0.14715       -0.02533         2.9480
         2043.0         12.827          4.369         49.867       -0.14376       -0.02372         2.9440
         2043.5         12.833          4.214         49.314       -0.13608       -0.02272         2.9390
