###############################################
##         ENVERUS                           ##
##         ESS - Open Hole                   ##
##         PERMIAN / DELAWARE                ##
##         Nov 04 2023  V4.0                 ##
##         42-389-30414-00-00                ##
###############################################
## Copyright 2017-2023  ENVERUS.  All Rights Reserved. 
## Confidential - Property of ENVERUS, use governed by terms and 
## conditions found within the existing Information Services Subscription Agreement 
## (as may be amended, the “ISSA”) between Customer and ENVERUS. 
## 
~VERSION INFORMATION
# MNEM.UNIT                               DATA : DESCRIPTION OF MNEMONIC
#-----.-----     ----------------------------- : -----------------------------
VERS.                                     2.00 : CWLS LOG ASCII STANDARD - VERSION 2.00
WRAP.                                       NO : MULTIPLE LINES PER DEPTH STEP
VEND.                                  ENVERUS : VENDOR
TYPE.                          ESS - OPEN HOLE : ENVERUS ESSENTIAL CURVES – ACCESSIBLE THROUGH ENVERUS PRISM(TM)
DOC.                                  31965441 : ENVERUS HEADER RAW DOCUMENT ID
#___________________________________________________________________________________________________ 
~WELL INFORMATION 
# 4Nagw4FJNzCtYOfTAudVsymR6uv0ccMrNFKiy1Vrqa1gQVNLoB6NNR/Tzdk8H0Jxf2Akv2rjPRKaT9zVNBkTiw== 
# MNEM.UNIT                                              DATA : DESCRIPTION OF MNEMONIC 
#-----.-----                    ----------------------------- : ----------------------------- 
CNTY.                                                  REEVES : COUNTY 
STATE.                                                  TEXAS : STATE 
CNTRY.                                                    USA : COUNTRY 
API.                                             42-389-30414 : API (10 Digit) 
API_14.                                    42-389-30414-00-00 : API (14 Digits) 
API_14_std.                                 42-389-30414-0000 : API (14 Digits Standard) 
UWI.                                           42389304140000 : UNIQUE WELL ID 
WELL.                                            TXL 17-39  2 : WELL NAME
STRT.FT                                                 237.0 : START DEPTH
STOP.FT                                               13872.0 : STOP DEPTH
STEP.FT                                                   0.5 : STEP BETWEEN DEPTHS
NULL.                                                 -999.25 : NULL VALUE
COMP.                          ENDEAVOR ENERGY RESOURCES L.P. : COMPANY
#___________________________________________________________________________________________________ 
~CURVE INFORMATION 
# MNEM.UNIT           : CURVE DESCRIPTION 
#-----.-----          : ----------------------------- 
 DEPT.FT               : MEASURED DEPTH 
 CALI.IN               : CALIPER (CAL - CAL) 
 GR.API                : GAMMA RAY (GR) 
 DT.US/FT              : SONIC DELTA TRANSIT TIME (DT) 
 RESS.OHMM             : SHALLOW INDUCTION RESISTIVITY (ILS - ILS) 
 RESD.OHMM             : DEEP INDUCTION RESISTIVITY (ILD - ILD) 
 #___________________________________________________________________________________________________ 
~A         DEPT           CALI             GR             DT           RESS           RESD
# ...
        10401.0          9.600         64.591         63.811         20.827         21.698
        10401.5          9.599         59.386         60.271         16.287         13.932
        10402.0          9.597         54.181         63.207         11.746         11.282
        10402.5          9.596         49.596         66.143         10.455         11.847
        10403.0          9.594         53.979         69.079         10.494         12.412
        10403.5          9.593         58.362         71.944         10.533         11.721
        10404.0          9.591         62.745         72.332          8.284          9.484
        10404.5          9.590         67.128         72.720          6.695          7.247
        10405.0          9.588         71.511         73.108          6.217          6.312
        10405.5          9.587         75.894         78.086          5.740          6.534
        10406.0          9.585         80.277         83.303          6.079          6.756
        10406.5          9.584         84.272         82.668          6.427          6.977
        10407.0          9.582         83.023         81.793          6.774          8.192
        10407.5          9.581         81.774         80.917          7.522         10.173
        10408.0          9.579         80.525         80.042          9.807         12.153
        10408.5          9.578         79.276         79.167         12.075         14.134
        10409.0          9.576         78.027         78.292         14.118         16.115
        10409.5          9.575         76.778         83.233         15.140         18.095
        10410.0          9.573         75.529         83.232         15.635         17.184
        10410.5          9.571         77.663         83.230         14.904         15.313
        10411.0          9.570         80.453         83.229         13.769         13.442
        10411.5          9.568         83.244         83.228         14.787         14.820
        10412.0          9.567         82.629         83.226         17.776         19.574
        10412.5          9.565         81.223         83.225         20.956         24.328
        10413.0          9.564         79.818         81.646         24.303         29.173
        10413.5          9.562         78.413         79.893         27.649         34.038
        10414.0          9.561         76.395         78.140         30.824         38.902
        10414.5          9.559         74.084         76.388         33.923         43.767
        10415.0          9.558         71.773         74.635         35.399         48.631
        10415.5          9.556         69.684         76.470         31.314         48.744
        10416.0          9.555         72.911         78.779         29.513         40.637
        10416.5          9.553         76.137         81.088         27.712         32.530
        10417.0          9.552         79.289         82.925         27.320         28.606
        10417.5          9.550         79.072         82.812         28.837         29.462
        10418.0          9.549         78.855         82.699         30.355         30.318
        10418.5          9.547         78.638         82.587         30.494         31.174
        10419.0          9.546         78.421         82.474         26.892         28.392
        10419.5          9.544         78.204         81.589         23.549         21.945
        10420.0          9.543         77.986         79.622         21.152         20.256
        10420.5          9.541         77.769         77.654         19.596         19.559
        10421.0          9.540         77.552         76.779         21.895         18.862
        10421.5          9.538         78.358         76.981         24.195         22.045
        10422.0          9.537         81.585         77.182         26.494         27.636
        10422.5          9.535         84.811         80.090         25.156         27.175
        10423.0          9.535         88.038         82.036         22.065         24.147
        10423.5          9.534         91.265         82.405         18.974         21.119
        10424.0          9.534         93.188         82.774         15.883         18.091
        10424.5          9.534         91.524         83.143         18.135         16.734
        10425.0          9.534         89.860         83.290         21.894         21.867
        10425.5          9.534         88.196         83.221         25.601         26.999
        10426.0          9.534         86.533         83.152         28.967         32.132
        10426.5          9.534         84.869         83.082         30.628         36.727
        10427.0          9.534         83.415         81.844         31.969         40.366
        10427.5          9.534         85.554         79.798         32.972         44.005
        10428.0          9.534         87.692         77.752         33.974         47.645
        10428.5          9.534         89.831         76.680         34.976         51.284
        10429.0          9.533         91.969         78.248         35.978         54.923
        10429.5          9.533         92.013         79.816         37.623         58.563
        10430.0          9.533         89.937         79.052         39.696         62.202
        10430.5          9.533         87.861         76.411         41.971         65.841
        10431.0          9.533         84.699         73.770         44.746         69.481
        10431.5          9.533         79.792         72.159         47.520         73.120
        10432.0          9.533         74.886         73.275         47.200         76.759
        10432.5          9.533         69.979         74.390         34.971         64.139
        10433.0          9.533         66.387         75.505         29.990         50.291
        10433.5          9.533         69.614         76.890         25.009         36.443
        10434.0          9.533         72.841         78.391         22.090         22.595
        10434.5          9.532         76.068         79.893         20.707         21.049
        10435.0          9.532         79.295         81.395         19.325         25.120
        10435.5          9.532         82.210         82.499         21.781         29.192
        10436.0          9.532         83.063         81.762         24.601         33.263
        10436.5          9.532         83.916         81.025         27.422         37.335
        10437.0          9.532         84.769         80.288         29.383         41.406
        10437.5          9.532         85.621         79.551         30.236         41.046
        10438.0          9.532         86.474         79.016         31.089         39.914
        10438.5          9.532         87.327         78.706         30.456         38.781
        10439.0          9.532         88.180         78.397         29.632         37.648
        10439.5          9.532         86.550         78.087         28.808         36.516
        10440.0          9.531         82.242         77.778         27.936         32.863
        10440.5          9.531         77.934         77.468         26.850         27.787
        10441.0          9.531         75.091         81.140         25.764         25.008
        10441.5          9.531         75.277         80.080         24.678         23.866
        10442.0          9.531         75.464         78.251         23.592         23.711
        10442.5          9.531         75.650         76.423         26.938         28.366
        10443.0          9.531         73.465         74.594         31.409         33.021
        10443.5          9.531         70.454         73.845         35.879         37.675
        10444.0          9.531         67.443         75.819         37.649         42.330
        10444.5          9.531         65.144         77.793         34.615         36.969
