###############################################
##         ENVERUS                           ##
##         ESS - Open Hole                   ##
##         PERMIAN / DELAWARE                ##
##         Nov 04 2023  V4.0                 ##
##         42-389-32245-00-00                ##
###############################################
## Copyright 2017-2023  ENVERUS.  All Rights Reserved. 
## Confidential - Property of ENVERUS, use governed by terms and 
## conditions found within the existing Information Services Subscription Agreement 
## (as may be amended, the “ISSA”) between Customer and ENVERUS. 
## 
~VERSION INFORMATION
# MNEM.UNIT                               DATA : DESCRIPTION OF MNEMONIC
#-----.-----     ----------------------------- : -----------------------------
VERS.                                     2.00 : CWLS LOG ASCII STANDARD - VERSION 2.00
WRAP.                                       NO : MULTIPLE LINES PER DEPTH STEP
VEND.                                  ENVERUS : VENDOR
TYPE.                          ESS - OPEN HOLE : ENVERUS ESSENTIAL CURVES – ACCESSIBLE THROUGH ENVERUS PRISM(TM)
DOC.                                  24742630 : ENVERUS HEADER RAW DOCUMENT ID
#___________________________________________________________________________________________________ 
~WELL INFORMATION 
# u9Wg0OWXiPz858M7Kubpm0lpDPxjGuyhH3tqBPDGtvBYDDDqGrwiIchrhDPbdkpmsDZNCKsM7+2eKUVstoQO7Q== 
# MNEM.UNIT                                              DATA : DESCRIPTION OF MNEMONIC 
#-----.-----                    ----------------------------- : ----------------------------- 
CNTY.                                                  REEVES : COUNTY 
STATE.                                                  TEXAS : STATE 
CNTRY.                                                    USA : COUNTRY 
API.                                             42-389-32245 : API (10 Digit) 
API_14.                                    42-389-32245-00-00 : API (14 Digits) 
API_14_std.                                 42-389-32245-0000 : API (14 Digits Standard) 
UWI.                                           42389322450000 : UNIQUE WELL ID 
WELL.                          TEXAS PACIFIC LAND TRUST #25-1 : WELL NAME
STRT.FT                                                2530.0 : START DEPTH
STOP.FT                                               10610.0 : STOP DEPTH
STEP.FT                                                   0.5 : STEP BETWEEN DEPTHS
NULL.                                                 -999.25 : NULL VALUE
COMP.                                             CONOCO INC. : COMPANY 
FLD.                                            FORD WOLFCAMP : FIELD 
LOC.                                                 25-2S-58 : LOCATION 
SRVC.                                            SCHLUMBERGER : SERVICE COMPANY 
DATE.                                              03/21/2002 : DATE 
TVD.                                                       NO : TVD FLAG
#___________________________________________________________________________________________________ 
~PARAMETER INFORMATION 
# MNEM.UNIT                                              DATA : DESCRIPTION OF MNEMONIC 
#-----.-----                    ----------------------------- : ----------------------------- 
RUN.                                                      ONE : RUN NUMBER 
PDAT.                                                      GL : PERMANENT DATUM 
EPD.FT                                              2993.0000 : ELEVATION OF PERM. DATUM 
LMF.                                            KELLY BUSHING : LOG MEASURED FROM 
EKB.FT                                              3021.0000 : ELEVATION OF KELLY BUSHING 
DF.FT                                               3020.0000 : ELEVATION OF DERRICK FLOOR 
GL.FT                                               2993.0000 : ELEVATION OF GROUND LEVEL 
TD.FT                                              10610.0000 : TOTAL DEPTH 
BHT.DEGF                                               130.00 : BOTTOM HOLE TEMPERATURE 
BLI.FT                                             10610.0000 : BOTTOM LOG INTERVAL 
CSGSIZE.IN                                             9.6250 : CASING SIZE 
BITSIZE.IN                                              8.750 : BITSIZE 
CSGD.FT                                                  2642 : CASING BOTTOM (DRILLER) 1 
CSGL.FT                                                  2538 : CASING BOTTOM (LOGGER) 1 
MUD.                                                CUT BRINE : DRILLING FLUID TYPE 
MUDV.CP                                               28.0000 : DRILLING FLUID VISCOSITY 
MUDD.LB/USG                                           10.0000 : DRILLING FLUID DENSITY 
PH.                                                    8.5000 : DRILLING FLUID PH 
MUDS.                                        CIRCULATION TANK : MUD SAMPLE SOURCE 
RM.OHMM                                                0.0610 : RESISTIVITY OF MUD SAMPLE 
RMT.DEGF                                              75.0000 : MUD SAMPLE TEMPERATURE 
RMF.OHMM                                               0.0610 : MUD FILTRATE RESISTIVITY 
RMFT.DEGF                                             75.0000 : MUD FILTRATE SAMPLE TEMPERATURE
#___________________________________________________________________________________________________ 
~CURVE INFORMATION 
# MNEM.UNIT           : CURVE DESCRIPTION 
#-----.-----          : ----------------------------- 
 DEPT.FT               : MEASURED DEPTH 
 CALI.IN               : CALIPER (CALIPER) 
 GR.API                : GAMMA RAY (GAMMA RAY) 
 DT.US/FT              : SONIC DELTA TRANSIT TIME (DELTA T) 
 SPHI.V/V              : SONIC POROSITY (SONIC POROSITY) 
 #___________________________________________________________________________________________________ 
~A         DEPT           CALI             GR             DT           SPHI
# ...
         5180.0          9.160         88.470         64.060        0.12000
         5180.5          9.150         79.260         63.380        0.12000
         5181.0          9.130         70.060         67.820        0.18000
         5181.5          9.120         61.470         72.710        0.18000
         5182.0          9.110         59.680         70.530        0.15000
         5182.5          9.100         66.090         65.910        0.11000
         5183.0          9.100         73.270         62.930        0.12000
         5183.5          9.100         80.400         64.390        0.12000
         5184.0          9.100         87.540         65.660        0.13000
         5184.5          9.100         94.230         66.440        0.13000
         5185.0          9.110         99.100         66.410        0.13000
         5185.5          9.110        102.360         66.100        0.13000
         5186.0          9.110        105.280         66.120        0.13000
         5186.5          9.110        108.240         66.190        0.13000
         5187.0          9.110        111.290         66.420        0.13000
         5187.5          9.120        110.760         67.370        0.14000
         5188.0          9.120        126.320         69.810        0.17000
         5188.5          9.130        137.880         76.290        0.23000
         5189.0          9.140        149.450         82.160        0.24000
         5189.5          9.160        157.560         82.160        0.21000
         5190.0          9.170        151.970         74.530        0.17000
         5190.5          9.180        139.540         68.050        0.14000
         5191.0          9.190        126.930         67.400        0.14000
         5191.5          9.210        114.310         66.770        0.14000
         5192.0          9.220        109.720         67.170        0.14000
         5192.5          9.230        112.660         67.840        0.14000
         5193.0          9.250        114.140         68.470        0.15000
         5193.5          9.270        104.710         68.990        0.15000
         5194.0          9.300         90.270         68.680        0.15000
         5194.5          9.330         74.620         68.210        0.14000
         5195.0          9.350         59.310         67.730        0.14000
         5195.5          9.380         49.620         66.920        0.14000
         5196.0          9.410         50.120         65.890        0.13000
         5196.5          9.420         60.270         64.860        0.12000
         5197.0          9.420         65.100         63.710        0.11000
         5197.5          9.420         62.660         63.030        0.11000
         5198.0          9.420         56.640         63.090        0.11000
         5198.5          9.420         51.100         63.630        0.12000
         5199.0          9.420         50.470         64.760        0.13000
         5199.5          9.420         51.720         65.610        0.13000
         5200.0          9.450         52.240         66.000        0.13000
         5200.5          9.490         50.740         66.390        0.13000
         5201.0          9.520         50.040         66.780        0.14000
         5201.5          9.560         50.680         67.090        0.14000
         5202.0          9.600         52.830         67.250        0.14000
         5202.5          9.610         55.010         67.420        0.14000
         5203.0          9.630         55.820         67.580        0.14000
         5203.5          9.650         56.560         67.670        0.14000
         5204.0          9.660         58.170         67.470        0.14000
         5204.5          9.680         59.960         66.940        0.13000
         5205.0          9.700         61.210         66.410        0.13000
         5205.5          9.710         62.480         66.050        0.13000
         5206.0          9.730         63.740         66.290        0.13000
         5206.5          9.750         65.020         66.770        0.14000
         5207.0          9.760         64.170         67.260        0.14000
         5207.5          9.780         62.010         67.540        0.14000
         5208.0          9.800         59.070         67.450        0.14000
         5208.5          9.820         55.310         66.800        0.13000
         5209.0          9.820         51.570         66.040        0.13000
         5209.5          9.820         47.820         65.340        0.12000
         5210.0          9.820         45.880         65.180        0.12000
         5210.5          9.820         45.820         65.620        0.13000
         5211.0          9.820         49.260         66.450        0.13000
         5211.5          9.820         52.300         67.410        0.14000
         5212.0          9.820         52.230         67.950        0.14000
         5212.5          9.820         50.950         68.290        0.15000
         5213.0          9.800         50.240         68.630        0.15000
         5213.5          9.790         50.080         68.660        0.15000
         5214.0          9.770         50.390         68.120        0.14000
         5214.5          9.760         50.700         67.640        0.14000
         5215.0          9.750         51.370         67.360        0.14000
         5215.5          9.760         52.800         67.350        0.14000
         5216.0          9.760         54.110         67.800        0.14000
         5216.5          9.760         53.710         68.340        0.15000
         5217.0          9.760         51.420         68.730        0.15000
         5217.5          9.760         50.470         68.380        0.15000
         5218.0          9.760         50.940         67.330        0.14000
         5218.5          9.760         51.900         65.850        0.13000
         5219.0          9.770         50.560         64.640        0.12000
         5219.5          9.770         49.120         64.730        0.12000
         5220.0          9.770         48.930         65.670        0.13000
         5220.5          9.770         49.520         66.770        0.14000
         5221.0          9.770         50.580         66.970        0.14000
         5221.5          9.770         51.880         66.730        0.13000
         5222.0          9.770         53.480         66.700        0.14000
         5222.5          9.760         55.090         67.070        0.14000
         5223.0          9.750         57.040         67.420        0.14000
         5223.5          9.740         63.930         67.340        0.14000
         5224.0          9.740         72.050         66.820        0.13000
         5224.5          9.720         80.150         66.100        0.13000
         5225.0          9.700         87.900         65.380        0.12000
         5225.5          9.670         90.690         64.880        0.12000
         5226.0          9.640         91.610         65.220        0.13000
         5226.5          9.610         92.510         65.570        0.13000
         5227.0          9.580         90.940         65.740        0.12000
         5227.5          9.540         83.370         65.130        0.12000
         5228.0          9.510         75.040         64.510        0.12000
         5228.5          9.500         66.770         63.910        0.12000
         5229.0          9.490         58.990         64.600        0.12000
         5229.5          9.480         52.140         65.270        0.13000
         5230.0          9.470         48.140         65.500        0.13000
         5230.5          9.460         51.700         65.610        0.13000
         5231.0          9.450         58.450         65.720        0.13000
         5231.5          9.440         63.910         65.820        0.13000
         5232.0          9.430         60.310         66.010        0.13000
         5232.5          9.420         54.730         66.220        0.13000
