###############################################
##         ENVERUS                           ##
##         ESS - Open Hole                   ##
##         PERMIAN / DELAWARE                ##
##         Nov 04 2023  V4.0                 ##
##         42-389-31270-00-00                ##
###############################################
## Copyright 2017-2023  ENVERUS.  All Rights Reserved. 
## Confidential - Property of ENVERUS, use governed by terms and 
## conditions found within the existing Information Services Subscription Agreement 
## (as may be amended, the “ISSA”) between Customer and ENVERUS. 
## 
~VERSION INFORMATION
# MNEM.UNIT                               DATA : DESCRIPTION OF MNEMONIC
#-----.-----     ----------------------------- : -----------------------------
VERS.                                     2.00 : CWLS LOG ASCII STANDARD - VERSION 2.00
WRAP.                                       NO : MULTIPLE LINES PER DEPTH STEP
VEND.                                  ENVERUS : VENDOR
TYPE.                          ESS - OPEN HOLE : ENVERUS ESSENTIAL CURVES – ACCESSIBLE THROUGH ENVERUS PRISM(TM)
DOC.                                  31950282 : ENVERUS HEADER RAW DOCUMENT ID
#___________________________________________________________________________________________________ 
~WELL INFORMATION 
# 0CODbT4LMl4UGLa7W4QP9cEC157HhgZEtdKI2U+cm8ET/zLKkJfEe4mvdgudHboWMGmWziBYTrzgVEWtCsCjWg== 
# MNEM.UNIT                                              DATA : DESCRIPTION OF MNEMONIC 
#-----.-----                    ----------------------------- : ----------------------------- 
CNTY.                                                  REEVES : COUNTY 
STATE.                                                  TEXAS : STATE 
CNTRY.                                                    USA : COUNTRY 
API.                                             42-389-31270 : API (10 Digit) 
API_14.                                    42-389-31270-00-00 : API (14 Digits) 
API_14_std.                                 42-389-31270-0000 : API (14 Digits Standard) 
UWI.                                           42389312700000 : UNIQUE WELL ID 
WELL.                                        FORTUNE UNIT  2R : WELL NAME
STRT.FT                                                3825.0 : START DEPTH
STOP.FT                                               13654.0 : STOP DEPTH
STEP.FT                                                   0.5 : STEP BETWEEN DEPTHS
NULL.                                                 -999.25 : NULL VALUE
COMP.                          SANDRIDGE EXPL. AND PROD.  LLC : COMPANY 
DATE.                                             19-AUG-2004 : LOG DATE
#___________________________________________________________________________________________________ 
~CURVE INFORMATION 
# MNEM.UNIT           : CURVE DESCRIPTION 
#-----.-----          : ----------------------------- 
 DEPT.FT               : MEASURED DEPTH 
 CALI__B.IN            : CALIPER (CAL - CAL) 
 GR__B.API             : GAMMA RAY (GR) 
 DT__B.US/FT           : SONIC DELTA TRANSIT TIME (DT) 
 #___________________________________________________________________________________________________ 
~A         DEPT        CALI__B          GR__B          DT__B
# ...
         9039.0         10.223         77.590         74.200
         9039.5         10.234         81.167         73.250
         9040.0         10.244         84.743         71.506
         9040.5         10.255         85.520         69.762
         9041.0         10.265         81.106         68.019
         9041.5         10.276         76.693         66.275
         9042.0         10.287         72.279         64.888
         9042.5         10.297         60.639         65.704
         9043.0         10.308         61.764         66.520
         9043.5         10.318         63.430         67.337
         9044.0         10.329         66.806         68.153
         9044.5         10.340         70.182         68.969
         9045.0         10.331         73.559         63.518
         9045.5         10.289         62.933         60.594
         9046.0         10.246         47.701         62.490
         9046.5         10.204         54.903         64.387
         9047.0         10.162         62.831         66.283
         9047.5         10.120         73.540         68.180
         9048.0         10.081         83.518         70.076
         9048.5         10.073         90.873         71.972
         9049.0         10.065         98.227         73.325
         9049.5         10.057        100.861         73.576
         9050.0         10.049        101.887         73.827
         9050.5         10.041         98.477         74.078
         9051.0         10.033         91.225         72.532
         9051.5         10.025         83.540         68.369
         9052.0         10.017         72.212         64.207
         9052.5         10.010         60.883         60.371
         9053.0         10.002         50.750         58.876
         9053.5          9.994         40.872         57.382
         9054.0          9.986         30.993         57.191
         9054.5          9.978         27.906         58.359
         9055.0          9.978         29.860         59.527
         9055.5          9.977         31.814         60.695
         9056.0          9.977         33.768         61.819
         9056.5          9.977         35.968         60.983
         9057.0          9.977         41.301         60.146
         9057.5          9.977         46.633         59.310
         9058.0          9.977         45.095         58.473
         9058.5          9.976         40.282         57.637
         9059.0          9.976         35.469         56.800
         9059.5          9.979         31.867         55.964
         9060.0          9.983         28.872         55.128
         9060.5          9.987         25.876         54.291
         9061.0          9.991         22.881         53.455
         9061.5          9.995         19.961         52.618
         9062.0          9.999         21.041         52.324
         9062.5         10.003         22.121         53.553
         9063.0         10.007         23.201         54.782
         9063.5         10.011         24.282         56.011
         9064.0         10.015         27.265         57.240
         9064.5         10.019         50.254         58.685
         9065.0         10.023         69.212         63.848
         9065.5         10.027         88.169         69.012
         9066.0         10.031        107.127         73.683
         9066.5         10.034         86.080         71.041
         9067.0         10.032         74.281         68.399
         9067.5         10.030         66.533         65.756
         9068.0         10.028         58.784         63.114
         9068.5         10.026         51.035         60.472
         9069.0         10.024         50.997         60.050
         9069.5         10.021         61.250         64.997
         9070.0         10.019         71.502         69.944
         9070.5         10.017         81.755         72.938
         9071.0         10.015         92.008         70.632
         9071.5         10.013         94.642         68.325
         9072.0         10.011         61.436         66.018
         9072.5         10.009         42.914         63.712
         9073.0         10.007         44.240         61.405
         9073.5         10.005         45.567         61.922
         9074.0         10.003         50.772         64.026
         9074.5         10.000         57.978         66.130
         9075.0          9.998         65.183         68.235
         9075.5          9.996         72.389         70.339
         9076.0          9.994         79.594         72.443
         9076.5          9.992         85.243         73.331
         9077.0          9.991         77.361         71.709
         9077.5          9.993         69.480         70.087
         9078.0          9.996         63.062         68.465
         9078.5          9.998         61.860         67.473
         9079.0         10.000         60.658         66.693
         9079.5         10.002         59.455         65.716
         9080.0         10.005         58.253         64.078
         9080.5         10.007         48.840         62.441
         9081.0         10.009         39.088         60.803
         9081.5         10.011         45.892         59.165
         9082.0         10.014         58.969         62.552
         9082.5         10.016         71.548         67.322
         9083.0         10.018         84.128         72.093
         9083.5         10.020         96.708         76.863
         9084.0         10.023        100.123         78.362
         9084.5         10.025        100.725         77.019
         9085.0         10.027        101.328         75.676
         9085.5         10.029         97.906         74.333
         9086.0         10.031         90.050         73.099
         9086.5         10.034         82.193         72.526
         9087.0         10.036         80.699         71.953
         9087.5         10.038         83.764         71.380
         9088.0         10.040         86.829         70.807
         9088.5         10.043         63.207         69.691
         9089.0         10.045         51.723         65.885
         9089.5         10.047         40.238         62.080
         9090.0         10.045         28.754         58.274
         9090.5         10.043         23.930         54.469
         9091.0         10.041         29.250         62.031
         9091.5         10.038         34.571         69.832
         9092.0         10.036         90.994         74.617
         9092.5         10.034         96.701         72.926
         9093.0         10.032         99.972         71.235
         9093.5         10.029         97.241         69.544
         9094.0         10.027         94.510         67.854
         9094.5         10.025         65.277         66.163
         9095.0         10.023         47.679         64.472
         9095.5         10.020         46.483         62.781
         9096.0         10.018         49.698         61.090
         9096.5         10.016         55.683         61.558
         9097.0         10.014         64.523         65.888
         9097.5         10.011         73.364         70.217
         9098.0         10.009         82.204         74.546
         9098.5         10.007         91.044         75.007
         9099.0         10.005         95.012         73.207
         9099.5         10.005         92.185         71.406
         9100.0         10.007         89.359         69.605
         9100.5         10.009         82.450         67.805
         9101.0         10.010         66.038         66.004
         9101.5         10.012         62.701         65.833
         9102.0         10.014         68.558         69.564
         9102.5         10.016         74.415         73.295
         9103.0         10.018         80.271         71.709
         9103.5         10.020         86.128         68.220
         9104.0         10.022         82.268         64.731
         9104.5         10.024         75.795         61.242
