~Version Information
 VERS.                  2.0:   CWLS log ASCII Standard -VERSION 2.0
 WRAP.                   NO:   One line per depth step
~Well Information Block
#MNEM.UNIT     VALUE/NAME     DESCRIPTION
#---------     -----------    ---------------------------
 STRT.F              8800.0000: START DEPTH
 STOP.F             14300.0000: STOP DEPTH
 STEP.F                 0.5000: STEP DEPTH
 NULL.                 -999.25: NULL VALUE
 LOC .     336'' FSL & 729' FWL:  LOCATION
 FL6 .        API 42-389-36322:  LOCATIONLINE6
 FL4 .           ABSTRACT 3622:  LOCATIONLINE4
 FL3 .        T&P RR CO SURVEY:  LOCATIONLINE3
 FL2 .     SECTION 36, BLOCK 58 T2:  LOCATIONLINE2
 FL1 .     336'' FSL & 729' FWL:  LOCATIONLINE1
 DMF .                      KB:  DRILL MEAS FROM
 PDAT.                      GL:  PERMANENT DATUM
 CNTY.                  REEVES:  COUNTY NAME
 FLD .     FORD, WEST (WOLFCAMP):  FIELD NAME
 WELL.        AVA STATE 36 #2H:  WELL NAME
 COMP.     CAPITAN ENERGY INC.:  COMPANY
 DATE.             01-Nov-2017:  DATE
 SVCO.             Halliburton:  SERVICECONAME
 PROV.                   TEXAS:  PROVINCE
 STAT.                   TEXAS:  STATE NAME
 CTRY.           UNITED STATES:  COUNTRY NAME
 HIDE.                        :  WELLNAMEOPERAT
 BASI.                 PERMIAN:  BASIN
 UWI .            42-389-36322LAT:  UNIQUE WELL IDENTIFIER
 API .            42-389-36322LAT:  API NUMBER
 RANG.                     N/A:  RANGE
 TOWN.                     N/A:  TOWNSHIP
 SECT.                     N/A:  SECTION
 SON .               904399722:  JOB NUMBER
 SRVC.             Halliburton:  SERVICE COMPANY
 LMF .                      KB:  LOG MEASURED FROM
 EGL .ft             3011.0000:  GROUND ELEVATION
 BAP .ft                0.0000:  GL ELEV ONSHORE
 GVFD.g                 1.0000:  GRAVITY FIELD
 EKB .ft             3037.0000:  KB ELEVATION
 EDF .ft             3036.0000:  DF ELEVATION
~Curve Information Block
#MNEM.UNIT                 API CODE     Curve Description
#---------               -----------    ---------------------------
 DEPT.F                 00 000 000 000:  Depth
 CCL .V                 00 000 000 000:  Casing Collar Locator
 NPHI_OH.pu             00 000 000 000:  NPHI_OH
 NPHI_CHI.pu            00 000 000 000:  NPHI_CHI
 GR_CHI.api             00 000 000 000:  GR_CHI
 GR_OH.api              00 000 000 000:  GR_OH
 RHOB_OH.g/cc           00 000 000 000:  RHOB_OH
 RHOB_CHI.g/cc          00 000 000 000:  RHOB_CHI
 PE_CHI.b/e             00 000 000 000:  PE_CHI
 PE_OH.b/e              00 000 000 000:  PE_OH
 DTC_OH.uspf            00 000 000 000:  DTC_OH
 DTC_CHI.uspf           00 000 000 000:  DTC_CHI
 SPHI_CHI.pu            00 000 000 000:  Acou Porosity CHI
 RT10_OH.ohmm           00 000 000 000:  RT10_OH
 RT10_CHI.ohmm          00 000 000 000:  RT10_CHI
 RT30_OH.ohmm           00 000 000 000:  RT30_OH
 RT30_CHI.ohmm          00 000 000 000:  RT30_CHI
 RT90_OH.ohmm           00 000 000 000:  RT90_OH
 RT90_CHI.ohmm          00 000 000 000:  RT90_CHI
 SGF .cu                00 000 000 000:  Formation Sigma
 CRNF.NONE              00 000 000 000:  CM GrsCaptRatio
 RIN .NONE              00 000 000 000:  CM GrsInelRatio
#Other Information
#
#WARRANTY: Halliburton will use its best efforts to furnish customers with 
#accurate information and interpretations that are part of, and incident to, the services 
#provided.  However, Halliburton cannot and does not warrant the accuracy 
#or correctness of such information and interpretations.  Under no circumstances should any 
#such information or interpretation be relied upon as the sole basis for any drilling, 
#completion, production, or financial decision or any procedure involving any risk to the 
#safety of any drilling venture, drilling rig or its crew or any other third party.  The 
#Customer has full responsibility for all drilling, completion and production operation.  
#Halliburton makes no representations or warranties, either expressed or 
#implied, including, but not limited to, the implied warranties of merchantability or fitness 
#for a particular purpose, with respect to the services rendered.  In no event will 
#Halliburton be liable for failure to obtain any particular results or for 
#any damages, including, but not limited to, indirect, special or consequential damages, 
#resulting from the use of any information or interpretation provided by Halliburton.
#
~A    DEPT      CCL   NPHI_OH NPHI_CHI   GR_CHI   GR_OH   RHOB_OH RHOB_CHI  PE_CHI   PE_OH  DTC_OH  DTC_CHI SPHI_CHI RT10_OH  RT10_CHI RT30_OH  RT30_CHI RT90_OH  RT90_CHI   SGF    CRNF   RIN   
# ...
   12811.0000  0.0000 -999.25   13.6925 137.8216  -999.25 -999.25    2.5461  3.7993 -999.25 -999.25 72.1946  17.3900  -999.25  38.6161  -999.25  38.1628  -999.25  40.7112 26.3864 1.0805 1.0470
   12811.5000  0.0000 -999.25   13.3920 132.9320  -999.25 -999.25    2.5482  3.8192 -999.25 -999.25 71.6321  17.0000  -999.25  38.7609  -999.25  38.2659  -999.25  40.8586 26.2635 1.0799 1.0477
   12812.0000  0.0000 -999.25   13.3030 132.6021  -999.25 -999.25    2.5492  3.8393 -999.25 -999.25 71.4693  16.8800  -999.25  38.8123  -999.25  38.3470  -999.25  40.9512 26.1914 1.0774 1.0496
   12812.5000  0.0000 -999.25   13.4041 135.7293  -999.25 -999.25    2.5487  3.8382 -999.25 -999.25 71.6457  17.0100  -999.25  38.8559  -999.25  38.5085  -999.25  41.1242 26.3183 1.0717 1.0500
   12813.0000  0.0000 -999.25   13.3888 134.5701  -999.25 -999.25    2.5485  3.8344 -999.25 -999.25 71.5936  16.9700  -999.25  38.9049  -999.25  38.5696  -999.25  41.2042 26.5232 1.0653 1.0490
   12813.5000  0.0000 -999.25   13.2104 128.6275  -999.25 -999.25    2.5493  3.8402 -999.25 -999.25 71.2817  16.7500  -999.25  38.8061  -999.25  38.2596  -999.25  40.8705 26.8806 1.0615 1.0485
   12814.0000  0.0000 -999.25   13.2196 133.4997  -999.25 -999.25    2.5498  3.8264 -999.25 -999.25 71.2306  16.7100  -999.25  39.0542  -999.25  38.6992  -999.25  41.3698 27.3193 1.0651 1.0486
   12814.5000  0.0000 -999.25   13.0902 132.8472  -999.25 -999.25    2.5509  3.8172 -999.25 -999.25 70.9502  16.5100  -999.25  39.1338  -999.25  38.7465  -999.25  41.4365 27.6462 1.0700 1.0482
   12815.0000  0.0000 -999.25   12.9916 132.5030  -999.25 -999.25    2.5519  3.8118 -999.25 -999.25 70.7775  16.3900  -999.25  39.0731  -999.25  38.5921  -999.25  41.2614 27.8979 1.0750 1.0485
   12815.5000  0.0000 -999.25   13.0459 132.6216  -999.25 -999.25    2.5515  3.8053 -999.25 -999.25 70.9551  16.5200  -999.25  38.8527  -999.25  38.2509  -999.25  40.8597 27.7660 1.0749 1.0484
   12816.0000  0.0000 -999.25   13.0156 129.7312  -999.25 -999.25    2.5519  3.8186 -999.25 -999.25 71.0427  16.5800  -999.25  38.4739  -999.25  37.6045  -999.25  40.1074 27.4840 1.0695 1.0499
   12816.5000  0.0000 -999.25   13.1634 131.8042  -999.25 -999.25    2.5509  3.8178 -999.25 -999.25 71.3235  16.7800  -999.25  38.4555  -999.25  37.6350  -999.25  40.1278 27.1282 1.0629 1.0500
   12817.0000  0.0000 -999.25   13.2186 134.1098  -999.25 -999.25    2.5507  3.8227 -999.25 -999.25 71.3829  16.8200  -999.25  38.6157  -999.25  37.9347  -999.25  40.4648 26.7643 1.0538 1.0506
   12817.5000  0.0000 -999.25   12.9266 125.6726  -999.25 -999.25    2.5521  3.8454 -999.25 -999.25 70.8380  16.4300  -999.25  38.6259  -999.25  37.7949  -999.25  40.3422 26.6027 1.0472 1.0505
   12818.0000  0.0000 -999.25   12.6467 119.9549  -999.25 -999.25    2.5544  3.8806 -999.25 -999.25 70.2948  16.0500  -999.25  38.6764  -999.25  37.7421  -999.25  40.3025 26.4679 1.0458 1.0528
   12818.5000  0.0000 -999.25   12.8177 136.1093  -999.25 -999.25    2.5550  3.8687 -999.25 -999.25 70.3786  16.1100  -999.25  39.3442  -999.25  39.0903  -999.25  41.8143 26.4937 1.0472 1.0552
   12819.0000  0.0000 -999.25   12.7525 139.8200  -999.25 -999.25    2.5563  3.8775 -999.25 -999.25 70.1400  15.9400  -999.25  39.5699  -999.25  39.5230  -999.25  42.3075 26.5867 1.0566 1.0571
   12819.5000  0.0000 -999.25   12.4346 126.6941  -999.25 -999.25    2.5576  3.9013 -999.25 -999.25 69.6390  15.5900  -999.25  39.2806  -999.25  38.7492  -999.25  41.4576 26.5782 1.0668 1.0568
   12820.0000  0.0000 -999.25   12.7428 136.6368  -999.25 -999.25    2.5554  3.8592 -999.25 -999.25 70.0996  15.9100  -999.25  39.6090  -999.25  39.4910  -999.25  42.2917 26.4850 1.0731 1.0542
   12820.5000  0.0000 -999.25   12.9355 136.5555  -999.25 -999.25    2.5534  3.8492 -999.25 -999.25 70.5796  16.2500  -999.25  39.3954  -999.25  39.2046  -999.25  41.9511 26.1964 1.0700 1.0527
   12821.0000  0.0000 -999.25   13.1396 136.1504  -999.25 -999.25    2.5513  3.8413 -999.25 -999.25 71.0590  16.5900  -999.25  39.1696  -999.25  38.9083  -999.25  41.6001 25.9141 1.0607 1.0512
   12821.5000  0.0000 -999.25   13.0779 128.0301  -999.25 -999.25    2.5508  3.8597 -999.25 -999.25 71.0337  16.5700  -999.25  38.8565  -999.25  38.3103  -999.25  40.9299 25.5614 1.0506 1.0506
   12822.0000  0.0000 -999.25   13.0705 128.7358  -999.25 -999.25    2.5507  3.8573 -999.25 -999.25 70.9323  16.5000  -999.25  39.0684  -999.25  38.6837  -999.25  41.3700 25.3134 1.0419 1.0498
   12822.5000  0.0000 -999.25   13.2073 140.0389  -999.25 -999.25    2.5502  3.8311 -999.25 -999.25 70.9413  16.5100  -999.25  39.7641  -999.25  40.0644  -999.25  42.9554 25.1604 1.0384 1.0487
   12823.0000  0.0000 -999.25   12.8585 132.4651  -999.25 -999.25    2.5527  3.8591 -999.25 -999.25 70.1641  15.9600  -999.25  39.8735  -999.25  40.0416  -999.25  42.9692 25.1855 1.0420 1.0498
   12823.5000  0.0000 -999.25   12.6651 131.4784  -999.25 -999.25    2.5546  3.8762 -999.25 -999.25 69.6656  15.6100  -999.25  40.0524  -999.25  40.2862  -999.25  43.2661 25.2595 1.0467 1.0515
   12824.0000  0.0000 -999.25   12.4707 133.3339  -999.25 -999.25    2.5579  3.9256 -999.25 -999.25 69.3961  15.4100  -999.25  39.7840  -999.25  39.9169  -999.25  42.8091 25.3867 1.0505 1.0585
   12824.5000  0.0000 -999.25   12.3742 132.9069  -999.25 -999.25    2.5600  3.9695 -999.25 -999.25 69.4391  15.4400  -999.25  39.3001  -999.25  39.1843  -999.25  41.9341 25.4999 1.0542 1.0641
   12825.0000  0.0000 -999.25   12.1861 126.0478  -999.25 -999.25    2.5620  4.0172 -999.25 -999.25 69.3470  15.3800  -999.25  38.7293  -999.25  38.1350  -999.25  40.7168 25.4810 1.0519 1.0686
   12825.5000  0.0000 -999.25   12.1541 123.2582  -999.25 -999.25    2.5623  4.0306 -999.25 -999.25 69.4158  15.4300  -999.25  38.4808  -999.25  37.6774  -999.25  40.1854 25.5270 1.0484 1.0698
   12826.0000  0.0000 -999.25   12.1170 117.4858  -999.25 -999.25    2.5619  4.0353 -999.25 -999.25 69.4192  15.4300  -999.25  38.3229  -999.25  37.3002  -999.25  39.7648 25.4900 1.0476 1.0688
   12826.5000  0.0000 -999.25   12.3576 130.7861  -999.25 -999.25    2.5611  4.0093 -999.25 -999.25 69.7532  15.6700  -999.25  38.6196  -999.25  38.0895  -999.25  40.6389 25.6732 1.0532 1.0691
   12827.0000  0.0000 -999.25   12.2964 128.8824  -999.25 -999.25    2.5611  4.0017 -999.25 -999.25 69.5513  15.5200  -999.25  38.7892  -999.25  38.2801  -999.25  40.8753 25.7402 1.0621 1.0676
   12827.5000  0.0000 -999.25   12.2608 126.3715  -999.25 -999.25    2.5609  3.9912 -999.25 -999.25 69.4713  15.4700  -999.25  38.8457  -999.25  38.2433  -999.25  40.8443 25.6025 1.0665 1.0661
   12828.0000  0.0000 -999.25   12.5937 134.3467  -999.25 -999.25    2.5583  3.9531 -999.25 -999.25 70.0743  15.8900  -999.25  38.9953  -999.25  38.6834  -999.25  41.3286 25.2715 1.0712 1.0634
   12828.5000  0.0000 -999.25   12.7806 132.7907  -999.25 -999.25    2.5558  3.9376 -999.25 -999.25 70.4916  16.1900  -999.25  38.8793  -999.25  38.5208  -999.25  41.1435 24.9018 1.0632 1.0605
   12829.0000  0.0000 -999.25   12.8613 130.9826  -999.25 -999.25    2.5545  3.9356 -999.25 -999.25 70.6436  16.3000  -999.25  38.8395  -999.25  38.4982  -999.25  41.1260 24.8209 1.0552 1.0588
   12829.5000  0.0000 -999.25   12.6987 120.4882  -999.25 -999.25    2.5550  3.9731 -999.25 -999.25 70.4259  16.1400  -999.25  38.4624  -999.25  37.7507  -999.25  40.2882 25.0095 1.0505 1.0597
   12830.0000  0.0000 -999.25   12.2468 105.8046  -999.25 -999.25    2.5579  4.0139 -999.25 -999.25 69.5599  15.5300  -999.25  38.3300  -999.25  37.1651  -999.25  39.6640 25.2505 1.0520 1.0610
   12830.5000  0.0000 -999.25   12.2253 116.7464  -999.25 -999.25    2.5600  4.0190 -999.25 -999.25 69.4919  15.4800  -999.25  38.5303  -999.25  37.6878  -999.25  40.2307 25.3783 1.0548 1.0652
   12831.0000  0.0000 -999.25   12.3052 125.6611  -999.25 -999.25    2.5604  4.0019 -999.25 -999.25 69.5648  15.5300  -999.25  38.7726  -999.25  38.2243  -999.25  40.8254 25.2751 1.0563 1.0661
   12831.5000  0.0000 -999.25   12.2746 121.3654  -999.25 -999.25    2.5599  3.9957 -999.25 -999.25 69.5340  15.5100  -999.25  38.7322  -999.25  38.0161  -999.25  40.5991 25.1851 1.0562 1.0645
