#--------------------------------------------------#
#-------------------ENVERUS, INC.------------------#
#------------------WWW.ENVERUS.COM-----------------#
#------------------COPYRIGHT 2020------------------#
#--------------------------------------------------#
#THIS FILE MAY BE USED ONLY IN ACCORDANCE WITH A CURRENT SUBSCRIPTION AGREEMENT BETWEEN
#THE USER AND ENVERUS, INC. NO PART OF THIS FILE MAY BE REPRODUCED, USED, COPIED,
#MODIFIED, PROPAGATED, OR DISTRIBUTED EXCEPT IN ACCORDANCE WITH THE SUBSCRIPTION
#AGREEMENT. UNAUTHORIZED USE OR DISTRIBUTION OF ALL OR ANY PART OF THIS FILE MAY VIOLATE
#COPYRIGHT, TRADEMARK, AND/OR OTHER LAWS AND IS SUBJECT TO CIVIL AS WELL AS CRIMINAL
#SANCTIONS.
#--------------------------------------------------#
#THIS FILE IS PROVIDED "AS-IS" AND ALL WARRANTIES ARE EXPRESSLY DISCLAIMED, WHETHER
#EXPRESS, ORAL, IMPLIED, STATUTORY OR OTHERWISE, INCLUDING ANY IMPLIED WARRANTY OF FITNESS
#FOR A PARTICULAR PURPOSE, MERCHANTABILITY, TITLE OR NON-INFRINGEMENT, AND ANY WARRANTIES
#ARISING BY VIRTUE OF CUSTOM OF TRADE OR COURSE OF DEALING.  FURTHER, ENVERUS, INC.
#AND ITS LICENSORS DO NOT REPRESENT OR WARRANT THAT THIS FILE WILL MEET USER'S
#REQUIREMENTS OR ARE SUITABLE FOR USER'S NEEDS OR THAT THE DATA OR RESULTS PROVIDED IN
#CONJUNCTION THEREWITH ARE CORRECT, ACCURATE, TIMELY OR RELIABLE. THESE DISCLAIMERS SHALL
#APPLY REGARDLESS OF ANY FAILURE OF ESSENTIAL PURPOSE OF ANY LIMITED REMEDY.  SOME
#JURISDICTIONS DO NOT ALLOW THE EXCLUSION OF CERTAIN WARRANTIES SO SOME OF THE ABOVE
#EXCLUSIONS MAY NOT APPLY. IN NO EVENT SHALL ENVERUS, INC. OR ANY OF ITS AFFILIATES
#BE LIABLE UNDER ANY LEGAL THEORY, WHETHER IN TORT (INCLUDING WITHOUT LIMITATION
#NEGLIGENCE), CONTRACT, STRICT LIABILITY, STATUTORY OR OTHERWISE, FOR ANY SPECIAL,
#INCIDENTAL, CONSEQUENTIAL, EXEMPLARY, PUNITIVE OR INDIRECT DAMAGE OF ANY KIND, INCLUDING
#WITHOUT LIMITATION LOSS OF REVENUE, PROFITS, GOODWILL, USE, AND/OR DATA OR THE COST OF
#PROCUREMENT OF SUBSTITUTE GOODS OR SERVICES, EVEN IF APPRISED OF THE POSSIBILITY OF SUCH
#DAMAGES IN ADVANCE.
#--------------------------------------------------#

~VERSION INFORMATION
VERS. 2.0 : CWLS LOG ASCII STANDARD - VERSION 2.0
WRAP.  NO : ONE LINE PER DEPTH STEP
~WELL INFORMATION
#MNEMONIC     .UNIT              VALUE :DESCRIPTION
STRT       .FT                25 :START DEPTH
STOP       .FT                17136 :STOP DEPTH
STEP       .FT                   0.500 :STEP
NULL       .                  -999.250 :NULL
UWI        .              42389302310000 :UNIQUE WELL ID
API        .              42389302310000 :API NUMBER
COMP       .         EDISTO RESOURCES CORPORATION :COMPANY
WELL       .        WIGGINS  ORLA  1 :WELL
DATE       .                            :LOG DATE
~CURVE INFORMATION
#MNEMONIC     .UNIT      API CODE :CURVE DESCRIPTION
DEPTH       .FT                      :MEASURED DEPTH
CAL.INCH        UNKNOWN   :CAL
ILS.OHM        UNKNOWN   :ILS
SP.MV        UNKNOWN   :SP
DT.US/FT        UNKNOWN   :DT
GR.API        UNKNOWN   :GR
ILD.OHM        UNKNOWN   :ILD
~A    DEPTH    CAL    ILS    SP    DT    GR    ILD
# ...
 15187     11.109   -999.99   -36.915   95.222   104.389   13.276
 15187.5     11.089   -999.99   -37.038   95.628   108.833   13.847
 15188     11.13   -999.99   -37.162   97.069   114.12   13.94
 15188.5     11.171   -999.99   -37.242   98.876   118.076   13.943
 15189     11.169   -999.99   -37.135   100.683   115.723   13.947
 15189.5     11.084   -999.99   -37.028   102.089   109.809   14.946
 15190     10.998   -999.99   -36.92   99.265   108.671   16.336
 15190.5     10.995   -999.99   -37.061   96.441   105.192   17.726
 15191     11.024   -999.99   -37.284   94.679   94.056   17.753
 15191.5     11.054   -999.99   -37.506   94.631   90.935   17.758
 15192     11.038   -999.99   -37.729   94.583   87.815   17.762
 15192.5     11.004   -999.99   -37.909   94.534   87   17.766
 15193     10.981   -999.99   -37.723   94.486   88.813   17.554
 15193.5     11.076   -999.99   -37.536   94.438   90.626   16.567
 15194     11.171   -999.99   -37.35   94.389   92.438   15.581
 15194.5     11.23   -999.99   -37.164   94.341   94.251   14.595
 15195     11.2   -999.99   -36.978   94.293   96.064   13.608
 15195.5     11.17   -999.99   -36.792   94.77   93.175   12.622
 15196     11.161   -999.99   -36.606   96.914   89.149   12.082
 15196.5     11.213   -999.99   -36.42   95.636   87.192   11.924
 15197     11.264   -999.99   -36.287   94.358   87.551   11.766
 15197.5     11.304   -999.99   -36.255   94.147   86.299   11.607
 15198     11.31   -999.99   -36.223   94.199   85.604   11.449
 15198.5     11.315   -999.99   -36.191   94.251   86.64   11.291
 15199     11.32   -999.99   -36.159   94.303   90.117   11.132
 15199.5     11.26   -999.99   -36.126   94.355   93.594   10.985
 15200     11.07   -999.99   -36.094   94.407   97.071   10.866
 15200.5     10.88   -999.99   -36.155   94.459   100.548   10.746
 15201     10.7   -999.99   -36.216   94.511   104.025   10.627
 15201.5     10.72   -999.99   -36.277   94.686   107.502   10.507
 15202     10.741   -999.99   -36.338   96.484   108.331   10.473
 15202.5     10.761   -999.99   -36.4   98.282   103.629   10.523
 15203     10.764   -999.99   -36.461   100.08   98.551   10.574
 15203.5     10.762   -999.99   -36.522   101.878   99.961   10.641
 15204     10.761   -999.99   -36.583   101.022   101.371   10.983
 15204.5     10.759   -999.99   -36.644   100.136   104.834   11.325
 15205     10.758   -999.99   -36.706   100.306   109.038   11.667
 15205.5     10.756   -999.99   -36.759   100.965   108.894   11.874
 15206     10.755   -999.99   -36.797   100.693   106.31   11.929
 15206.5     10.753   -999.99   -36.835   100.421   103.726   11.983
 15207     10.752   -999.99   -36.872   100.149   104.813   12.038
 15207.5     10.75   -999.99   -36.91   100.273   105.959   12.093
 15208     10.748   -999.99   -36.948   101.371   107.105   12.163
 15208.5     10.747   -999.99   -36.986   101.208   108.25   12.533
 15209     10.745   -999.99   -37.024   100.708   108.342   12.902
 15209.5     10.744   -999.99   -37.09   99.261   112.011   14.31
 15210     10.742   -999.99   -37.487   96.388   115.392   15.793
 15210.5     10.741   -999.99   -37.884   93.774   116.99   17.398
 15211     10.739   -999.99   -38.28   92.536   118.588   19.476
 15211.5     10.738   -999.99   -38.677   91.298   116.349   21.554
 15212     10.736   -999.99   -38.903   90.06   111.045   22.744
 15212.5     10.738   -999.99   -38.617   87.252   108.202   22.977
 15213     10.772   -999.99   -38.331   82.189   93.924   23.209
 15213.5     10.806   -999.99   -38.046   77.126   77.796   23.442
 15214     10.84   -999.99   -37.76   72.063   61.669   23.675
 15214.5     10.845   -999.99   -37.474   91.065   60.106   24.243
 15215     10.845   -999.99   -37.189   92.515   66.233   24.938
 15215.5     10.844   -999.99   -36.903   93.166   74.37   25.633
 15216     10.844   -999.99   -36.841   93.817   82.507   20.631
 15216.5     10.843   -999.99   -36.873   95.477   90.643   17.684
 15217     10.843   -999.99   -36.905   98.049   98.78   16.655
 15217.5     10.843   -999.99   -36.937   100.622   104.345   15.626
 15218     10.842   -999.99   -36.969   103.195   104.342   14.526
 15218.5     10.859   -999.99   -37   102.695   104.338   13.166
 15219     10.88   -999.99   -37.032   101.688   104.335   11.805
 15219.5     10.886   -999.99   -37.064   100.761   106.27   10.457
 15220     10.886   -999.99   -37.096   102.01   109.469   10.459
 15220.5     10.885   -999.99   -37.128   103.259   107.094   10.791
 15221     10.885   -999.99   -37.159   103.952   101.587   11.268
 15221.5     10.885   -999.99   -37.191   104.128   94.448   11.746
 15222     10.884   -999.99   -37.223   104.304   90.067   12.223
 15222.5     10.904   -999.99   -37.255   102.101   89.383   12.364
 15223     10.955   -999.99   -37.288   96.755   90.379   12.415
 15223.5     10.969   -999.99   -37.327   95.195   95.833   12.427
 15224     10.965   -999.99   -37.365   93.731   101.287   12.43
 15224.5     10.961   -999.99   -37.403   95.115   106.741   12.433
 15225     10.956   -999.99   -37.444   100.459   112.194   12.436
 15225.5     10.952   -999.99   -37.502   108.198   103.233   12.024
 15226     10.95   -999.99   -37.56   109.974   97.498   11.439
 15226.5     11.013   -999.99   -37.518   108.775   101.092   10.854
 15227     11.076   -999.99   -37.315   107.576   103.871   10.269
 15227.5     11.125   -999.99   -37.112   106.377   106.342   9.685
 15228     11.124   -999.99   -36.909   106.56   105.322   9.403
 15228.5     11.124   -999.99   -36.706   108.77   103.664   9.373
 15229     11.114   -999.99   -36.789   108.299   95.616   9.343
 15229.5     11.091   -999.99   -36.896   108.002   92.216   9.313
 15230     11.055   -999.99   -37.002   108.559   88.816   9.283
 15230.5     11.003   -999.99   -37.108   109.116   88.344   9.253
 15231     10.987   -999.99   -37.215   105.875   90.79   9.223
 15231.5     11.059   -999.99   -37.321   105.002   93.236   9.188
 15232     11.13   -999.99   -37.378   104.564   95.682   9.151
 15232.5     11.129   -999.99   -37.397   104.127   98.556   9.115
 15233     11.054   -999.99   -37.415   105.116   101.855   9.078
 15233.5     10.991   -999.99   -37.434   106.555   105.153   9.042
 15234     11.03   -999.99   -37.453   107.994   104.981   9.005
 15234.5     11.068   -999.99   -37.471   109.433   100.777   8.968
 15235     11.107   -999.99   -37.49   108.801   96.573   8.695
 15235.5     11.146   -999.99   -37.508   107.727   94.752   8.235
 15236     11.197   -999.99   -37.527   107.603   93.599   7.775
 15236.5     11.256   -999.99   -37.545   107.48   95.239   7.316
 15237     11.315   -999.99   -37.564   107.356   97.619   7.218
 15237.5     11.375   -999.99   -37.582   107.233   100.375   7.163
 15238     11.454   -999.99   -37.601   107.861   103.131   7.287
 15238.5     11.558   -999.99   -37.619   109.287   105.525   7.426
 15239     11.49   -999.99   -37.638   110.712   106.11   7.565
 15239.5     11.27   -999.99   -37.652   111.02   106.695   7.731
 15240     11.051   -999.99   -37.664   109.902   107.28   8.039
 15240.5     11.033   -999.99   -37.675   108.784   105.657   8.347
 15241     11.041   -999.99   -37.687   107.666   104.531   8.655
 15241.5     11.049   -999.99   -37.698   106.548   104.785   8.963
 15242     11.057   -999.99   -37.71   106.901   105.039   9.271
 15242.5     11.065   -999.99   -37.721   107.728   99.356   9.469
 15243     11.128   -999.99   -37.733   106.785   95.997   9.403
 15243.5     11.214   -999.99   -37.744   105.3   98.95   9.337
 15244     11.243   -999.99   -37.756   104.951   101.904   9.271
 15244.5     11.272   -999.99   -37.74   105.996   103.674   9.205
 15245     11.301   -999.99   -37.521   106.057   104.187   9.141
 15245.5     11.33   -999.99   -37.301   104.97   105.466   9.194
 15246     11.31   -999.99   -37.082   105.871   110.619   9.247
 15246.5     11.283   -999.99   -36.862   106.7   112.607   9.331
 15247     11.255   -999.99   -37.112   107.47   114.595   9.514
