###############################################
##         ENVERUS                           ##
##         ESS - Open Hole                   ##
##         PERMIAN / DELAWARE                ##
##         Nov 04 2023  V4.0                 ##
##         42-389-31391-00-00                ##
###############################################
## Copyright 2017-2023  ENVERUS.  All Rights Reserved. 
## Confidential - Property of ENVERUS, use governed by terms and 
## conditions found within the existing Information Services Subscription Agreement 
## (as may be amended, the “ISSA”) between Customer and ENVERUS. 
## 
~VERSION INFORMATION
# MNEM.UNIT                               DATA : DESCRIPTION OF MNEMONIC
#-----.-----     ----------------------------- : -----------------------------
VERS.                                     2.00 : CWLS LOG ASCII STANDARD - VERSION 2.00
WRAP.                                       NO : MULTIPLE LINES PER DEPTH STEP
VEND.                                  ENVERUS : VENDOR
TYPE.                          ESS - OPEN HOLE : ENVERUS ESSENTIAL CURVES – ACCESSIBLE THROUGH ENVERUS PRISM(TM)
DOC.                                  23866972 : ENVERUS HEADER RAW DOCUMENT ID
#___________________________________________________________________________________________________ 
~WELL INFORMATION 
# fYFWm3OWRd9IdMsmH1sgiJ8+yI47SyIf11h8n9fSv2EtxvNnkQHcFoeZabdKB/2nhpfFDZXLrBDJ+4Q2ZBaHeQ== 
# MNEM.UNIT                                              DATA : DESCRIPTION OF MNEMONIC 
#-----.-----                    ----------------------------- : ----------------------------- 
CNTY.                                                  REEVES : COUNTY 
STATE.                                                  TEXAS : STATE 
CNTRY.                                                    USA : COUNTRY 
API.                                             42-389-31391 : API (10 Digit) 
API_14.                                    42-389-31391-00-00 : API (14 Digits) 
API_14_std.                                 42-389-31391-0000 : API (14 Digits Standard) 
UWI.                                           42389313910000 : UNIQUE WELL ID 
WELL.                                       DIXIELAND # 3 - 1 : WELL NAME
STRT.FT                                                4000.0 : START DEPTH
STOP.FT                                               12000.0 : STOP DEPTH
STEP.FT                                                   0.5 : STEP BETWEEN DEPTHS
NULL.                                                 -999.25 : NULL VALUE
COMP.                             R. K. PETROLEUM CORPORATION : COMPANY 
FLD.                                                  WILDCAT : FIELD 
DATE.                                              08/13/2015 : DATE 
TVD.                                                       NO : TVD FLAG 
WSTA.                                                     LOC : WELL STATUS
#___________________________________________________________________________________________________ 
~PARAMETER INFORMATION 
# MNEM.UNIT                                              DATA : DESCRIPTION OF MNEMONIC 
#-----.-----                    ----------------------------- : ----------------------------- 
RUN.                                                      ONE : RUN NUMBER 
PDAT.                                                      GL : PERMANENT DATUM 
LMF.                                            KELLY BUSHING : LOG MEASURED FROM
#___________________________________________________________________________________________________ 
~CURVE INFORMATION 
# MNEM.UNIT           : CURVE DESCRIPTION 
#-----.-----          : ----------------------------- 
 DEPT.FT               : MEASURED DEPTH 
 CALI.IN               : CALIPER (CALIPER) 
 GR.API                : GAMMA RAY (GAMMA RAY) 
 DT.US/FT              : SONIC DELTA TRANSIT TIME (DELTA-T) 
 RESD.OHMM             : DEEP INDUCTION RESISTIVITY (ILD - DEEP INDUCTION STANDARD PROCESSED RESISTIVITY) 
 RESD_LL.OHMM          : DEEP LATEROLOG (LLD - LATERO-LOG DEEP (RESISTIVITY)) 
 NPHI.V/V              : NEUTRON POROSITY (NEUTRON POROSITY) 
 #___________________________________________________________________________________________________ 
~A         DEPT           CALI             GR             DT           RESD        RESD_LL           NPHI
# ...
        11448.0         13.196         83.268         87.945       -999.250       115.0020     -999.25000
        11448.5         13.259         90.094         89.230       -999.250       105.8561     -999.25000
        11449.0         13.310         86.582         89.044       -999.250       103.7251     -999.25000
        11449.5         13.354         84.704         88.277       -999.250       101.6044     -999.25000
        11450.0         13.275         78.903         85.271       -999.250        98.1069     -999.25000
        11450.5         13.240         74.147         82.180       -999.250        94.6767     -999.25000
        11451.0         13.192         69.339         79.090       -999.250        90.8303     -999.25000
        11451.5         13.142         63.852         76.000       -999.250        90.8303     -999.25000
        11452.0         13.120         61.052         73.566       -999.250        88.1488     -999.25000
        11452.5         13.075         55.797         72.883       -999.250        90.6947     -999.25000
        11453.0         13.058         48.355         72.405       -999.250       107.4616     -999.25000
        11453.5         13.065         40.502         67.090       -999.250       127.1380     -999.25000
        11454.0         13.278         32.275         61.605       -999.250       764.1526     -999.25000
        11454.5         13.207         24.637         55.331       -999.250       744.9817     -999.25000
        11455.0         13.228         28.444         55.691       -999.250       556.2232     -999.25000
        11455.5         13.275         31.551         60.166       -999.250       349.9274     -999.25000
        11456.0         13.308         49.220         65.790       -999.250       216.0021     -999.25000
        11456.5         13.340         55.694         71.414       -999.250       169.3316     -999.25000
        11457.0         13.379         62.281         77.038       -999.250       156.1439     -999.25000
        11457.5         13.415         65.586         80.220       -999.250       165.1451     -999.25000
        11458.0         13.382         65.353         80.341       -999.250       188.1827     -999.25000
        11458.5         13.391         65.573         80.341       -999.250       226.8803     -999.25000
        11459.0         13.407         65.676         80.341       -999.250       239.9593     -999.25000
        11459.5         13.421         65.801         79.700       -999.250       253.7922     -999.25000
        11460.0         13.450         65.464         78.814       -999.250       199.7599     -999.25000
        11460.5         13.477         65.570         77.887       -999.250       153.3520     -999.25000
        11461.0         13.505         65.886         76.613       -999.250       122.4752     -999.25000
        11461.5         13.532         66.576         77.575       -999.250        76.7730     -999.25000
        11462.0         13.539         68.137         77.315       -999.250        66.4667     -999.25000
        11462.5         13.504         66.606         76.748       -999.250        53.4324     -999.25000
        11463.0         13.467         65.789         76.253       -999.250        42.2254     -999.25000
        11463.5         13.429         65.007         77.335       -999.250        37.0492     -999.25000
        11464.0         13.420         68.542         76.613       -999.250        37.1351     -999.25000
        11464.5         13.412         67.097         81.160       -999.250        37.6675     -999.25000
        11465.0         13.397         65.393         82.265       -999.250        37.0492     -999.25000
        11465.5         13.381         63.355         78.297       -999.250        33.7451     -999.25000
        11466.0         13.380         63.010         77.936       -999.250        29.6439     -999.25000
        11466.5         13.380         62.710         77.560       -999.250        28.0030     -999.25000
        11467.0         13.380         62.396         77.535       -999.250        26.9679     -999.25000
        11467.5         13.380         64.764         77.274       -999.250        30.1668     -999.25000
        11468.0         13.380         65.335         76.538       -999.250        40.5828     -999.25000
        11468.5         13.354         69.022         79.304       -999.250        51.9098     -999.25000
        11469.0         13.318         74.774         83.781       -999.250        66.3981     -999.25000
        11469.5         13.271         83.337         86.978       -999.250        84.9303     -999.25000
        11470.0         13.288         80.113         86.837       -999.250       108.6348     -999.25000
        11470.5         13.239         51.977         82.599       -999.250       138.9555     -999.25000
        11471.0         13.193         53.754         73.246       -999.250       178.2795     -999.25000
        11471.5         13.141         51.990         75.170       -999.250       164.2795     -999.25000
        11472.0         13.141         56.784         76.356       -999.250       136.1647     -999.25000
        11472.5         13.138         63.994         79.481       -999.250       115.9770     -999.25000
        11473.0         13.140         73.642         82.605       -999.250        98.8199     -999.25000
        11473.5         13.147         74.218         85.730       -999.250        89.0457     -999.25000
        11474.0         13.184         74.396         87.916       -999.250        96.0545     -999.25000
        11474.5         13.179         70.749         86.491       -999.250       113.5454     -999.25000
        11475.0         13.180         66.970         83.931       -999.250       129.5356     -999.25000
        11475.5         13.181         62.510         81.370       -999.250       134.4672     -999.25000
        11476.0         13.178         58.425         78.810       -999.250       118.1378     -999.25000
        11476.5         13.174         50.792         76.249       -999.250        78.9254     -999.25000
        11477.0         13.169         54.863         73.968       -999.250        49.9570     -999.25000
        11477.5         13.164         58.310         73.607       -999.250        39.0388     -999.25000
        11478.0         13.159         62.746         74.930       -999.250        31.6131     -999.25000
        11478.5         13.154         66.487         76.913       -999.250        30.7852     -999.25000
        11479.0         13.149         71.994         80.189       -999.250        29.7132     -999.25000
        11479.5         13.145         70.290         82.024       -999.250        34.4546     -999.25000
        11480.0         13.141         62.810         79.379       -999.250        45.6563     -999.25000
        11480.5         13.167         51.628         76.974       -999.250        61.7670     -999.25000
        11481.0         13.191         53.071         73.047       -999.250        94.2061     -999.25000
        11481.5         13.216         54.181         71.443       -999.250        92.1439     -999.25000
        11482.0         13.243         59.626         72.164       -999.250        76.7234     -999.25000
        11482.5         13.287         61.794         76.854       -999.250        66.3625     -999.25000
        11483.0         13.324         64.350         76.974       -999.250        49.9570     -999.25000
        11483.5         13.364         66.565         77.214       -999.250        40.6768     -999.25000
        11484.0         13.383         69.597         77.094       -999.250        43.1601     -999.25000
        11484.5         13.394         72.156         78.270       -999.250        48.8275     -999.25000
        11485.0         13.401         74.820         80.794       -999.250        53.8332     -999.25000
        11485.5         13.419         76.651         83.347       -999.250        69.9263     -999.25000
