#--------------------------------------------------#
#-------------------ENVERUS, INC.------------------#
#------------------WWW.ENVERUS.COM-----------------#
#------------------COPYRIGHT 2020------------------#
#--------------------------------------------------#
#THIS FILE MAY BE USED ONLY IN ACCORDANCE WITH A CURRENT SUBSCRIPTION AGREEMENT BETWEEN
#THE USER AND ENVERUS, INC. NO PART OF THIS FILE MAY BE REPRODUCED, USED, COPIED,
#MODIFIED, PROPAGATED, OR DISTRIBUTED EXCEPT IN ACCORDANCE WITH THE SUBSCRIPTION
#AGREEMENT. UNAUTHORIZED USE OR DISTRIBUTION OF ALL OR ANY PART OF THIS FILE MAY VIOLATE
#COPYRIGHT, TRADEMARK, AND/OR OTHER LAWS AND IS SUBJECT TO CIVIL AS WELL AS CRIMINAL
#SANCTIONS.
#--------------------------------------------------#
#THIS FILE IS PROVIDED "AS-IS" AND ALL WARRANTIES ARE EXPRESSLY DISCLAIMED, WHETHER
#EXPRESS, ORAL, IMPLIED, STATUTORY OR OTHERWISE, INCLUDING ANY IMPLIED WARRANTY OF FITNESS
#FOR A PARTICULAR PURPOSE, MERCHANTABILITY, TITLE OR NON-INFRINGEMENT, AND ANY WARRANTIES
#ARISING BY VIRTUE OF CUSTOM OF TRADE OR COURSE OF DEALING.  FURTHER, ENVERUS, INC.
#AND ITS LICENSORS DO NOT REPRESENT OR WARRANT THAT THIS FILE WILL MEET USER'S
#REQUIREMENTS OR ARE SUITABLE FOR USER'S NEEDS OR THAT THE DATA OR RESULTS PROVIDED IN
#CONJUNCTION THEREWITH ARE CORRECT, ACCURATE, TIMELY OR RELIABLE. THESE DISCLAIMERS SHALL
#APPLY REGARDLESS OF ANY FAILURE OF ESSENTIAL PURPOSE OF ANY LIMITED REMEDY.  SOME
#JURISDICTIONS DO NOT ALLOW THE EXCLUSION OF CERTAIN WARRANTIES SO SOME OF THE ABOVE
#EXCLUSIONS MAY NOT APPLY. IN NO EVENT SHALL ENVERUS, INC. OR ANY OF ITS AFFILIATES
#BE LIABLE UNDER ANY LEGAL THEORY, WHETHER IN TORT (INCLUDING WITHOUT LIMITATION
#NEGLIGENCE), CONTRACT, STRICT LIABILITY, STATUTORY OR OTHERWISE, FOR ANY SPECIAL,
#INCIDENTAL, CONSEQUENTIAL, EXEMPLARY, PUNITIVE OR INDIRECT DAMAGE OF ANY KIND, INCLUDING
#WITHOUT LIMITATION LOSS OF REVENUE, PROFITS, GOODWILL, USE, AND/OR DATA OR THE COST OF
#PROCUREMENT OF SUBSTITUTE GOODS OR SERVICES, EVEN IF APPRISED OF THE POSSIBILITY OF SUCH
#DAMAGES IN ADVANCE.
#--------------------------------------------------#

~VERSION INFORMATION
VERS. 2.0 : CWLS LOG ASCII STANDARD - VERSION 2.0
WRAP.  NO : ONE LINE PER DEPTH STEP
~WELL INFORMATION
#MNEMONIC     .UNIT              VALUE :DESCRIPTION
STRT       .FT                0 :START DEPTH
STOP       .FT                15770 :STOP DEPTH
STEP       .FT                   0.500 :STEP
NULL       .                  -999.250 :NULL
UWI        .              42389309020000 :UNIQUE WELL ID
API        .              42389309020000 :API NUMBER
COMP       .         WALSH & WATTS  INC. :COMPANY
WELL       .        SABRE  1WS :WELL
DATE       .                28-JAN-1987 :LOG DATE
~CURVE INFORMATION
#MNEMONIC     .UNIT      API CODE :CURVE DESCRIPTION
DEPTH       .FT                      :MEASURED DEPTH
CAL.INCH        UNKNOWN   :CAL
DT.US/FT        UNKNOWN   :DT
GR.API        UNKNOWN   :GR
~A    DEPTH    CAL    DT    GR
# ...
 1088     -999.250   57.488   24.49
 1088.5     -999.250   57.553   25.122
 1089     -999.250   57.568   25.505
 1089.5     -999.250   57.529   25.874
 1090     -999.250   57.489   26.242
 1090.5     -999.250   57.45   26.47
 1091     -999.250   57.411   26.849
 1091.5     -999.250   57.433   28.443
 1092     -999.250   57.47   30.038
 1092.5     -999.250   57.506   31.633
 1093     -999.250   57.508   33.227
 1093.5     -999.250   57.442   34.822
 1094     -999.250   57.375   35.212
 1094.5     -999.250   57.308   34.668
 1095     -999.250   57.408   33.413
 1095.5     -999.250   57.6   32.519
 1096     -999.250   57.686   32.396
 1096.5     -999.250   57.725   32.273
 1097     -999.250   57.764   32.15
 1097.5     -999.250   57.803   31.364
 1098     -999.250   57.842   30.261
 1098.5     -999.250   57.806   29.158
 1099     -999.250   57.756   28.055
 1099.5     -999.250   57.706   26.952
 1100     -999.250   57.675   25.849
 1100.5     -999.250   57.739   24.746
 1101     -999.250   57.804   25.329
 1101.5     -999.250   57.836   27.491
 1102     -999.250   57.773   29.654
 1102.5     -999.250   57.709   29.782
 1103     -999.250   57.646   29.359
 1103.5     -999.250   57.622   29.784
 1104     -999.250   57.665   30.568
 1104.5     -999.250   57.707   31.352
 1105     -999.250   57.749   31.934
 1105.5     -999.250   57.792   30.326
 1106     -999.250   57.671   28.718
 1106.5     -999.250   57.534   28.645
 1107     -999.250   57.47   29.472
 1107.5     -999.250   57.699   30.298
 1108     -999.250   57.654   31.125
 1108.5     -999.250   57.556   30.303
 1109     -999.250   57.502   28.668
 1109.5     -999.250   57.543   26.704
 1110     -999.250   57.584   24.221
 1110.5     -999.250   57.624   21.739
 1111     -999.250   57.665   19.257
 1111.5     -999.250   57.698   16.775
 1112     -999.250   57.728   14.819
 1112.5     -999.250   57.758   14.337
 1113     -999.250   57.788   14.904
 1113.5     -999.250   57.734   15.47
 1114     -999.250   57.561   16.036
 1114.5     -999.250   57.642   16.603
 1115     -999.250   57.722   17.019
 1115.5     -999.250   57.405   14.671
 1116     -999.250   58.119   12.547
 1116.5     -999.250   58.12   14.008
 1117     -999.250   58.12   16.512
 1117.5     -999.250   58.121   19.017
 1118     -999.250   57.966   20.133
 1118.5     -999.250   57.73   18.75
 1119     -999.250   57.495   17.368
 1119.5     -999.250   57.259   15.985
 1120     -999.250   58.762   14.602
 1120.5     -999.250   59.979   14.026
 1121     -999.250   59.934   15.493
 1121.5     -999.250   59.889   16.959
 1122     -999.250   58.95   18.426
 1122.5     -999.250   57.064   19.893
 1123     -999.250   57.188   21.359
 1123.5     -999.250   57.371   23.609
 1124     -999.250   57.458   25.941
 1124.5     -999.250   57.255   24.517
 1125     -999.250   57.089   19.64
 1125.5     -999.250   57.206   15.366
 1126     -999.250   57.324   13.258
 1126.5     -999.250   57.326   12.718
 1127     -999.250   57.327   13.093
 1127.5     -999.250   57.346   13.494
 1128     -999.250   57.418   13.894
 1128.5     -999.250   57.441   14.29
 1129     -999.250   57.419   14.667
 1129.5     -999.250   57.396   14.369
 1130     -999.250   57.409   13.229
 1130.5     -999.250   57.429   13.058
 1131     -999.250   57.45   13.774
 1131.5     -999.250   57.443   14.489
 1132     -999.250   57.425   15.204
 1132.5     -999.250   57.407   15.005
 1133     -999.250   57.389   14.082
 1133.5     -999.250   57.371   13.159
 1134     -999.250   57.352   13.748
 1134.5     -999.250   57.321   14.428
 1135     -999.250   57.179   14.531
 1135.5     -999.250   57.037   14.568
 1136     -999.250   56.895   15.724
 1136.5     -999.250   56.99   16.95
 1137     -999.250   57.23   18.385
 1137.5     -999.250   57.389   18.352
 1138     -999.250   57.342   18.115
 1138.5     -999.250   57.295   17.879
 1139     -999.250   57.248   17.642
 1139.5     -999.250   57.201   17.46
 1140     -999.250   57.155   17.511
 1140.5     -999.250   57.127   17.561
 1141     -999.250   57.098   17.611
 1141.5     -999.250   57.162   17.661
 1142     -999.250   57.233   17.711
 1142.5     -999.250   57.305   17.762
 1143     -999.250   57.32   17.812
 1143.5     -999.250   57.256   17.862
 1144     -999.250   57.214   17.355
 1144.5     -999.250   57.195   16.769
 1145     -999.250   57.175   16.183
 1145.5     -999.250   57.123   15.597
 1146     -999.250   57.017   15.015
 1146.5     -999.250   57.163   15.369
 1147     -999.250   57.453   15.722
 1147.5     -999.250   57.616   16.076
 1148     -999.250   57.648   16.43
 1148.5     -999.250   57.679   16.783
 1149     -999.250   57.711   16.572
 1149.5     -999.250   57.743   15.731
 1150     -999.250   57.774   14.891
 1150.5     -999.250   57.802   14.409
 1151     -999.250   57.827   13.987
 1151.5     -999.250   57.851   13.751
 1152     -999.250   57.875   14.601
 1152.5     -999.250   57.9   16.271
 1153     -999.250   57.924   17.941
 1153.5     -999.250   57.95   19.612
 1154     -999.250   57.975   21.014
 1154.5     -999.250   58.054   20.213
 1155     -999.250   58.156   19.077
 1155.5     -999.250   58.257   16.513
 1156     -999.250   58.339   13.949
 1156.5     -999.250   57.586   13.153
 1157     -999.250   57.691   13.857
 1157.5     -999.250   57.923   14.56
 1158     -999.250   57.125   14.645
 1158.5     -999.250   57.428   13.936
 1159     -999.250   57.429   13.227
 1159.5     -999.250   57.43   13.585
 1160     -999.250   57.445   14.516
 1160.5     -999.250   57.632   15.331
 1161     -999.250   57.819   14.638
 1161.5     -999.250   57.777   13.944
 1162     -999.250   57.836   13.251
 1162.5     -999.250   58.192   13.804
 1163     -999.250   57.943   15.236
 1163.5     -999.250   57.743   16.669
 1164     -999.250   57.36   18.101
 1164.5     -999.250   57.711   18.058
 1165     -999.250   59.547   16.355
 1165.5     -999.250   60.154   16.295
 1166     -999.250   60.378   17.626
 1166.5     -999.250   60.13   18.957
 1167     -999.250   59.777   20.287
 1167.5     -999.250   57.628   19.283
 1168     -999.250   57.595   17.566
 1168.5     -999.250   57.694   15.849
 1169     -999.250   57.752   15.337
 1169.5     -999.250   57.697   14.938
 1170     -999.250   56.806   15.844
 1170.5     -999.250   56.627   17.783
 1171     -999.250   57.043   19.921
 1171.5     -999.250   57.257   20.989
 1172     -999.250   57.205   19.345
 1172.5     -999.250   57.499   17.702
 1173     -999.250   57.863   16.058
 1173.5     -999.250   58.187   16.164
 1174     -999.250   58.141   17.495
 1174.5     -999.250   58.096   17.365
 1175     -999.250   58.118   17.624
 1175.5     -999.250   58.247   18.714
 1176     -999.250   58.737   19.804
 1176.5     -999.250   58.908   19.135
 1177     -999.250   58.891   18.296
 1177.5     -999.250   58.408   17.457
 1178     -999.250   58.187   16.951
 1178.5     -999.250   58.171   17.441
 1179     -999.250   58.155   17.931
 1179.5     -999.250   58.138   18.533
 1180     -999.250   58.277   19.628
 1180.5     -999.250   58.438   19.438
 1181     -999.250   58.561   18.863
 1181.5     -999.250   58.452   18.728
 1182     -999.250   57.97   18.669
 1182.5     -999.250   58.651   18.609
 1183     -999.250   58.684   18.543
 1183.5     -999.250   58.505   18.32
 1184     -999.250   58.112   18.097
 1184.5     -999.250   58.075   17.875
 1185     -999.250   58.149   17.652
 1185.5     -999.250   58.232   17.429
 1186     -999.250   58.344   17.206
 1186.5     -999.250   58.457   16.979
 1187     -999.250   58.569   16.719
 1187.5     -999.250   58.683   16.458
 1188     -999.250   58.8   16.197
 1188.5     -999.250   58.825   15.937
 1189     -999.250   58.504   15.676
 1189.5     -999.250   58.243   15.416
 1190     -999.250   58.137   15.09
 1190.5     -999.250   58.031   14.63
 1191     -999.250   57.924   14.952
 1191.5     -999.250   58.406   16.397
 1192     -999.250   58.512   17.841
 1192.5     -999.250   58.293   17.735
 1193     -999.250   58.075   17.336
 1193.5     -999.250   57.856   16.937
