###############################################
##         ENVERUS                           ##
##         ESS - Open Hole                   ##
##         PERMIAN / DELAWARE                ##
##         Nov 04 2023  V4.0                 ##
##         42-389-32398-00-00                ##
###############################################
## Copyright 2017-2023  ENVERUS.  All Rights Reserved. 
## Confidential - Property of ENVERUS, use governed by terms and 
## conditions found within the existing Information Services Subscription Agreement 
## (as may be amended, the “ISSA”) between Customer and ENVERUS. 
## 
~VERSION INFORMATION
# MNEM.UNIT                               DATA : DESCRIPTION OF MNEMONIC
#-----.-----     ----------------------------- : -----------------------------
VERS.                                     2.00 : CWLS LOG ASCII STANDARD - VERSION 2.00
WRAP.                                       NO : MULTIPLE LINES PER DEPTH STEP
VEND.                                  ENVERUS : VENDOR
TYPE.                          ESS - OPEN HOLE : ENVERUS ESSENTIAL CURVES – ACCESSIBLE THROUGH ENVERUS PRISM(TM)
DOC.                                  31812117 : ENVERUS HEADER RAW DOCUMENT ID
#___________________________________________________________________________________________________ 
~WELL INFORMATION 
# uAwnbjLw6pKN5CeTb7gwROLhNOHLu74gercCwdGpUdKCBCGOTLsJuzWIBCYkU6KzQxtC+uHRBloynRtd0Ulspg== 
# MNEM.UNIT                                              DATA : DESCRIPTION OF MNEMONIC 
#-----.-----                    ----------------------------- : ----------------------------- 
CNTY.                                                  REEVES : COUNTY 
STATE.                                                  TEXAS : STATE 
CNTRY.                                                    USA : COUNTRY 
API.                                             42-389-32398 : API (10 Digit) 
API_14.                                    42-389-32398-00-00 : API (14 Digits) 
API_14_std.                                 42-389-32398-0000 : API (14 Digits Standard) 
UWI.                                           42389323980000 : UNIQUE WELL ID 
WELL.                                    BLOCK 58 STATE 32  1 : WELL NAME
STRT.FT                                                8311.0 : START DEPTH
STOP.FT                                               12834.0 : STOP DEPTH
STEP.FT                                                   0.5 : STEP BETWEEN DEPTHS
NULL.                                                 -999.25 : NULL VALUE
COMP.                                       SHELL WESTERN E&P : COMPANY 
DATE.                                             08-FEB-2006 : LOG DATE
#___________________________________________________________________________________________________ 
~CURVE INFORMATION 
# MNEM.UNIT           : CURVE DESCRIPTION 
#-----.-----          : ----------------------------- 
 DEPT.FT               : MEASURED DEPTH 
 CALI__B.IN            : CALIPER (CAL - CAL) 
 GR__B.API             : GAMMA RAY (GR) 
 DT__B.US/FT           : SONIC DELTA TRANSIT TIME (DT) 
 RESS__B.OHMM          : SHALLOW INDUCTION RESISTIVITY (ILS - ILS) 
 RESD__B.OHMM          : DEEP INDUCTION RESISTIVITY (ILD - ILD) 
 #___________________________________________________________________________________________________ 
~A         DEPT        CALI__B          GR__B          DT__B        RESS__B        RESD__B
# ...
        11391.0          8.249         99.766         78.162          6.974          7.226
        11391.5          8.248        101.193         79.096          7.384          7.902
        11392.0          8.248        103.369         79.598          7.608          8.183
        11392.5          8.248        106.386         79.922          7.633          8.148
        11393.0          8.247        110.342         80.680          7.658          8.112
        11393.5          8.247        121.012         82.266          7.756          8.076
        11394.0          8.246        128.174         83.737          8.170          8.326
        11394.5          8.246        133.040         84.370          8.583          8.860
        11395.0          8.245        138.340         84.697          8.651          9.217
        11395.5          8.245        144.236         84.798          8.564          8.930
        11396.0          8.245        148.669         84.386          8.563          8.765
        11396.5          8.244        150.108         83.650          8.826          9.121
        11397.0          8.244        139.240         80.890          9.258          9.477
        11397.5          8.243        126.433         78.158          9.380          9.742
        11398.0          8.243        112.927         76.179          9.041          9.465
        11398.5          8.243        107.449         75.543          8.856          9.187
        11399.0          8.242        104.667         75.549          8.810          9.072
        11399.5          8.242        100.181         75.850          8.765          9.014
        11400.0          8.241         95.044         76.325          8.764          8.956
        11400.5          8.241         90.384         76.553          8.783          8.897
        11401.0          8.240         91.558         77.110          8.803          8.893
        11401.5          8.240         94.096         77.970          8.823          9.135
        11402.0          8.240         97.652         78.820          8.846          9.376
        11402.5          8.239        101.424         79.565          9.265          9.618
        11403.0          8.239        105.945         80.110          9.386          9.859
        11403.5          8.238        110.465         80.474          9.200          9.521
        11404.0          8.238        114.986         80.474          8.925          8.816
        11404.5          8.238        116.904         80.475          8.120          8.111
        11405.0          8.239        114.188         81.020          7.339          7.405
        11405.5          8.240        107.651         82.325          7.289          7.383
        11406.0          8.241        108.591         83.651          7.411          7.498
        11406.5          8.242        116.702         84.654          7.463          7.455
        11407.0          8.243        127.516         84.597          7.254          7.283
        11407.5          8.244        138.296         84.019          7.056          7.112
        11408.0          8.245        147.164         82.811          6.908          6.941
        11408.5          8.246        144.888         83.074          6.837          6.811
        11409.0          8.246        134.121         83.442          6.951          6.982
        11409.5          8.247        121.316         83.664          7.065          7.152
        11410.0          8.248        110.207         83.638          6.510          6.787
        11410.5          8.249        108.186         83.780          5.836          6.205
        11411.0          8.250        106.596         83.354          5.187          5.623
        11411.5          8.251        107.395         81.732          5.031          5.189
        11412.0          8.252        108.195         80.006          5.120          5.394
        11412.5          8.253        108.749         79.439          5.372          5.600
        11413.0          8.254        108.748         79.233          5.672          5.806
        11413.5          8.255         99.155         78.135          5.883          6.011
        11414.0          8.256         92.006         78.176          6.061          6.101
        11414.5          8.257         91.073         78.923          5.977          5.986
        11415.0          8.258         91.547         79.732          5.870          5.943
        11415.5          8.259        100.979         80.070          6.023          6.171
        11416.0          8.260        104.524         79.938          6.211          6.400
        11416.5          8.260        102.825         79.806          6.238          6.574
        11417.0          8.261        102.306         79.170          6.119          6.470
        11417.5          8.262        105.554         78.542          6.089          6.365
        11418.0          8.263        108.544         78.146          6.326          6.403
        11418.5          8.264        109.109         78.116          6.563          6.862
        11419.0          8.265        106.216         78.736          6.860          7.321
        11419.5          8.266        102.213         79.288          6.826          7.167
        11420.0          8.267        103.065         80.432          6.550          6.759
        11420.5          8.268        104.324         81.302          6.274          6.351
        11421.0          8.269        107.387         81.023          5.998          5.969
        11421.5          8.270        105.613         80.696          5.957          6.113
        11422.0          8.271        102.071         80.334          6.008          6.256
        11422.5          8.272        100.443         80.137          6.059          6.399
        11423.0          8.273         99.680         80.096          6.110          6.543
        11423.5          8.274         99.195         80.293          6.345          6.686
        11424.0          8.275         98.710         80.489          6.608          6.768
        11424.5          8.275         98.225         80.616          6.604          6.807
        11425.0          8.276         97.740         80.721          6.509          6.845
        11425.5          8.277         97.254         80.825          6.465          6.884
        11426.0          8.278         96.769         80.930          6.479          6.923
        11426.5          8.279         96.284         81.026          6.492          6.962
        11427.0          8.280         95.938         80.799          6.505          7.084
        11427.5          8.281         99.188         80.640          6.663          7.340
        11428.0          8.282        102.439         80.629          6.831          7.596
        11428.5          8.283        104.197         81.329          6.999          7.853
        11429.0          8.284        103.014         82.381          7.122          8.109
        11429.5          8.285        100.606         83.060          7.108          8.365
        11430.0          8.286         99.545         82.091          6.909          8.392
        11430.5          8.287         99.844         80.284          6.383          7.229
        11431.0          8.288        102.746         80.080          5.805          6.065
        11431.5          8.289        104.273         80.322          5.221          4.949
        11432.0          8.290         98.594         81.253          5.094          5.321
        11432.5          8.288         92.859         82.469          5.704          5.694
        11433.0          8.283         92.734         83.947          5.185          5.921
        11433.5          8.278         99.427         85.199          4.576          4.880
        11434.0          8.274        105.924         85.188          4.470          4.803
        11434.5          8.269        107.168         84.548          4.921          5.360
