#--------------------------------------------------#
#-------------------ENVERUS, INC.------------------#
#------------------WWW.ENVERUS.COM-----------------#
#------------------COPYRIGHT 2020------------------#
#--------------------------------------------------#
#THIS FILE MAY BE USED ONLY IN ACCORDANCE WITH A CURRENT SUBSCRIPTION AGREEMENT BETWEEN
#THE USER AND ENVERUS, INC. NO PART OF THIS FILE MAY BE REPRODUCED, USED, COPIED,
#MODIFIED, PROPAGATED, OR DISTRIBUTED EXCEPT IN ACCORDANCE WITH THE SUBSCRIPTION
#AGREEMENT. UNAUTHORIZED USE OR DISTRIBUTION OF ALL OR ANY PART OF THIS FILE MAY VIOLATE
#COPYRIGHT, TRADEMARK, AND/OR OTHER LAWS AND IS SUBJECT TO CIVIL AS WELL AS CRIMINAL
#SANCTIONS.
#--------------------------------------------------#
#THIS FILE IS PROVIDED "AS-IS" AND ALL WARRANTIES ARE EXPRESSLY DISCLAIMED, WHETHER
#EXPRESS, ORAL, IMPLIED, STATUTORY OR OTHERWISE, INCLUDING ANY IMPLIED WARRANTY OF FITNESS
#FOR A PARTICULAR PURPOSE, MERCHANTABILITY, TITLE OR NON-INFRINGEMENT, AND ANY WARRANTIES
#ARISING BY VIRTUE OF CUSTOM OF TRADE OR COURSE OF DEALING.  FURTHER, ENVERUS, INC.
#AND ITS LICENSORS DO NOT REPRESENT OR WARRANT THAT THIS FILE WILL MEET USER'S
#REQUIREMENTS OR ARE SUITABLE FOR USER'S NEEDS OR THAT THE DATA OR RESULTS PROVIDED IN
#CONJUNCTION THEREWITH ARE CORRECT, ACCURATE, TIMELY OR RELIABLE. THESE DISCLAIMERS SHALL
#APPLY REGARDLESS OF ANY FAILURE OF ESSENTIAL PURPOSE OF ANY LIMITED REMEDY.  SOME
#JURISDICTIONS DO NOT ALLOW THE EXCLUSION OF CERTAIN WARRANTIES SO SOME OF THE ABOVE
#EXCLUSIONS MAY NOT APPLY. IN NO EVENT SHALL ENVERUS, INC. OR ANY OF ITS AFFILIATES
#BE LIABLE UNDER ANY LEGAL THEORY, WHETHER IN TORT (INCLUDING WITHOUT LIMITATION
#NEGLIGENCE), CONTRACT, STRICT LIABILITY, STATUTORY OR OTHERWISE, FOR ANY SPECIAL,
#INCIDENTAL, CONSEQUENTIAL, EXEMPLARY, PUNITIVE OR INDIRECT DAMAGE OF ANY KIND, INCLUDING
#WITHOUT LIMITATION LOSS OF REVENUE, PROFITS, GOODWILL, USE, AND/OR DATA OR THE COST OF
#PROCUREMENT OF SUBSTITUTE GOODS OR SERVICES, EVEN IF APPRISED OF THE POSSIBILITY OF SUCH
#DAMAGES IN ADVANCE.
#--------------------------------------------------#

# EXPORTED FROM DI TRANSFORM
# DI TRANSFORM - A PRODUCT OF DRILLINGINFO, INC. - WWW.DRILLINGINFO.COM
#
~VERSION INFORMATION
 VERS.        2.0 : LAS ASCII STANDARD - VERSION 2.0
 WRAP.         NO : ONE LINE PER DEPTH STEP

~WELL INFORMATION
#MNEM.UNIT       DATA TYPE       INFORMATION
#---------       ---------       -----------
 STRT.FT                3800 : START DEPTH
 STOP.FT               10654 : STOP DEPTH
 STEP.FT                 0.5 : STEP LENGTH
 NULL.               -999.25 : NULL VALUE
 UWI.         42389340250000 : UNIQUE WELL ID
 API.         42389340250000 : WELL IDENTIFIER
 COMP.                       : COMPANY
 WELL.  42389340250000_API14 : WELL NAME
 FLD.                        : FIELD NAME
 LOC.                        : WELL LOCATION
 CNTY.                       : COUNTY
 STAT.                       : STATE OR PROVINCE
 CTRY.                       : COUNTRY
 SRVC.                       : SERVICE COMPANY
 DATE.                       : DATE

~CURVE INFORMATION
#MNEM.UNIT       API CODE       CURVE DESCRIPTION
#---------       --------       -----------------
 DEPT.FT        : <MEASURED DEPTH>
 CAL.IN         : CALIPER
 DT.US/FT       : SONIC
 GR.GAPI        : GAMMA RAY

~PARAMETER INFORMATION
#MNEM.UNIT       VALUE       DESCRIPTION
#---------       -----       -----------
 EKB.FT      3120.5 : ELEVATION ABOVE MSL

~A      DEPT         CAL          DT          GR
# ...
       10524      9.3733     72.7352    115.0758
     10524.5      9.3733     71.9691    109.4998
       10525      9.3932     71.4292    111.9399
     10525.5      9.3932     70.5918    104.4221
       10526      9.3932     71.1375     90.9466
     10526.5      9.3932     71.6448     97.8703
       10527      9.3932     72.3083    104.7941
     10527.5      9.3932     72.8987    110.6108
       10528      9.3932      73.267     115.473
     10528.5      9.3932     74.4223    120.3352
       10529      9.4132     75.0841    125.1974
     10529.5      9.4132     77.0959    130.0596
       10530      9.4132     77.9041    130.8912
     10530.5      9.4132     78.1143    125.5817
       10531      9.4132     77.9099    129.5391
     10531.5      9.4132     76.5944    126.1386
       10532      9.3932      75.981    110.2101
     10532.5      9.3932     75.2866    105.8012
       10533      9.3932     74.7793     91.9796
     10533.5      9.3932     74.4032      78.158
       10534      9.3932     74.6405     75.8193
     10534.5      9.3932     75.1478      78.757
       10535      9.3932     76.0043     81.6947
     10535.5      9.3932      77.073     84.6324
       10536      9.4132     78.0934     96.0784
     10536.5      9.4132     78.6158    114.9777
       10537      9.4234      79.285    133.8771
     10537.5      9.4331     79.2656     141.059
       10538      9.4331     79.3866    128.2487
     10538.5      9.4331     79.3948     115.731
       10539      9.4331     80.5304    103.4165
     10539.5      9.4331     81.1086      91.102
       10540       9.416      81.677     84.5853
     10540.5      9.3932     82.2453     97.6113
       10541      9.3737     82.8136    110.6374
     10541.5      9.3733     83.3517    123.6634
       10542      9.3733     83.2622    136.6894
     10542.5      9.3733     82.8589    142.8133
       10543      9.3733     81.7687    130.8838
     10543.5      9.3733     80.8972    111.6684
       10544      9.3733     79.5587     94.5905
     10544.5      9.3733     77.8978     92.8568
       10545      9.3733      76.655     99.8689
     10545.5      9.3733     74.6344    109.9823
       10546      9.3733     72.9235    103.9692
     10546.5      9.3733     69.9032    111.7228
       10547      9.3733     66.3447    104.2467
     10547.5      9.3733     65.4912     92.5703
       10548      9.3733     63.6742     62.7028
     10548.5      9.3733     62.6554     55.9847
       10549      9.3733     60.3211     49.2665
     10549.5      9.3733     58.7247     52.8712
       10550      9.3733     59.3797     87.8346
     10550.5      9.3932     60.3156     80.0993
       10551      9.4132     62.7337     65.6213
     10551.5      9.4095     65.3482     51.1432
       10552      9.3733     68.4318      43.783
     10552.5      9.3733     69.8914      56.219
       10553      9.3733     70.9051     52.5782
     10553.5      9.3733     72.2206     48.9373
       10554      9.3733     72.9343     50.4694
     10554.5      9.3733     73.3737     53.7656
       10555      9.3721     73.7807     57.0618
     10555.5      9.3533     72.7429      60.358
       10556      9.3533     70.8564     63.6542
     10556.5      9.3533          70     65.3647
       10557      9.3533     69.4885     64.7671
     10557.5      9.3533     69.7138     64.1695
       10558      9.3533     70.9348     63.5719
     10558.5      9.3533     72.0357     63.2988
       10559      9.3533     72.6234     68.3555
     10559.5      9.3533     73.0993     67.6398
       10560      9.3533      72.999     63.1312
     10560.5      9.3533     72.8414     64.9371
       10561      9.3533     73.5493     66.7431
     10561.5      9.3533     74.1023      68.549
       10562      9.3533     74.1023      70.355
     10562.5      9.3533     73.7352     72.1609
       10563      9.3533     72.8267     70.6481
     10563.5      9.3533     72.4975     76.3667
       10564      9.3533     72.6814     96.3045
     10564.5      9.3533     73.0884     87.4865
       10565      9.3533     74.1924     78.2328
     10565.5      9.3533     74.9054     68.9791
       10566      9.3533     75.6198     60.4062
     10566.5      9.3733     76.0203     73.3513
       10567      9.3733     76.2267     86.2964
     10567.5      9.3733     76.5334     99.2415
       10568      9.3733     77.3713    111.6341
     10568.5      9.3733     77.8134    117.3343
       10569      9.3733     77.9137    123.0346
     10569.5      9.3533     77.6661    114.8957
       10570      9.3533     77.2591     105.242
     10570.5      9.3733     76.8521    109.9475
       10571      9.3733     76.4451    108.9652
     10571.5      9.3733     76.0656    107.2183
       10572      9.3733     75.0778     99.6847
     10572.5      9.3733     73.6377     92.3849
       10573      9.3733     72.7234     94.5199
     10573.5      9.3733     72.0028      96.655
       10574      9.3733     71.5958       98.79
     10574.5      9.3733     71.1888     100.925
       10575      9.3733     70.8927    103.0601
     10575.5      9.3733     70.5754    105.1951
       10576      9.3733     70.3912    107.3302
     10576.5      9.3733     70.5194    109.4652
       10577      9.3733     71.1607    111.6003
     10577.5      9.3733     72.1358    113.7353
       10578      9.3733     72.7887    102.9774
     10578.5      9.3733     73.8525     82.6819
       10579      9.3733     74.1023     89.9845
     10579.5      9.3733     74.3029     97.5695
       10580      9.3533     74.3347    105.1546
     10580.5      9.3533     74.1283     106.694
       10581      9.3533     73.5207     -999.25
     10581.5      9.3533     72.9131     -999.25
       10582      9.3533     72.3055     -999.25
     10582.5      9.3533     72.5978     -999.25
       10583      9.3533     72.6981     -999.25
     10583.5      9.3533     72.9075     -999.25
       10584      9.3533     73.5151     -999.25
     10584.5      9.3533     74.1634     -999.25
       10585      9.3533     75.5327     -999.25
     10585.5      9.3533     76.3409     -999.25
       10586      9.3533     77.2624     -999.25
     10586.5      9.3533     78.1579     -999.25
       10587      9.3588     78.2656     -999.25
     10587.5      9.3733     77.7583     -999.25
       10588      9.3654     76.8891     -999.25
     10588.5      9.3533     75.6407     -999.25
       10589      9.3533     74.1856     -999.25
     10589.5      9.3533     73.0429     -999.25
       10590      9.3533     71.2421     -999.25
     10590.5      9.3533     69.8101     -999.25
       10591      9.3533     68.7909     -999.25
     10591.5      9.3533     68.9894     -999.25
       10592      9.3533     70.0251     -999.25
     10592.5      9.3733     72.0216     -999.25
       10593      9.3733     73.2555     -999.25
     10593.5      9.3733     75.0783     -999.25
       10594      9.3733     77.0316     -999.25
     10594.5      9.3733     78.6879     -999.25
       10595      9.3733     79.1174     -999.25
     10595.5      9.3681     79.2177     -999.25
       10596      9.3533     79.0171     -999.25
     10596.5      9.3533      78.657     -999.25
       10597      9.3533     76.7158     -999.25
     10597.5      9.3533     75.8369     -999.25
       10598      9.3533      74.799     -999.25
     10598.5      9.3533     73.1351     -999.25
       10599      9.3533     69.9018     -999.25
     10599.5      9.3533     68.5921     -999.25
       10600      9.3533     66.3818     -999.25
     10600.5      9.3533     66.2841     -999.25
       10601      9.3533     66.9028     -999.25
     10601.5      9.3533     67.6999     -999.25
       10602      9.3533     68.2299     -999.25
     10602.5      9.3533     69.2445     -999.25
       10603      9.3533     70.0585     -999.25
     10603.5      9.3533     70.7924     -999.25
       10604      9.3533     71.3397     -999.25
     10604.5      9.3533     72.0476     -999.25
       10605      9.3533     72.5549     -999.25
     10605.5      9.3533     72.8355     -999.25
