#--------------------------------------------------#
#-------------------ENVERUS, INC.------------------#
#------------------WWW.ENVERUS.COM-----------------#
#------------------COPYRIGHT 2020------------------#
#--------------------------------------------------#
#THIS FILE MAY BE USED ONLY IN ACCORDANCE WITH A CURRENT SUBSCRIPTION AGREEMENT BETWEEN
#THE USER AND ENVERUS, INC. NO PART OF THIS FILE MAY BE REPRODUCED, USED, COPIED,
#MODIFIED, PROPAGATED, OR DISTRIBUTED EXCEPT IN ACCORDANCE WITH THE SUBSCRIPTION
#AGREEMENT. UNAUTHORIZED USE OR DISTRIBUTION OF ALL OR ANY PART OF THIS FILE MAY VIOLATE
#COPYRIGHT, TRADEMARK, AND/OR OTHER LAWS AND IS SUBJECT TO CIVIL AS WELL AS CRIMINAL
#SANCTIONS.
#--------------------------------------------------#
#THIS FILE IS PROVIDED "AS-IS" AND ALL WARRANTIES ARE EXPRESSLY DISCLAIMED, WHETHER
#EXPRESS, ORAL, IMPLIED, STATUTORY OR OTHERWISE, INCLUDING ANY IMPLIED WARRANTY OF FITNESS
#FOR A PARTICULAR PURPOSE, MERCHANTABILITY, TITLE OR NON-INFRINGEMENT, AND ANY WARRANTIES
#ARISING BY VIRTUE OF CUSTOM OF TRADE OR COURSE OF DEALING.  FURTHER, ENVERUS, INC.
#AND ITS LICENSORS DO NOT REPRESENT OR WARRANT THAT THIS FILE WILL MEET USER'S
#REQUIREMENTS OR ARE SUITABLE FOR USER'S NEEDS OR THAT THE DATA OR RESULTS PROVIDED IN
#CONJUNCTION THEREWITH ARE CORRECT, ACCURATE, TIMELY OR RELIABLE. THESE DISCLAIMERS SHALL
#APPLY REGARDLESS OF ANY FAILURE OF ESSENTIAL PURPOSE OF ANY LIMITED REMEDY.  SOME
#JURISDICTIONS DO NOT ALLOW THE EXCLUSION OF CERTAIN WARRANTIES SO SOME OF THE ABOVE
#EXCLUSIONS MAY NOT APPLY. IN NO EVENT SHALL ENVERUS, INC. OR ANY OF ITS AFFILIATES
#BE LIABLE UNDER ANY LEGAL THEORY, WHETHER IN TORT (INCLUDING WITHOUT LIMITATION
#NEGLIGENCE), CONTRACT, STRICT LIABILITY, STATUTORY OR OTHERWISE, FOR ANY SPECIAL,
#INCIDENTAL, CONSEQUENTIAL, EXEMPLARY, PUNITIVE OR INDIRECT DAMAGE OF ANY KIND, INCLUDING
#WITHOUT LIMITATION LOSS OF REVENUE, PROFITS, GOODWILL, USE, AND/OR DATA OR THE COST OF
#PROCUREMENT OF SUBSTITUTE GOODS OR SERVICES, EVEN IF APPRISED OF THE POSSIBILITY OF SUCH
#DAMAGES IN ADVANCE.
#--------------------------------------------------#

~VERSION INFORMATION
VERS. 2.0 : CWLS LOG ASCII STANDARD - VERSION 2.0
WRAP.  NO : ONE LINE PER DEPTH STEP
~WELL INFORMATION
#MNEMONIC     .UNIT              VALUE :DESCRIPTION
STRT       .FT                0 :START DEPTH
STOP       .FT                15770 :STOP DEPTH
STEP       .FT                   0.500 :STEP
NULL       .                  -999.250 :NULL
UWI        .              42389309020000 :UNIQUE WELL ID
API        .              42389309020000 :API NUMBER
COMP       .         WALSH & WATTS  INC. :COMPANY
WELL       .        SABRE  1WS :WELL
DATE       .                28-JAN-1987 :LOG DATE
~CURVE INFORMATION
#MNEMONIC     .UNIT      API CODE :CURVE DESCRIPTION
DEPTH       .FT                      :MEASURED DEPTH
CAL.INCH        UNKNOWN   :CAL
DT.US/FT        UNKNOWN   :DT
GR.API        UNKNOWN   :GR
~A    DEPTH    CAL    DT    GR
# ...
 8392     12.904   61.602   50.224
 8392.5     12.911   59.837   48.721
 8393     12.911   58.071   49.558
 8393.5     12.911   56.306   54.164
 8394     12.911   57.673   59.424
 8394.5     12.911   60.203   64.687
 8395     12.911   62.734   64.704
 8395.5     12.911   65.644   57.831
 8396     12.911   68.852   46.475
 8396.5     12.911   69.789   42.821
 8397     12.911   70.507   42.103
 8397.5     12.911   70.145   48.1
 8398     12.911   69.693   56.39
 8398.5     12.911   68.841   60.507
 8399     12.911   67.867   63.886
 8399.5     12.911   66.876   66.966
 8400     12.911   67.088   68.343
 8400.5     12.911   68.732   65.875
 8401     12.911   70.67   55.135
 8401.5     12.911   71.71   50.701
 8402     12.911   72.116   55.208
 8402.5     12.911   72.103   63.971
 8403     12.902   71.689   71.196
 8403.5     12.893   71.164   78.421
 8404     12.883   70.476   85.645
 8404.5     12.874   70.976   86.747
 8405     12.865   73   85.241
 8405.5     12.856   75.025   81.923
 8406     12.847   76.47   78.875
 8406.5     12.838   77.47   76.481
 8407     12.828   78.447   74.088
 8407.5     12.819   77.856   71.618
 8408     12.81   76.66   69.054
 8408.5     12.801   74.931   66.49
 8409     12.792   72.585   63.927
 8409.5     12.783   69.774   61.699
 8410     12.774   69.398   64.089
 8410.5     12.764   69.291   68.191
 8411     12.755   69.524   72.292
 8411.5     12.746   70.616   75.584
 8412     12.737   70.346   78.59
 8412.5     12.728   69.873   77.635
 8413     12.719   69.926   71.613
 8413.5     12.709   71.493   62.353
 8414     12.7   70.846   53.093
 8414.5     12.691   70.424   43.834
 8415     12.684   70.103   37.634
 8415.5     12.683   66.378   34.517
 8416     12.681   64.153   34.515
 8416.5     12.68   63.748   36.636
 8417     12.678   63.473   38.769
 8417.5     12.676   62.771   37.805
 8418     12.675   63.937   35.6
 8418.5     12.673   65.292   34.85
 8419     12.672   64.938   41.532
 8419.5     12.67   62.307   48.955
 8420     12.669   54.77   56.377
 8420.5     12.667   54.287   63.057
 8421     12.666   54.106   68.68
 8421.5     12.664   55.382   74.302
 8422     12.662   62.454   76.659
 8422.5     12.661   68.329   76.974
 8423     12.659   70.933   77.652
 8423.5     12.658   73.537   80.341
 8424     12.656   75.705   81.095
 8424.5     12.655   73.557   78.951
 8425     12.653   71.409   75.648
 8425.5     12.652   72.52   76.327
 8426     12.65   75.55   79.557
 8426.5     12.648   77.729   82.788
 8427     12.647   77.222   81.653
 8427.5     12.645   76.406   75.195
 8428     12.644   76.246   72.059
 8428.5     12.642   76.086   74.33
 8429     12.641   75.926   77.387
 8429.5     12.639   73.724   80.445
 8430     12.638   68.002   78.043
 8430.5     12.636   68.036   69.906
 8431     12.634   69.848   61.768
 8431.5     12.633   71.66   53.631
 8432     12.633   72.206   51.522
 8432.5     12.632   70.99   53.02
 8433     12.631   69.291   54.517
 8433.5     12.63   67.399   53.695
 8434     12.63   64.239   52.042
 8434.5     12.629   63.958   51.794
 8435     12.628   63.373   53.768
 8435.5     12.627   60.856   58.74
 8436     12.627   58.948   62.995
 8436.5     12.626   59.085   68.353
 8437     12.625   61.424   75.806
 8437.5     12.624   63.844   81.595
 8438     12.623   66.264   82.87
 8438.5     12.623   68.195   82.87
 8439     12.622   69.713   81.171
 8439.5     12.621   71.23   78.996
 8440     12.62   72.163   76.331
 8440.5     12.62   72.362   74.504
 8441     12.619   73.058   74.659
 8441.5     12.618   74.306   77.256
 8442     12.617   75.505   81.232
 8442.5     12.617   74.117   85.208
 8443     12.616   72.344   86.867
 8443.5     12.615   70.57   83.931
 8444     12.614   70.846   80.081
 8444.5     12.614   73.168   76.614
 8445     12.613   72.023   73.714
 8445.5     12.612   72.164   69.081
 8446     12.611   72.305   64.002
 8446.5     12.61   69.281   65.061
 8447     12.61   69.643   72.176
 8447.5     12.609   70.216   79.29
 8448     12.608   70.789   84.721
 8448.5     12.615   71.775   82.005
 8449     12.623   72.768   74.135
 8449.5     12.631   73.857   65.815
 8450     12.64   75.398   57.494
 8450.5     12.648   76.068   49.174
 8451     12.656   75.266   44.126
 8451.5     12.665   74.738   41.118
 8452     12.673   74.211   39.944
 8452.5     12.682   72.52   39.868
 8453     12.69   69.237   48.603
 8453.5     12.698   65.149   57.871
 8454     12.707   62.071   65.899
 8454.5     12.715   60.683   66.689
 8455     12.723   62.462   62.056
 8455.5     12.732   65.348   56.942
 8456     12.74   68.21   51.828
 8456.5     12.748   70.629   49.201
 8457     12.756   71.507   48.698
 8457.5     12.765   71.824   51.022
 8458     12.773   71.74   58.378
 8458.5     12.781   71.202   67.149
 8459     12.79   70.744   69.759
 8459.5     12.798   70.531   64.46
 8460     12.806   70.325   53.526
 8460.5     12.814   71.262   44.194
 8461     12.823   70.799   44.76
 8461.5     12.831   69.229   48.372
 8462     12.839   67.706   52.494
 8462.5     12.848   66.873   56.924
 8463     12.856   67.963   63.221
 8463.5     12.864   69.802   62.694
 8464     12.872   71.617   54.497
 8464.5     12.881   72.519   48.942
 8465     12.889   72.263   49.352
 8465.5     12.897   71.315   52.509
 8466     12.906   70.366   53.357
 8466.5     12.908   69.797   51.384
 8467     12.908   70.35   49.368
 8467.5     12.908   71.024   48.287
 8468     12.908   71.073   52.229
 8468.5     12.908   72.024   65.769
 8469     12.908   72.208   74.751
 8469.5     12.908   71.959   83.593
 8470     12.908   72.772   92.435
 8470.5     12.908   73.231   94.73
 8471     12.908   74.968   93.414
 8471.5     12.908   77.297   88.584
 8472     12.908   78.074   83.754
 8472.5     12.908   76.831   78.923
 8473     12.908   74.972   73.092
 8473.5     12.908   73.84   64.245
 8474     12.908   73.703   55.398
 8474.5     12.908   71.95   48.355
 8475     12.908   69.41   50.057
 8475.5     12.908   67.318   60.981
 8476     12.92   65.959   70.862
 8476.5     12.935   62.102   79.228
 8477     12.951   62.702   73.401
 8477.5     12.967   66.343   67.573
 8478     12.983   71.241   66.105
 8478.5     12.998   73.586   69.293
 8479     13.014   72.348   71.696
 8479.5     13.03   71.949   66.656
 8480     13.046   73.963   55.168
 8480.5     13.061   75.001   52.682
 8481     13.077   74.512   51.573
 8481.5     13.093   74.188   51.08
 8482     13.108   73.988   48.494
 8482.5     13.124   72.617   45.734
 8483     13.14   70.931   43.95
 8483.5     13.156   68.986   43.737
 8484     13.158   66.302   46.851
 8484.5     13.158   65.562   51.786
 8485     13.158   66.855   53.195
 8485.5     13.158   69.883   52.28
 8486     13.158   72.057   51.89
 8486.5     13.158   73.429   52.928
 8487     13.158   74.013   52.92
 8487.5     13.158   74.286   51.522
 8488     13.158   75.084   49.97
 8488.5     13.158   75.906   48.418
 8489     13.158   73.482   46.928
 8489.5     13.158   70.154   46.615
 8490     13.158   69.49   47.469
 8490.5     13.158   69.458   51.877
 8491     13.158   72.14   60.64
 8491.5     13.158   75.1   66.667
 8492     13.158   75.606   72.234
 8492.5     13.158   75.797   72.432
 8493     13.158   75.004   60.432
 8493.5     13.158   73.822   52.013
 8494     13.158   72.269   45.772
 8494.5     13.158   72.267   44.521
 8495     13.158   73.141   45.972
 8495.5     13.158   75.217   47.829
 8496     13.158   74.864   50.179
 8496.5     13.158   74.369   52.811
 8497     13.158   73.875   55.443
 8497.5     13.158   73.465   56.01
 8498     13.158   73.328   54.194
 8498.5     13.158   72.958   52.582
 8499     13.158   72.348   54.925
 8499.5     13.158   71.86   61.787
 8500     13.156   72.003   62.352
 8500.5     13.147   72.941   56.678
 8501     13.138   73.111   49.95
 8501.5     13.129   73.022   44.288
 8502     13.12   72.932   43.509
 8502.5     13.11   72.843   52.038
 8503     13.101   72.753   55.303
 8503.5     13.092   72.664   53.525
 8504     13.083   72.896   48.994
