###############################################
##         ENVERUS                           ##
##         ESS - Open Hole                   ##
##         PERMIAN / DELAWARE                ##
##         Nov 04 2023  V4.0                 ##
##         42-389-30283-00-00                ##
###############################################
## Copyright 2017-2023  ENVERUS.  All Rights Reserved. 
## Confidential - Property of ENVERUS, use governed by terms and 
## conditions found within the existing Information Services Subscription Agreement 
## (as may be amended, the “ISSA”) between Customer and ENVERUS. 
## 
~VERSION INFORMATION
# MNEM.UNIT                               DATA : DESCRIPTION OF MNEMONIC
#-----.-----     ----------------------------- : -----------------------------
VERS.                                     2.00 : CWLS LOG ASCII STANDARD - VERSION 2.00
WRAP.                                       NO : MULTIPLE LINES PER DEPTH STEP
VEND.                                  ENVERUS : VENDOR
TYPE.                          ESS - OPEN HOLE : ENVERUS ESSENTIAL CURVES – ACCESSIBLE THROUGH ENVERUS PRISM(TM)
DOC.                                  32052778 : ENVERUS HEADER RAW DOCUMENT ID
#___________________________________________________________________________________________________ 
~WELL INFORMATION 
# CKTmoz7OsKELnwE/IP0i4B9qEmEewtam1JWnvb6ghWZsYWfxLv+2EOc67unJ6Yof0W+RqImtxqI23GomxkzDLA== 
# MNEM.UNIT                                              DATA : DESCRIPTION OF MNEMONIC 
#-----.-----                    ----------------------------- : ----------------------------- 
CNTY.                                                  REEVES : COUNTY 
STATE.                                                  TEXAS : STATE 
CNTRY.                                                    USA : COUNTRY 
API.                                             42-389-30283 : API (10 Digit) 
API_14.                                    42-389-30283-00-00 : API (14 Digits) 
API_14_std.                                 42-389-30283-0000 : API (14 Digits Standard) 
UWI.                                           42389302830000 : UNIQUE WELL ID 
WELL.                       RANDOLPH  A. T.  ET AL-STATE  1 L : WELL NAME
STRT.FT                                                 155.0 : START DEPTH
STOP.FT                                               15740.0 : STOP DEPTH
STEP.FT                                                   0.5 : STEP BETWEEN DEPTHS
NULL.                                                 -999.25 : NULL VALUE
COMP.                                     RIO PETROLEUM  INC. : COMPANY
#___________________________________________________________________________________________________ 
~CURVE INFORMATION 
# MNEM.UNIT           : CURVE DESCRIPTION 
#-----.-----          : ----------------------------- 
 DEPT.FT               : MEASURED DEPTH 
 CALI__A.IN            : CALIPER (CAL - CAL) 
 GR__A.API             : GAMMA RAY (GR) 
 SP__A.MV              : SPONTANEOUS POTENTIAL (SP) 
 DT__A.US/FT           : SONIC DELTA TRANSIT TIME (DT) 
 RESD__A.OHMM          : DEEP INDUCTION RESISTIVITY (ILD - ILD) 
 NPHI__A.V/V           : NEUTRON POROSITY (NPH - NPH) 
 #___________________________________________________________________________________________________ 
~A         DEPT        CALI__A          GR__A          SP__A          DT__A        RESD__A        NPHI__A
# ...
        14101.0         10.433         75.166        -27.368         92.641          2.517        0.22819
        14101.5         10.517         74.244        -27.436         91.441          2.494        0.19408
        14102.0         10.624         73.323        -27.522         90.719          2.468        0.19567
        14102.5         10.635         72.402        -27.608         91.257          2.443        0.24075
        14103.0         10.641         71.481        -27.693         91.796          2.430        0.29776
        14103.5         10.647         70.559        -27.779         92.366          2.417        0.30935
        14104.0         10.653         69.696        -27.865         95.195          2.404        0.30107
        14104.5         10.696         70.078        -27.951         98.024          2.391        0.29494
        14105.0         10.740         69.435        -28.036         98.379          2.378        0.29540
        14105.5         10.785         68.037        -28.122         96.303          2.365        0.29586
        14106.0         10.830         66.640        -28.208         94.227          2.352        0.30954
        14106.5         10.898         65.242        -28.294         92.152          2.337        0.32918
        14107.0         10.991         64.685        -28.379         92.855          2.321        0.34881
        14107.5         11.084         65.740        -28.465         94.537          2.305        0.33655
        14108.0         11.178         66.796        -28.551         99.133          2.289        0.32115
        14108.5         11.144         66.814        -28.636        102.242          2.273        0.34121
        14109.0         11.061         65.381        -28.722        103.048          2.258        0.36126
        14109.5         10.979         63.948        -28.808        101.935          2.242        0.37843
        14110.0         10.896         65.466        -28.679        100.822          2.226        0.37801
        14110.5         10.814         68.476        -28.437         98.796          2.210        0.35256
        14111.0         10.731         71.486        -28.195         97.462          2.194        0.31535
        14111.5         10.824         73.302        -27.953         96.827          2.230        0.31644
        14112.0         11.194         74.757        -27.747         94.473          2.273        0.33904
        14112.5         11.147         76.211        -27.746         94.036          2.317        0.36190
        14113.0         11.111         77.666        -27.745         96.049          2.360        0.33759
        14113.5         11.326         79.120        -27.743         97.291          2.404        0.31327
        14114.0         11.314         78.728        -27.742         95.264          2.447        0.31149
        14114.5         11.038         76.706        -27.741         93.457          2.491        0.34747
        14115.0         10.979         72.860        -27.740         92.623          2.514        0.38345
        14115.5         10.919         69.014        -27.739         92.185          2.514        0.41514
        14116.0         10.859         65.726        -27.737         93.576          2.515        0.39895
        14116.5         10.879         70.665        -27.736         94.968          2.515        0.35193
        14117.0         11.008         75.523        -27.735         96.360          2.515        0.32548
        14117.5         11.125         74.331        -27.734         96.649          2.515        0.30183
        14118.0         11.125         73.139        -27.733         91.356          2.515        0.30290
        14118.5         10.997         71.947        -27.634         89.094          2.538        0.33589
        14119.0         10.855         70.755        -26.937         87.708          2.577        0.34621
        14119.5         10.713         75.356        -26.240         82.422          2.616        0.32547
        14120.0         10.571         79.980        -25.543         84.522          2.656        0.31955
        14120.5         10.429         84.604        -24.846         86.872          2.695        0.33692
        14121.0         10.286         82.225        -24.757         88.907          2.734        0.35430
        14121.5         10.341         77.009        -24.678         90.540          2.773        0.36232
        14122.0         10.471         73.673        -24.598         89.611          2.800        0.34084
        14122.5         10.412         74.038        -24.519         88.682          2.760        0.32326
        14123.0         10.233         74.458        -24.439         87.753          2.719        0.31331
        14123.5         10.116         76.812        -24.359         88.470          2.679        0.30991
        14124.0         10.208         79.166        -24.280         89.424          2.639        0.31346
        14124.5         10.240         81.521        -24.200         89.626          2.598        0.31555
        14125.0         10.230         83.875        -24.120         89.359          2.558        0.31763
        14125.5         10.220         84.971        -24.093         89.093          2.573        0.32039
        14126.0         10.265         82.328        -24.078         88.826          2.600        0.32753
        14126.5         10.311         79.685        -24.064         88.559          2.627        0.32929
        14127.0         10.356         77.042        -24.050         88.293          2.654        0.32877
        14127.5         10.402         75.573        -24.035         88.510          2.647        0.31695
        14128.0         10.441         78.678        -24.021         89.646          2.633        0.30514
        14128.5         10.368         77.108        -24.007         90.781          2.619        0.29409
        14129.0         10.294         74.030        -23.993         91.917          2.605        0.29746
        14129.5         10.221         71.889        -23.978         90.097          2.592        0.32311
        14130.0         10.278         73.623        -23.964         88.909          2.620        0.34803
        14130.5         10.314         75.357        -23.950         88.618          2.669        0.35334
        14131.0         10.297         76.246        -23.935         88.327          2.719        0.36245
        14131.5         10.280         74.914        -23.921         86.454          2.769        0.34083
        14132.0         10.284         69.464        -23.907         87.678          2.818        0.31921
        14132.5         10.348         70.723        -23.892         86.952          2.868        0.31693
        14133.0         10.412         71.981        -23.878         86.461          2.918        0.32249
        14133.5         10.476         73.240        -23.864         86.507          2.965        0.32068
        14134.0         10.294         74.498        -23.849         85.704          3.012        0.31820
        14134.5         10.256         75.757        -23.835         84.205          3.059        0.32651
        14135.0         10.423         77.015        -23.821         83.644          3.106        0.33934
        14135.5         10.492         77.228        -23.807         83.370          3.153        0.34312
        14136.0         10.431         76.913        -23.792         84.245          3.200        0.32759
        14136.5         10.370         76.597        -23.778         85.136          3.180        0.30735
        14137.0         10.316         76.343        -23.764         86.567          3.103        0.29197
        14137.5         10.306         76.771        -23.749         87.998          3.027        0.28658
        14138.0         10.296         77.199        -23.735         88.481          2.950        0.28118
        14138.5         10.355         77.626        -23.721         88.090          2.873        0.25878
