#--------------------------------------------------#
#-------------------ENVERUS, INC.------------------#
#------------------WWW.ENVERUS.COM-----------------#
#------------------COPYRIGHT 2020------------------#
#--------------------------------------------------#
#THIS FILE MAY BE USED ONLY IN ACCORDANCE WITH A CURRENT SUBSCRIPTION AGREEMENT BETWEEN
#THE USER AND ENVERUS, INC. NO PART OF THIS FILE MAY BE REPRODUCED, USED, COPIED,
#MODIFIED, PROPAGATED, OR DISTRIBUTED EXCEPT IN ACCORDANCE WITH THE SUBSCRIPTION
#AGREEMENT. UNAUTHORIZED USE OR DISTRIBUTION OF ALL OR ANY PART OF THIS FILE MAY VIOLATE
#COPYRIGHT, TRADEMARK, AND/OR OTHER LAWS AND IS SUBJECT TO CIVIL AS WELL AS CRIMINAL
#SANCTIONS.
#--------------------------------------------------#
#THIS FILE IS PROVIDED "AS-IS" AND ALL WARRANTIES ARE EXPRESSLY DISCLAIMED, WHETHER
#EXPRESS, ORAL, IMPLIED, STATUTORY OR OTHERWISE, INCLUDING ANY IMPLIED WARRANTY OF FITNESS
#FOR A PARTICULAR PURPOSE, MERCHANTABILITY, TITLE OR NON-INFRINGEMENT, AND ANY WARRANTIES
#ARISING BY VIRTUE OF CUSTOM OF TRADE OR COURSE OF DEALING.  FURTHER, ENVERUS, INC.
#AND ITS LICENSORS DO NOT REPRESENT OR WARRANT THAT THIS FILE WILL MEET USER'S
#REQUIREMENTS OR ARE SUITABLE FOR USER'S NEEDS OR THAT THE DATA OR RESULTS PROVIDED IN
#CONJUNCTION THEREWITH ARE CORRECT, ACCURATE, TIMELY OR RELIABLE. THESE DISCLAIMERS SHALL
#APPLY REGARDLESS OF ANY FAILURE OF ESSENTIAL PURPOSE OF ANY LIMITED REMEDY.  SOME
#JURISDICTIONS DO NOT ALLOW THE EXCLUSION OF CERTAIN WARRANTIES SO SOME OF THE ABOVE
#EXCLUSIONS MAY NOT APPLY. IN NO EVENT SHALL ENVERUS, INC. OR ANY OF ITS AFFILIATES
#BE LIABLE UNDER ANY LEGAL THEORY, WHETHER IN TORT (INCLUDING WITHOUT LIMITATION
#NEGLIGENCE), CONTRACT, STRICT LIABILITY, STATUTORY OR OTHERWISE, FOR ANY SPECIAL,
#INCIDENTAL, CONSEQUENTIAL, EXEMPLARY, PUNITIVE OR INDIRECT DAMAGE OF ANY KIND, INCLUDING
#WITHOUT LIMITATION LOSS OF REVENUE, PROFITS, GOODWILL, USE, AND/OR DATA OR THE COST OF
#PROCUREMENT OF SUBSTITUTE GOODS OR SERVICES, EVEN IF APPRISED OF THE POSSIBILITY OF SUCH
#DAMAGES IN ADVANCE.
#--------------------------------------------------#

# EXPORTED FROM TRANSFORM SOFTWARE 5.2.0 ON 31-MAY-2019 BY USER BRIAN.UMLANG
# DI TRANSFORM - A PRODUCT OF DRILLINGINFO, INC. - WWW.DRILLINGINFO.COM
#
~VERSION INFORMATION
 VERS.        2.0 : LAS ASCII STANDARD - VERSION 2.0
 WRAP.         NO : ONE LINE PER DEPTH STEP

~WELL INFORMATION
#MNEM.UNIT       DATA TYPE       INFORMATION
#---------       ---------       -----------
 STRT.FT                 256 : START DEPTH
 STOP.FT                4706 : STOP DEPTH
 STEP.FT                 0.5 : STEP LENGTH
 NULL.               -999.25 : NULL VALUE
 UWI.         42301312890000 : UNIQUE WELL ID
 API.         42301312890000 : WELL IDENTIFIER
 COMP.                       : COMPANY
 WELL.  42301312890000_API14 : WELL NAME
 FLD.                        : FIELD NAME
 LOC.                        : WELL LOCATION
 CNTY.                       : COUNTY
 STAT.                       : STATE OR PROVINCE
 CTRY.                       : COUNTRY
 SRVC.                       : SERVICE COMPANY
 DATE.                       : DATE

~CURVE INFORMATION
#MNEM.UNIT       API CODE       CURVE DESCRIPTION
#---------       --------       -----------------
 DEPT.FT          : <MEASURED DEPTH>
 CAL.IN           : CALIPER
 DPHI.%           : DENSITY POROSITY
 DT.US/FT         : SONIC
 GR.GAPI          : GAMMA RAY
 ILD.OHMM         : DEEP RESISTIVITY
 ILS.OHMM         : SHALLOW RESISTIVITY
 NPHI.%           : NEUTRON POROSITY
 PE.B/ELEC        : PHOTOELECTRIC FACTOR
 RHOB.G/CM3       : DENSITY

~PARAMETER INFORMATION
#MNEM.UNIT       VALUE       DESCRIPTION
#---------       -----       -----------
 EKB.FT      2822 : ELEVATION ABOVE MSL

~A      DEPT         CAL        DPHI          DT          GR         ILD         ILS        NPHI          PE        RHOB
# ...
        3673        8.88     14.3086      69.831     67.2301     13.6785      7.6931     14.4397      2.4621      2.4798
      3673.5        8.86     13.6107     71.2145      79.039     16.2444      8.8823     16.2755      2.5236       2.486
        3674        8.84     12.8034     71.7836     85.0972     18.0514     10.2614     17.4758      2.5651      2.5042
      3674.5        8.84     12.0252     71.6848     87.4251     19.6412     11.1584     18.8283      2.5864      2.5132
        3675        8.78     12.2856     71.7238     84.7535     20.9615     11.6923     19.1216      2.6052      2.5139
      3675.5        8.78      12.653     71.8236     80.7698     21.3402      12.002      18.361      2.6052      2.5086
        3676        8.78     12.8164     71.7996     79.9401     20.9183     11.7938     17.6428      2.6052      2.5048
      3676.5        8.76     12.9397     71.7836     80.2395     20.3741      11.685     17.3099      2.6052      2.5035
        3677        8.74     13.1975     71.7157     79.8179     20.1862      11.685     17.2032      2.6052      2.4999
      3677.5        8.72     13.3263     71.3532     76.5067     19.7627     11.5464     17.1039      2.6052      2.4947
        3678        8.72      13.086     70.9148     71.1539     18.8603     10.8168     16.7181      2.6253      2.4945
      3678.5        8.72     13.0307     71.1687      66.327     17.3849      10.419     16.4789      2.6572      2.4947
        3679        8.72     13.6923     71.6709     65.2695     16.1853       9.493     16.8398      2.6653      2.4894
      3679.5      8.7046     14.8665      72.668     66.8901     15.0811       9.229     17.1512      2.6307      2.4866
        3680         8.7     15.4106     73.2386     69.7002     14.5952      9.0147      17.163      2.6253      2.4676
      3680.5         8.7     15.4008     73.8683     72.1036     14.6706      9.1834     16.6705      2.5651      2.4644
        3681        8.68      14.927     73.7027     72.4551     15.0903      9.5306     15.5545      2.5064       2.468
      3681.5        8.68     14.3646     72.7288     72.4551     15.9074     10.0418     15.5936       2.485      2.4766
        3682        8.68     13.8652     71.6593     72.7545     16.6168     10.6733     15.5936      2.4449      2.4838
      3682.5        8.64     13.6129     71.0024     72.7545     17.3618     11.2321     15.7143      2.4449      2.4899
        3683        8.64     13.3275     70.5867     72.4179     17.8954      11.661     15.5483       2.441      2.4934
      3683.5      8.6389     13.0934     70.3292     71.2575     18.2301     11.9946     15.4252      2.4248      2.4985
        3684         8.6     12.9146      70.167     70.8851     18.9184     12.1262     15.3935      2.4248      2.5035
      3684.5         8.6     12.8871     69.9247      69.969     19.2562     12.5736     15.4326      2.4449      2.5035
        3685         8.6      12.804     69.7139     69.4611     19.6328     12.7013     15.2424      2.4649      2.5036
      3685.5         8.6     12.5475     69.3104     69.4611     20.1862     13.0591     14.5303      2.4649       2.508
        3686         8.6     12.0893     68.7051     69.4611     20.7634     13.4274      14.156       2.537      2.5169
      3686.5         8.6     11.5932     68.1939     69.9228     21.5563     13.6896     13.5689      2.6052      2.5227
        3687         8.6     11.5483     68.2007     72.5161     22.7981     14.8682     13.5776      2.6052      2.5243
      3687.5         8.6     12.0664     69.0442     82.8675     24.3359     15.4548     14.9609      2.6052       2.518
        3688         8.6     12.7744     70.2944     91.5872     26.8203     17.0586     16.1005      2.6253      2.5074
      3688.5         8.6     13.6151     71.9275    112.2698      31.145     19.4079     17.5125      2.6453      2.5034
        3689         8.6     14.3239     73.2764    129.6909     35.9385     22.6793     18.4781      2.7254      2.4826
      3689.5         8.6     15.1284     75.9737    153.9397     37.8033     25.4979     20.3021      2.7856       2.477
        3690         8.6     15.6422      77.783    169.8803     39.7024     27.0026     21.3867      2.8056      2.4672
      3690.5         8.6     16.0973     79.5205    175.2462     38.4567     27.0429     21.8704      2.8457      2.4577
        3691         8.6     16.2111     79.5817    168.1921     34.0902     25.1005     21.3474      2.8457      2.4533
      3691.5       8.595     15.8247     77.1134    144.8685     30.4797      23.885     20.0145      2.8858      2.4549
        3692         8.6     14.9893     74.3681    124.7348     28.1057     20.7013     18.6176      2.8778       2.466
      3692.5         8.6     14.1077      71.318    105.9523     23.7984     18.9855     15.6532      2.8457       2.479
        3693         8.6     13.5578     69.7332     87.9966     20.2219     17.3255     15.1052      2.7949      2.4891
      3693.5        8.62     14.0225      69.804     84.1517     19.0219     16.6168     15.7295      2.7655      2.4908
        3694        8.62     14.3582     70.6911     91.2896     16.6951     17.0461     16.9693      2.7321      2.4836
      3694.5        8.62     14.3213     71.5266     103.808      23.453     18.4333       18.39      2.6854      2.4801
        3695        8.62     13.6265     71.6028     119.499      34.197     24.6268     19.2423      2.6453      2.4819
      3695.5        8.62     12.8688     71.4784    137.4725     53.7465     30.0353     19.4567       2.799      2.4919
        3696      8.6361     12.6249     72.1112     155.921     71.4111     51.4292     19.6047      2.9446      2.5022
      3696.5        8.64     12.7664     73.3824    171.0265    106.9523     75.9371     20.1978      3.0461      2.5055
        3697        8.66      13.411     75.2905    178.3514    115.1993     81.0222     21.3751      3.0461      2.5008
      3697.5        8.66     14.0807     77.0566    172.6282     99.2452     71.5387     22.7277      3.0661      2.4868
        3698         8.7     14.7683     77.5489    155.7224     75.9743     36.1533     22.9141      3.0461      2.4636
      3698.5        8.72     15.3898     76.4743    127.3851     34.2319      21.822     22.4593      3.0207      2.4698
        3699        8.74     15.7126     75.1431    108.2541     16.7113     12.1791     20.6427      2.9191      2.4696
      3699.5        8.78     15.6349     74.1979     85.3239      10.927      9.5556     18.7143      2.7695      2.4828
        3700       8.806      15.809     72.5464     80.9304     10.8217       8.826     17.7666      2.6359      2.4871
      3700.5        8.82     14.1244     70.4383     69.5265     10.7501      8.4744     14.8366      2.5344      2.4891
        3701        8.82     12.4483     68.1156     62.0979     11.5103       9.286      12.537      2.5572       2.498
      3701.5         8.8     11.0387     65.9434     55.4894      12.401      9.7461     11.1403      2.5651      2.5261
        3702         8.8     11.0251     65.2702     52.8765     12.5841     10.1687     10.9584      2.6748      2.5312
      3702.5      8.8122     12.9419     66.9871       52.83     11.5765      9.3345     12.7172      2.7655      2.5153
        3703      8.8334      15.027     70.0826     55.4731      9.3992      7.6425     14.8431      2.6993       2.477
      3703.5        8.84     16.3798     72.1891       58.64      8.3179      6.7269     16.2921      2.5269      2.4582
        3704        8.84     16.6691     72.4951     61.2669      7.3337      6.1654      16.625      2.4448      2.4437
      3704.5        8.84     16.6533     71.9007     62.5749      6.8905      5.8863     17.0774      2.3848      2.4414
        3705        8.84      16.356     70.9661     62.5749      7.0194      6.0522     16.4487      2.3848      2.4431
      3705.5        8.84     15.7101     70.4367     63.1737      7.3896      6.2228     15.7295      2.4248      2.4484
        3706        8.82     15.3858     69.9573     63.7725      7.8317      6.6903     14.7508      2.4704      2.4565
