###############################################
##         ENVERUS                           ##
##         ESS - Open Hole                   ##
##         PERMIAN / DELAWARE                ##
##         Nov 04 2023  V4.0                 ##
##         42-389-30297-00-00                ##
###############################################
## Copyright 2017-2023  ENVERUS.  All Rights Reserved. 
## Confidential - Property of ENVERUS, use governed by terms and 
## conditions found within the existing Information Services Subscription Agreement 
## (as may be amended, the “ISSA”) between Customer and ENVERUS. 
## 
~VERSION INFORMATION
# MNEM.UNIT                               DATA : DESCRIPTION OF MNEMONIC
#-----.-----     ----------------------------- : -----------------------------
VERS.                                     2.00 : CWLS LOG ASCII STANDARD - VERSION 2.00
WRAP.                                       NO : MULTIPLE LINES PER DEPTH STEP
VEND.                                  ENVERUS : VENDOR
TYPE.                          ESS - OPEN HOLE : ENVERUS ESSENTIAL CURVES – ACCESSIBLE THROUGH ENVERUS PRISM(TM)
DOC.                                  32306493 : ENVERUS HEADER RAW DOCUMENT ID
#___________________________________________________________________________________________________ 
~WELL INFORMATION 
# rQStLE5sYsP+YdYw4QOWpp6z6mWwFJBvCxgTqRv2Ioz+qyoYLl+79qTOna8BSHgUk5jTgp49hkgrAQ1kFKyHCg== 
# MNEM.UNIT                                              DATA : DESCRIPTION OF MNEMONIC 
#-----.-----                    ----------------------------- : ----------------------------- 
CNTY.                                                  REEVES : COUNTY 
STATE.                                                  TEXAS : STATE 
CNTRY.                                                    USA : COUNTRY 
API.                                             42-389-30297 : API (10 Digit) 
API_14.                                    42-389-30297-00-00 : API (14 Digits) 
API_14_std.                                 42-389-30297-0000 : API (14 Digits Standard) 
UWI.                                           42389302970000 : UNIQUE WELL ID 
WELL.                              R.S. BRENNAND, JR. ET AL 1 : WELL NAME
STRT.FT                                                   3.0 : START DEPTH
STOP.FT                                               13007.0 : STOP DEPTH
STEP.FT                                                   0.5 : STEP BETWEEN DEPTHS
NULL.                                                 -999.25 : NULL VALUE
#___________________________________________________________________________________________________ 
~CURVE INFORMATION 
# MNEM.UNIT           : CURVE DESCRIPTION 
#-----.-----          : ----------------------------- 
 DEPT.FT               : MEASURED DEPTH 
 CALI.IN               : CALIPER (CAL - CAL) 
 GR.API                : GAMMA RAY (GR) 
 DT.US/FT              : SONIC DELTA TRANSIT TIME (DT) 
 NPHI.V/V              : NEUTRON POROSITY (NPHI) 
 RHOB.G/CC             : BULK DENSITY (RHOB) 
 #___________________________________________________________________________________________________ 
~A         DEPT           CALI             GR             DT           NPHI           RHOB
# ...
         5635.0         10.210        133.823         63.087     -999.25000         2.6230
         5635.5         10.212        139.052         64.427     -999.25000         2.6361
         5636.0         10.214        141.134         65.783     -999.25000         2.6481
         5636.5         10.217        133.474         67.877     -999.25000         2.6254
         5637.0         10.219        125.814         69.972     -999.25000         2.6027
         5637.5         10.221        123.497         68.948     -999.25000         2.5799
         5638.0         10.223        133.368         64.721     -999.25000         2.5863
         5638.5         10.226        143.238         64.964     -999.25000         2.5948
         5639.0         10.228        153.109         65.206     -999.25000         2.5878
         5639.5         10.230        150.228         65.423     -999.25000         2.5806
         5640.0         10.232        132.193         64.744     -999.25000         2.5734
         5640.5         10.234        110.145         64.064     -999.25000         2.5661
         5641.0         10.237         93.505         64.229     -999.25000         2.5589
         5641.5         10.239         83.842         65.109     -999.25000         2.5517
         5642.0         10.241         78.596         65.990     -999.25000         2.5444
         5642.5         10.243         87.891         66.249     -999.25000         2.5524
         5643.0         10.246         97.185         65.935     -999.25000         2.5617
         5643.5         10.248        100.730         65.621     -999.25000         2.5556
         5644.0         10.250         97.594         65.306     -999.25000         2.5493
         5644.5         10.252         94.458         64.992     -999.25000         2.5430
         5645.0         10.255         91.808         64.676     -999.25000         2.5367
         5645.5         10.257         94.763         64.359     -999.25000         2.5303
         5646.0         10.259         97.719         64.042     -999.25000         2.5240
         5646.5         10.261        100.361         63.725     -999.25000         2.5265
         5647.0         10.264         92.225         64.287     -999.25000         2.5338
         5647.5         10.256         84.090         65.579     -999.25000         2.5410
         5648.0         10.248         75.955         66.838     -999.25000         2.5483
         5648.5         10.239         70.201         66.489     -999.25000         2.5555
         5649.0         10.230         69.706         66.139     -999.25000         2.5628
         5649.5         10.222         69.211         65.790     -999.25000         2.5701
         5650.0         10.213         68.716         65.441     -999.25000         2.5773
         5650.5         10.204         69.308         65.718     -999.25000         2.5678
         5651.0         10.195         71.313         66.539     -999.25000         2.5648
         5651.5         10.187         73.318         67.360     -999.25000         2.5803
         5652.0         10.178         75.323         67.696     -999.25000         2.5867
         5652.5         10.169         77.912         67.575     -999.25000         2.5833
         5653.0         10.161         86.022         65.552     -999.25000         2.5799
         5653.5         10.152         94.133         64.618     -999.25000         2.5764
         5654.0         10.143        100.741         64.255     -999.25000         2.5730
         5654.5         10.134        103.445         64.362     -999.25000         2.5780
         5655.0         10.126        106.149         64.468     -999.25000         2.5877
         5655.5         10.117        108.853         64.575     -999.25000         2.5974
         5656.0         10.108        111.557         64.624     -999.25000         2.6070
         5656.5         10.100        111.257         64.624     -999.25000         2.6046
         5657.0         10.091        110.927         64.625     -999.25000         2.5987
         5657.5         10.082        110.597         64.626     -999.25000         2.5928
         5658.0         10.073        102.993         64.627     -999.25000         2.5869
         5658.5         10.065         87.676         64.628     -999.25000         2.5934
         5659.0         10.059         77.478         64.629     -999.25000         2.6094
         5659.5         10.059         67.281         64.629     -999.25000         2.6254
         5660.0         10.059         57.277         64.630     -999.25000         2.6303
         5660.5         10.059         60.331         64.535     -999.25000         2.6216
         5661.0         10.059         63.385         64.361     -999.25000         2.6128
         5661.5         10.060         66.440         64.187     -999.25000         2.6041
         5662.0         10.060         69.494         64.013     -999.25000         2.5954
         5662.5         10.060         72.548         63.775     -999.25000         2.5867
         5663.0         10.060         83.496         62.580     -999.25000         2.5780
         5663.5         10.061        101.402         61.727     -999.25000         2.5810
         5664.0         10.061        119.309         60.874     -999.25000         2.6093
         5664.5         10.061        134.693         60.022     -999.25000         2.6377
         5665.0         10.061        127.156         59.169     -999.25000         2.6661
         5665.5         10.061        119.618         58.317     -999.25000         2.6600
         5666.0         10.062        108.695         54.970     -999.25000         2.6453
         5666.5         10.062         79.298         55.690     -999.25000         2.6307
         5667.0         10.062         82.283         53.803     -999.25000         2.6161
         5667.5         10.062         90.381         50.500     -999.25000         2.6015
         5668.0         10.063         98.480         47.196     -999.25000         2.5869
         5668.5         10.063        106.579         45.577     -999.25000         2.5722
         5669.0         10.063        114.677         48.191     -999.25000         2.5576
         5669.5         10.063        122.776         50.804     -999.25000         2.5610
         5670.0         10.063        130.875         54.459     -999.25000         2.5733
         5670.5         10.064        125.442         62.638     -999.25000         2.5855
         5671.0         10.064        109.007         66.229     -999.25000         2.5978
         5671.5         10.064         92.572         66.028     -999.25000         2.6101
         5672.0         10.064         86.360         65.827     -999.25000         2.6172
         5672.5         10.065         89.171         65.626     -999.25000         2.6208
         5673.0         10.065         91.982         65.474     -999.25000         2.6245
         5673.5         10.065         94.793         66.103     -999.25000         2.6281
         5674.0         10.065         93.449         66.732     -999.25000         2.6317
         5674.5         10.065         87.688         67.362     -999.25000         2.6353
         5675.0         10.066         81.927         67.991     -999.25000         2.6389
         5675.5         10.066         76.166         68.620     -999.25000         2.6322
         5676.0         10.066         70.405         69.250     -999.25000         2.5981
         5676.5         10.066         64.644         65.381     -999.25000         2.5641
         5677.0         10.067         76.461         64.406     -999.25000         2.5488
         5677.5         10.067         92.912         63.487     -999.25000         2.5396
         5678.0         10.067        109.362         63.184     -999.25000         2.5305
         5678.5         10.067        101.834         62.882     -999.25000         2.5213
