###############################################
##         ENVERUS                           ##
##         ESS - Open Hole                   ##
##         PERMIAN / DELAWARE                ##
##         Nov 04 2023  V4.0                 ##
##         42-389-32245-00-00                ##
###############################################
## Copyright 2017-2023  ENVERUS.  All Rights Reserved. 
## Confidential - Property of ENVERUS, use governed by terms and 
## conditions found within the existing Information Services Subscription Agreement 
## (as may be amended, the “ISSA”) between Customer and ENVERUS. 
## 
~VERSION INFORMATION
# MNEM.UNIT                               DATA : DESCRIPTION OF MNEMONIC
#-----.-----     ----------------------------- : -----------------------------
VERS.                                     2.00 : CWLS LOG ASCII STANDARD - VERSION 2.00
WRAP.                                       NO : MULTIPLE LINES PER DEPTH STEP
VEND.                                  ENVERUS : VENDOR
TYPE.                          ESS - OPEN HOLE : ENVERUS ESSENTIAL CURVES – ACCESSIBLE THROUGH ENVERUS PRISM(TM)
DOC.                                  24742630 : ENVERUS HEADER RAW DOCUMENT ID
#___________________________________________________________________________________________________ 
~WELL INFORMATION 
# u9Wg0OWXiPz858M7Kubpm0lpDPxjGuyhH3tqBPDGtvBYDDDqGrwiIchrhDPbdkpmsDZNCKsM7+2eKUVstoQO7Q== 
# MNEM.UNIT                                              DATA : DESCRIPTION OF MNEMONIC 
#-----.-----                    ----------------------------- : ----------------------------- 
CNTY.                                                  REEVES : COUNTY 
STATE.                                                  TEXAS : STATE 
CNTRY.                                                    USA : COUNTRY 
API.                                             42-389-32245 : API (10 Digit) 
API_14.                                    42-389-32245-00-00 : API (14 Digits) 
API_14_std.                                 42-389-32245-0000 : API (14 Digits Standard) 
UWI.                                           42389322450000 : UNIQUE WELL ID 
WELL.                          TEXAS PACIFIC LAND TRUST #25-1 : WELL NAME
STRT.FT                                                2530.0 : START DEPTH
STOP.FT                                               10610.0 : STOP DEPTH
STEP.FT                                                   0.5 : STEP BETWEEN DEPTHS
NULL.                                                 -999.25 : NULL VALUE
COMP.                                             CONOCO INC. : COMPANY 
FLD.                                            FORD WOLFCAMP : FIELD 
LOC.                                                 25-2S-58 : LOCATION 
SRVC.                                            SCHLUMBERGER : SERVICE COMPANY 
DATE.                                              03/21/2002 : DATE 
TVD.                                                       NO : TVD FLAG
#___________________________________________________________________________________________________ 
~PARAMETER INFORMATION 
# MNEM.UNIT                                              DATA : DESCRIPTION OF MNEMONIC 
#-----.-----                    ----------------------------- : ----------------------------- 
RUN.                                                      ONE : RUN NUMBER 
PDAT.                                                      GL : PERMANENT DATUM 
EPD.FT                                              2993.0000 : ELEVATION OF PERM. DATUM 
LMF.                                            KELLY BUSHING : LOG MEASURED FROM 
EKB.FT                                              3021.0000 : ELEVATION OF KELLY BUSHING 
DF.FT                                               3020.0000 : ELEVATION OF DERRICK FLOOR 
GL.FT                                               2993.0000 : ELEVATION OF GROUND LEVEL 
TD.FT                                              10610.0000 : TOTAL DEPTH 
BHT.DEGF                                               130.00 : BOTTOM HOLE TEMPERATURE 
BLI.FT                                             10610.0000 : BOTTOM LOG INTERVAL 
CSGSIZE.IN                                             9.6250 : CASING SIZE 
BITSIZE.IN                                              8.750 : BITSIZE 
CSGD.FT                                                  2642 : CASING BOTTOM (DRILLER) 1 
CSGL.FT                                                  2538 : CASING BOTTOM (LOGGER) 1 
MUD.                                                CUT BRINE : DRILLING FLUID TYPE 
MUDV.CP                                               28.0000 : DRILLING FLUID VISCOSITY 
MUDD.LB/USG                                           10.0000 : DRILLING FLUID DENSITY 
PH.                                                    8.5000 : DRILLING FLUID PH 
MUDS.                                        CIRCULATION TANK : MUD SAMPLE SOURCE 
RM.OHMM                                                0.0610 : RESISTIVITY OF MUD SAMPLE 
RMT.DEGF                                              75.0000 : MUD SAMPLE TEMPERATURE 
RMF.OHMM                                               0.0610 : MUD FILTRATE RESISTIVITY 
RMFT.DEGF                                             75.0000 : MUD FILTRATE SAMPLE TEMPERATURE
#___________________________________________________________________________________________________ 
~CURVE INFORMATION 
# MNEM.UNIT           : CURVE DESCRIPTION 
#-----.-----          : ----------------------------- 
 DEPT.FT               : MEASURED DEPTH 
 CALI.IN               : CALIPER (CALIPER) 
 GR.API                : GAMMA RAY (GAMMA RAY) 
 DT.US/FT              : SONIC DELTA TRANSIT TIME (DELTA T) 
 SPHI.V/V              : SONIC POROSITY (SONIC POROSITY) 
 #___________________________________________________________________________________________________ 
~A         DEPT           CALI             GR             DT           SPHI
# ...
         3590.0         10.460         75.830         64.360        0.10000
         3590.5         10.360         69.940         61.180        0.08000
         3591.0         10.260         53.720         58.000        0.06000
         3591.5         10.170         38.720         55.380        0.05000
         3592.0         10.090         31.920         55.030        0.05000
         3592.5         10.020         31.810         56.320        0.07000
         3593.0         10.020         39.960         57.660        0.08000
         3593.5         10.020         47.350         59.010        0.09000
         3594.0         10.020         54.710         60.350        0.09000
         3594.5         10.020         61.470         61.160        0.10000
         3595.0         10.020         65.090         61.780        0.10000
         3595.5         10.020         67.430         62.400        0.11000
         3596.0         10.020         68.080         63.820        0.13000
         3596.5         10.090         67.550         65.880        0.14000
         3597.0         10.190         65.360         67.950        0.16000
         3597.5         10.280         62.690         70.010        0.17000
         3598.0         10.430         59.670         73.070        0.19000
         3598.5         10.560         54.090         76.950        0.22000
         3599.0         10.640         48.110         80.840        0.25000
         3599.5         10.720         42.330         84.330        0.27000
         3600.0         10.790         39.720         87.170        0.29000
         3600.5         10.820         38.900         88.820        0.29000
         3601.0         10.820         38.190         88.880        0.29000
         3601.5         10.810         37.900         88.280        0.29000
         3602.0         10.800         38.840         87.470        0.28000
         3602.5         10.790         41.320         86.660        0.27000
         3603.0         10.780         45.430         84.360        0.25000
         3603.5         10.760         49.790         82.050        0.23000
         3604.0         10.720         52.750         79.750        0.21000
         3604.5         10.640         54.030         77.340        0.20000
         3605.0         10.560         55.310         75.220        0.18000
         3605.5         10.480         57.360         73.000        0.17000
         3606.0         10.400         59.740         70.780        0.15000
         3606.5         10.320         62.160         68.560        0.14000
         3607.0         10.240         62.290         66.340        0.12000
         3607.5         10.150         60.220         64.120        0.11000
         3608.0         10.060         58.600         61.900        0.09000
         3608.5          9.970         57.640         59.690        0.08000
         3609.0          9.900         56.080         58.400        0.07000
         3609.5          9.850         49.530         57.260        0.06000
         3610.0          9.800         42.620         56.110        0.06000
         3610.5          9.740         37.050         54.970        0.05000
         3611.0          9.690         34.890         54.410        0.05000
         3611.5          9.640         33.800         54.080        0.05000
         3612.0          9.590         33.140         53.970        0.05000
         3612.5          9.570         32.540         53.860        0.04000
         3613.0          9.550         32.010         53.740        0.04000
         3613.5          9.530         32.180         53.680        0.04000
         3614.0          9.510         33.330         53.750        0.04000
         3614.5          9.490         34.430         53.810        0.04000
         3615.0          9.470         34.990         53.970        0.05000
         3615.5          9.470         34.180         54.300        0.05000
         3616.0          9.470         33.730         54.770        0.06000
         3616.5          9.470         37.780         55.940        0.06000
         3617.0          9.470         44.380         56.900        0.07000
         3617.5          9.460         50.570         57.050        0.07000
         3618.0          9.450         51.170         56.500        0.06000
         3618.5          9.450         45.400         55.790        0.06000
         3619.0          9.440         40.990         55.100        0.05000
         3619.5          9.430         41.290         55.030        0.06000
         3620.0          9.430         45.290         56.140        0.06000
         3620.5          9.400         49.660         57.080        0.07000
         3621.0          9.370         51.320         57.450        0.07000
         3621.5          9.330         48.340         57.350        0.07000
         3622.0          9.300         44.260         57.250        0.07000
         3622.5          9.290         44.010         57.580        0.07000
         3623.0          9.290         47.360         58.390        0.08000
         3623.5          9.290         50.580         59.330        0.09000
         3624.0          9.290         52.390         60.270        0.09000
         3624.5          9.290         54.170         61.030        0.09000
         3625.0          9.290         55.360         60.540        0.09000
         3625.5          9.290         55.990         59.470        0.08000
         3626.0          9.290         54.430         57.930        0.07000
         3626.5          9.270         46.180         56.400        0.05000
         3627.0          9.250         38.210         55.180        0.05000
         3627.5          9.230         32.360         55.230        0.06000
         3628.0          9.210         38.680         56.690        0.07000
         3628.5          9.210         50.950         58.030        0.08000
         3629.0          9.220         66.980         59.530        0.08000
         3629.5          9.230         65.480         59.530        0.08000
         3630.0          9.230         57.940         58.450        0.07000
         3630.5          9.240         50.540         57.310        0.07000
         3631.0          9.250         43.710         56.840        0.06000
         3631.5          9.250         40.680         56.470        0.06000
         3632.0          9.260         39.460         55.630        0.06000
         3632.5          9.270         35.910         54.700        0.05000
         3633.0          9.270         32.400         53.790        0.04000
         3633.5          9.270         29.040         53.160        0.04000
         3634.0          9.270         25.750         52.650        0.03000
         3634.5          9.260         22.390         52.630        0.04000
         3635.0          9.260         21.960         52.730        0.04000
         3635.5          9.260         23.900         52.830        0.04000
         3636.0          9.260         26.610         52.920        0.04000
         3636.5          9.250         29.660         54.950        0.05000
         3637.0          9.250         39.260         57.560        0.07000
         3637.5          9.250         52.380         60.190        0.10000
         3638.0          9.270         65.520         62.810        0.12000
         3638.5          9.280         78.600         65.210        0.12000
         3639.0          9.300         86.630         65.210        0.12000
         3639.5          9.310         79.920         64.830        0.12000
         3640.0          9.330         71.220         64.460        0.12000
         3640.5          9.350         62.720         64.740        0.12000
         3641.0          9.370         61.430         65.340        0.13000
         3641.5          9.390         60.420         66.100        0.13000
         3642.0          9.400         60.050         66.850        0.14000
         3642.5          9.420         60.480         67.650        0.14000
