###############################################
##         ENVERUS                           ##
##         ESS - Open Hole                   ##
##         PERMIAN / DELAWARE                ##
##         Nov 04 2023  V4.0                 ##
##         42-389-30424-00-00                ##
###############################################
## Copyright 2017-2023  ENVERUS.  All Rights Reserved. 
## Confidential - Property of ENVERUS, use governed by terms and 
## conditions found within the existing Information Services Subscription Agreement 
## (as may be amended, the “ISSA”) between Customer and ENVERUS. 
## 
~VERSION INFORMATION
# MNEM.UNIT                               DATA : DESCRIPTION OF MNEMONIC
#-----.-----     ----------------------------- : -----------------------------
VERS.                                     2.00 : CWLS LOG ASCII STANDARD - VERSION 2.00
WRAP.                                       NO : MULTIPLE LINES PER DEPTH STEP
VEND.                                  ENVERUS : VENDOR
TYPE.                          ESS - OPEN HOLE : ENVERUS ESSENTIAL CURVES – ACCESSIBLE THROUGH ENVERUS PRISM(TM)
DOC.                                  32008121 : ENVERUS HEADER RAW DOCUMENT ID
#___________________________________________________________________________________________________ 
~WELL INFORMATION 
# BBd8zmUYmd+wUdICSlYDIOWaOe8iOeA0ELK9EhSbx74Kr6OX4zJxS/eo6cO6KK5SWMTSkVzaKbU2EBBfROvOKA== 
# MNEM.UNIT                                              DATA : DESCRIPTION OF MNEMONIC 
#-----.-----                    ----------------------------- : ----------------------------- 
CNTY.                                                  REEVES : COUNTY 
STATE.                                                  TEXAS : STATE 
CNTRY.                                                    USA : COUNTRY 
API.                                             42-389-30424 : API (10 Digit) 
API_14.                                    42-389-30424-00-00 : API (14 Digits) 
API_14_std.                                 42-389-30424-0000 : API (14 Digits Standard) 
UWI.                                           42389304240000 : UNIQUE WELL ID 
WELL.                                      LEWELLING STATE  1 : WELL NAME
STRT.FT                                                   7.0 : START DEPTH
STOP.FT                                               15912.0 : STOP DEPTH
STEP.FT                                                   0.5 : STEP BETWEEN DEPTHS
NULL.                                                 -999.25 : NULL VALUE
COMP.                           PENN VIRGINIA OIL & GAS CORP. : COMPANY 
DATE.                                             14-AUG-1976 : LOG DATE
#___________________________________________________________________________________________________ 
~CURVE INFORMATION 
# MNEM.UNIT           : CURVE DESCRIPTION 
#-----.-----          : ----------------------------- 
 DEPT.FT               : MEASURED DEPTH 
 CALI__A.IN            : CALIPER (CAL - CAL) 
 GR__A.API             : GAMMA RAY (GR) 
 DT__A.US/FT           : SONIC DELTA TRANSIT TIME (DT) 
 DPHI__A.V/V           : DENSITY POROSITY (DPHI) 
 NPHI__A.V/V           : NEUTRON POROSITY (NPHI) 
 #___________________________________________________________________________________________________ 
~A         DEPT        CALI__A          GR__A          DT__A        DPHI__A        NPHI__A
# ...
        14967.0         13.306         72.331       -999.250        0.15619        0.39139
        14967.5         13.189         71.385       -999.250        0.14005        0.39012
        14968.0         13.343         70.439       -999.250        0.12793        0.38646
        14968.5         13.157         69.492       -999.250        0.11471        0.37687
        14969.0         13.006         68.504       -999.250        0.10254        0.36728
        14969.5         13.109         67.195       -999.250        0.12727        0.36124
        14970.0         13.190         66.107       -999.250        0.14588        0.36269
        14970.5         13.097         67.108       -999.250        0.16191        0.37272
        14971.0         13.005         68.110       -999.250        0.15433        0.37986
        14971.5         13.271         69.111       -999.250        0.15631        0.37389
        14972.0         13.752         69.413       -999.250        0.15743        0.36792
        14972.5         13.648         69.542       -999.250        0.15285        0.36195
        14973.0         13.784         69.888       -999.250        0.14827        0.35658
        14973.5         13.988         70.808       -999.250        0.16076        0.35479
        14974.0         13.400         71.727       -999.250        0.15666        0.35300
        14974.5         13.374         72.647       -999.250        0.15421        0.38372
        14975.0         13.375         73.567       -999.250        0.13602        0.38356
        14975.5         13.705         74.408       -999.250        0.09783        0.38341
        14976.0         13.733         75.246       -999.250        0.07594        0.38160
        14976.5         13.718         76.085       -999.250        0.10237        0.37897
        14977.0         13.703         76.484       -999.250        0.12272        0.37901
        14977.5         13.688         76.296       -999.250        0.13293        0.37932
        14978.0         13.515         76.108       -999.250        0.13178        0.37782
        14978.5         13.533         75.921       -999.250        0.14009        0.37901
        14979.0         13.429         75.733       -999.250        0.15875        0.37746
        14979.5         13.325         75.166       -999.250        0.17242        0.37754
        14980.0         12.991         72.712       -999.250        0.17378        0.38298
        14980.5         13.094         72.129       -999.250        0.17798        0.37990
        14981.0         13.196         71.408       -999.250        0.18872        0.36054
        14981.5         13.194         69.050       -999.250        0.20028        0.35516
        14982.0         13.038         68.298       -999.250        0.23378        0.36291
        14982.5         12.904         67.913       -999.250        0.22567        0.37265
        14983.0         13.093         67.527       -999.250        0.21756        0.38239
        14983.5         13.283         67.141       -999.250        0.22738        0.38818
        14984.0         12.365         67.908       -999.250        0.23780        0.38251
        14984.5         12.933         69.773       -999.250        0.24826        0.35362
        14985.0         12.887         71.653       -999.250        0.23673        0.35961
        14985.5         12.751         73.537       -999.250        0.21488        0.35841
        14986.0         12.619         74.551       -999.250        0.19303        0.35526
        14986.5         12.979         74.549       -999.250        0.16846        0.35210
        14987.0         13.340         74.547       -999.250        0.16348        0.35916
        14987.5         13.942         74.546       -999.250        0.15925        0.37516
        14988.0         13.470         72.734       -999.250        0.19284        0.39115
        14988.5         13.182         74.753       -999.250        0.21150        0.39640
        14989.0         13.486         76.772       -999.250        0.22269        0.40093
        14989.5         13.790         76.642       -999.250        0.23073        0.40545
        14990.0         13.544         75.257       -999.250        0.20878        0.40340
        14990.5         12.865         73.871       -999.250        0.18162        0.38902
        14991.0         12.666         72.486       -999.250        0.16866        0.38059
        14991.5         12.547         72.955       -999.250        0.17919        0.39220
        14992.0         13.005         75.729       -999.250        0.18678        0.39220
        14992.5         13.193         75.344       -999.250        0.18904        0.39221
        14993.0         13.089         74.958       -999.250        0.17916        0.38180
        14993.5         12.999         74.573       -999.250        0.16564        0.37513
        14994.0         12.353         74.174       -999.250        0.15212        0.38137
        14994.5         12.776         73.011       -999.250        0.14831        0.38938
        14995.0         13.001         71.848       -999.250        0.14747        0.38709
        14995.5         13.089         70.685       -999.250        0.16296        0.38471
        14996.0         12.968         69.522       -999.250        0.18039        0.38520
        14996.5         12.683         69.667       -999.250        0.18133        0.38849
        14997.0         12.813         71.347       -999.250        0.17299        0.39178
        14997.5         12.944         73.026       -999.250        0.17430        0.38523
        14998.0         13.074         74.706       -999.250        0.15633        0.37703
        14998.5         13.017         72.440       -999.250        0.14254        0.38376
        14999.0         12.913         69.824       -999.250        0.13351        0.37785
        14999.5         12.570         67.208       -999.250        0.12466        0.36691
        15000.0         12.147         66.334       -999.250        0.11672        0.37291
        15000.5         12.612         66.486       -999.250        0.16931        0.37143
        15001.0         12.914         66.638       -999.250        0.18088        0.39081
        15001.5         12.726         66.791       -999.250        0.19120        0.39916
        15002.0         12.538         66.295       -999.250        0.19509        0.40572
        15002.5         12.619         64.465       -999.250        0.23681        0.41227
        15003.0         12.894         62.634       -999.250        0.25265        0.41204
        15003.5         13.168         60.804       -999.250        0.27484        0.40843
        15004.0         12.671         60.006       -999.250        0.27949        0.40645
        15004.5         11.411         60.123       -999.250        0.27347        0.40723
        15005.0         11.486         60.241       -999.250        0.27382        0.39219
        15005.5         11.561         61.165       -999.250        0.25887        0.39012
        15006.0         11.636         62.360       -999.250        0.24344        0.37763
        15006.5         11.711         63.555       -999.250        0.22800        0.36407
        15007.0         11.918         63.281       -999.250        0.21251        0.35200
        15007.5         12.254         62.408       -999.250        0.22218        0.34603
        15008.0         12.705         61.535       -999.250        0.24388        0.34831
        15008.5         12.958         61.397       -999.250        0.26974        0.37228
        15009.0         12.344         61.613       -999.250        0.26618        0.38433
        15009.5         11.875         61.830       -999.250        0.25030        0.38923
        15010.0         11.666         62.046       -999.250        0.23441        0.39413
        15010.5         11.457         62.392       -999.250        0.23027        0.38115
