#--------------------------------------------------#
#-------------------ENVERUS, INC.------------------#
#------------------WWW.ENVERUS.COM-----------------#
#------------------COPYRIGHT 2020------------------#
#--------------------------------------------------#
#THIS FILE MAY BE USED ONLY IN ACCORDANCE WITH A CURRENT SUBSCRIPTION AGREEMENT BETWEEN
#THE USER AND ENVERUS, INC. NO PART OF THIS FILE MAY BE REPRODUCED, USED, COPIED,
#MODIFIED, PROPAGATED, OR DISTRIBUTED EXCEPT IN ACCORDANCE WITH THE SUBSCRIPTION
#AGREEMENT. UNAUTHORIZED USE OR DISTRIBUTION OF ALL OR ANY PART OF THIS FILE MAY VIOLATE
#COPYRIGHT, TRADEMARK, AND/OR OTHER LAWS AND IS SUBJECT TO CIVIL AS WELL AS CRIMINAL
#SANCTIONS.
#--------------------------------------------------#
#THIS FILE IS PROVIDED "AS-IS" AND ALL WARRANTIES ARE EXPRESSLY DISCLAIMED, WHETHER
#EXPRESS, ORAL, IMPLIED, STATUTORY OR OTHERWISE, INCLUDING ANY IMPLIED WARRANTY OF FITNESS
#FOR A PARTICULAR PURPOSE, MERCHANTABILITY, TITLE OR NON-INFRINGEMENT, AND ANY WARRANTIES
#ARISING BY VIRTUE OF CUSTOM OF TRADE OR COURSE OF DEALING.  FURTHER, ENVERUS, INC.
#AND ITS LICENSORS DO NOT REPRESENT OR WARRANT THAT THIS FILE WILL MEET USER'S
#REQUIREMENTS OR ARE SUITABLE FOR USER'S NEEDS OR THAT THE DATA OR RESULTS PROVIDED IN
#CONJUNCTION THEREWITH ARE CORRECT, ACCURATE, TIMELY OR RELIABLE. THESE DISCLAIMERS SHALL
#APPLY REGARDLESS OF ANY FAILURE OF ESSENTIAL PURPOSE OF ANY LIMITED REMEDY.  SOME
#JURISDICTIONS DO NOT ALLOW THE EXCLUSION OF CERTAIN WARRANTIES SO SOME OF THE ABOVE
#EXCLUSIONS MAY NOT APPLY. IN NO EVENT SHALL ENVERUS, INC. OR ANY OF ITS AFFILIATES
#BE LIABLE UNDER ANY LEGAL THEORY, WHETHER IN TORT (INCLUDING WITHOUT LIMITATION
#NEGLIGENCE), CONTRACT, STRICT LIABILITY, STATUTORY OR OTHERWISE, FOR ANY SPECIAL,
#INCIDENTAL, CONSEQUENTIAL, EXEMPLARY, PUNITIVE OR INDIRECT DAMAGE OF ANY KIND, INCLUDING
#WITHOUT LIMITATION LOSS OF REVENUE, PROFITS, GOODWILL, USE, AND/OR DATA OR THE COST OF
#PROCUREMENT OF SUBSTITUTE GOODS OR SERVICES, EVEN IF APPRISED OF THE POSSIBILITY OF SUCH
#DAMAGES IN ADVANCE.
#--------------------------------------------------#

# EXPORTED FROM DI TRANSFORM
# DI TRANSFORM - A PRODUCT OF DRILLINGINFO, INC. - WWW.DRILLINGINFO.COM
#
~VERSION INFORMATION
 VERS.        2.0 : LAS ASCII STANDARD - VERSION 2.0
 WRAP.         NO : ONE LINE PER DEPTH STEP

~WELL INFORMATION
#MNEM.UNIT       DATA TYPE       INFORMATION
#---------       ---------       -----------
 STRT.FT                3800 : START DEPTH
 STOP.FT               10654 : STOP DEPTH
 STEP.FT                 0.5 : STEP LENGTH
 NULL.               -999.25 : NULL VALUE
 UWI.         42389340250000 : UNIQUE WELL ID
 API.         42389340250000 : WELL IDENTIFIER
 COMP.                       : COMPANY
 WELL.  42389340250000_API14 : WELL NAME
 FLD.                        : FIELD NAME
 LOC.                        : WELL LOCATION
 CNTY.                       : COUNTY
 STAT.                       : STATE OR PROVINCE
 CTRY.                       : COUNTRY
 SRVC.                       : SERVICE COMPANY
 DATE.                       : DATE

~CURVE INFORMATION
#MNEM.UNIT       API CODE       CURVE DESCRIPTION
#---------       --------       -----------------
 DEPT.FT        : <MEASURED DEPTH>
 CAL.IN         : CALIPER
 DT.US/FT       : SONIC
 GR.GAPI        : GAMMA RAY

~PARAMETER INFORMATION
#MNEM.UNIT       VALUE       DESCRIPTION
#---------       -----       -----------
 EKB.FT      3120.5 : ELEVATION ABOVE MSL

~A      DEPT         CAL          DT          GR
# ...
        6916      9.5897     60.0431     65.1516
      6916.5      9.5729     59.7593     46.4443
        6917      9.5729     60.1605     46.9012
      6917.5      9.5729     60.1605      59.345
        6918      9.5729     60.5017     70.5483
      6918.5      9.5729      61.009     74.1583
        6919      9.5729     61.7169     77.7682
      6919.5      9.5729     62.3245     81.8892
        6920      9.6128     62.4674      87.024
      6920.5      9.6128     62.7683      82.393
        6921      9.6273     62.7683     85.9191
      6921.5      9.6527      62.668     83.9301
        6922      9.6527     62.5677     81.9411
      6922.5      9.6327     62.4674     79.9521
        6923      9.5928     62.0662      77.963
      6923.5      9.5329     61.8656      81.293
        6924      9.5329     61.5551     80.2486
      6924.5      9.5329     61.2484     74.8544
        6925      9.5329     60.9629     69.4602
      6925.5      9.5329      60.662     64.9552
        6926      9.5329     60.7623     71.1987
      6926.5      9.5329     60.8626     77.4423
        6927      9.5329     60.9629     83.6858
      6927.5      9.5329     61.2136     85.1595
        6928      9.5329     61.8212      86.178
      6928.5       9.513     62.0662    102.9803
        6929         9.5     62.1665    125.3871
      6929.5      9.4731     62.4404    147.7938
        6930      9.4731     62.4674    142.6851
      6930.5      9.4731     62.4674     136.722
        6931      9.4731     62.3671    130.7589
      6931.5      9.4731     62.1703    124.7958
        6932      9.4731     61.8616    118.8327
      6932.5      9.4742     61.1557    112.8697
        6933      9.5329     60.6484    101.8291
      6933.5      9.5329     60.1799     89.8255
        6934       9.513     60.3359     77.6262
      6934.5       9.513     60.0912     62.9217
        6935      9.5061     60.1605     48.2173
      6935.5      9.4731      59.975     33.5129
        6936      9.4731     59.6291     18.8084
      6936.5      9.4731     59.7557      14.896
        6937       9.493     59.9181     33.1752
      6937.5       9.493     60.0278     51.4544
        6938       9.493     59.9567     69.7336
      6938.5       9.493     59.9281     64.6946
        6939       9.493     59.9281     58.7797
      6939.5      9.5501     59.9281     64.8482
        6940      9.5729     59.9854     70.9167
      6940.5      9.6722     60.6062     76.9852
        6941      9.6926     61.0767     83.0537
      6941.5      9.6926     61.5473     90.0985
        6942      9.6926     62.2208      97.334
      6942.5      9.6727     62.2208    104.5696
        6943      9.6727     62.1211    111.8051
      6943.5      9.5864     61.9878    106.7136
        6944      9.4854     61.8221     102.755
      6944.5      9.4531      61.665     98.7965
        6945      9.4531     61.5647      94.838
      6945.5      9.4331     61.5647     90.8795
        6946      9.4331     61.4004     94.3723
      6946.5      9.4331     61.2638    111.9463
        6947      9.4331     61.2638    129.5202
      6947.5      9.4331     61.1635    147.0941
        6948      9.4531      60.976    137.7488
      6948.5      9.4531     60.9629    127.9883
        6949      9.4531     60.9629    108.6043
      6949.5      9.4531     60.8626     86.9614
        6950      9.4531      60.662     71.0157
      6950.5      9.4531     60.6779     64.5994
        6951      9.4531     60.9412     76.8531
      6951.5      9.4531     60.8626     94.8466
        6952      9.4531       61.23    115.6778
      6952.5      9.4531      61.665    136.5091
        6953      9.4531     61.9105    140.0933
      6953.5      9.4531     62.1665    126.8152
        6954      9.4531     62.2668    113.5372
      6954.5      9.4531     62.4916    100.2591
        6955      9.4531     62.7003    105.8115
      6955.5      9.4531      62.668    112.4246
        6956      9.4531     62.7683    111.0137
      6956.5      9.4531     62.7683    103.6485
        6957      9.4531     62.5677     110.592
      6957.5      9.4531     62.0695    121.2352
        6958      9.4531     61.5647    108.9093
      6958.5      9.4531     61.1552     91.4507
        6959      9.4531     60.6479     85.2872
      6959.5      9.4531     60.2209     81.2726
        6960      9.4531     59.6075     74.9821
      6960.5      9.4531      59.126     69.4755
        6961      9.4531     58.9569     66.8969
      6961.5      9.4531          59     64.3184
        6962      9.4531     59.3067     61.7398
      6962.5      9.4531     59.6134     60.5924
        6963      9.4531     60.0204     69.1027
      6963.5      9.4531     60.3271     77.6129
        6964      9.4668     60.8344     86.1232
      6964.5      9.4731     61.2414     94.6334
        6965      9.4731     61.2638    103.1437
      6965.5      9.4731     61.1635      91.432
        6966      9.4731     61.0682     79.6798
      6966.5      9.4731     60.8626     82.5024
        6967      9.4731     60.9629     78.0448
      6967.5      9.4731     60.9629     80.4688
        6968      9.4731     61.2638     77.3807
      6968.5       9.493     61.5647     74.2926
        6969       9.493      61.665     80.2059
      6969.5       9.493     61.8656     87.4594
        6970       9.493     61.9069     89.5951
      6970.5       9.513     61.9659     79.7922
        6971       9.513     62.1665     69.9892
      6971.5       9.502     62.2668     62.3269
        6972       9.493     62.0662     68.2032
      6972.5      9.4731     62.0662     74.0794
        6973      9.4731     62.0662     79.9557
      6973.5      9.4731     61.9659     83.5783
        6974      9.4731      61.665     97.2325
      6974.5      9.4531     61.1703    100.7274
        6975      9.4531     60.5627    101.3253
      6975.5      9.4731     60.1605     93.3892
        6976      9.4731     59.7593     76.9843
      6976.5      9.4731     59.7593     60.5794
        6977      9.4731     59.5365     60.4372
      6977.5      9.4731      59.631     67.4803
        6978      9.4731     59.7931      75.206
      6978.5      9.4731     60.2001     82.9317
        6979      9.4731     60.4614     90.6573
      6979.5      9.4731     60.4614      98.383
        6980      9.4731     60.8193    106.1086
      6980.5      9.4731       61.59    113.8343
        6981      9.4731     62.1348      121.56
      6981.5      9.4531     62.2668     92.3819
        6982      9.4531     62.3671     87.2075
      6982.5      9.4531     62.4531    101.0872
        6983      9.4531     62.7683    114.9669
      6983.5      9.4531     62.5704    114.6787
        6984      9.4531     62.5677    105.2492
      6984.5      9.4531     62.5589     99.8037
        6985      9.4531     61.9366     96.6916
      6985.5      9.4531     61.3436     93.5796
        6986      9.4531     61.1372     90.3828
      6986.5      9.4531     61.2958     86.0882
        6987      9.4531     61.2638     81.7935
      6987.5      9.4531      60.819     79.3042
        6988      9.4531     60.3611     82.5303
      6988.5      9.4531     60.1605     76.6952
        6989      9.4531     60.0602       78.59
      6989.5      9.4531     60.4279     75.5557
        6990      9.4531     61.1358     74.2725
      6990.5      9.4531     61.3641     73.5543
        6991       9.469     61.8495     72.8361
      6991.5      9.4731     62.3671      72.118
        6992      9.4731     62.7638     71.3998
      6992.5      9.4731     63.3714      75.017
        6993       9.513     64.0793     81.3448
      6993.5       9.513     64.3731     76.9925
        6994       9.513     65.2316      70.542
      6994.5      9.4731     65.5522     70.0757
        6995      9.4731     65.1755       72.68
      6995.5      9.4731     65.0391     75.2843
        6996      9.4531     64.7743     77.8886
      6996.5      9.4531     64.7266     78.9119
        6997      9.4531     64.0121     79.7677
      6997.5      9.4531     63.4704     81.8865
