###############################################
##         ENVERUS                           ##
##         ESS - Open Hole                   ##
##         PERMIAN / DELAWARE                ##
##         Nov 04 2023  V4.0                 ##
##         42-389-32421-01-00                ##
###############################################
## Copyright 2017-2023  ENVERUS.  All Rights Reserved. 
## Confidential - Property of ENVERUS, use governed by terms and 
## conditions found within the existing Information Services Subscription Agreement 
## (as may be amended, the “ISSA”) between Customer and ENVERUS. 
## 
~VERSION INFORMATION
# MNEM.UNIT                               DATA : DESCRIPTION OF MNEMONIC
#-----.-----     ----------------------------- : -----------------------------
VERS.                                     2.00 : CWLS LOG ASCII STANDARD - VERSION 2.00
WRAP.                                       NO : MULTIPLE LINES PER DEPTH STEP
VEND.                                  ENVERUS : VENDOR
TYPE.                          ESS - OPEN HOLE : ENVERUS ESSENTIAL CURVES – ACCESSIBLE THROUGH ENVERUS PRISM(TM)
DOC.                                  51227099 : ENVERUS HEADER RAW DOCUMENT ID
#___________________________________________________________________________________________________ 
~WELL INFORMATION 
# zrraAS4ibxVPgm4F4FjILRFQbgMcjf5VKWH9QXz9oP+5l3DBeEvHFHP9dTNjNwXm2+WMaTXZz7qhRLDoyN0AVg== 
# MNEM.UNIT                                              DATA : DESCRIPTION OF MNEMONIC 
#-----.-----                    ----------------------------- : ----------------------------- 
CNTY.                                                  REEVES : COUNTY 
STATE.                                                  TEXAS : STATE 
CNTRY.                                                    USA : COUNTRY 
API.                                             42-389-32421 : API (10 Digit) 
API_14.                                    42-389-32421-01-00 : API (14 Digits) 
API_14_std.                                 42-389-32421-0100 : API (14 Digits Standard) 
UWI.                                           42389324210100 : UNIQUE WELL ID 
WELL.                                      ARMSTRONG STATE #1 : WELL NAME
STRT.FT                                                2000.0 : START DEPTH
STOP.FT                                               14700.0 : STOP DEPTH
STEP.FT                                                   0.5 : STEP BETWEEN DEPTHS
NULL.                                                 -999.25 : NULL VALUE
COMP.                                   BULLDOG OPERATING CO. : COMPANY 
FLD.                                                  WILDCAT : FIELD 
LOC.                                                3-59-2778 : LOCATION 
SRVC.                                            SCHLUMBERGER : SERVICE COMPANY 
DATE.                                              08/28/2006 : DATE 
PREV_APII.                                       423893242100 : API NUMBER 
PREV_UWI.                                        423893242100 : UWI NUMBER 
TVD.                                                       NO : TVD FLAG
#___________________________________________________________________________________________________ 
~PARAMETER INFORMATION 
# MNEM.UNIT                                              DATA : DESCRIPTION OF MNEMONIC 
#-----.-----                    ----------------------------- : ----------------------------- 
RUN.                                                      ONE : RUN NUMBER 
PDAT.                                                      GL : PERMANENT DATUM 
EPD.FT                                              3134.8000 : ELEVATION OF PERM. DATUM 
LMF.                                            KELLY BUSHING : LOG MEASURED FROM 
EKB.FT                                              3157.8000 : ELEVATION OF KELLY BUSHING 
DF.FT                                               3156.8000 : ELEVATION OF DERRICK FLOOR 
GL.FT                                               3134.8000 : ELEVATION OF GROUND LEVEL 
TD.FT                                              14700.0000 : TOTAL DEPTH 
BHT.DEGF                                               230.00 : BOTTOM HOLE TEMPERATURE 
BLI.FT                                             14700.0000 : BOTTOM LOG INTERVAL 
CSGSIZE.IN                                             9.6250 : CASING SIZE 
BITSIZE.IN                                              8.750 : BITSIZE 
CSGD.FT                                                  2014 : CASING BOTTOM (DRILLER) 1 
CSGL.FT                                                  2014 : CASING BOTTOM (LOGGER) 1 
MUD.                                                    BRINE : DRILLING FLUID TYPE 
MUDV.CP                                               31.0000 : DRILLING FLUID VISCOSITY 
MUDD.LB/USG                                            9.3000 : DRILLING FLUID DENSITY 
FL.ML/30MIN                                           13.0000 : DRILLING FLUID LOSS 
PH.                                                   10.0000 : DRILLING FLUID PH 
MUDS.                                        CIRCULATION TANK : MUD SAMPLE SOURCE 
RM.OHMM                                                0.0540 : RESISTIVITY OF MUD SAMPLE 
RMT.DEGF                                              90.0000 : MUD SAMPLE TEMPERATURE 
RMF.OHMM                                               0.0640 : MUD FILTRATE RESISTIVITY 
RMFT.DEGF                                             80.0000 : MUD FILTRATE SAMPLE TEMPERATURE
#___________________________________________________________________________________________________ 
~CURVE INFORMATION 
# MNEM.UNIT           : CURVE DESCRIPTION 
#-----.-----          : ----------------------------- 
 DEPT.FT               : MEASURED DEPTH 
 DT.US/FT              : SONIC DELTA TRANSIT TIME (DELTA T) 
 SPHI.V/V              : SONIC POROSITY (SONIC POROSITY) 
 #___________________________________________________________________________________________________ 
~A         DEPT             DT           SPHI
# ...
        12092.0         67.181        0.14600
        12092.5         67.959        0.15100
        12093.0         67.643        0.14700
        12093.5         67.326        0.14400
        12094.0         67.070        0.14500
        12094.5         68.068        0.14900
        12095.0         67.565        0.14600
        12095.5         67.062        0.14300
        12096.0         66.660        0.14000
        12096.5         66.605        0.14000
        12097.0         66.559        0.14000
        12097.5         66.514        0.14000
        12098.0         66.459        0.14000
        12098.5         66.861        0.14200
        12099.0         67.364        0.14800
        12099.5         67.867        0.14900
        12100.0         67.804        0.14900
        12100.5         67.741        0.14800
        12101.0         67.666        0.14800
        12101.5         67.264        0.14500
        12102.0         66.761        0.14100
        12102.5         66.258        0.13700
        12103.0         65.755        0.13300
        12103.5         65.252        0.12900
        12104.0         64.648        0.12600
        12104.5         64.648        0.12500
        12105.0         64.648        0.12400
        12105.5         65.211        0.12900
        12106.0         65.910        0.13700
        12106.5         66.611        0.14300
        12107.0         67.455        0.14600
        12107.5         67.386        0.14700
        12108.0         67.301        0.14700
        12108.5         66.767        0.14200
        12109.0         65.557        0.13600
        12109.5         64.986        0.12900
        12110.0         65.397        0.13200
        12110.5         65.788        0.13500
        12111.0         66.258        0.13700
        12111.5         66.157        0.13900
        12112.0         66.056        0.13600
        12112.5         64.159        0.12300
        12113.0         62.578        0.11300
        12113.5         61.644        0.10300
        12114.0         61.680        0.10300
        12114.5         61.716        0.10400
        12115.0         61.752        0.10400
        12115.5         61.788        0.10400
        12116.0         61.831        0.11100
        12116.5         62.837        0.11700
        12117.0         64.095        0.12400
        12117.5         64.968        0.13000
        12118.0         65.271        0.12900
        12118.5         64.818        0.12700
        12119.0         64.249        0.12500
        12119.5         63.677        0.12200
        12120.0         62.155        0.11900
        12120.5         59.999        0.08700
        12121.0         56.600        0.06700
        12121.5         57.516        0.07300
        12122.0         59.808        0.09000
        12122.5         62.099        0.10700
        12123.0         64.849        0.12000
        12123.5         64.950        0.12700
        12124.0         65.050        0.12800
        12124.5         64.245        0.12600
        12125.0         60.724        0.09700
        12125.5         57.188        0.06900
        12126.0         54.383        0.05100
        12126.5         54.189        0.05600
        12127.0         55.799        0.06800
        12127.5         57.403        0.07900
        12128.0         59.006        0.08800
        12128.5         60.611        0.09600
        12129.0         61.227        0.10300
        12129.5         61.264        0.10200
        12130.0         61.310        0.10200
        12130.5         61.355        0.10200
        12131.0         61.401        0.10100
        12131.5         60.543        0.09100
        12132.0         58.330        0.07900
        12132.5         56.868        0.06700
        12133.0         56.600        0.06800
        12133.5         57.289        0.07100
        12134.0         57.864        0.07500
        12134.5         58.439        0.08000
        12135.0         59.014        0.08400
        12135.5         59.589        0.08900
        12136.0         59.711        0.09000
        12136.5         59.531        0.08800
        12137.0         59.364        0.08600
        12137.5         59.185        0.08600
        12138.0         59.002        0.08500
        12138.5         58.815        0.09100
        12139.0         61.070        0.10500
        12139.5         63.324        0.11900
        12140.0         66.034        0.13700
        12140.5         66.030        0.13700
        12141.0         66.056        0.13700
        12141.5         66.056        0.13800
        12142.0         66.056        0.13200
        12142.5         62.882        0.11700
        12143.0         58.913        0.08400
        12143.5         54.945        0.04500
        12144.0         51.771        0.02900
        12144.5         51.401        0.03200
        12145.0         52.179        0.03800
        12145.5         53.662        0.06000
        12146.0         57.055        0.09400
        12146.5         61.729        0.12800
        12147.0         67.232        0.14300
        12147.5         66.445        0.14300
        12148.0         66.126        0.13800
        12148.5         66.358        0.13900
        12149.0         66.547        0.14000
        12149.5         64.703        0.11500
        12150.0         59.809        0.08400
        12150.5         54.916        0.05200
        12151.0         50.966        0.02700
        12151.5         51.065        0.02600
        12152.0         51.149        0.03000
        12152.5         51.854        0.04000
        12153.0         52.575        0.05500
        12153.5         57.292        0.07800
        12154.0         61.300        0.09800
        12154.5         63.643        0.11800
        12155.0         64.447        0.12400
        12155.5         63.414        0.12100
        12156.0         62.055        0.11200
        12156.5         60.649        0.10300
        12157.0         60.644        0.09600
        12157.5         60.636        0.09500
        12158.0         60.628        0.09500
        12158.5         60.621        0.09500
        12159.0         60.616        0.09500
        12159.5         60.189        0.09200
        12160.0         59.614        0.08500
        12160.5         59.406        0.08700
        12161.0         60.007        0.09200
        12161.5         60.608        0.09800
        12162.0         61.210        0.10300
        12162.5         61.500        0.10100
        12163.0         61.071        0.09900
        12163.5         60.642        0.09600
        12164.0         60.975        0.10000
        12164.5         62.102        0.11100
        12165.0         63.229        0.12100
        12165.5         64.010        0.12300
        12166.0         63.884        0.12400
        12166.5         62.541        0.11000
        12167.0         60.600        0.09700
        12167.5         57.622        0.07600
        12168.0         58.304        0.08100
        12168.5         59.882        0.09000
        12169.0         61.464        0.10000
        12169.5         62.234        0.11100
        12170.0         62.556        0.11200
        12170.5         62.875        0.11300
        12171.0         62.266        0.11100
        12171.5         60.448        0.10000
        12172.0         58.618        0.08300
        12172.5         57.781        0.07500
        12173.0         60.397        0.09600
        12173.5         63.014        0.12000
        12174.0         65.630        0.13200
        12174.5         67.025        0.14900
        12175.0         67.626        0.14900
        12175.5         67.667        0.14800
        12176.0         66.986        0.14400
        12176.5         65.769        0.13600
        12177.0         64.552        0.12800
        12177.5         64.044        0.12000
        12178.0         64.396        0.12400
        12178.5         65.326        0.13100
