###############################################
##         ENVERUS                           ##
##         ESS - Open Hole                   ##
##         PERMIAN / DELAWARE                ##
##         Nov 04 2023  V4.0                 ##
##         42-389-30283-00-00                ##
###############################################
## Copyright 2017-2023  ENVERUS.  All Rights Reserved. 
## Confidential - Property of ENVERUS, use governed by terms and 
## conditions found within the existing Information Services Subscription Agreement 
## (as may be amended, the “ISSA”) between Customer and ENVERUS. 
## 
~VERSION INFORMATION
# MNEM.UNIT                               DATA : DESCRIPTION OF MNEMONIC
#-----.-----     ----------------------------- : -----------------------------
VERS.                                     2.00 : CWLS LOG ASCII STANDARD - VERSION 2.00
WRAP.                                       NO : MULTIPLE LINES PER DEPTH STEP
VEND.                                  ENVERUS : VENDOR
TYPE.                          ESS - OPEN HOLE : ENVERUS ESSENTIAL CURVES – ACCESSIBLE THROUGH ENVERUS PRISM(TM)
DOC.                                  32052778 : ENVERUS HEADER RAW DOCUMENT ID
#___________________________________________________________________________________________________ 
~WELL INFORMATION 
# CKTmoz7OsKELnwE/IP0i4B9qEmEewtam1JWnvb6ghWZsYWfxLv+2EOc67unJ6Yof0W+RqImtxqI23GomxkzDLA== 
# MNEM.UNIT                                              DATA : DESCRIPTION OF MNEMONIC 
#-----.-----                    ----------------------------- : ----------------------------- 
CNTY.                                                  REEVES : COUNTY 
STATE.                                                  TEXAS : STATE 
CNTRY.                                                    USA : COUNTRY 
API.                                             42-389-30283 : API (10 Digit) 
API_14.                                    42-389-30283-00-00 : API (14 Digits) 
API_14_std.                                 42-389-30283-0000 : API (14 Digits Standard) 
UWI.                                           42389302830000 : UNIQUE WELL ID 
WELL.                       RANDOLPH  A. T.  ET AL-STATE  1 L : WELL NAME
STRT.FT                                                 155.0 : START DEPTH
STOP.FT                                               15740.0 : STOP DEPTH
STEP.FT                                                   0.5 : STEP BETWEEN DEPTHS
NULL.                                                 -999.25 : NULL VALUE
COMP.                                     RIO PETROLEUM  INC. : COMPANY
#___________________________________________________________________________________________________ 
~CURVE INFORMATION 
# MNEM.UNIT           : CURVE DESCRIPTION 
#-----.-----          : ----------------------------- 
 DEPT.FT               : MEASURED DEPTH 
 CALI__A.IN            : CALIPER (CAL - CAL) 
 GR__A.API             : GAMMA RAY (GR) 
 SP__A.MV              : SPONTANEOUS POTENTIAL (SP) 
 DT__A.US/FT           : SONIC DELTA TRANSIT TIME (DT) 
 RESD__A.OHMM          : DEEP INDUCTION RESISTIVITY (ILD - ILD) 
 NPHI__A.V/V           : NEUTRON POROSITY (NPH - NPH) 
 #___________________________________________________________________________________________________ 
~A         DEPT        CALI__A          GR__A          SP__A          DT__A        RESD__A        NPHI__A
# ...
         3765.0         12.547         32.985       -999.250         58.893       -999.250     -999.25000
         3765.5         12.548         34.890       -999.250         58.981       -999.250     -999.25000
         3766.0         12.549         34.082       -999.250         59.428       -999.250     -999.25000
         3766.5         12.551         33.274       -999.250         59.874       -999.250     -999.25000
         3767.0         12.552         32.466       -999.250         60.321       -999.250     -999.25000
         3767.5         12.553         31.657       -999.250         60.767       -999.250     -999.25000
         3768.0         12.554         31.645       -999.250         61.214       -999.250     -999.25000
         3768.5         12.556         33.546       -999.250         61.660       -999.250     -999.25000
         3769.0         12.557         35.446       -999.250         62.107       -999.250     -999.25000
         3769.5         12.558         35.262       -999.250         62.695       -999.250     -999.25000
         3770.0         12.559         34.089       -999.250         63.318       -999.250     -999.25000
         3770.5         12.561         32.915       -999.250         63.942       -999.250     -999.25000
         3771.0         12.562         31.742       -999.250         63.561       -999.250     -999.25000
         3771.5         12.563         31.788       -999.250         62.744       -999.250     -999.25000
         3772.0         12.564         31.985       -999.250         61.928       -999.250     -999.25000
         3772.5         12.566         32.181       -999.250         61.111       -999.250     -999.25000
         3773.0         12.567         32.378       -999.250         60.294       -999.250     -999.25000
         3773.5         12.568         32.575       -999.250         60.158       -999.250     -999.25000
         3774.0         12.569         31.968       -999.250         60.165       -999.250     -999.25000
         3774.5         12.571         30.727       -999.250         60.436       -999.250     -999.25000
         3775.0         12.572         29.486       -999.250         60.973       -999.250     -999.25000
         3775.5         12.573         28.244       -999.250         61.198       -999.250     -999.25000
         3776.0         12.574         28.860       -999.250         61.133       -999.250     -999.25000
         3776.5         12.576         30.039       -999.250         61.067       -999.250     -999.25000
         3777.0         12.577         31.218       -999.250         61.200       -999.250     -999.25000
         3777.5         12.578         32.397       -999.250         61.357       -999.250     -999.25000
         3778.0         12.579         33.576       -999.250         61.514       -999.250     -999.25000
         3778.5         12.581         34.755       -999.250         63.064       -999.250     -999.25000
         3779.0         12.582         35.934       -999.250         62.992       -999.250     -999.25000
         3779.5         12.583         37.113       -999.250         61.837       -999.250     -999.25000
         3780.0         12.584         37.499       -999.250         60.682       -999.250     -999.25000
         3780.5         12.586         36.292       -999.250         64.761       -999.250     -999.25000
         3781.0         12.587         35.085       -999.250         69.603       -999.250     -999.25000
         3781.5         12.588         33.877       -999.250         68.818       -999.250     -999.25000
         3782.0         12.589         32.670       -999.250         66.608       -999.250     -999.25000
         3782.5         12.591         31.463       -999.250         66.956       -999.250     -999.25000
         3783.0         12.592         30.256       -999.250         67.381       -999.250     -999.25000
         3783.5         12.593         30.097       -999.250         65.034       -999.250     -999.25000
         3784.0         12.594         30.146       -999.250         62.687       -999.250     -999.25000
         3784.5         12.596         30.196       -999.250         60.575       -999.250     -999.25000
         3785.0         12.597         30.245       -999.250         59.797       -999.250     -999.25000
         3785.5         12.598         30.295       -999.250         62.780       -999.250     -999.25000
         3786.0         12.599         31.602       -999.250         63.634       -999.250     -999.25000
         3786.5         12.601         34.198       -999.250         63.709       -999.250     -999.25000
         3787.0         12.602         36.794       -999.250         64.685       -999.250     -999.25000
         3787.5         12.603         39.389       -999.250         64.102       -999.250     -999.25000
         3788.0         12.604         39.656       -999.250         65.279       -999.250     -999.25000
         3788.5         12.606         39.559       -999.250         66.950       -999.250     -999.25000
         3789.0         12.607         39.461       -999.250         63.330       -999.250     -999.25000
         3789.5         12.608         39.364       -999.250         61.258       -999.250     -999.25000
         3790.0         12.609         39.266       -999.250         59.227       -999.250     -999.25000
         3790.5         12.611         40.036       -999.250         64.872       -999.250     -999.25000
         3791.0         12.612         41.617       -999.250         70.219       -999.250     -999.25000
         3791.5         12.613         43.199       -999.250         70.188       -999.250     -999.25000
         3792.0         12.602         45.203       -999.250         70.157       -999.250     -999.25000
         3792.5         12.583         47.921       -999.250         70.126       -999.250     -999.25000
         3793.0         12.564         50.639       -999.250         70.095       -999.250     -999.25000
         3793.5         12.544         53.356       -999.250         70.065       -999.250     -999.25000
         3794.0         12.525         56.074       -999.250         70.034       -999.250     -999.25000
         3794.5         12.506         58.792       -999.250         70.003       -999.250     -999.25000
         3795.0         12.486         58.186       -999.250         72.017       -999.250     -999.25000
         3795.5         12.503         56.088       -999.250         74.050       -999.250     -999.25000
         3796.0         12.587         53.991       -999.250         71.760       -999.250     -999.25000
         3796.5         12.670         53.510       -999.250         66.969       -999.250     -999.25000
         3797.0         12.754         53.120       -999.250         66.181       -999.250     -999.25000
         3797.5         12.838         52.730       -999.250         67.434       -999.250     -999.25000
         3798.0         12.922         65.106       -999.250         68.687       -999.250     -999.25000
         3798.5         13.045         80.024       -999.250         69.939       -999.250     -999.25000
         3799.0         13.221         94.030       -999.250         71.192       -999.250     -999.25000
         3799.5         13.397         99.410       -999.250         72.445       -999.250     -999.25000
         3800.0         13.573         99.791       -999.250         73.697       -999.250     -999.25000
         3800.5         13.593        100.173       -999.250         74.950       -999.250     -999.25000
         3801.0         13.466         99.092       -999.250         72.253       -999.250     -999.25000
         3801.5         13.338         92.899       -999.250         68.335       -999.250     -999.25000
         3802.0         13.211         86.706       -999.250         64.417       -999.250     -999.25000
         3802.5         13.084         77.081       -999.250         62.782       -999.250     -999.25000
