###############################################
##         ENVERUS                           ##
##         ESS - Open Hole                   ##
##         PERMIAN / DELAWARE                ##
##         Nov 04 2023  V4.0                 ##
##         42-389-30424-00-00                ##
###############################################
## Copyright 2017-2023  ENVERUS.  All Rights Reserved. 
## Confidential - Property of ENVERUS, use governed by terms and 
## conditions found within the existing Information Services Subscription Agreement 
## (as may be amended, the “ISSA”) between Customer and ENVERUS. 
## 
~VERSION INFORMATION
# MNEM.UNIT                               DATA : DESCRIPTION OF MNEMONIC
#-----.-----     ----------------------------- : -----------------------------
VERS.                                     2.00 : CWLS LOG ASCII STANDARD - VERSION 2.00
WRAP.                                       NO : MULTIPLE LINES PER DEPTH STEP
VEND.                                  ENVERUS : VENDOR
TYPE.                          ESS - OPEN HOLE : ENVERUS ESSENTIAL CURVES – ACCESSIBLE THROUGH ENVERUS PRISM(TM)
DOC.                                  32008121 : ENVERUS HEADER RAW DOCUMENT ID
#___________________________________________________________________________________________________ 
~WELL INFORMATION 
# BBd8zmUYmd+wUdICSlYDIOWaOe8iOeA0ELK9EhSbx74Kr6OX4zJxS/eo6cO6KK5SWMTSkVzaKbU2EBBfROvOKA== 
# MNEM.UNIT                                              DATA : DESCRIPTION OF MNEMONIC 
#-----.-----                    ----------------------------- : ----------------------------- 
CNTY.                                                  REEVES : COUNTY 
STATE.                                                  TEXAS : STATE 
CNTRY.                                                    USA : COUNTRY 
API.                                             42-389-30424 : API (10 Digit) 
API_14.                                    42-389-30424-00-00 : API (14 Digits) 
API_14_std.                                 42-389-30424-0000 : API (14 Digits Standard) 
UWI.                                           42389304240000 : UNIQUE WELL ID 
WELL.                                      LEWELLING STATE  1 : WELL NAME
STRT.FT                                                   7.0 : START DEPTH
STOP.FT                                               15912.0 : STOP DEPTH
STEP.FT                                                   0.5 : STEP BETWEEN DEPTHS
NULL.                                                 -999.25 : NULL VALUE
COMP.                           PENN VIRGINIA OIL & GAS CORP. : COMPANY 
DATE.                                             14-AUG-1976 : LOG DATE
#___________________________________________________________________________________________________ 
~CURVE INFORMATION 
# MNEM.UNIT           : CURVE DESCRIPTION 
#-----.-----          : ----------------------------- 
 DEPT.FT               : MEASURED DEPTH 
 CALI__A.IN            : CALIPER (CAL - CAL) 
 GR__A.API             : GAMMA RAY (GR) 
 DT__A.US/FT           : SONIC DELTA TRANSIT TIME (DT) 
 DPHI__A.V/V           : DENSITY POROSITY (DPHI) 
 NPHI__A.V/V           : NEUTRON POROSITY (NPHI) 
 #___________________________________________________________________________________________________ 
~A         DEPT        CALI__A          GR__A          DT__A        DPHI__A        NPHI__A
# ...
         3659.0         14.589         39.551         78.665     -999.25000        0.36303
         3659.5         14.613         40.433         79.223     -999.25000        0.36593
         3660.0         14.637         41.315         79.762     -999.25000        0.36253
         3660.5         14.661         38.523         80.296     -999.25000        0.34145
         3661.0         14.684         35.459         76.849     -999.25000        0.32976
         3661.5         14.708         34.526         76.174     -999.25000        0.33387
         3662.0         14.732         35.217         75.498     -999.25000        0.35603
         3662.5         14.756         35.908         77.080     -999.25000        0.37819
         3663.0         14.779         35.383         79.819     -999.25000        0.39803
         3663.5         14.795         34.438         82.555     -999.25000        0.41601
         3664.0         14.804         33.492         84.081     -999.25000        0.43399
         3664.5         14.812         33.123         85.607     -999.25000        0.42591
         3665.0         14.821         33.329         85.707     -999.25000        0.40994
         3665.5         14.830         33.535         85.785     -999.25000        0.37756
         3666.0         14.839         33.741         85.312     -999.25000        0.36160
         3666.5         14.848         33.947         84.593     -999.25000        0.36200
         3667.0         14.857         34.137         83.875     -999.25000        0.38833
         3667.5         14.866         34.138         83.821     -999.25000        0.41217
         3668.0         14.875         34.138         84.291     -999.25000        0.42081
         3668.5         14.884         34.138         84.762     -999.25000        0.40464
         3669.0         14.893         34.949         85.053     -999.25000        0.39920
         3669.5         14.902         35.930         84.401     -999.25000        0.40622
         3670.0         14.911         36.911         83.749     -999.25000        0.41073
         3670.5         14.920         37.706         83.098     -999.25000        0.40711
         3671.0         14.929         37.277         82.752     -999.25000        0.40350
         3671.5         14.938         36.848         83.310     -999.25000        0.39217
         3672.0         14.947         35.123         81.576     -999.25000        0.38456
         3672.5         14.944         32.271         78.013     -999.25000        0.38799
         3673.0         14.936         30.964         80.549     -999.25000        0.40637
         3673.5         14.928         32.124         84.209     -999.25000        0.42448
         3674.0         14.919         33.283         90.968     -999.25000        0.43938
         3674.5         14.911         34.443         97.567     -999.25000        0.43695
         3675.0         14.903         35.602         96.411     -999.25000        0.42630
         3675.5         14.894         35.337         95.256     -999.25000        0.41565
         3676.0         14.886         34.753         95.750     -999.25000        0.41994
         3676.5         14.878         36.566        100.622     -999.25000        0.42926
         3677.0         14.869         41.487        101.171     -999.25000        0.43148
         3677.5         14.889         43.128         99.122     -999.25000        0.41812
         3678.0         14.910         40.826        102.437     -999.25000        0.40224
         3678.5         14.932         39.677        103.590     -999.25000        0.39381
         3679.0         14.954         39.602        103.506     -999.25000        0.39563
         3679.5         14.975         39.527        101.849     -999.25000        0.40688
         3680.0         14.997         39.453         99.937     -999.25000        0.41863
         3680.5         15.019         38.498         91.381     -999.25000        0.43039
         3681.0         15.025         37.369         91.235     -999.25000        0.44214
         3681.5         15.016         36.240         91.090     -999.25000        0.43902
         3682.0         15.008         35.596         90.944     -999.25000        0.40653
         3682.5         14.999         35.748         88.678     -999.25000        0.38982
         3683.0         14.990         35.900         85.502     -999.25000        0.40116
         3683.5         14.849         36.052         84.406     -999.25000        0.41250
         3684.0         14.680         36.561         83.900     -999.25000        0.40659
         3684.5         14.512         37.231         85.420     -999.25000        0.39976
         3685.0         14.344         37.900         84.939     -999.25000        0.39292
         3685.5         14.361         38.570         84.332     -999.25000        0.37976
         3686.0         14.378         39.240         84.023     -999.25000        0.36373
         3686.5         14.395         40.520         82.759     -999.25000        0.36977
         3687.0         14.412         42.069         81.538     -999.25000        0.38185
         3687.5         14.430         43.617         82.104     -999.25000        0.38599
         3688.0         14.447         45.165         80.793     -999.25000        0.37275
         3688.5         14.464         45.716         77.799     -999.25000        0.34239
         3689.0         14.481         45.471         76.788     -999.25000        0.32855
         3689.5         14.498         45.226         76.138     -999.25000        0.32339
         3690.0         14.447         44.981         75.564     -999.25000        0.33987
         3690.5         14.357         44.740         75.590     -999.25000        0.34800
         3691.0         14.266         44.963         75.616     -999.25000        0.33563
         3691.5         14.176         45.187         75.270     -999.25000        0.33167
         3692.0         14.086         45.411         74.841     -999.25000        0.34044
         3692.5         13.995         45.635         74.411     -999.25000        0.34920
         3693.0         13.905         45.882         73.982     -999.25000        0.34121
         3693.5         13.815         47.376         73.552     -999.25000        0.32882
         3694.0         13.734         48.870         72.969     -999.25000        0.32128
         3694.5         13.703         51.238         72.273     -999.25000        0.31903
         3695.0         13.673         54.892         71.576     -999.25000        0.32395
         3695.5         13.642         58.546         70.880     -999.25000        0.33538
         3696.0         13.612         62.199         71.470     -999.25000        0.35692
         3696.5         13.581         59.710         72.712     -999.25000        0.36626
         3697.0         13.551         56.511         73.954     -999.25000        0.36813
         3697.5         13.521         53.714         73.974     -999.25000        0.31410
         3698.0         13.490         54.207         73.489     -999.25000        0.27451
         3698.5         13.460         54.700         73.004     -999.25000        0.27023
         3699.0         13.429         50.932         72.519     -999.25000        0.27625
         3699.5         13.399         43.104         71.606     -999.25000        0.28227
         3700.0         13.368         43.176         70.125     -999.25000        0.24841
         3700.5         13.338         43.248         68.514     -999.25000        0.22887
         3701.0         13.308         43.320         66.904     -999.25000        0.21491
         3701.5         13.277         44.520         65.293     -999.25000        0.21995
         3702.0         13.247         46.633         64.617     -999.25000        0.23505
         3702.5         13.216         48.746         64.540     -999.25000        0.25378
