#--------------------------------------------------#
#-------------------ENVERUS, INC.------------------#
#------------------WWW.ENVERUS.COM-----------------#
#------------------COPYRIGHT 2020------------------#
#--------------------------------------------------#
#THIS FILE MAY BE USED ONLY IN ACCORDANCE WITH A CURRENT SUBSCRIPTION AGREEMENT BETWEEN
#THE USER AND ENVERUS, INC. NO PART OF THIS FILE MAY BE REPRODUCED, USED, COPIED,
#MODIFIED, PROPAGATED, OR DISTRIBUTED EXCEPT IN ACCORDANCE WITH THE SUBSCRIPTION
#AGREEMENT. UNAUTHORIZED USE OR DISTRIBUTION OF ALL OR ANY PART OF THIS FILE MAY VIOLATE
#COPYRIGHT, TRADEMARK, AND/OR OTHER LAWS AND IS SUBJECT TO CIVIL AS WELL AS CRIMINAL
#SANCTIONS.
#--------------------------------------------------#
#THIS FILE IS PROVIDED "AS-IS" AND ALL WARRANTIES ARE EXPRESSLY DISCLAIMED, WHETHER
#EXPRESS, ORAL, IMPLIED, STATUTORY OR OTHERWISE, INCLUDING ANY IMPLIED WARRANTY OF FITNESS
#FOR A PARTICULAR PURPOSE, MERCHANTABILITY, TITLE OR NON-INFRINGEMENT, AND ANY WARRANTIES
#ARISING BY VIRTUE OF CUSTOM OF TRADE OR COURSE OF DEALING.  FURTHER, ENVERUS, INC.
#AND ITS LICENSORS DO NOT REPRESENT OR WARRANT THAT THIS FILE WILL MEET USER'S
#REQUIREMENTS OR ARE SUITABLE FOR USER'S NEEDS OR THAT THE DATA OR RESULTS PROVIDED IN
#CONJUNCTION THEREWITH ARE CORRECT, ACCURATE, TIMELY OR RELIABLE. THESE DISCLAIMERS SHALL
#APPLY REGARDLESS OF ANY FAILURE OF ESSENTIAL PURPOSE OF ANY LIMITED REMEDY.  SOME
#JURISDICTIONS DO NOT ALLOW THE EXCLUSION OF CERTAIN WARRANTIES SO SOME OF THE ABOVE
#EXCLUSIONS MAY NOT APPLY. IN NO EVENT SHALL ENVERUS, INC. OR ANY OF ITS AFFILIATES
#BE LIABLE UNDER ANY LEGAL THEORY, WHETHER IN TORT (INCLUDING WITHOUT LIMITATION
#NEGLIGENCE), CONTRACT, STRICT LIABILITY, STATUTORY OR OTHERWISE, FOR ANY SPECIAL,
#INCIDENTAL, CONSEQUENTIAL, EXEMPLARY, PUNITIVE OR INDIRECT DAMAGE OF ANY KIND, INCLUDING
#WITHOUT LIMITATION LOSS OF REVENUE, PROFITS, GOODWILL, USE, AND/OR DATA OR THE COST OF
#PROCUREMENT OF SUBSTITUTE GOODS OR SERVICES, EVEN IF APPRISED OF THE POSSIBILITY OF SUCH
#DAMAGES IN ADVANCE.
#--------------------------------------------------#

~VERSION INFORMATION
VERS. 2.0 : CWLS LOG ASCII STANDARD - VERSION 2.0
WRAP.  NO : ONE LINE PER DEPTH STEP
~WELL INFORMATION
#MNEMONIC     .UNIT              VALUE :DESCRIPTION
STRT       .FT                0 :START DEPTH
STOP       .FT                15770 :STOP DEPTH
STEP       .FT                   0.500 :STEP
NULL       .                  -999.250 :NULL
UWI        .              42389309020000 :UNIQUE WELL ID
API        .              42389309020000 :API NUMBER
COMP       .         WALSH & WATTS  INC. :COMPANY
WELL       .        SABRE  1WS :WELL
DATE       .                28-JAN-1987 :LOG DATE
~CURVE INFORMATION
#MNEMONIC     .UNIT      API CODE :CURVE DESCRIPTION
DEPTH       .FT                      :MEASURED DEPTH
CAL.INCH        UNKNOWN   :CAL
DT.US/FT        UNKNOWN   :DT
GR.API        UNKNOWN   :GR
~A    DEPTH    CAL    DT    GR
# ...
 12533     8.55   71.876   80.434
 12533.5     8.55   70.353   75.7
 12534     8.55   69.785   72.128
 12534.5     8.55   69.464   71.416
 12535     8.55   71.257   76.182
 12535.5     8.55   72.923   80.947
 12536     8.551   73.952   82.987
 12536.5     8.551   74.982   83.311
 12537     8.551   75.215   83.075
 12537.5     8.551   74.126   79.979
 12538     8.551   73.037   76.883
 12538.5     8.552   71.948   73.786
 12539     8.552   70.859   70.69
 12539.5     8.552   70.457   73.819
 12540     8.552   71.933   78.167
 12540.5     8.552   73.409   82.514
 12541     8.552   72.723   85.453
 12541.5     8.553   71.976   83.021
 12542     8.553   71.23   80.59
 12542.5     8.553   70.483   78.159
 12543     8.553   70.882   76.585
 12543.5     8.553   71.73   78.5
 12544     8.554   72.578   80.415
 12544.5     8.554   72.983   80.631
 12545     8.554   71.51   78.831
 12545.5     8.554   71.125   77.031
 12546     8.554   71.384   75.748
 12546.5     8.555   72.778   81.397
 12547     8.555   74.172   82.632
 12547.5     8.555   74.217   80.475
 12548     8.555   74.04   78.318
 12548.5     8.555   73.879   76.998
 12549     8.556   73.913   79.658
 12549.5     8.556   73.947   81.574
 12550     8.556   73.98   82.112
 12550.5     8.556   73.536   82.651
 12551     8.556   73.07   83.189
 12551.5     8.557   72.781   83.728
 12552     8.557   73.23   83.9
 12552.5     8.557   73.679   82.015
 12553     8.557   74.128   80.13
 12553.5     8.557   74.577   80.772
 12554     8.558   75.026   82.077
 12554.5     8.558   75.354   86.769
 12555     8.558   75.151   89.946
 12555.5     8.558   74.948   90.318
 12556     8.558   74.745   89.89
 12556.5     8.559   73.605   86.387
 12557     8.559   72.799   83.824
 12557.5     8.559   73.399   82.993
 12558     8.559   72.749   82.162
 12558.5     8.559   72.874   85.657
 12559     8.56   73.192   89.667
 12559.5     8.56   73.51   92.405
 12560     8.56   73.091   93.726
 12560.5     8.56   73.012   90.187
 12561     8.56   73.524   86.373
 12561.5     8.561   74.037   82.559
 12562     8.561   74.549   80.885
 12562.5     8.561   75.061   81.025
 12563     8.561   74.641   81.165
 12563.5     8.561   73.933   80.673
 12564     8.562   73.935   80.006
 12564.5     8.562   73.937   80.092
 12565     8.562   73.939   81.709
 12565.5     8.562   73.941   83.326
 12566     8.562   73.943   84.509
 12566.5     8.563   74.131   85.385
 12567     8.563   74.88   86.262
 12567.5     8.563   75.399   84.812
 12568     8.563   75.795   82.905
 12568.5     8.563   76.087   81.368
 12569     8.564   75.667   85.208
 12569.5     8.564   75.246   89.048
 12570     8.564   74.826   87.349
 12570.5     8.564   74.406   82.559
 12571     8.564   73.985   81.604
 12571.5     8.565   73.565   81.744
 12572     8.565   73.213   81.809
 12572.5     8.565   73.952   78.825
 12573     8.565   74.69   80.864
 12573.5     8.565   75.429   82.904
 12574     8.566   75.12   84.944
 12574.5     8.566   73.946   86.397
 12575     8.566   72.772   84.092
 12575.5     8.566   72.364   81.786
 12576     8.566   74.285   79.481
 12576.5     8.567   75.139   78.572
 12577     8.567   75.247   79.482
 12577.5     8.567   73.682   80.393
 12578     8.567   71.441   81.304
 12578.5     8.567   69.201   80.214
 12579     8.568   68.286   76.801
 12579.5     8.568   68.556   73.388
 12580     8.568   68.685   73.479
 12580.5     8.568   70.735   79.529
 12581     8.568   73.63   81.605
 12581.5     8.568   72.915   79.251
 12582     8.569   72.108   74.192
 12582.5     8.569   71.302   69.134
 12583     8.569   70.495   70.846
 12583.5     8.569   70.717   74.912
 12584     8.569   72.352   81.305
 12584.5     8.57   73.987   87.698
 12585     8.57   75.433   88.183
 12585.5     8.57   75.625   88.092
 12586     8.57   75.817   87.095
 12586.5     8.57   76.01   86.099
 12587     8.571   76.663   86.743
 12587.5     8.571   77.319   88.36
 12588     8.571   77.974   89.976
 12588.5     8.571   77.233   86.7
 12589     8.571   75.072   82.856
 12589.5     8.572   72.911   82.646
 12590     8.572   70.751   82.436
 12590.5     8.572   71.225   82.226
 12591     8.572   71.699   81.653
 12591.5     8.572   72.172   76.072
 12592     8.573   72.646   77.374
 12592.5     8.573   73.12   83.021
 12593     8.573   74.124   86.73
 12593.5     8.573   75.161   89.521
 12594     8.573   76.198   92.312
 12594.5     8.574   77.235   93.576
 12595     8.574   78.272   93.976
 12595.5     8.574   78.214   94.376
 12596     8.574   76.13   94.775
 12596.5     8.574   73.929   91.717
 12597     8.575   72.27   86.883
 12597.5     8.575   72.272   82.049
 12598     8.575   72.523   79.794
 12598.5     8.575   73.189   79.598
 12599     8.575   73.856   87.793
 12599.5     8.576   74.037   89.469
 12600     8.576   74.118   91.145
 12600.5     8.576   74.597   92.822
 12601     8.576   75.879   94.498
 12601.5     8.576   77.162   95.025
 12602     8.577   78.444   94.621
 12602.5     8.577   79.186   94.217
 12603     8.577   79.822   95.397
 12603.5     8.577   81.912   98.245
 12604     8.577   84.002   101.094
 12604.5     8.578   85.838   103.942
 12605     8.578   85.57   105.627
 12605.5     8.578   82.175   103.426
 12606     8.578   78.78   96.867
 12606.5     8.578   76.706   83.298
 12607     8.579   76.521   76.749
 12607.5     8.579   76.335   78.07
 12608     8.579   76.15   79.39
 12608.5     8.579   75.276   78.798
 12609     8.579   74.101   77.474
 12609.5     8.58   72.925   77.009
 12610     8.58   72.819   77.191
 12610.5     8.58   72.722   76.953
 12611     8.58   72.626   76.154
 12611.5     8.58   72.529   75.355
 12612     8.581   73.602   76.499
 12612.5     8.581   74.733   81.119
 12613     8.581   75.837   85.739
 12613.5     8.581   76.374   90.198
 12614     8.581   76.911   89.695
 12614.5     8.582   77.448   89.191
 12615     8.582   77.985   90.514
 12615.5     8.582   78.764   92.279
 12616     8.582   79.626   92.461
 12616.5     8.582   80.487   93.18
 12617     8.583   81.866   95.838
 12617.5     8.583   84.007   98.495
 12618     8.583   86.147   104.35
 12618.5     8.583   88.288   111.081
 12619     8.583   88.391   116.139
 12619.5     8.584   87.741   118.677
 12620     8.584   84.959   112.495
 12620.5     8.584   79.12   106.314
 12621     8.584   78.434   101.523
 12621.5     8.584   77.748   97.408
 12622     8.585   77.691   92.313
 12622.5     8.585   78.15   89.1
 12623     8.585   78.61   88.067
 12623.5     8.585   78.96   87.035
 12624     8.585   77.913   89.229
 12624.5     8.586   76.866   90.153
 12625     8.586   75.819   89.483
 12625.5     8.586   75.839   86.292
 12626     8.586   76.006   83.102
 12626.5     8.586   75.156   85.766
 12627     8.587   74.306   89.172
 12627.5     8.587   73.456   91.309
 12628     8.587   74.211   86.64
 12628.5     8.587   75.216   81.971
 12629     8.587   76.26   80.779
 12629.5     8.588   77.305   79.642
 12630     8.588   77.901   82.356
 12630.5     8.588   78.258   85.841
 12631     8.588   78.525   89.325
 12631.5     8.588   78.205   92.81
 12632     8.588   77.884   91.149
 12632.5     8.588   77.564   88.843
 12633     8.588   76.584   86.537
 12633.5     8.588   75.369   85.715
 12634     8.588   75.851   91.303
 12634.5     8.588   76.443   95.207
 12635     8.588   77.035   96.337
 12635.5     8.588   77.626   95.869
 12636     8.588   78.218   90.333
 12636.5     8.588   78.661   90.292
 12637     8.589   78.979   90.285
 12637.5     8.589   79.36   94.693
 12638     8.589   82.046   100.917
 12638.5     8.589   84.732   103.572
 12639     8.589   83.589   101.126
 12639.5     8.589   76.988   93.998
 12640     8.589   76.079   87.015
 12640.5     8.589   75.17   87.671
 12641     8.589   74.7   88.327
 12641.5     8.589   74.497   88.982
 12642     8.589   74.295   85.849
 12642.5     8.589   74.562   83.162
 12643     8.589   76.55   85.484
 12643.5     8.589   78.537   87.806
 12644     8.589   79.362   87.681
 12644.5     8.589   79.273   85.607
