###############################################
##         ENVERUS                           ##
##         ESS - Open Hole                   ##
##         PERMIAN / DELAWARE                ##
##         Nov 04 2023  V4.0                 ##
##         42-389-32730-00-00                ##
###############################################
## Copyright 2017-2023  ENVERUS.  All Rights Reserved. 
## Confidential - Property of ENVERUS, use governed by terms and 
## conditions found within the existing Information Services Subscription Agreement 
## (as may be amended, the “ISSA”) between Customer and ENVERUS. 
## 
~VERSION INFORMATION
# MNEM.UNIT                               DATA : DESCRIPTION OF MNEMONIC
#-----.-----     ----------------------------- : -----------------------------
VERS.                                     2.00 : CWLS LOG ASCII STANDARD - VERSION 2.00
WRAP.                                       NO : MULTIPLE LINES PER DEPTH STEP
VEND.                                  ENVERUS : VENDOR
TYPE.                          ESS - OPEN HOLE : ENVERUS ESSENTIAL CURVES – ACCESSIBLE THROUGH ENVERUS PRISM(TM)
DOC.                                  19552736 : ENVERUS HEADER RAW DOCUMENT ID
#___________________________________________________________________________________________________ 
~WELL INFORMATION 
# Emv0q1Fc4UOVqi1FEPTQ50pHgS2U6oO6A9wxQf5ozJtTAVTQXtUhuyCOytio7eHVwvke0CQF/LYkoyLsbhUTsQ== 
# MNEM.UNIT                                              DATA : DESCRIPTION OF MNEMONIC 
#-----.-----                    ----------------------------- : ----------------------------- 
CNTY.                                                  REEVES : COUNTY 
STATE.                                                  TEXAS : STATE 
CNTRY.                                                    USA : COUNTRY 
API.                                             42-389-32730 : API (10 Digit) 
API_14.                                    42-389-32730-00-00 : API (14 Digits) 
API_14_std.                                 42-389-32730-0000 : API (14 Digits Standard) 
UWI.                                           42389327300000 : UNIQUE WELL ID 
WELL.                                  BIG SKY 55 - 16 NO. 1H : WELL NAME
STRT.FT                                                3850.0 : START DEPTH
STOP.FT                                               12070.5 : STOP DEPTH
STEP.FT                                                   0.5 : STEP BETWEEN DEPTHS
NULL.                                                 -999.25 : NULL VALUE
COMP.                                      CIMAREX ENERGY CO. : COMPANY 
FLD.                                                  WILDCAT : FIELD 
SRVC.                                             HALLIBURTON : SERVICE COMPANY 
DATE.                                              03/23/2011 : DATE 
TVD.                                                       NO : TVD FLAG 
WSTA.                                                     LOC : WELL STATUS
#___________________________________________________________________________________________________ 
~PARAMETER INFORMATION 
# MNEM.UNIT                                              DATA : DESCRIPTION OF MNEMONIC 
#-----.-----                    ----------------------------- : ----------------------------- 
RUN.                                                      ONE : RUN NUMBER 
PDAT.                                                      GL : PERMANENT DATUM 
EPD.FT                                              2996.0000 : ELEVATION OF PERM. DATUM 
LMF.                                            KELLY BUSHING : LOG MEASURED FROM 
EKB.FT                                              3021.0000 : ELEVATION OF KELLY BUSHING 
DF.FT                                               3020.0000 : ELEVATION OF DERRICK FLOOR 
GL.FT                                               2996.0000 : ELEVATION OF GROUND LEVEL 
TD.FT                                              12100.0000 : TOTAL DEPTH 
CSGD.FT                                                  3861 : CASING BOTTOM (DRILLER) 1 
CSGL.FT                                                  3855 : CASING BOTTOM (LOGGER) 1 
MUD.                                                    BRINE : DRILLING FLUID TYPE 
MUDV.CP                                               36.0000 : DRILLING FLUID VISCOSITY 
MUDD.LB/USG                                           10.1000 : DRILLING FLUID DENSITY 
PH.                                                   10.0000 : DRILLING FLUID PH 
MUDS.                                                FLOWLINE : MUD SAMPLE SOURCE 
RM.OHMM                                                0.0600 : RESISTIVITY OF MUD SAMPLE 
RMT.DEGF                                              75.0000 : MUD SAMPLE TEMPERATURE 
RMF.OHMM                                               0.0400 : MUD FILTRATE RESISTIVITY 
RMFT.DEGF                                             75.0000 : MUD FILTRATE SAMPLE TEMPERATURE 
RMC.OHMM                                               0.0600 : MUD CAKE RESISTIVITY 
RMCT.DEGF                                             75.0000 : MUD CAKE SAMPLE TEMPERATURE 
RMB.OHMM                                               0.0240 : MUD RESISTIVITY AT BHT 
TMAX.DEGF                                            200.0000 : BOTTOM HOLE TEMPERATURE
#___________________________________________________________________________________________________ 
~CURVE INFORMATION 
# MNEM.UNIT           : CURVE DESCRIPTION 
#-----.-----          : ----------------------------- 
 DEPT.FT               : MEASURED DEPTH 
 GR.API                : GAMMA RAY (GAMMA RAY) 
 DT.US/FT              : SONIC DELTA TRANSIT TIME (DELTA T) 
 RESD_LL.OHMM          : DEEP LATEROLOG (LLD - DEEP LATEROLOG) 
 DPHI.V/V              : DENSITY POROSITY (DENSITY POROSITY) 
 NPHI.V/V              : NEUTRON POROSITY (NEUTRON POROSITY) 
 #___________________________________________________________________________________________________ 
~A         DEPT             GR             DT        RESD_LL           DPHI           NPHI
# ...
        11462.0         47.429         84.790       127.6120        0.11100        0.18100
        11462.5         45.279         83.587       141.4910        0.10800        0.17400
        11463.0         42.970         82.370       124.8020        0.10600        0.16700
        11463.5         44.362         81.745       113.3800        0.10500        0.16300
        11464.0         45.903         81.760       115.9730        0.10700        0.16100
        11464.5         47.470         81.894       118.7070        0.11000        0.17300
        11465.0         47.456         81.056       126.6580        0.11200        0.17000
        11465.5         46.987         81.921       139.0320        0.11200        0.16600
        11466.0         46.515         82.024       152.6140        0.11700        0.16400
        11466.5         46.517         82.360       158.0610        0.12300        0.17100
        11467.0         47.200         83.509       158.0610        0.12700        0.18200
        11467.5         47.877         84.261       158.0610        0.12300        0.18900
        11468.0         48.559         84.635       129.9740        0.12000        0.18600
        11468.5         48.669         85.031       109.2710        0.12200        0.18400
        11469.0         48.513         83.461       113.2310        0.12300        0.18100
        11469.5         45.601         80.907       117.0640        0.12400        0.17600
        11470.0         42.552         76.562       127.9800        0.11900        0.16600
        11470.5         35.077         72.066       159.6920        0.10600        0.15600
        11471.0         27.858         67.571       244.7060        0.06100        0.14600
        11471.5         20.655         63.146       407.3250        0.00900        0.10300
        11472.0         17.053         63.977       773.0440       -0.00100        0.08800
        11472.5         18.501         68.372       549.8140        0.00800        0.08900
        11473.0         24.777         74.543       347.4760        0.06600        0.11300
        11473.5         32.274         80.714       228.4680        0.10000        0.13600
        11474.0         39.826         84.176       182.6720        0.11600        0.16000
        11474.5         45.823         87.218       140.0360        0.12900        0.18300
        11475.0         49.784         89.238        94.9060        0.14100        0.20700
        11475.5         48.612         89.307        81.4800        0.14400        0.21600
        11476.0         46.198         89.047        70.1650        0.12800        0.20400
        11476.5         43.755         86.700        70.1650        0.11000        0.18600
        11477.0         41.319         81.589        89.8540        0.09400        0.16600
        11477.5         38.891         76.974       108.2670        0.08600        0.14600
        11478.0         36.539         75.436       124.2190        0.07700        0.13800
        11478.5         34.274         73.835       104.7890        0.07200        0.12900
        11479.0         32.033         72.234        97.8070        0.07700        0.12800
        11479.5         29.383         71.012       115.4920        0.08300        0.12900
        11480.0         26.735         71.255       174.8150        0.08400        0.11600
        11480.5         27.020         71.499       255.7860        0.07100        0.10100
        11481.0         31.415         71.990       307.1870        0.06000        0.09300
        11481.5         35.761         73.262       268.4640        0.08000        0.09400
        11482.0         40.036         74.449       222.8040        0.10100        0.11600
        11482.5         42.118         77.587       197.2500        0.10800        0.15100
        11483.0         39.484         79.983       203.5380        0.10200        0.15800
        11483.5         38.449         82.307       226.5370        0.09600        0.15700
        11484.0         39.454         82.936       258.8020        0.10000        0.15200
        11484.5         40.540         81.448       295.6870        0.10400        0.15600
        11485.0         41.322         79.541       243.4050        0.10900        0.15800
        11485.5         40.691         77.032       224.3760        0.10300        0.14700
        11486.0         40.699         76.169       224.7570        0.09200        0.12900
        11486.5         43.334         77.081       157.8630        0.07400        0.11500
        11487.0         45.974         77.256       124.3920        0.07300        0.11700
        11487.5         46.233         77.422       120.7790        0.09500        0.12900
        11488.0         41.802         77.246       117.6440        0.10400        0.14600
        11488.5         39.220         77.458        91.6060        0.08900        0.12900
        11489.0         42.976         78.297        72.3390        0.06000        0.10600
        11489.5         46.780         77.737        58.3390        0.07800        0.12400
        11490.0         50.719         78.029        52.0430        0.09800        0.15100
        11490.5         51.018         80.733        48.6410        0.09900        0.16500
        11491.0         50.174         82.144        47.1530        0.09700        0.14700
        11491.5         49.963         82.585        40.6270        0.09000        0.14600
        11492.0         51.308         81.840        33.3920        0.08100        0.15000
        11492.5         50.707         80.981        28.9390        0.08000        0.15300
        11493.0         49.963         80.391        32.0280        0.08400        0.15700
        11493.5         53.668         81.826        43.5150        0.08100        0.15700
        11494.0         57.701         83.244        61.2450        0.07000        0.15400
        11494.5         61.722         84.599        86.1980        0.07400        0.16500
        11495.0         64.702         84.817       123.3470        0.10500        0.18000
        11495.5         58.607         84.432       156.4250        0.13300        0.19800
        11496.0         50.650         84.733       190.3430        0.12000        0.16900
        11496.5         47.728         84.618       212.2450        0.10400        0.15500
        11497.0         49.856         84.205       178.3740        0.06700        0.16300
        11497.5         52.615         84.790       157.8340        0.08400        0.17400
        11498.0         54.733         86.829       144.1270        0.11100        0.18500
        11498.5         53.648         88.649       145.5420        0.12700        0.19200
        11499.0         50.795         87.895       146.6770        0.12700        0.19300
        11499.5         47.956         85.280       214.5320        0.11900        0.19200
        11500.0         45.103         82.710       301.5690        0.10900        0.18900
        11500.5         42.119         80.936       299.7790        0.10000        0.17100
        11501.0         37.779         78.832       296.0540        0.08500        0.14000
        11501.5         33.146         77.136       167.0840        0.06600        0.11800
        11502.0         34.602         77.222        90.5060        0.04800        0.11500
        11502.5         36.836         77.279        58.1600        0.06000        0.12600
        11503.0         39.073         78.508        49.6450        0.08200        0.14700
        11503.5         41.373         79.641        42.5470        0.09400        0.16200
        11504.0         39.679         79.980        42.5450        0.08900        0.16300
        11504.5         37.134         79.145        46.7480        0.08200        0.15700
        11505.0         34.595         78.176        57.2230        0.07600        0.14300
        11505.5         33.080         78.693        69.4590        0.06900        0.13600
