#--------------------------------------------------#
#-------------------ENVERUS, INC.------------------#
#------------------WWW.ENVERUS.COM-----------------#
#------------------COPYRIGHT 2020------------------#
#--------------------------------------------------#
#THIS FILE MAY BE USED ONLY IN ACCORDANCE WITH A CURRENT SUBSCRIPTION AGREEMENT BETWEEN
#THE USER AND ENVERUS, INC. NO PART OF THIS FILE MAY BE REPRODUCED, USED, COPIED,
#MODIFIED, PROPAGATED, OR DISTRIBUTED EXCEPT IN ACCORDANCE WITH THE SUBSCRIPTION
#AGREEMENT. UNAUTHORIZED USE OR DISTRIBUTION OF ALL OR ANY PART OF THIS FILE MAY VIOLATE
#COPYRIGHT, TRADEMARK, AND/OR OTHER LAWS AND IS SUBJECT TO CIVIL AS WELL AS CRIMINAL
#SANCTIONS.
#--------------------------------------------------#
#THIS FILE IS PROVIDED "AS-IS" AND ALL WARRANTIES ARE EXPRESSLY DISCLAIMED, WHETHER
#EXPRESS, ORAL, IMPLIED, STATUTORY OR OTHERWISE, INCLUDING ANY IMPLIED WARRANTY OF FITNESS
#FOR A PARTICULAR PURPOSE, MERCHANTABILITY, TITLE OR NON-INFRINGEMENT, AND ANY WARRANTIES
#ARISING BY VIRTUE OF CUSTOM OF TRADE OR COURSE OF DEALING.  FURTHER, ENVERUS, INC.
#AND ITS LICENSORS DO NOT REPRESENT OR WARRANT THAT THIS FILE WILL MEET USER'S
#REQUIREMENTS OR ARE SUITABLE FOR USER'S NEEDS OR THAT THE DATA OR RESULTS PROVIDED IN
#CONJUNCTION THEREWITH ARE CORRECT, ACCURATE, TIMELY OR RELIABLE. THESE DISCLAIMERS SHALL
#APPLY REGARDLESS OF ANY FAILURE OF ESSENTIAL PURPOSE OF ANY LIMITED REMEDY.  SOME
#JURISDICTIONS DO NOT ALLOW THE EXCLUSION OF CERTAIN WARRANTIES SO SOME OF THE ABOVE
#EXCLUSIONS MAY NOT APPLY. IN NO EVENT SHALL ENVERUS, INC. OR ANY OF ITS AFFILIATES
#BE LIABLE UNDER ANY LEGAL THEORY, WHETHER IN TORT (INCLUDING WITHOUT LIMITATION
#NEGLIGENCE), CONTRACT, STRICT LIABILITY, STATUTORY OR OTHERWISE, FOR ANY SPECIAL,
#INCIDENTAL, CONSEQUENTIAL, EXEMPLARY, PUNITIVE OR INDIRECT DAMAGE OF ANY KIND, INCLUDING
#WITHOUT LIMITATION LOSS OF REVENUE, PROFITS, GOODWILL, USE, AND/OR DATA OR THE COST OF
#PROCUREMENT OF SUBSTITUTE GOODS OR SERVICES, EVEN IF APPRISED OF THE POSSIBILITY OF SUCH
#DAMAGES IN ADVANCE.
#--------------------------------------------------#

~VERSION INFORMATION
VERS. 2.0 : CWLS LOG ASCII STANDARD - VERSION 2.0
WRAP. NO : ONE LINE PER DEPTH STEP
~WELL INFORMATION
#MNEMONIC     .UNIT              VALUE :DESCRIPTION
STRT       .FT                2834.00000 :START DEPTH
STOP       .FT                7010.00000 :STOP DEPTH
STEP       .FT                0.50000 :STEP
NULL       .                -999.25000 :NULL VALUE
UWI       .                42389304120000 :UNIQUE WELL ID
API       .                42389304120000 :API NUMBER
COMP       .                 :COMPANY
WELL       .                 :WELL
FLD       .                 :FIELD
LOC       .                 :LOCATION
CNTY       .                 :COUNTY
STAT       .                 :STATE
CTRY       .                 :COUNTRY
SRVC       .                 :SERVICE COMPANY
DATE       .                 :DATE
~CURVE INFORMATION
#MNEMONIC     .UNIT      API CODE :CURVE DESCRIPTION
DEPTH       .FT                      :MEASURED DEPTH
CAL       .IN        UNKNOWN   :CAL
DT       .US/FT        UNKNOWN   :DT
GR       .GAPI        UNKNOWN   :GR
~A    DEPTH    CAL    DT    GR
# ...
4060.50000    15.79003    104.64899    25.49153
4061.00000    15.79066    105.30004    25.54497
4061.50000    15.79129    105.95109    25.59840
4062.00000    15.79192    106.60214    25.65184
4062.50000    15.79255    107.25319    25.70528
4063.00000    15.79318    107.90424    25.75872
4063.50000    15.79381    108.55529    25.81216
4064.00000    15.79444    109.20634    25.86560
4064.50000    15.79507    109.85739    25.76492
4065.00000    15.79570    110.46589    25.61512
4065.50000    15.79633    110.99553    25.46532
4066.00000    15.79696    111.52518    25.31553
4066.50000    15.79759    112.05482    25.16573
4067.00000    15.79822    112.58447    25.01593
4067.50000    15.79885    113.11411    24.86613
4068.00000    15.79948    113.64376    24.71633
4068.50000    15.80011    114.17341    24.56653
4069.00000    15.80073    114.70305    24.41673
4069.50000    15.80136    115.23270    24.26694
4070.00000    15.80199    115.76234    24.11714
4070.50000    15.80262    114.46825    23.96734
4071.00000    15.80325    112.45057    23.81754
4071.50000    15.80388    112.45165    23.66775
4072.00000    15.80451    112.45272    23.51795
4072.50000    15.80514    112.45379    23.36815
4073.00000    15.80577    112.45486    23.46763
4073.50000    15.80640    112.45594    23.74955
4074.00000    15.80703    112.45701    24.03146
4074.50000    15.80766    112.45808    24.31337
4075.00000    15.80829    112.45915    24.59528
4075.50000    15.80892    112.46023    24.87719
4076.00000    15.80955    112.78033    25.15911
4076.50000    15.81018    113.28653    25.44102
4077.00000    15.81081    113.79274    25.72293
4077.50000    15.81144    114.29894    26.00484
4078.00000    15.81207    114.80515    26.10505
4078.50000    15.81270    115.31135    25.83557
4079.00000    15.81333    115.81756    25.56609
4079.50000    15.81395    116.32376    25.29661
4080.00000    15.81458    115.54069    25.02713
4080.50000    15.81488    114.62122    24.75765
4081.00000    15.81507    113.70174    24.60076
4081.50000    15.81526    112.00778    25.44718
4082.00000    15.81545    110.09520    26.29360
4082.50000    15.81564    108.18262    27.14001
4083.00000    15.81582    106.27005    27.98643
4083.50000    15.81601    104.96464    28.83285
4084.00000    15.81620    104.17748    29.67927
4084.50000    15.81639    103.39032    30.52569
4085.00000    15.81658    102.60316    31.37210
4085.50000    15.81677    101.81601    32.21852
4086.00000    15.81695    101.02885    33.06494
4086.50000    15.81714    100.24169    33.91136
4087.00000    15.81733    99.45454    34.51393
4087.50000    15.81752    98.66738    33.96930
4088.00000    15.81771    97.88022    33.42466
4088.50000    15.81790    97.09307    32.88002
4089.00000    15.81808    96.30591    32.33539
4089.50000    15.81827    95.51875    31.79075
4090.00000    15.81846    94.73159    31.24611
4090.50000    15.81865    95.21190    30.70148
4091.00000    15.81884    96.55298    30.15684
4091.50000    15.81903    97.89406    30.09799
4092.00000    15.81921    99.23514    30.44768
4092.50000    15.81940    100.35057    30.79738
4093.00000    15.81959    98.59943    31.14709
4093.50000    15.81978    96.84829    31.49678
4094.00000    15.81997    95.09715    31.84648
4094.50000    15.82016    93.34602    32.19618
4095.00000    15.82034    91.59488    32.54588
4095.50000    15.82053    90.60999    32.89558
4096.00000    15.82072    91.19578    33.24528
4096.50000    15.82091    91.78157    33.59498
4097.00000    15.82110    92.36737    33.92051
4097.50000    15.82129    92.95316    33.54788
4098.00000    15.82147    93.53895    33.17525
4098.50000    15.82166    94.12206    32.80263
4099.00000    15.82185    94.03317    32.43000
4099.50000    15.82204    93.94429    32.05737
4100.00000    15.82223    93.85540    31.68474
4100.50000    15.82242    94.87436    31.31211
4101.00000    15.82260    96.70768    30.93949
4101.50000    15.82279    98.54099    30.56686
4102.00000    15.82298    100.37431    30.19423
4102.50000    15.82317    102.20762    29.82160
4103.00000    15.82336    104.04094    29.44898
4103.50000    15.82355    104.70375    29.07635
4104.00000    15.82373    103.67845    28.70372
4104.50000    15.82392    102.65315    28.33109
4105.00000    15.82411    101.64150    27.95846
4105.50000    15.82430    102.71585    27.88534
4106.00000    15.82449    103.79019    28.22171
4106.50000    15.82468    104.86453    28.55807
4107.00000    15.82486    105.93887    28.89444
4107.50000    15.82505    107.01322    29.23081
4108.00000    15.82524    108.08756    29.39551
4108.50000    15.82543    109.16190    29.15261
4109.00000    15.82562    110.23624    28.90971
4109.50000    15.82581    111.31059    28.66681
4110.00000    15.82599    112.38493    28.42391
4110.50000    15.82618    113.45927    28.18101
4111.00000    15.82637    114.53362    27.93811
4111.50000    15.82656    112.49085    27.69521
4112.00000    15.82675    109.43820    27.45230
4112.50000    15.82694    106.38556    27.71959
4113.00000    15.82712    104.75240    28.08387
4113.50000    15.82731    105.04033    28.44815
4114.00000    15.82750    105.32827    28.81244
4114.50000    15.82769    105.61621    29.17672
4115.00000    15.82788    105.90415    29.54101
4115.50000    15.82807    106.21115    29.89812
4116.00000    15.82825    106.85364    29.69550
4116.50000    15.82844    107.49613    29.49288
4117.00000    15.82863    108.13862    29.29026
4117.50000    15.82882    108.78111    29.08763
4118.00000    15.82901    109.42360    28.88501
4118.50000    15.82920    110.06609    28.68239
4119.00000    15.82938    110.38858    28.47977
4119.50000    15.82957    110.05349    28.27714
4120.00000    15.82976    109.71841    28.07452
4120.50000    15.82995    109.38332    27.87190
4121.00000    15.83014    108.36331    27.66927
4121.50000    15.83033    106.99083    27.46665
4122.00000    15.83051    105.61835    27.30350
4122.50000    15.83070    104.04968    27.39381
4123.00000    15.83089    102.47446    27.48413
4123.50000    15.83108    100.89923    27.57444
4124.00000    15.83127    99.32400    27.66475
4124.50000    15.83146    98.68729    27.75507
4125.00000    15.83164    98.20118    27.84538
4125.50000    15.83183    97.71506    27.93569
4126.00000    15.83202    100.17628    28.02601
4126.50000    15.83221    101.70708    28.60962
4127.00000    15.83240    103.23788    29.84944
4127.50000    15.83259    104.76868    31.08926
4128.00000    15.83277    105.59324    32.32908
4128.50000    15.83296    103.14566    33.56890
4129.00000    15.83315    100.69809    33.49578
4129.50000    15.83334    98.25051    33.40347
4130.00000    15.83353    95.80294    33.31116
4130.50000    15.83372    93.35536    33.23461
4131.00000    15.83390    90.90778    34.15513
4131.50000    15.83409    88.46021    35.07565
4132.00000    15.83428    86.01263    35.99616
4132.50000    15.83447    86.30175    36.91668
4133.00000    15.83466    87.72956    37.83720
4133.50000    15.83485    89.15737    38.75772
4134.00000    15.83503    90.58518    39.67824
4134.50000    15.83522    92.01299    40.22629
4135.00000    15.83541    91.79117    40.77243
4135.50000    15.83560    90.05852    41.31857
4136.00000    15.83579    88.32587    41.86470
4136.50000    15.83598    86.59323    42.41084
4137.00000    15.83616    84.86058    42.78111
4137.50000    15.83635    83.12793    40.68876
4138.00000    15.83654    81.39528    38.59642
4138.50000    15.83673    79.66264    36.50407
4139.00000    15.83692    80.23323    34.41173
4139.50000    15.83711    81.29786    32.31938
4140.00000    15.83729    82.36249    31.49777
4140.50000    15.83748    83.42712    32.16211
4141.00000    15.83767    84.49175    32.82644
4141.50000    15.83786    85.55638    33.49077
4142.00000    15.83805    86.62101    34.15511
4142.50000    15.83824    87.68564    34.81944
4143.00000    15.83843    88.75026    35.21364
4143.50000    15.83861    89.81489    34.18280
4144.00000    15.83880    90.87952    33.15196
