###############################################
##         ENVERUS                           ##
##         ESS - Open Hole                   ##
##         PERMIAN / DELAWARE                ##
##         Nov 04 2023  V4.0                 ##
##         42-389-32421-01-00                ##
###############################################
## Copyright 2017-2023  ENVERUS.  All Rights Reserved. 
## Confidential - Property of ENVERUS, use governed by terms and 
## conditions found within the existing Information Services Subscription Agreement 
## (as may be amended, the “ISSA”) between Customer and ENVERUS. 
## 
~VERSION INFORMATION
# MNEM.UNIT                               DATA : DESCRIPTION OF MNEMONIC
#-----.-----     ----------------------------- : -----------------------------
VERS.                                     2.00 : CWLS LOG ASCII STANDARD - VERSION 2.00
WRAP.                                       NO : MULTIPLE LINES PER DEPTH STEP
VEND.                                  ENVERUS : VENDOR
TYPE.                          ESS - OPEN HOLE : ENVERUS ESSENTIAL CURVES – ACCESSIBLE THROUGH ENVERUS PRISM(TM)
DOC.                                  51227099 : ENVERUS HEADER RAW DOCUMENT ID
#___________________________________________________________________________________________________ 
~WELL INFORMATION 
# zrraAS4ibxVPgm4F4FjILRFQbgMcjf5VKWH9QXz9oP+5l3DBeEvHFHP9dTNjNwXm2+WMaTXZz7qhRLDoyN0AVg== 
# MNEM.UNIT                                              DATA : DESCRIPTION OF MNEMONIC 
#-----.-----                    ----------------------------- : ----------------------------- 
CNTY.                                                  REEVES : COUNTY 
STATE.                                                  TEXAS : STATE 
CNTRY.                                                    USA : COUNTRY 
API.                                             42-389-32421 : API (10 Digit) 
API_14.                                    42-389-32421-01-00 : API (14 Digits) 
API_14_std.                                 42-389-32421-0100 : API (14 Digits Standard) 
UWI.                                           42389324210100 : UNIQUE WELL ID 
WELL.                                      ARMSTRONG STATE #1 : WELL NAME
STRT.FT                                                2000.0 : START DEPTH
STOP.FT                                               14700.0 : STOP DEPTH
STEP.FT                                                   0.5 : STEP BETWEEN DEPTHS
NULL.                                                 -999.25 : NULL VALUE
COMP.                                   BULLDOG OPERATING CO. : COMPANY 
FLD.                                                  WILDCAT : FIELD 
LOC.                                                3-59-2778 : LOCATION 
SRVC.                                            SCHLUMBERGER : SERVICE COMPANY 
DATE.                                              08/28/2006 : DATE 
PREV_APII.                                       423893242100 : API NUMBER 
PREV_UWI.                                        423893242100 : UWI NUMBER 
TVD.                                                       NO : TVD FLAG
#___________________________________________________________________________________________________ 
~PARAMETER INFORMATION 
# MNEM.UNIT                                              DATA : DESCRIPTION OF MNEMONIC 
#-----.-----                    ----------------------------- : ----------------------------- 
RUN.                                                      ONE : RUN NUMBER 
PDAT.                                                      GL : PERMANENT DATUM 
EPD.FT                                              3134.8000 : ELEVATION OF PERM. DATUM 
LMF.                                            KELLY BUSHING : LOG MEASURED FROM 
EKB.FT                                              3157.8000 : ELEVATION OF KELLY BUSHING 
DF.FT                                               3156.8000 : ELEVATION OF DERRICK FLOOR 
GL.FT                                               3134.8000 : ELEVATION OF GROUND LEVEL 
TD.FT                                              14700.0000 : TOTAL DEPTH 
BHT.DEGF                                               230.00 : BOTTOM HOLE TEMPERATURE 
BLI.FT                                             14700.0000 : BOTTOM LOG INTERVAL 
CSGSIZE.IN                                             9.6250 : CASING SIZE 
BITSIZE.IN                                              8.750 : BITSIZE 
CSGD.FT                                                  2014 : CASING BOTTOM (DRILLER) 1 
CSGL.FT                                                  2014 : CASING BOTTOM (LOGGER) 1 
MUD.                                                    BRINE : DRILLING FLUID TYPE 
MUDV.CP                                               31.0000 : DRILLING FLUID VISCOSITY 
MUDD.LB/USG                                            9.3000 : DRILLING FLUID DENSITY 
FL.ML/30MIN                                           13.0000 : DRILLING FLUID LOSS 
PH.                                                   10.0000 : DRILLING FLUID PH 
MUDS.                                        CIRCULATION TANK : MUD SAMPLE SOURCE 
RM.OHMM                                                0.0540 : RESISTIVITY OF MUD SAMPLE 
RMT.DEGF                                              90.0000 : MUD SAMPLE TEMPERATURE 
RMF.OHMM                                               0.0640 : MUD FILTRATE RESISTIVITY 
RMFT.DEGF                                             80.0000 : MUD FILTRATE SAMPLE TEMPERATURE
#___________________________________________________________________________________________________ 
~CURVE INFORMATION 
# MNEM.UNIT           : CURVE DESCRIPTION 
#-----.-----          : ----------------------------- 
 DEPT.FT               : MEASURED DEPTH 
 DT.US/FT              : SONIC DELTA TRANSIT TIME (DELTA T) 
 SPHI.V/V              : SONIC POROSITY (SONIC POROSITY) 
 #___________________________________________________________________________________________________ 
~A         DEPT             DT           SPHI
# ...
        12962.0         67.515        0.14700
        12962.5         67.264        0.14600
        12963.0         67.062        0.14500
        12963.5         69.175        0.15900
        12964.0         71.288        0.17600
        12964.5         71.154        0.17500
        12965.0         70.526        0.16900
        12965.5         69.592        0.16300
        12966.0         68.471        0.15600
        12966.5         68.337        0.15500
        12967.0         68.169        0.15300
        12967.5         67.767        0.15100
        12968.0         66.861        0.14400
        12968.5         66.995        0.14400
        12969.0         67.163        0.14400
        12969.5         67.331        0.14500
        12970.0         67.498        0.14700
        12970.5         67.666        0.14900
        12971.0         67.882        0.15100
        12971.5         68.097        0.15300
        12972.0         68.270        0.15000
        12972.5         67.129        0.14400
        12973.0         66.179        0.13800
        12973.5         64.849        0.13200
        12974.0         65.277        0.12900
        12974.5         65.989        0.13500
        12975.0         66.702        0.14300
        12975.5         67.414        0.14900
        12976.0         68.270        0.15400
        12976.5         67.706        0.14900
        12977.0         66.861        0.14400
        12977.5         67.143        0.14400
        12978.0         67.496        0.14700
        12978.5         67.845        0.15100
        12979.0         68.264        0.15400
        12979.5         67.858        0.15100
        12980.0         67.353        0.14600
        12980.5         66.952        0.14100
        12981.0         66.703        0.14200
        12981.5         66.459        0.14100
        12982.0         65.884        0.13700
        12982.5         65.309        0.13300
        12983.0         64.849        0.12900
        12983.5         65.392        0.13100
        12984.0         65.845        0.13400
        12984.5         66.298        0.13800
        12985.0         66.660        0.13800
        12985.5         64.842        0.13600
        12986.0         63.343        0.12400
        12986.5         61.845        0.10800
        12987.0         62.805        0.11300
        12987.5         63.761        0.12100
        12988.0         64.710        0.13100
        12988.5         65.124        0.12900
        12989.0         64.663        0.12700
        12989.5         63.806        0.12100
        12990.0         62.755        0.11300
        12990.5         61.703        0.10500
        12991.0         60.020        0.09300
        12991.5         60.509        0.10000
        12992.0         61.730        0.11900
        12992.5         62.952        0.11900
        12993.0         63.441        0.11800
        12993.5         63.444        0.11800
        12994.0         63.444        0.11800
        12994.5         63.442        0.11700
        12995.0         63.439        0.11700
        12995.5         63.436        0.11700
        12996.0         63.434        0.11600
        12996.5         63.088        0.11400
        12997.0         62.800        0.11300
        12997.5         62.669        0.11100
        12998.0         62.771        0.11300
        12998.5         62.852        0.11500
        12999.0         62.902        0.11400
        12999.5         62.951        0.11300
        13000.0         62.999        0.11600
        13000.5         63.363        0.12000
        13001.0         64.201        0.12400
        13001.5         65.040        0.12800
        13002.0         64.965        0.13000
        13002.5         64.892        0.12900
        13003.0         64.820        0.12800
        13003.5         64.749        0.12700
        13004.0         64.662        0.12900
        13004.5         65.403        0.13800
        13005.0         66.308        0.14200
        13005.5         66.545        0.14300
        13006.0         65.755        0.13700
        13006.5         64.964        0.13000
        13007.0         64.588        0.12500
        13007.5         64.487        0.12700
        13008.0         64.921        0.12800
        13008.5         65.711        0.13600
        13009.0         66.660        0.14100
        13009.5         66.177        0.13600
        13010.0         65.573        0.13200
        13010.5         64.970        0.12800
        13011.0         64.366        0.12300
        13011.5         63.763        0.11900
        13012.0         63.038        0.11600
        13012.5         63.044        0.11500
        13013.0         63.041        0.11500
        13013.5         63.038        0.11600
        13014.0         63.035        0.11700
        13014.5         63.184        0.11800
        13015.0         63.635        0.12600
        13015.5         65.447        0.13800
        13016.0         67.259        0.14500
        13016.5         67.361        0.14700
        13017.0         67.464        0.14700
        13017.5         66.964        0.14500
        13018.0         66.338        0.14100
        13018.5         65.711        0.13700
        13019.0         64.994        0.13000
        13019.5         64.217        0.12300
        13020.0         63.439        0.11700
        13020.5         62.654        0.11000
        13021.0         62.032        0.10800
        13021.5         62.515        0.11400
        13022.0         63.219        0.11700
        13022.5         63.541        0.11800
        13023.0         63.290        0.11700
        13023.5         63.038        0.11400
        13024.0         63.038        0.11500
        13024.5         63.038        0.11500
        13025.0         63.038        0.11600
        13025.5         63.587        0.11700
        13026.0         64.273        0.12200
        13026.5         64.959        0.13000
        13027.0         65.645        0.13500
        13027.5         66.177        0.13800
        13028.0         66.490        0.14100
        13028.5         66.792        0.14200
        13029.0         67.093        0.14300
        13029.5         67.154        0.14500
        13030.0         66.855        0.14200
        13030.5         66.556        0.14000
        13031.0         66.257        0.13800
        13031.5         65.957        0.13600
        13032.0         65.666        0.13400
        13032.5         65.370        0.13200
        13033.0         65.553        0.13300
        13033.5         66.056        0.13600
        13034.0         66.660        0.13900
        13034.5         66.459        0.14100
        13035.0         66.258        0.14000
        13035.5         65.117        0.13000
        13036.0         64.152        0.12200
        13036.5         63.205        0.11600
        13037.0         62.767        0.11400
        13037.5         62.666        0.11200
        13038.0         62.360        0.10900
        13038.5         61.918        0.10700
        13039.0         61.480        0.10400
        13039.5         61.946        0.10200
        13040.0         63.763        0.12000
        13040.5         65.573        0.13700
        13041.0         68.471        0.15100
        13041.5         68.024        0.15400
        13042.0         66.906        0.14800
        13042.5         65.788        0.13700
        13043.0         64.447        0.12800
        13043.5         65.050        0.13300
        13044.0         65.805        0.13700
        13044.5         66.559        0.14200
        13045.0         67.465        0.14600
        13045.5         67.545        0.14900
        13046.0         67.646        0.15000
        13046.5         67.746        0.15100
        13047.0         67.867        0.15200
        13047.5         67.794        0.15100
        13048.0         67.703        0.15000
        13048.5         67.611        0.14900
