#--------------------------------------------------#
#-------------------ENVERUS, INC.------------------#
#------------------WWW.ENVERUS.COM-----------------#
#------------------COPYRIGHT 2020------------------#
#--------------------------------------------------#
#THIS FILE MAY BE USED ONLY IN ACCORDANCE WITH A CURRENT SUBSCRIPTION AGREEMENT BETWEEN
#THE USER AND ENVERUS, INC. NO PART OF THIS FILE MAY BE REPRODUCED, USED, COPIED,
#MODIFIED, PROPAGATED, OR DISTRIBUTED EXCEPT IN ACCORDANCE WITH THE SUBSCRIPTION
#AGREEMENT. UNAUTHORIZED USE OR DISTRIBUTION OF ALL OR ANY PART OF THIS FILE MAY VIOLATE
#COPYRIGHT, TRADEMARK, AND/OR OTHER LAWS AND IS SUBJECT TO CIVIL AS WELL AS CRIMINAL
#SANCTIONS.
#--------------------------------------------------#
#THIS FILE IS PROVIDED "AS-IS" AND ALL WARRANTIES ARE EXPRESSLY DISCLAIMED, WHETHER
#EXPRESS, ORAL, IMPLIED, STATUTORY OR OTHERWISE, INCLUDING ANY IMPLIED WARRANTY OF FITNESS
#FOR A PARTICULAR PURPOSE, MERCHANTABILITY, TITLE OR NON-INFRINGEMENT, AND ANY WARRANTIES
#ARISING BY VIRTUE OF CUSTOM OF TRADE OR COURSE OF DEALING.  FURTHER, ENVERUS, INC.
#AND ITS LICENSORS DO NOT REPRESENT OR WARRANT THAT THIS FILE WILL MEET USER'S
#REQUIREMENTS OR ARE SUITABLE FOR USER'S NEEDS OR THAT THE DATA OR RESULTS PROVIDED IN
#CONJUNCTION THEREWITH ARE CORRECT, ACCURATE, TIMELY OR RELIABLE. THESE DISCLAIMERS SHALL
#APPLY REGARDLESS OF ANY FAILURE OF ESSENTIAL PURPOSE OF ANY LIMITED REMEDY.  SOME
#JURISDICTIONS DO NOT ALLOW THE EXCLUSION OF CERTAIN WARRANTIES SO SOME OF THE ABOVE
#EXCLUSIONS MAY NOT APPLY. IN NO EVENT SHALL ENVERUS, INC. OR ANY OF ITS AFFILIATES
#BE LIABLE UNDER ANY LEGAL THEORY, WHETHER IN TORT (INCLUDING WITHOUT LIMITATION
#NEGLIGENCE), CONTRACT, STRICT LIABILITY, STATUTORY OR OTHERWISE, FOR ANY SPECIAL,
#INCIDENTAL, CONSEQUENTIAL, EXEMPLARY, PUNITIVE OR INDIRECT DAMAGE OF ANY KIND, INCLUDING
#WITHOUT LIMITATION LOSS OF REVENUE, PROFITS, GOODWILL, USE, AND/OR DATA OR THE COST OF
#PROCUREMENT OF SUBSTITUTE GOODS OR SERVICES, EVEN IF APPRISED OF THE POSSIBILITY OF SUCH
#DAMAGES IN ADVANCE.
#--------------------------------------------------#

# EXPORTED FROM DI TRANSFORM
# DI TRANSFORM - A PRODUCT OF DRILLINGINFO, INC. - WWW.DRILLINGINFO.COM
#
~VERSION INFORMATION
 VERS.        2.0 : LAS ASCII STANDARD - VERSION 2.0
 WRAP.         NO : ONE LINE PER DEPTH STEP

~WELL INFORMATION
#MNEM.UNIT       DATA TYPE       INFORMATION
#---------       ---------       -----------
 STRT.FT          3310 : START DEPTH
 STOP.FT         11910 : STOP DEPTH
 STEP.FT           0.5 : STEP LENGTH
 NULL.         -999.25 : NULL VALUE
 UWI.   42389328760000 : UNIQUE WELL ID
 API.   42389328760000 : WELL IDENTIFIER
 COMP.                 : COMPANY
 WELL.          DRD_55 : WELL NAME
 FLD.                  : FIELD NAME
 LOC.                  : WELL LOCATION
 CNTY.                 : COUNTY
 STAT.                 : STATE OR PROVINCE
 CTRY.                 : COUNTRY
 SRVC.                 : SERVICE COMPANY
 DATE.                 : DATE

~CURVE INFORMATION
#MNEM.UNIT       API CODE       CURVE DESCRIPTION
#---------       --------       -----------------
 DEPT.FT        : <MEASURED DEPTH>
 CAL.IN         : CALIPER
 DT.US/FT       : SONIC
 GR.GAPI        : GAMMA RAY
 ILD.OHMM       : DEEP RESISTIVITY
 ILS.OHMM       : SHALLOW RESISTIVITY

~PARAMETER INFORMATION
#MNEM.UNIT       VALUE       DESCRIPTION
#---------       -----       -----------
 EKB.FT      3168.5 : ELEVATION ABOVE MSL

~A       DEPT         CAL          DT          GR         ILD         ILS
# ...
         8978      8.6693     62.4738      71.471    181.5289     93.2632
       8978.5      8.6693     62.5987     66.6879    187.7289     95.1443
         8979      8.6693     61.4289     49.7188    193.1591     99.8588
       8979.5      8.6693     59.2569     40.2076    209.5256    111.7065
         8980      8.6693     58.1245     40.8771    223.2361    142.1643
       8980.5      8.6693     58.3114     43.0247    165.7697     87.2017
         8981      8.6693     58.6418      46.844      144.03     79.0407
       8981.5      8.6693     58.7861     55.3806    133.0797     76.1225
         8982      8.6693     59.1961     54.3825    113.5149     59.0753
       8982.5      8.6693     58.2648      52.735    125.7618     68.3135
         8983       8.601     56.8876     49.0871    141.6927      77.171
       8983.5        8.51     55.8448     36.0555    153.1623     82.7323
         8984      8.4701      54.908     28.1359    199.4687    109.7974
       8984.5      8.4701     54.1839     30.5037    203.9633    114.1056
         8985      8.4701     54.3755     36.1307    180.7809    102.9747
       8985.5      8.4701      56.253     49.3102     146.818     85.1224
         8986      8.4701     59.8328     68.8743    126.7779     66.5183
       8986.5      8.4701     61.6723     79.0699    115.4092      62.478
         8987      8.4701     64.7922     82.2732    108.1321     58.7945
       8987.5      8.4701     67.8037     87.4708    103.1749     57.8866
         8988      8.4701     69.4559     97.6075     96.3676     53.2399
       8988.5      8.4701     70.6957    104.7522      89.116     48.3296
         8989      8.4701     71.7225    103.8378     87.1525     46.2911
       8989.5      8.4701     72.3036    102.3174      92.013     49.0153
         8990      8.4701     72.6781      99.901    101.8208     51.5537
       8990.5      8.4701     71.9003     90.9002    115.7912      66.382
         8991      8.4701     70.8219     79.5763      117.82     66.0501
       8991.5      8.4701     70.1276     78.1564    110.3915     59.1582
         8992      8.4701     70.2016     89.1002     94.7142     53.5041
       8992.5      8.4701      71.371    106.9773     67.2126     33.5421
         8993      8.4701     72.7178    117.0661     56.3375     28.7001
       8993.5      8.4701      73.227    116.1102     53.5501     27.3756
         8994      8.4701     71.9375     106.792     54.3753     27.2351
       8994.5      8.4701     69.3998     94.3354     62.5958      32.902
         8995      8.4701     66.8764      74.393     79.7103     39.2531
       8995.5      8.4701      64.353     59.2308    101.4439      49.852
         8996      8.4701     61.8296     49.4563    114.0014      62.518
       8996.5      8.4701     60.7354     49.6113    107.4794     55.9076
         8997      8.4701     61.1881     60.9305     84.0537     41.4853
       8997.5      8.4701     61.9874     71.8422     67.0459     32.3042
         8998      8.4701     62.2878     81.6434     63.3916     24.5963
       8998.5      8.4701      62.489     82.8259     63.2509     28.5704
         8999      8.4701     62.2315     68.0641     73.9832     33.6392
       8999.5      8.4701     61.7511     43.1997    109.2943     43.5124
         9000      8.4701     61.3281     31.9791    134.5784      51.553
       9000.5      8.4701     61.1028     36.9307     86.7995     39.6582
         9001      8.4701     61.2641     53.2729     34.2398     17.4523
       9001.5      8.4701     63.5171     75.8177     23.7418     10.5815
         9002      8.4701     65.7702     86.4873     21.0313      9.1922
       9002.5      8.4701     67.4251     84.1172     17.4999      8.0456
         9003      8.4701     70.1276     73.0154     17.4144      8.3662
       9003.5      8.4701     70.1276     55.4909     17.4144      8.7879
         9004      8.4701     70.0458     46.4094     16.9183      9.0583
       9004.5      8.4701     69.9504     42.9318     16.4425      8.8529
         9005      8.4701     68.5327     42.8227     15.8792      8.8161
       9005.5      8.4701     68.6325     45.4793     16.2355      9.1483
         9006      8.4701     69.8882     48.9978      16.705      9.9334
       9006.5      8.4701       70.31     50.9695     16.7833      9.9334
         9007      8.4701     70.7319     51.3944     16.1016      9.6189
       9007.5      8.4701     71.0981      53.452     13.8791      8.7126
         9008      8.4701     71.1909     58.1258     12.7431       7.101
       9008.5      8.4701     71.7225     64.7787     12.3854      6.8459
         9009      8.4701     71.7225     70.2334      12.039      6.5449
       9009.5      8.4701     71.7225     73.2392     12.4538      6.7839
         9010      8.4701     72.0769     84.5551     13.2269      7.4079
       9010.5      8.4701     72.1456      88.424     13.8632       7.281
         9011      8.4701     70.8333     78.6691      14.932      7.5102
       9011.5      8.4701     67.9373     63.4415     22.9106     10.2848
         9012      8.4701     64.9538     53.7508     38.7363     17.2483
       9012.5      8.4701     61.9157     43.0272     52.3051     37.8589
         9013      8.4701      58.704     40.4208      71.703     41.9071
       9013.5      8.4701     58.0893     40.5817     78.1092     45.2067
         9014      8.4701     57.7229     42.8343     55.3314      22.982
       9014.5      8.4701      61.713     47.4977     30.9251     14.3165
         9015      8.4701     63.2833     58.3855     21.5179     11.7778
       9015.5      8.4701     64.9885      70.691     19.7566     10.3386
         9016      8.4701     65.4067     83.6707     19.1911     10.0673
       9016.5      8.4701     69.9907     89.6667     24.4112     13.5762
         9017      8.4701     71.6357     99.9733     28.4417     15.2291
       9017.5      8.4658     72.1315    106.1281     31.3169     17.2353
         9018      8.4647     72.2541     95.7823     40.0399     23.3073
       9018.5      8.4636     71.6205      91.462     48.0844     26.0893
         9019      8.4625     71.3461     94.2609     49.8682     24.3684
       9019.5      8.4614     70.7871    101.3487     51.2099     28.9587
         9020      8.4603     69.6304     108.694     54.1578     35.0711
       9020.5      8.4592     68.6869    110.0055     76.6406     44.2975
         9021      8.4581     67.5575     97.4353    109.7702     58.7163
       9021.5       8.457     64.9789      68.373    129.4248     66.6407
         9022      8.4559     61.9475     35.3126    148.8043     78.9599
       9022.5      8.4548     59.7239     25.8827    170.3472     91.2091
         9023      8.4536     59.5938       30.59    155.9076     83.5686
       9023.5      8.4525      60.609     57.9494    110.2451     69.2994
         9024      8.4514     62.2342     82.0754    101.8315     55.5107
       9024.5      8.4503     65.4082     94.0481     92.0123     46.4475
         9025      8.4492     69.5339    102.1912     87.6921      46.088
       9025.5      8.4481     71.0719    100.7281     88.3175     47.4191
         9026       8.447     71.1909     95.2956     92.5671     52.4924
       9026.5      8.4459     70.0443     90.1587     97.0635     54.1559
         9027      8.4448      68.667     86.6565    104.7383     59.5363
       9027.5      8.4437     66.5554     80.4668    117.6679       74.27
         9028      8.4426      65.091     71.1395    132.3467     77.9426
       9028.5      8.4414     63.6265     62.7274    140.7928     83.0659
         9029      8.4403     62.1577      58.103     150.783     86.7213
       9029.5      8.4392     60.6557     56.9633    163.4628     89.3738
         9030      8.4381     59.1537     56.2574    172.6926     91.1555
       9030.5       8.437      59.013     55.2131    182.9044     95.7237
         9031      8.4359     59.3134     50.3313    188.3553     96.5977
       9031.5      8.4348      59.884     45.1852    188.3553     93.4841
         9032      8.4337     60.8671     52.1323    184.9106      86.891
