#--------------------------------------------------#
#-------------------ENVERUS, INC.------------------#
#------------------WWW.ENVERUS.COM-----------------#
#------------------COPYRIGHT 2020------------------#
#--------------------------------------------------#
#THIS FILE MAY BE USED ONLY IN ACCORDANCE WITH A CURRENT SUBSCRIPTION AGREEMENT BETWEEN
#THE USER AND ENVERUS, INC. NO PART OF THIS FILE MAY BE REPRODUCED, USED, COPIED,
#MODIFIED, PROPAGATED, OR DISTRIBUTED EXCEPT IN ACCORDANCE WITH THE SUBSCRIPTION
#AGREEMENT. UNAUTHORIZED USE OR DISTRIBUTION OF ALL OR ANY PART OF THIS FILE MAY VIOLATE
#COPYRIGHT, TRADEMARK, AND/OR OTHER LAWS AND IS SUBJECT TO CIVIL AS WELL AS CRIMINAL
#SANCTIONS.
#--------------------------------------------------#
#THIS FILE IS PROVIDED "AS-IS" AND ALL WARRANTIES ARE EXPRESSLY DISCLAIMED, WHETHER
#EXPRESS, ORAL, IMPLIED, STATUTORY OR OTHERWISE, INCLUDING ANY IMPLIED WARRANTY OF FITNESS
#FOR A PARTICULAR PURPOSE, MERCHANTABILITY, TITLE OR NON-INFRINGEMENT, AND ANY WARRANTIES
#ARISING BY VIRTUE OF CUSTOM OF TRADE OR COURSE OF DEALING.  FURTHER, ENVERUS, INC.
#AND ITS LICENSORS DO NOT REPRESENT OR WARRANT THAT THIS FILE WILL MEET USER'S
#REQUIREMENTS OR ARE SUITABLE FOR USER'S NEEDS OR THAT THE DATA OR RESULTS PROVIDED IN
#CONJUNCTION THEREWITH ARE CORRECT, ACCURATE, TIMELY OR RELIABLE. THESE DISCLAIMERS SHALL
#APPLY REGARDLESS OF ANY FAILURE OF ESSENTIAL PURPOSE OF ANY LIMITED REMEDY.  SOME
#JURISDICTIONS DO NOT ALLOW THE EXCLUSION OF CERTAIN WARRANTIES SO SOME OF THE ABOVE
#EXCLUSIONS MAY NOT APPLY. IN NO EVENT SHALL ENVERUS, INC. OR ANY OF ITS AFFILIATES
#BE LIABLE UNDER ANY LEGAL THEORY, WHETHER IN TORT (INCLUDING WITHOUT LIMITATION
#NEGLIGENCE), CONTRACT, STRICT LIABILITY, STATUTORY OR OTHERWISE, FOR ANY SPECIAL,
#INCIDENTAL, CONSEQUENTIAL, EXEMPLARY, PUNITIVE OR INDIRECT DAMAGE OF ANY KIND, INCLUDING
#WITHOUT LIMITATION LOSS OF REVENUE, PROFITS, GOODWILL, USE, AND/OR DATA OR THE COST OF
#PROCUREMENT OF SUBSTITUTE GOODS OR SERVICES, EVEN IF APPRISED OF THE POSSIBILITY OF SUCH
#DAMAGES IN ADVANCE.
#--------------------------------------------------#

~VERSION INFORMATION
VERS. 2.0 : CWLS LOG ASCII STANDARD - VERSION 2.0
WRAP.  NO : ONE LINE PER DEPTH STEP
~WELL INFORMATION
#MNEMONIC     .UNIT              VALUE :DESCRIPTION
STRT       .FT                145 :START DEPTH
STOP       .FT                15608 :STOP DEPTH
STEP       .FT                   0.500 :STEP
NULL       .                  -999.250 :NULL
UWI        .              42389304120000 :UNIQUE WELL ID
API        .              42389304120000 :API NUMBER
COMP       .         BTA OIL PRODUCERS :COMPANY
WELL       .        7607 JV-P ORLA  1 :WELL
DATE       .                            :LOG DATE
~CURVE INFORMATION
#MNEMONIC     .UNIT      API CODE :CURVE DESCRIPTION
DEPTH       .FT                      :MEASURED DEPTH
DT.US/FT        UNKNOWN   :DT
CAL.INCH        UNKNOWN   :CAL
GR.API        UNKNOWN   :GR
~A    DEPTH    DT    CAL    GR
# ...
 4558.5     63.3   14.395   31.867
 4559     64.318   14.437   31.964
 4559.5     65.336   14.479   32.061
 4560     66.548   14.52   32.683
 4560.5     68.821   14.549   33.491
 4561     70.61   14.532   34.299
 4561.5     70.379   14.515   35.107
 4562     70.149   14.497   36.15
 4562.5     68.808   14.48   37.247
 4563     67.281   14.463   38.344
 4563.5     66.386   14.446   39.44
 4564     66.206   14.428   40.537
 4564.5     67.923   14.411   41.634
 4565     69.685   14.394   42.73
 4565.5     70.542   14.377   43.435
 4566     70.794   14.359   43.868
 4566.5     71.047   14.342   44.302
 4567     71.193   14.325   42.501
 4567.5     70.477   14.308   41.354
 4568     69.66   14.29   40.208
 4568.5     66.197   14.273   39.58
 4569     62.734   14.269   39.577
 4569.5     59.452   14.274   39.574
 4570     57.361   14.279   39.535
 4570.5     57.622   14.284   39.185
 4571     61.602   14.29   38.836
 4571.5     65.581   14.295   38.486
 4572     67.685   14.3   38.137
 4572.5     68.799   14.305   38.012
 4573     69.913   14.31   38.102
 4573.5     70.513   14.315   38.192
 4574     69.434   14.321   38.282
 4574.5     67.946   14.326   38.372
 4575     68.914   14.331   38.462
 4575.5     70.285   14.336   38.552
 4576     71.876   14.341   38.642
 4576.5     73.467   14.346   38.731
 4577     72.421   14.352   39.926
 4577.5     69.522   14.357   41.135
 4578     67.32   14.362   42.344
 4578.5     65.548   14.367   45.706
 4579     65.549   14.372   52.594
 4579.5     65.726   14.377   59.482
 4580     66.48   14.383   64.254
 4580.5     67.234   14.388   67.317
 4581     67.441   14.393   70.38
 4581.5     67.188   14.398   71.887
 4582     67.336   14.403   69.97
 4582.5     68.041   14.408   65.397
 4583     67.896   14.413   57.484
 4583.5     66.508   14.419   51.476
 4584     60.604   14.424   47.964
 4584.5     56.244   14.429   44.984
 4585     58.158   14.434   42.1
 4585.5     61.885   14.439   39.636
 4586     65.611   14.444   38.658
 4586.5     69.092   14.438   39.644
 4587     68.16   14.423   40.63
 4587.5     67.228   14.409   45.193
 4588     66.878   14.394   49.838
 4588.5     66.931   14.379   54.484
 4589     66.778   14.365   58.298
 4589.5     66.424   14.35   59.085
 4590     66.421   14.336   59.871
 4590.5     66.882   14.321   60.826
 4591     67.342   14.306   62.483
 4591.5     67.295   14.292   64.14
 4592     66.623   14.277   65.798
 4592.5     65.95   14.263   69.251
 4593     65.723   14.248   73.881
 4593.5     65.88   14.233   77.055
 4594     66.63   14.219   76.619
 4594.5     67.528   14.204   80.094
 4595     68.426   14.193   88.469
 4595.5     69.324   14.238   98.78
 4596     70.133   14.283   109.09
 4596.5     68.684   14.327   119.401
 4597     64.469   14.372   126.867
 4597.5     63.565   14.417   125.868
 4598     62.691   14.461   106.189
 4598.5     60.5   14.506   81.434
 4599     57.096   14.551   66.003
 4599.5     59.913   14.596   54.461
 4600     63.627   14.64   47.044
 4600.5     67.341   14.685   44.8
 4601     71.056   14.73   43.671
 4601.5     71.875   14.775   43.656
 4602     71.714   14.819   45.685
 4602.5     69.433   14.864   47.714
 4603     68.953   14.909   49.744
 4603.5     71.009   14.945   51.773
 4604     73.065   14.957   53.802
 4604.5     75.121   14.968   55.656
 4605     77.177   14.98   55.823
 4605.5     78.194   14.991   55.99
 4606     77.065   15.003   56.157
 4606.5     74.624   15.014   56.324
 4607     69.026   15.026   56.491
 4607.5     65.507   15.037   56.658
 4608     64.431   15.049   56.5
 4608.5     63.433   15.061   53.352
 4609     68.348   15.072   50.205
 4609.5     72.045   15.084   47.057
 4610     72.627   15.095   45.062
 4610.5     73.209   15.107   43.143
 4611     70.474   15.118   41.225
 4611.5     69.02   15.13   40.109
 4612     69.09   15.141   39.168
 4612.5     70.267   15.153   38.226
 4613     72.145   15.149   37.632
 4613.5     72.631   15.133   37.499
 4614     72.535   15.117   37.365
 4614.5     72.439   15.101   37.231
 4615     72.343   15.084   37.097
 4615.5     72.246   15.068   36.964
 4616     72.097   15.052   36.775
 4616.5     71.616   15.036   36.472
 4617     71.159   15.02   36.169
 4617.5     71.34   15.004   35.866
 4618     71.52   14.988   35.449
 4618.5     71.701   14.972   34.818
 4619     71.882   14.956   34.188
 4619.5     69.284   14.94   33.557
 4620     65.592   14.924   32.926
 4620.5     61.675   14.908   32.296
 4621     61.759   14.892   31.665
 4621.5     64.205   14.876   31.035
 4622     66.887   14.86   30.404
 4622.5     69.395   14.844   29.774
 4623     70.999   14.828   30.462
 4623.5     70.939   14.812   31.417
 4624     69.337   14.796   32.373
 4624.5     67.734   14.78   33.328
 4625     66.132   14.764   34.283
 4625.5     66.552   14.748   35.239
 4626     68.069   14.732   36.135
 4626.5     69.585   14.716   36.788
 4627     69.071   14.7   37.442
 4627.5     68.207   14.684   38.095
 4628     68.849   14.668   38.748
 4628.5     68.827   14.652   39.402
 4629     68.503   14.636   40.382
 4629.5     68.85   14.62   43.298
 4630     68.489   14.604   46.213
 4630.5     67.501   14.588   49.129
 4631     67.609   14.572   49.567
 4631.5     67.851   14.556   48.369
 4632     66.342   14.54   47.172
 4632.5     66.17   14.524   45.974
 4633     66.093   14.536   45.413
 4633.5     64.303   14.564   46.543
 4634     62.512   14.592   47.017
 4634.5     59.801   14.62   44.233
 4635     57.496   14.648   41.449
 4635.5     60.258   14.676   38.666
 4636     63.021   14.704   35.882
 4636.5     65.783   14.732   34.547
 4637     67.035   14.72   35.012
 4637.5     68.124   14.7   35.477
 4638     69.387   14.68   35.942
 4638.5     71.513   14.659   36.66
 4639     73.639   14.639   38.384
 4639.5     75.302   14.619   40.109
 4640     75.749   14.57   42.138
 4640.5     76.197   14.488   45.32
 4641     73.476   14.405   48.501
 4641.5     70.218   14.323   51.683
 4642     67.593   14.241   55.546
 4642.5     66.735   14.158   66.485
 4643     67.267   14.076   77.423
 4643.5     68.677   13.994   88.362
 4644     70.087   13.912   99.3
 4644.5     69.991   13.829   110.239
 4645     65.998   13.747   117.381
 4645.5     61.964   13.665   124.221
 4646     60.171   13.64   119.261
 4646.5     60.097   13.66   108.204
 4647     62.311   13.68   97.146
 4647.5     64.524   13.699   95.165
 4648     66.665   13.719   101.273
 4648.5     67.565   13.739   107.38
 4649     68.465   13.759   113.488
 4649.5     66.011   13.778   107.564
 4650     62.725   13.798   98.969
 4650.5     57.93   13.818   86.916
 4651     58.669   13.837   70.755
 4651.5     59.951   13.857   54.595
 4652     62.46   13.877   40.017
 4652.5     65.847   13.897   38.41
 4653     66.224   13.916   37.552
 4653.5     66.653   13.936   36.808
 4654     67.203   13.956   37.16
 4654.5     67.753   13.976   37.946
 4655     68.304   13.995   38.732
 4655.5     67.686   14.015   39.518
 4656     67.039   14.035   40.305
 4656.5     66.393   14.055   41.091
 4657     66.072   14.074   41.877
 4657.5     66.184   14.094   42.392
 4658     66.297   14.114   41.476
 4658.5     65.645   14.133   40.561
 4659     63.743   14.153   39.645
 4659.5     61.952   14.173   38.729
 4660     63.215   14.193   37.813
 4660.5     63.593   14.212   36.898
 4661     62.794   14.232   35.982
 4661.5     61.995   14.252   35.066
 4662     61.196   14.272   34.15
 4662.5     60.397   14.291   33.234
 4663     60.384   14.311   32.881
 4663.5     60.489   14.331   32.784
 4664     58.453   14.351   32.687
 4664.5     58.038   14.37   32.591
 4665     60.704   14.39   32.729
 4665.5     63.371   14.41   33.203
 4666     66.038   14.429   33.676
 4666.5     68.705   14.425   34.421
 4667     68.522   14.406   38.399
 4667.5     68.054   14.388   42.376
 4668     67.67   14.369   46.354
 4668.5     67.692   14.35   49.553
 4669     67.714   14.331   50.751
 4669.5     67.736   14.312   51.949
 4670     67.316   14.293   53.147
 4670.5     66.869   14.274   54.346
