#--------------------------------------------------#
#-------------------ENVERUS, INC.------------------#
#------------------WWW.ENVERUS.COM-----------------#
#------------------COPYRIGHT 2020------------------#
#--------------------------------------------------#
#THIS FILE MAY BE USED ONLY IN ACCORDANCE WITH A CURRENT SUBSCRIPTION AGREEMENT BETWEEN
#THE USER AND ENVERUS, INC. NO PART OF THIS FILE MAY BE REPRODUCED, USED, COPIED,
#MODIFIED, PROPAGATED, OR DISTRIBUTED EXCEPT IN ACCORDANCE WITH THE SUBSCRIPTION
#AGREEMENT. UNAUTHORIZED USE OR DISTRIBUTION OF ALL OR ANY PART OF THIS FILE MAY VIOLATE
#COPYRIGHT, TRADEMARK, AND/OR OTHER LAWS AND IS SUBJECT TO CIVIL AS WELL AS CRIMINAL
#SANCTIONS.
#--------------------------------------------------#
#THIS FILE IS PROVIDED "AS-IS" AND ALL WARRANTIES ARE EXPRESSLY DISCLAIMED, WHETHER
#EXPRESS, ORAL, IMPLIED, STATUTORY OR OTHERWISE, INCLUDING ANY IMPLIED WARRANTY OF FITNESS
#FOR A PARTICULAR PURPOSE, MERCHANTABILITY, TITLE OR NON-INFRINGEMENT, AND ANY WARRANTIES
#ARISING BY VIRTUE OF CUSTOM OF TRADE OR COURSE OF DEALING.  FURTHER, ENVERUS, INC.
#AND ITS LICENSORS DO NOT REPRESENT OR WARRANT THAT THIS FILE WILL MEET USER'S
#REQUIREMENTS OR ARE SUITABLE FOR USER'S NEEDS OR THAT THE DATA OR RESULTS PROVIDED IN
#CONJUNCTION THEREWITH ARE CORRECT, ACCURATE, TIMELY OR RELIABLE. THESE DISCLAIMERS SHALL
#APPLY REGARDLESS OF ANY FAILURE OF ESSENTIAL PURPOSE OF ANY LIMITED REMEDY.  SOME
#JURISDICTIONS DO NOT ALLOW THE EXCLUSION OF CERTAIN WARRANTIES SO SOME OF THE ABOVE
#EXCLUSIONS MAY NOT APPLY. IN NO EVENT SHALL ENVERUS, INC. OR ANY OF ITS AFFILIATES
#BE LIABLE UNDER ANY LEGAL THEORY, WHETHER IN TORT (INCLUDING WITHOUT LIMITATION
#NEGLIGENCE), CONTRACT, STRICT LIABILITY, STATUTORY OR OTHERWISE, FOR ANY SPECIAL,
#INCIDENTAL, CONSEQUENTIAL, EXEMPLARY, PUNITIVE OR INDIRECT DAMAGE OF ANY KIND, INCLUDING
#WITHOUT LIMITATION LOSS OF REVENUE, PROFITS, GOODWILL, USE, AND/OR DATA OR THE COST OF
#PROCUREMENT OF SUBSTITUTE GOODS OR SERVICES, EVEN IF APPRISED OF THE POSSIBILITY OF SUCH
#DAMAGES IN ADVANCE.
#--------------------------------------------------#

~VERSION INFORMATION
VERS. 2.0 : CWLS LOG ASCII STANDARD - VERSION 2.0
WRAP.  NO : ONE LINE PER DEPTH STEP
~WELL INFORMATION
#MNEMONIC     .UNIT              VALUE :DESCRIPTION
STRT       .FT                145 :START DEPTH
STOP       .FT                15608 :STOP DEPTH
STEP       .FT                   0.500 :STEP
NULL       .                  -999.250 :NULL
UWI        .              42389304120000 :UNIQUE WELL ID
API        .              42389304120000 :API NUMBER
COMP       .         BTA OIL PRODUCERS :COMPANY
WELL       .        7607 JV-P ORLA  1 :WELL
DATE       .                            :LOG DATE
~CURVE INFORMATION
#MNEMONIC     .UNIT      API CODE :CURVE DESCRIPTION
DEPTH       .FT                      :MEASURED DEPTH
DT.US/FT        UNKNOWN   :DT
CAL.INCH        UNKNOWN   :CAL
GR.API        UNKNOWN   :GR
~A    DEPTH    DT    CAL    GR
# ...
 15507.5     50.609   9.504   16.785
 15508     50.405   9.574   15.848
 15508.5     50.582   9.558   15.868
 15509     51.028   9.543   16.336
 15509.5     51.474   9.528   17.917
 15510     50.828   9.513   19.498
 15510.5     50.63   9.498   21.079
 15511     50.544   9.483   21.007
 15511.5     50.459   9.468   19.713
 15512     52.546   9.453   20.254
 15512.5     53.922   9.438   23.187
 15513     54.385   9.437   26.056
 15513.5     54.236   9.444   28.926
 15514     52.771   9.46   28.392
 15514.5     51.711   9.497   24.391
 15515     51.474   9.554   18.895
 15515.5     51.303   9.626   18.681
 15516     51.349   9.694   20.739
 15516.5     51.357   9.637   22.796
 15517     51.305   9.579   22.496
 15517.5     51.254   9.529   22.187
 15518     51.288   9.521   21.879
 15518.5     51.643   9.522   21.57
 15519     51.997   9.616   21.262
 15519.5     52.352   9.71   21.9
 15520     51.917   9.779   22.773
 15520.5     50.76   9.645   23.404
 15521     50.562   9.512   21.098
 15521.5     50.386   9.461   18.792
 15522     50.854   9.542   16.486
 15522.5     51.663   9.623   16.035
 15523     52.39   9.704   15.642
 15523.5     52.436   9.786   15.25
 15524     52.165   9.776   20.493
 15524.5     50.95   9.679   20.378
 15525     50.342   9.582   18.238
 15525.5     50.71   9.622   16.098
 15526     51.396   9.621   17.436
 15526.5     51.846   9.438   18.94
 15527     52.08   9.571   21.764
 15527.5     52.065   9.498   24.835
 15528     51.647   9.635   27.905
 15528.5     51.229   9.785   25.455
 15529     50.812   9.768   23.141
 15529.5     50.735   9.75   23.139
 15530     51.132   9.714   23.137
 15530.5     51.291   9.655   22.878
 15531     50.973   9.537   21.859
 15531.5     50.654   9.525   20.841
 15532     51.687   9.533   19.823
 15532.5     52.737   9.563   18.804
 15533     54.229   9.511   25.262
 15533.5     55.044   9.459   32.133
 15534     54.245   9.437   32.068
 15534.5     53.445   9.431   27.986
 15535     52.443   9.425   23.903
 15535.5     51.26   9.42   19.82
 15536     50.806   9.415   17.639
 15536.5     50.568   9.41   17.08
 15537     50.821   9.421   17.422
 15537.5     51.309   9.451   19.136
 15538     51.797   9.48   20.851
 15538.5     51.724   9.505   21.504
 15539     50.91   9.5   20.467
 15539.5     50.376   9.496   19.43
 15540     50.282   9.492   18.392
 15540.5     50.188   9.486   17.355
 15541     50.695   9.478   16.318
 15541.5     51.399   9.483   16.713
 15542     52.102   9.523   20.371
 15542.5     52.606   9.549   21.685
 15543     52.322   9.528   22.999
 15543.5     52.038   9.507   20.984
 15544     51.753   9.486   18.953
 15544.5     51.469   9.47   19.907
 15545     51.288   9.454   20.86
 15545.5     51.434   9.438   20.56
 15546     51.58   9.425   18.407
 15546.5     51.727   9.413   19.457
 15547     51.816   9.4   20.507
 15547.5     51.726   9.387   21.511
 15548     51.637   9.501   22.054
 15548.5     51.548   9.545   22.597
 15549     51.458   9.429   23.14
 15549.5     51.369   9.314   19.494
 15550     51.344   9.317   14.792
 15550.5     51.344   9.393   15.007
 15551     51.708   9.371   18.425
 15551.5     52.32   9.336   23.687
 15552     54.446   9.301   29.335
 15552.5     55.272   9.266   35.913
 15553     55.718   9.231   42.491
 15553.5     55.75   9.225   45.733
 15554     55.019   9.235   43.804
 15554.5     54.527   9.246   41.874
 15555     54.58   9.256   39.945
 15555.5     53.214   9.266   38.015
 15556     53.358   9.252   36.085
 15556.5     53.533   9.234   34.156
 15557     53.675   9.217   34.827
 15557.5     53.818   9.199   37.365
 15558     53.902   9.181   39.903
 15558.5     53.734   9.175   38.57
 15559     53.566   9.224   36.576
 15559.5     53.397   9.273   34.582
 15560     53.245   9.321   33.858
 15560.5     53.141   9.37   39.126
 15561     53.036   9.376   44.395
 15561.5     55.153   9.325   56.873
 15562     56.921   9.274   70.555
 15562.5     58.681   9.224   83.373
 15563     60.44   9.173   96.19
 15563.5     59.878   9.131   84.483
 15564     58.843   9.125   72.067
 15564.5     58.709   9.119   65.161
 15565     58.678   9.147   65.45
 15565.5     59.032   9.245   70.203
 15566     60.725   9.343   76.358
 15566.5     63.862   9.295   82.513
 15567     64.415   9.243   86.28
 15567.5     65.586   9.191   83.697
 15568     66.755   9.174   82.485
 15568.5     66.4   9.196   82.72
 15569     66.046   9.219   77.572
 15569.5     64.354   9.241   67.872
 15570     61.581   9.257   55.928
 15570.5     58.639   9.272   43.984
 15571     55.696   9.225   33.471
 15571.5     53.753   9.139   27.562
 15572     52.259   9.112   21.653
 15572.5     51.261   9.112   20.39
 15573     50.834   9.112   21.326
 15573.5     50.606   9.111   24.409
 15574     51.73   9.111   29.176
 15574.5     53.23   9.111   33.943
 15575     54.73   9.165   38.71
 15575.5     55.427   9.229   38.835
 15576     55.839   9.294   38.829
 15576.5     55.975   9.294   38.823
 15577     55.494   9.233   38.831
 15577.5     55.012   9.172   38.947
 15578     54.53   9.112   39.062
 15578.5     54.655   9.124   39.178
 15579     55.057   9.168   39.42
 15579.5     55.458   9.212   40.168
 15580     54.4   9.256   40.916
 15580.5     53.746   9.301   41.214
 15581     53.488   9.323   41.399
 15581.5     53.956   9.323   41.583
 15582     54.818   9.323   41.767
 15582.5     55.681   9.323   41.952
 15583     56.543   9.323   42.136
 15583.5     57.098   9.261   42.321
 15584     57.357   9.192   41.649
 15584.5     56.747   9.124   40.275
 15585     55.383   9.164   38.902
 15585.5     52.872   9.203   39.25
 15586     49.899   9.243   40.157
 15586.5     49.899   9.283   41.064
 15587     50.034   9.322   41.971
 15587.5     50.995   9.362   42.441
 15588     52.342   9.401   41.859
 15588.5     53.172   9.428   41.276
 15589     53.896   9.359   40.694
 15589.5     55.037   9.289   40.111
 15590     57.636   9.22   39.529
 15590.5     58.248   9.151   38.947
 15591     59.235   9.082   38.364
 15591.5     59.351   9.038   37.867
 15592     58.621   9.038   37.927
 15592.5     58.181   9.038   37.987
 15593     58.085   9.063   38.047
 15593.5     57.988   9.111   38.053
 15594     57.932   9.159   38.006
 15594.5     58.951   9.207   37.959
 15595     59.781   9.229   37.911
 15595.5     60.147   9.212   37.864
 15596     59.554   9.195   37.817
 15596.5     59.461   9.173   37.77
 15597     59.552   9.143   37.723
 15597.5     59.642   9.128   -999.250
 15598     59.732   9.18   -999.250
 15598.5     -999.250   9.232   -999.250
 15599     -999.250   9.2   -999.250
 15599.5     -999.250   9.166   -999.250
 15600     -999.250   9.147   -999.250
 15600.5     -999.250   9.149   -999.250
 15601     -999.250   9.198   -999.250
 15601.5     -999.250   9.247   -999.250
 15602     -999.250   9.296   -999.250
 15602.5     -999.250   9.345   -999.250
 15603     -999.250   9.358   -999.250
 15603.5     -999.250   9.268   -999.250
 15604     -999.250   9.179   -999.250
 15604.5     -999.250   9.089   -999.250
 15605     -999.250   9   -999.250
 15605.5     -999.250   8.91   -999.250
 15606     -999.250   8.821   -999.250
 15606.5     -999.250   8.731   -999.250
 15607     -999.250   8.652   -999.250
 15607.5     -999.250   8.652   -999.250
 15608     -999.250   8.652   -999.250
