###############################################
##         ENVERUS                           ##
##         ESS - Open Hole                   ##
##         PERMIAN / DELAWARE                ##
##         Nov 04 2023  V4.0                 ##
##         42-389-31270-00-00                ##
###############################################
## Copyright 2017-2023  ENVERUS.  All Rights Reserved. 
## Confidential - Property of ENVERUS, use governed by terms and 
## conditions found within the existing Information Services Subscription Agreement 
## (as may be amended, the “ISSA”) between Customer and ENVERUS. 
## 
~VERSION INFORMATION
# MNEM.UNIT                               DATA : DESCRIPTION OF MNEMONIC
#-----.-----     ----------------------------- : -----------------------------
VERS.                                     2.00 : CWLS LOG ASCII STANDARD - VERSION 2.00
WRAP.                                       NO : MULTIPLE LINES PER DEPTH STEP
VEND.                                  ENVERUS : VENDOR
TYPE.                          ESS - OPEN HOLE : ENVERUS ESSENTIAL CURVES – ACCESSIBLE THROUGH ENVERUS PRISM(TM)
DOC.                                  31950282 : ENVERUS HEADER RAW DOCUMENT ID
#___________________________________________________________________________________________________ 
~WELL INFORMATION 
# 0CODbT4LMl4UGLa7W4QP9cEC157HhgZEtdKI2U+cm8ET/zLKkJfEe4mvdgudHboWMGmWziBYTrzgVEWtCsCjWg== 
# MNEM.UNIT                                              DATA : DESCRIPTION OF MNEMONIC 
#-----.-----                    ----------------------------- : ----------------------------- 
CNTY.                                                  REEVES : COUNTY 
STATE.                                                  TEXAS : STATE 
CNTRY.                                                    USA : COUNTRY 
API.                                             42-389-31270 : API (10 Digit) 
API_14.                                    42-389-31270-00-00 : API (14 Digits) 
API_14_std.                                 42-389-31270-0000 : API (14 Digits Standard) 
UWI.                                           42389312700000 : UNIQUE WELL ID 
WELL.                                        FORTUNE UNIT  2R : WELL NAME
STRT.FT                                                3825.0 : START DEPTH
STOP.FT                                               13654.0 : STOP DEPTH
STEP.FT                                                   0.5 : STEP BETWEEN DEPTHS
NULL.                                                 -999.25 : NULL VALUE
COMP.                          SANDRIDGE EXPL. AND PROD.  LLC : COMPANY 
DATE.                                             19-AUG-2004 : LOG DATE
#___________________________________________________________________________________________________ 
~CURVE INFORMATION 
# MNEM.UNIT           : CURVE DESCRIPTION 
#-----.-----          : ----------------------------- 
 DEPT.FT               : MEASURED DEPTH 
 CALI__B.IN            : CALIPER (CAL - CAL) 
 GR__B.API             : GAMMA RAY (GR) 
 DT__B.US/FT           : SONIC DELTA TRANSIT TIME (DT) 
 #___________________________________________________________________________________________________ 
~A         DEPT        CALI__B          GR__B          DT__B
         3825.0       -999.250       -999.250         56.417
         3825.5       -999.250       -999.250         56.291
         3826.0       -999.250         28.377         56.164
         3826.5       -999.250         28.616         56.038
         3827.0          9.438         28.855         55.912
         3827.5          9.432         29.094         55.899
         3828.0          9.425         29.334         55.983
         3828.5          9.418         29.573         56.231
         3829.0          9.411         29.812         56.614
         3829.5          9.404         30.051         56.997
         3830.0          9.397         30.290         57.380
         3830.5          9.391         30.529         57.762
         3831.0          9.384         30.634         57.583
         3831.5          9.377         25.505         57.271
         3832.0          9.370         22.258         56.958
         3832.5          9.363         23.120         56.645
         3833.0          9.357         23.982         56.333
         3833.5          9.350         24.844         56.022
         3834.0          9.343         25.735         56.030
         3834.5          9.336         26.679         56.037
         3835.0          9.333         27.623         56.044
         3835.5          9.335         28.350         56.051
         3836.0          9.337         28.062         56.058
         3836.5          9.339         27.775         56.066
         3837.0          9.340         27.488         56.073
         3837.5          9.342         27.201         56.080
         3838.0          9.344         26.913         56.087
         3838.5          9.346         28.008         56.094
         3839.0          9.348         29.181         56.101
         3839.5          9.350         30.353         56.108
         3840.0          9.352         31.525         56.108
         3840.5          9.354         32.698         56.108
         3841.0          9.356         33.870         56.108
         3841.5          9.358         35.043         56.109
         3842.0          9.360         36.215         56.109
         3842.5          9.362         37.388         56.109
         3843.0          9.364         37.146         56.109
         3843.5          9.366         35.268         56.110
         3844.0          9.368         34.919         56.118
         3844.5          9.370         36.755         56.132
         3845.0          9.371         38.590         56.146
         3845.5          9.373         40.425         56.160
         3846.0          9.375         41.756         56.174
         3846.5          9.377         38.551         56.188
         3847.0          9.378         35.346         56.203
         3847.5          9.380         32.141         56.217
         3848.0          9.382         31.691         56.231
         3848.5          9.379         32.108         56.245
         3849.0          9.376         32.524         56.259
         3849.5          9.373         32.760         56.273
         3850.0          9.370         32.123         56.257
         3850.5          9.367         31.982         56.227
         3851.0          9.364         34.615         56.197
         3851.5          9.361         37.247         56.167
         3852.0          9.358         39.879         56.136
         3852.5          9.355         39.687         56.106
         3853.0          9.352         38.023         56.076
         3853.5          9.349         36.359         56.046
         3854.0          9.348         34.694         56.016
         3854.5          9.350         33.161         55.986
         3855.0          9.352         32.344         55.956
         3855.5          9.354         31.526         55.926
         3856.0          9.356         30.709         55.896
         3856.5          9.358         29.892         55.866
         3857.0          9.360         31.134         55.836
         3857.5          9.362         33.260         55.806
         3858.0          9.364         35.387         55.776
         3858.5          9.368         37.513         55.746
         3859.0          9.373         39.639         55.716
         3859.5          9.378         41.765         55.715
         3860.0          9.383         43.570         55.731
         3860.5          9.388         40.367         55.746
         3861.0          9.393         38.727         55.762
         3861.5          9.409         39.535         55.778
         3862.0          9.695         40.343         55.759
         3862.5          9.981         41.151         55.675
         3863.0         10.054         41.959         55.592
         3863.5         10.064         42.766         55.508
         3864.0         10.073         43.444         55.494
         3864.5         10.083         40.985         55.577
         3865.0         10.092         38.526         55.661
         3865.5         10.102         36.066         55.744
         3866.0         10.111         33.607         55.735
         3866.5         10.113         31.722         55.609
         3867.0         10.110         36.570         55.483
         3867.5         10.107         41.419         55.357
         3868.0         10.104         43.230         55.784
         3868.5         10.101         41.032         56.418
         3869.0         10.098         38.834         54.623
         3869.5         10.095         36.636         52.827
         3870.0         10.092         34.438         53.440
         3870.5         10.089         32.582         54.782
         3871.0         10.086         34.985         56.125
         3871.5         10.083         37.388         57.467
         3872.0         10.098         39.792         59.215
         3872.5         10.152         38.328         61.565
         3873.0         10.206         36.699         63.915
         3873.5         10.282         35.071         66.265
         3874.0         10.480         34.662         67.134
         3874.5         10.679         37.421         66.083
         3875.0         10.877         41.586         65.032
         3875.5         11.076         48.491         64.600
         3876.0         11.274         55.395         65.199
         3876.5         11.472         62.300         65.369
         3877.0         12.016         66.654         64.575
         3877.5         12.782         64.448         63.780
         3878.0         13.548         62.241         63.131
         3878.5         14.208         60.035         63.089
         3879.0         14.265         57.828         63.048
         3879.5         14.323         56.713         63.006
         3880.0         14.380         57.795         63.376
         3880.5         14.438         58.876         64.980
         3881.0         13.783         69.893         66.585
         3881.5         12.026         81.329         66.831
         3882.0         10.789         90.336         63.358
         3882.5         10.449         85.887         59.885
         3883.0         10.407         81.437         57.079
         3883.5         10.365         76.988         56.286
         3884.0         10.322         72.539         57.090
         3884.5         10.280         68.090         57.893
         3885.0         10.288         63.641         58.679
         3885.5         10.318         59.192         58.025
         3886.0         10.347         57.439         57.370
         3886.5         10.377         55.868         56.716
         3887.0         10.407         58.417         56.062
         3887.5         10.409         58.598         56.078
         3888.0         10.386         53.390         56.538
         3888.5         10.363         48.181         56.999
         3889.0         10.340         45.668         57.460
         3889.5         10.318         48.220         57.920
         3890.0         10.313         50.772         58.381
         3890.5         10.356         53.324         58.841
