#--------------------------------------------------#
#-------------------ENVERUS, INC.------------------#
#------------------WWW.ENVERUS.COM-----------------#
#------------------COPYRIGHT 2020------------------#
#--------------------------------------------------#
#THIS FILE MAY BE USED ONLY IN ACCORDANCE WITH A CURRENT SUBSCRIPTION AGREEMENT BETWEEN
#THE USER AND ENVERUS, INC. NO PART OF THIS FILE MAY BE REPRODUCED, USED, COPIED,
#MODIFIED, PROPAGATED, OR DISTRIBUTED EXCEPT IN ACCORDANCE WITH THE SUBSCRIPTION
#AGREEMENT. UNAUTHORIZED USE OR DISTRIBUTION OF ALL OR ANY PART OF THIS FILE MAY VIOLATE
#COPYRIGHT, TRADEMARK, AND/OR OTHER LAWS AND IS SUBJECT TO CIVIL AS WELL AS CRIMINAL
#SANCTIONS.
#--------------------------------------------------#
#THIS FILE IS PROVIDED "AS-IS" AND ALL WARRANTIES ARE EXPRESSLY DISCLAIMED, WHETHER
#EXPRESS, ORAL, IMPLIED, STATUTORY OR OTHERWISE, INCLUDING ANY IMPLIED WARRANTY OF FITNESS
#FOR A PARTICULAR PURPOSE, MERCHANTABILITY, TITLE OR NON-INFRINGEMENT, AND ANY WARRANTIES
#ARISING BY VIRTUE OF CUSTOM OF TRADE OR COURSE OF DEALING.  FURTHER, ENVERUS, INC.
#AND ITS LICENSORS DO NOT REPRESENT OR WARRANT THAT THIS FILE WILL MEET USER'S
#REQUIREMENTS OR ARE SUITABLE FOR USER'S NEEDS OR THAT THE DATA OR RESULTS PROVIDED IN
#CONJUNCTION THEREWITH ARE CORRECT, ACCURATE, TIMELY OR RELIABLE. THESE DISCLAIMERS SHALL
#APPLY REGARDLESS OF ANY FAILURE OF ESSENTIAL PURPOSE OF ANY LIMITED REMEDY.  SOME
#JURISDICTIONS DO NOT ALLOW THE EXCLUSION OF CERTAIN WARRANTIES SO SOME OF THE ABOVE
#EXCLUSIONS MAY NOT APPLY. IN NO EVENT SHALL ENVERUS, INC. OR ANY OF ITS AFFILIATES
#BE LIABLE UNDER ANY LEGAL THEORY, WHETHER IN TORT (INCLUDING WITHOUT LIMITATION
#NEGLIGENCE), CONTRACT, STRICT LIABILITY, STATUTORY OR OTHERWISE, FOR ANY SPECIAL,
#INCIDENTAL, CONSEQUENTIAL, EXEMPLARY, PUNITIVE OR INDIRECT DAMAGE OF ANY KIND, INCLUDING
#WITHOUT LIMITATION LOSS OF REVENUE, PROFITS, GOODWILL, USE, AND/OR DATA OR THE COST OF
#PROCUREMENT OF SUBSTITUTE GOODS OR SERVICES, EVEN IF APPRISED OF THE POSSIBILITY OF SUCH
#DAMAGES IN ADVANCE.
#--------------------------------------------------#

~VERSION INFORMATION
VERS. 2.0 : CWLS LOG ASCII STANDARD - VERSION 2.0
WRAP.  NO : ONE LINE PER DEPTH STEP
~WELL INFORMATION
#MNEMONIC     .UNIT              VALUE :DESCRIPTION
STRT       .FT                0 :START DEPTH
STOP       .FT                15770 :STOP DEPTH
STEP       .FT                   0.500 :STEP
NULL       .                  -999.250 :NULL
UWI        .              42389309020000 :UNIQUE WELL ID
API        .              42389309020000 :API NUMBER
COMP       .         WALSH & WATTS  INC. :COMPANY
WELL       .        SABRE  1WS :WELL
DATE       .                28-JAN-1987 :LOG DATE
~CURVE INFORMATION
#MNEMONIC     .UNIT      API CODE :CURVE DESCRIPTION
DEPTH       .FT                      :MEASURED DEPTH
CAL.INCH        UNKNOWN   :CAL
DT.US/FT        UNKNOWN   :DT
GR.API        UNKNOWN   :GR
~A    DEPTH    CAL    DT    GR
# ...
 2149.5     -999.250   50.69   13.93
 2150     -999.250   51.369   12.424
 2150.5     -999.250   51.252   10.918
 2151     -999.250   51.32   9.412
 2151.5     -999.250   51.437   8.654
 2152     -999.250   51.554   9.937
 2152.5     -999.250   51.726   11.141
 2153     -999.250   52.521   10.773
 2153.5     -999.250   53.077   10.405
 2154     -999.250   53.037   10.287
 2154.5     -999.250   53.778   11.587
 2155     -999.250   54.259   12.21
 2155.5     -999.250   54.243   12.122
 2156     -999.250   54.226   12.219
 2156.5     -999.250   54.21   13.639
 2157     -999.250   54.946   15.058
 2157.5     -999.250   56.112   16.477
 2158     -999.250   56.535   15.649
 2158.5     -999.250   56.489   14.523
 2159     -999.250   56.443   13.397
 2159.5     -999.250   56.397   12.27
 2160     -999.250   56.351   11.144
 2160.5     -999.250   56.305   11.002
 2161     -999.250   56.259   13.733
 2161.5     -999.250   56.213   14.672
 2162     -999.250   56.176   13.051
 2162.5     -999.250   56.151   11.43
 2163     -999.250   56.126   10.606
 2163.5     -999.250   56.101   11.866
 2164     -999.250   56.077   13.748
 2164.5     -999.250   56.052   13.956
 2165     -999.250   56.027   13.859
 2165.5     -999.250   56.002   14.831
 2166     -999.250   56.035   16.551
 2166.5     -999.250   56.076   16.24
 2167     -999.250   56.118   14.273
 2167.5     -999.250   56.159   12.306
 2168     -999.250   56.151   12.452
 2168.5     -999.250   56.071   12.875
 2169     -999.250   55.956   13.266
 2169.5     -999.250   52.794   13.674
 2170     -999.250   56.016   14.339
 2170.5     -999.250   56.175   15.004
 2171     -999.250   56.36   15.669
 2171.5     -999.250   56.268   16.343
 2172     -999.250   54.448   17.073
 2172.5     -999.250   51.823   15.835
 2173     -999.250   49.793   14.451
 2173.5     -999.250   49.817   13.066
 2174     -999.250   49.841   12.678
 2174.5     -999.250   49.642   12.366
 2175     -999.250   49.378   11.649
 2175.5     -999.250   49.114   10.856
 2176     -999.250   48.85   11.901
 2176.5     -999.250   48.77   13.119
 2177     -999.250   48.849   14.338
 2177.5     -999.250   48.905   14.747
 2178     -999.250   48.865   14.342
 2178.5     -999.250   48.992   13.937
 2179     -999.250   49.214   13.532
 2179.5     -999.250   49.591   13.128
 2180     -999.250   49.876   12.723
 2180.5     -999.250   49.779   13.392
 2181     -999.250   49.918   14.863
 2181.5     -999.250   50.472   16.333
 2182     -999.250   51.026   17.804
 2182.5     -999.250   51.289   17.083
 2183     -999.250   51.474   16.355
 2183.5     -999.250   52.192   14.877
 2184     -999.250   54.362   13.312
 2184.5     -999.250   57.603   12.036
 2185     -999.250   58.867   11.66
 2185.5     -999.250   59.564   11.805
 2186     -999.250   60.49   12.468
 2186.5     -999.250   60.695   13.132
 2187     -999.250   60.899   13.795
 2187.5     -999.250   60.996   14.126
 2188     -999.250   60.638   13.143
 2188.5     -999.250   60.924   12.159
 2189     -999.250   61.1   11.176
 2189.5     -999.250   61.276   12.012
 2190     -999.250   61.452   13.126
 2190.5     -999.250   61.038   14.24
 2191     -999.250   60.359   15.355
 2191.5     -999.250   59.872   15.217
 2192     -999.250   60.07   14.974
 2192.5     -999.250   60.138   13.95
 2193     -999.250   60.138   12.926
 2193.5     -999.250   59.494   11.931
 2194     -999.250   58.781   11.787
 2194.5     -999.250   58.94   11.644
 2195     -999.250   58.839   11.5
 2195.5     -999.250   58.091   11.357
 2196     -999.250   56.93   10.878
 2196.5     -999.250   53.017   10.085
 2197     -999.250   52.497   10.515
 2197.5     -999.250   52.656   11.799
 2198     -999.250   52.814   13.082
 2198.5     -999.250   59.987   14.202
 2199     -999.250   61.375   15.015
 2199.5     -999.250   61.375   14.981
 2200     -999.250   60.824   13.945
 2200.5     -999.250   56.18   12.91
 2201     -999.250   54.17   11.965
 2201.5     -999.250   53.01   11.237
 2202     -999.250   53.052   11.357
 2202.5     -999.250   53.094   14.953
 2203     -999.250   58.029   16.911
 2203.5     -999.250   59.318   16.079
 2204     -999.250   59.798   15.246
 2204.5     -999.250   59.516   15.2
 2205     -999.250   59.488   15.426
 2205.5     -999.250   59.468   15.652
 2206     -999.250   59.448   14.41
 2206.5     -999.250   59.602   12.812
 2207     -999.250   59.676   11.214
 2207.5     -999.250   59.642   11.393
 2208     -999.250   59.608   12.03
 2208.5     -999.250   59.574   12.668
 2209     -999.250   59.613   12.569
 2209.5     -999.250   59.669   12.152
 2210     -999.250   59.726   12.899
 2210.5     -999.250   59.782   14.401
 2211     -999.250   59.839   14.313
 2211.5     -999.250   59.895   13.001
 2212     -999.250   59.952   11.689
 2212.5     -999.250   60.008   12.332
 2213     -999.250   60.065   14.474
 2213.5     -999.250   60.121   16.615
 2214     -999.250   60.178   18.418
 2214.5     -999.250   60.391   18.782
 2215     -999.250   60.623   17.082
 2215.5     -999.250   60.855   15.344
 2216     -999.250   64.336   13.606
 2216.5     -999.250   70.606   12.136
 2217     -999.250   70.796   13.683
 2217.5     -999.250   70.796   15.229
 2218     -999.250   70.86   15.295
 2218.5     -999.250   70.979   14.054
 2219     -999.250   71.098   12.999
 2219.5     -999.250   71.089   12.531
 2220     -999.250   70.901   13.445
 2220.5     -999.250   70.76   14.611
 2221     -999.250   71.057   15.776
 2221.5     -999.250   71.354   16.596
 2222     -999.250   71.651   13.71
 2222.5     -999.250   71.479   13.346
 2223     -999.250   71.257   14.372
 2223.5     -999.250   71.397   15.233
 2224     -999.250   71.308   14.144
 2224.5     -999.250   70.949   14.341
 2225     -999.250   71.054   15.162
 2225.5     -999.250   71.155   15.37
 2226     -999.250   70.965   13.907
 2226.5     -999.250   71.167   12.443
 2227     -999.250   70.781   10.98
 2227.5     -999.250   70.992   9.886
 2228     -999.250   70.969   10.846
 2228.5     -999.250   70.711   13.203
 2229     -999.250   70.453   15.56
 2229.5     -999.250   70.771   15.178
 2230     -999.250   71.463   13.709
 2230.5     -999.250   71.162   12.21
 2231     -999.250   71.446   12.04
 2231.5     -999.250   71.122   13.417
 2232     -999.250   70.799   14.767
 2232.5     -999.250   70.687   15.792
 2233     -999.250   70.735   16.913
 2233.5     -999.250   70.784   18.197
 2234     -999.250   70.832   17.794
 2234.5     -999.250   70.881   17.005
 2235     -999.250   71.099   15.765
 2235.5     -999.250   71.484   14.524
 2236     -999.250   71.525   13.284
 2236.5     -999.250   71.441   12.043
 2237     -999.250   71.356   13.03
 2237.5     -999.250   71.306   15.083
 2238     -999.250   71.977   15.458
 2238.5     -999.250   72.649   14.922
 2239     -999.250   67.169   14.223
 2239.5     -999.250   66.664   12.895
 2240     -999.250   64.646   11.566
 2240.5     -999.250   60.471   11.217
 2241     -999.250   58.618   11.219
 2241.5     -999.250   58.443   11.636
 2242     -999.250   59.341   12.274
 2242.5     -999.250   61.608   12.653
 2243     -999.250   64.918   12.238
 2243.5     -999.250   65.001   11.985
 2244     -999.250   64.308   12.622
 2244.5     -999.250   60.072   13.131
 2245     -999.250   54.651   12.365
 2245.5     -999.250   54.52   11.599
 2246     -999.250   54.389   12.434
 2246.5     -999.250   54.258   13.637
 2247     -999.250   54.127   14.691
 2247.5     -999.250   57.228   14.067
 2248     -999.250   62.79   13.443
 2248.5     -999.250   63.453   13.362
 2249     -999.250   63.961   13.594
 2249.5     -999.250   61.67   13.574
 2250     -999.250   54.309   13.462
 2250.5     -999.250   52.816   11.578
 2251     -999.250   52.8   9.317
 2251.5     -999.250   52.783   7.725
 2252     -999.250   52.767   6.984
 2252.5     -999.250   52.971   7.994
 2253     -999.250   53.197   9.005
 2253.5     -999.250   53.199   10.015
 2254     -999.250   50.461   11.733
 2254.5     -999.250   46.183   13.581
 2255     -999.250   43.972   14.123
