###############################################
##         ENVERUS                           ##
##         ESS - Open Hole                   ##
##         PERMIAN / DELAWARE                ##
##         Nov 04 2023  V4.0                 ##
##         42-389-30283-00-00                ##
###############################################
## Copyright 2017-2023  ENVERUS.  All Rights Reserved. 
## Confidential - Property of ENVERUS, use governed by terms and 
## conditions found within the existing Information Services Subscription Agreement 
## (as may be amended, the “ISSA”) between Customer and ENVERUS. 
## 
~VERSION INFORMATION
# MNEM.UNIT                               DATA : DESCRIPTION OF MNEMONIC
#-----.-----     ----------------------------- : -----------------------------
VERS.                                     2.00 : CWLS LOG ASCII STANDARD - VERSION 2.00
WRAP.                                       NO : MULTIPLE LINES PER DEPTH STEP
VEND.                                  ENVERUS : VENDOR
TYPE.                          ESS - OPEN HOLE : ENVERUS ESSENTIAL CURVES – ACCESSIBLE THROUGH ENVERUS PRISM(TM)
DOC.                                  32052778 : ENVERUS HEADER RAW DOCUMENT ID
#___________________________________________________________________________________________________ 
~WELL INFORMATION 
# CKTmoz7OsKELnwE/IP0i4B9qEmEewtam1JWnvb6ghWZsYWfxLv+2EOc67unJ6Yof0W+RqImtxqI23GomxkzDLA== 
# MNEM.UNIT                                              DATA : DESCRIPTION OF MNEMONIC 
#-----.-----                    ----------------------------- : ----------------------------- 
CNTY.                                                  REEVES : COUNTY 
STATE.                                                  TEXAS : STATE 
CNTRY.                                                    USA : COUNTRY 
API.                                             42-389-30283 : API (10 Digit) 
API_14.                                    42-389-30283-00-00 : API (14 Digits) 
API_14_std.                                 42-389-30283-0000 : API (14 Digits Standard) 
UWI.                                           42389302830000 : UNIQUE WELL ID 
WELL.                       RANDOLPH  A. T.  ET AL-STATE  1 L : WELL NAME
STRT.FT                                                 155.0 : START DEPTH
STOP.FT                                               15740.0 : STOP DEPTH
STEP.FT                                                   0.5 : STEP BETWEEN DEPTHS
NULL.                                                 -999.25 : NULL VALUE
COMP.                                     RIO PETROLEUM  INC. : COMPANY
#___________________________________________________________________________________________________ 
~CURVE INFORMATION 
# MNEM.UNIT           : CURVE DESCRIPTION 
#-----.-----          : ----------------------------- 
 DEPT.FT               : MEASURED DEPTH 
 CALI__A.IN            : CALIPER (CAL - CAL) 
 GR__A.API             : GAMMA RAY (GR) 
 SP__A.MV              : SPONTANEOUS POTENTIAL (SP) 
 DT__A.US/FT           : SONIC DELTA TRANSIT TIME (DT) 
 RESD__A.OHMM          : DEEP INDUCTION RESISTIVITY (ILD - ILD) 
 NPHI__A.V/V           : NEUTRON POROSITY (NPH - NPH) 
 #___________________________________________________________________________________________________ 
~A         DEPT        CALI__A          GR__A          SP__A          DT__A        RESD__A        NPHI__A
# ...
         9351.0         12.956         65.265       -999.250         73.161       -999.250     -999.25000
         9351.5         12.956         68.510       -999.250         74.302       -999.250     -999.25000
         9352.0         12.956         69.606       -999.250         74.018       -999.250     -999.25000
         9352.5         12.956         69.477       -999.250         73.734       -999.250     -999.25000
         9353.0         12.956         66.619       -999.250         72.679       -999.250     -999.25000
         9353.5         12.957         63.760       -999.250         70.651       -999.250     -999.25000
         9354.0         12.957         62.012       -999.250         68.624       -999.250     -999.25000
         9354.5         12.957         60.552       -999.250         66.596       -999.250     -999.25000
         9355.0         12.952         59.471       -999.250         67.378       -999.250     -999.25000
         9355.5         12.947         63.899       -999.250         69.817       -999.250     -999.25000
         9356.0         12.941         67.891       -999.250         72.256       -999.250     -999.25000
         9356.5         12.936         70.560       -999.250         74.695       -999.250     -999.25000
         9357.0         12.930         70.226       -999.250         76.305       -999.250     -999.25000
         9357.5         12.925         68.785       -999.250         76.471       -999.250     -999.25000
         9358.0         12.919         69.378       -999.250         74.973       -999.250     -999.25000
         9358.5         12.914         71.644       -999.250         73.474       -999.250     -999.25000
         9359.0         12.933         71.065       -999.250         71.975       -999.250     -999.25000
         9359.5         12.954         62.350       -999.250         70.250       -999.250     -999.25000
         9360.0         12.976         54.725       -999.250         68.488       -999.250     -999.25000
         9360.5         12.997         53.855       -999.250         67.559       -999.250     -999.25000
         9361.0         13.018         52.984       -999.250         67.104       -999.250     -999.25000
         9361.5         13.040         52.114       -999.250         67.222       -999.250     -999.25000
         9362.0         13.061         52.233       -999.250         68.096       -999.250     -999.25000
         9362.5         13.083         52.556       -999.250         68.971       -999.250     -999.25000
         9363.0         13.084         52.879       -999.250         69.846       -999.250     -999.25000
         9363.5         13.074         53.202       -999.250         67.981       -999.250     -999.25000
         9364.0         13.063         49.855       -999.250         66.413       -999.250     -999.25000
         9364.5         13.053         45.592       -999.250         68.513       -999.250     -999.25000
         9365.0         13.058         43.714       -999.250         70.614       -999.250     -999.25000
         9365.5         13.083         42.825       -999.250         71.176       -999.250     -999.25000
         9366.0         13.108         49.167       -999.250         70.698       -999.250     -999.25000
         9366.5         13.133         49.862       -999.250         70.332       -999.250     -999.25000
         9367.0         13.157         49.997       -999.250         71.359       -999.250     -999.25000
         9367.5         13.181         50.132       -999.250         71.584       -999.250     -999.25000
         9368.0         13.195         51.207       -999.250         71.038       -999.250     -999.25000
         9368.5         13.209         52.813       -999.250         70.491       -999.250     -999.25000
         9369.0         13.222         53.523       -999.250         69.945       -999.250     -999.25000
         9369.5         13.236         54.234       -999.250         69.575       -999.250     -999.25000
         9370.0         13.250         56.381       -999.250         70.862       -999.250     -999.25000
         9370.5         13.264         61.277       -999.250         71.499       -999.250     -999.25000
         9371.0         13.277         66.173       -999.250         72.140       -999.250     -999.25000
         9371.5         13.291         69.235       -999.250         72.781       -999.250     -999.25000
         9372.0         13.305         70.231       -999.250         73.308       -999.250     -999.25000
         9372.5         13.318         68.871       -999.250         73.663       -999.250     -999.25000
         9373.0         13.332         68.873       -999.250         74.018       -999.250     -999.25000
         9373.5         13.346         68.875       -999.250         72.504       -999.250     -999.25000
         9374.0         13.360         66.465       -999.250         69.609       -999.250     -999.25000
         9374.5         13.373         56.832       -999.250         66.714       -999.250     -999.25000
         9375.0         13.387         53.599       -999.250         65.523       -999.250     -999.25000
         9375.5         13.401         53.919       -999.250         67.066       -999.250     -999.25000
         9376.0         13.398         58.753       -999.250         70.777       -999.250     -999.25000
         9376.5         13.392         64.835       -999.250         73.948       -999.250     -999.25000
         9377.0         13.387         69.039       -999.250         74.598       -999.250     -999.25000
         9377.5         13.381         72.452       -999.250         75.593       -999.250     -999.25000
         9378.0         13.376         75.866       -999.250         76.587       -999.250     -999.25000
         9378.5         13.370         80.291       -999.250         77.582       -999.250     -999.25000
         9379.0         13.365         80.173       -999.250         77.108       -999.250     -999.25000
         9379.5         13.360         79.983       -999.250         76.471       -999.250     -999.25000
         9380.0         13.354         77.973       -999.250         75.710       -999.250     -999.25000
         9380.5         13.349         74.889       -999.250         73.045       -999.250     -999.25000
         9381.0         13.343         68.612       -999.250         70.381       -999.250     -999.25000
         9381.5         13.338         65.084       -999.250         67.716       -999.250     -999.25000
         9382.0         13.333         60.187       -999.250         67.689       -999.250     -999.25000
         9382.5         13.327         58.274       -999.250         69.768       -999.250     -999.25000
         9383.0         13.322         57.608       -999.250         71.848       -999.250     -999.25000
         9383.5         13.316         56.942       -999.250         72.389       -999.250     -999.25000
         9384.0         13.311         55.870       -999.250         72.431       -999.250     -999.25000
         9384.5         13.306         58.536       -999.250         72.473       -999.250     -999.25000
         9385.0         13.300         61.201       -999.250         72.516       -999.250     -999.25000
         9385.5         13.295         63.577       -999.250         72.601       -999.250     -999.25000
         9386.0         13.289         64.908       -999.250         73.680       -999.250     -999.25000
         9386.5         13.284         63.937       -999.250         74.760       -999.250     -999.25000
         9387.0         13.278         63.307       -999.250         75.840       -999.250     -999.25000
         9387.5         13.273         63.309       -999.250         74.315       -999.250     -999.25000
         9388.0         13.272         56.513       -999.250         72.346       -999.250     -999.25000
         9388.5         13.272         56.345       -999.250         70.376       -999.250     -999.25000
