###############################################
##         ENVERUS                           ##
##         ESS - Open Hole                   ##
##         PERMIAN / DELAWARE                ##
##         Nov 04 2023  V4.0                 ##
##         42-389-30424-00-00                ##
###############################################
## Copyright 2017-2023  ENVERUS.  All Rights Reserved. 
## Confidential - Property of ENVERUS, use governed by terms and 
## conditions found within the existing Information Services Subscription Agreement 
## (as may be amended, the “ISSA”) between Customer and ENVERUS. 
## 
~VERSION INFORMATION
# MNEM.UNIT                               DATA : DESCRIPTION OF MNEMONIC
#-----.-----     ----------------------------- : -----------------------------
VERS.                                     2.00 : CWLS LOG ASCII STANDARD - VERSION 2.00
WRAP.                                       NO : MULTIPLE LINES PER DEPTH STEP
VEND.                                  ENVERUS : VENDOR
TYPE.                          ESS - OPEN HOLE : ENVERUS ESSENTIAL CURVES – ACCESSIBLE THROUGH ENVERUS PRISM(TM)
DOC.                                  32008121 : ENVERUS HEADER RAW DOCUMENT ID
#___________________________________________________________________________________________________ 
~WELL INFORMATION 
# BBd8zmUYmd+wUdICSlYDIOWaOe8iOeA0ELK9EhSbx74Kr6OX4zJxS/eo6cO6KK5SWMTSkVzaKbU2EBBfROvOKA== 
# MNEM.UNIT                                              DATA : DESCRIPTION OF MNEMONIC 
#-----.-----                    ----------------------------- : ----------------------------- 
CNTY.                                                  REEVES : COUNTY 
STATE.                                                  TEXAS : STATE 
CNTRY.                                                    USA : COUNTRY 
API.                                             42-389-30424 : API (10 Digit) 
API_14.                                    42-389-30424-00-00 : API (14 Digits) 
API_14_std.                                 42-389-30424-0000 : API (14 Digits Standard) 
UWI.                                           42389304240000 : UNIQUE WELL ID 
WELL.                                      LEWELLING STATE  1 : WELL NAME
STRT.FT                                                   7.0 : START DEPTH
STOP.FT                                               15912.0 : STOP DEPTH
STEP.FT                                                   0.5 : STEP BETWEEN DEPTHS
NULL.                                                 -999.25 : NULL VALUE
COMP.                           PENN VIRGINIA OIL & GAS CORP. : COMPANY 
DATE.                                             14-AUG-1976 : LOG DATE
#___________________________________________________________________________________________________ 
~CURVE INFORMATION 
# MNEM.UNIT           : CURVE DESCRIPTION 
#-----.-----          : ----------------------------- 
 DEPT.FT               : MEASURED DEPTH 
 CALI__A.IN            : CALIPER (CAL - CAL) 
 GR__A.API             : GAMMA RAY (GR) 
 DT__A.US/FT           : SONIC DELTA TRANSIT TIME (DT) 
 DPHI__A.V/V           : DENSITY POROSITY (DPHI) 
 NPHI__A.V/V           : NEUTRON POROSITY (NPHI) 
 #___________________________________________________________________________________________________ 
~A         DEPT        CALI__A          GR__A          DT__A        DPHI__A        NPHI__A
# ...
         7135.0         12.693         11.853         53.794     -999.25000     -999.25000
         7135.5         12.734         12.118         54.331     -999.25000     -999.25000
         7136.0         12.775         12.384         54.867     -999.25000     -999.25000
         7136.5         12.815         12.649         55.271     -999.25000     -999.25000
         7137.0         12.856         16.264         55.530     -999.25000     -999.25000
         7137.5         12.878         19.976         55.904     -999.25000     -999.25000
         7138.0         12.900         25.963         56.739     -999.25000     -999.25000
         7138.5         12.921         32.331         57.573     -999.25000     -999.25000
         7139.0         12.942         38.699         59.814     -999.25000     -999.25000
         7139.5         12.964         45.935         62.681     -999.25000     -999.25000
         7140.0         12.985         54.760         63.577     -999.25000     -999.25000
         7140.5         13.006         63.585         64.472     -999.25000     -999.25000
         7141.0         13.027         72.410         71.208     -999.25000     -999.25000
         7141.5         13.049         79.362         79.152     -999.25000     -999.25000
         7142.0         13.062         82.398         87.228     -999.25000     -999.25000
         7142.5         13.051         81.618         89.344     -999.25000     -999.25000
         7143.0         13.040         80.259         89.168     -999.25000     -999.25000
         7143.5         13.030         78.900         88.798     -999.25000     -999.25000
         7144.0         13.019         77.541         88.641     -999.25000     -999.25000
         7144.5         13.008         75.736         88.486     -999.25000     -999.25000
         7145.0         12.998         71.990         88.121     -999.25000     -999.25000
         7145.5         12.987         68.244         87.300     -999.25000     -999.25000
         7146.0         12.976         64.497         86.479     -999.25000     -999.25000
         7146.5         12.965         60.751         83.274     -999.25000     -999.25000
         7147.0         12.955         57.167         79.422     -999.25000     -999.25000
         7147.5         12.944         53.968         73.899     -999.25000     -999.25000
         7148.0         12.933         54.407         69.635     -999.25000     -999.25000
         7148.5         12.922         59.163         71.761     -999.25000     -999.25000
         7149.0         12.912         64.236         79.007     -999.25000     -999.25000
         7149.5         12.907         65.852         85.671     -999.25000     -999.25000
         7150.0         12.904         65.265         90.640     -999.25000     -999.25000
         7150.5         12.900         64.928         89.727     -999.25000     -999.25000
         7151.0         12.896         64.805         88.061     -999.25000     -999.25000
         7151.5         12.892         65.757         87.601     -999.25000     -999.25000
         7152.0         12.888         67.277         88.322     -999.25000     -999.25000
         7152.5         12.884         68.797         89.043     -999.25000     -999.25000
         7153.0         12.881         70.125         89.765     -999.25000     -999.25000
         7153.5         12.877         71.189         90.484     -999.25000     -999.25000
         7154.0         12.873         71.102         89.984     -999.25000     -999.25000
         7154.5         12.869         68.724         89.837     -999.25000     -999.25000
         7155.0         12.865         67.510         90.108     -999.25000     -999.25000
         7155.5         12.861         69.285         89.309     -999.25000     -999.25000
         7156.0         12.858         71.060         88.824     -999.25000     -999.25000
         7156.5         12.854         72.636         88.623     -999.25000     -999.25000
         7157.0         12.850         73.565         88.422     -999.25000     -999.25000
         7157.5         12.846         71.211         88.098     -999.25000     -999.25000
         7158.0         12.842         68.520         87.513     -999.25000     -999.25000
         7158.5         12.839         65.830         86.708     -999.25000     -999.25000
         7159.0         12.835         64.019         84.966     -999.25000     -999.25000
         7159.5         12.831         63.736         83.224     -999.25000     -999.25000
         7160.0         12.827         63.791         82.574     -999.25000     -999.25000
         7160.5         12.823         64.013         82.635     -999.25000     -999.25000
         7161.0         12.819         64.235         83.949     -999.25000     -999.25000
         7161.5         12.816         64.554         85.799     -999.25000     -999.25000
         7162.0         12.812         65.135         87.450     -999.25000     -999.25000
         7162.5         12.808         65.717         88.413     -999.25000     -999.25000
         7163.0         12.804         66.299         87.910     -999.25000     -999.25000
         7163.5         12.812         64.622         85.937     -999.25000     -999.25000
         7164.0         12.820         62.582         83.569     -999.25000     -999.25000
         7164.5         12.827         60.541         81.201     -999.25000     -999.25000
         7165.0         12.835         61.792         82.427     -999.25000     -999.25000
         7165.5         12.842         63.540         84.371     -999.25000     -999.25000
         7166.0         12.850         65.288         86.520     -999.25000     -999.25000
         7166.5         12.858         65.546         88.908     -999.25000     -999.25000
         7167.0         12.865         64.945         88.180     -999.25000     -999.25000
         7167.5         12.873         64.343         86.602     -999.25000     -999.25000
         7168.0         12.880         64.758         87.617     -999.25000     -999.25000
         7168.5         12.888         65.901         88.632     -999.25000     -999.25000
         7169.0         12.896         68.219         89.647     -999.25000     -999.25000
         7169.5         12.903         69.514         90.661     -999.25000     -999.25000
         7170.0         12.911         69.196         91.580     -999.25000     -999.25000
         7170.5         12.918         68.795         92.428     -999.25000     -999.25000
         7171.0         12.926         67.822         93.276     -999.25000     -999.25000
         7171.5         12.934         66.850         93.051     -999.25000     -999.25000
         7172.0         12.927         65.878         92.057     -999.25000     -999.25000
         7172.5         12.920         65.783         91.062     -999.25000     -999.25000
         7173.0         12.913         67.187         90.121     -999.25000     -999.25000
         7173.5         12.905         68.414         89.935     -999.25000     -999.25000
         7174.0         12.898         67.851         89.533     -999.25000     -999.25000
         7174.5         12.891         67.288         87.904     -999.25000     -999.25000
         7175.0         12.884         66.740         87.475     -999.25000     -999.25000
         7175.5         12.876         66.374         89.115     -999.25000     -999.25000
         7176.0         12.869         66.009         89.741     -999.25000     -999.25000
         7176.5         12.862         63.949         89.462     -999.25000     -999.25000
         7177.0         12.855         59.722         88.473     -999.25000     -999.25000
         7177.5         12.847         56.050         85.265     -999.25000     -999.25000
         7178.0         12.840         53.323         80.434     -999.25000     -999.25000
         7178.5         12.833         55.714         77.507     -999.25000     -999.25000
