###############################################
##         ENVERUS                           ##
##         ESS - Open Hole                   ##
##         PERMIAN / DELAWARE                ##
##         Nov 04 2023  V4.0                 ##
##         42-389-32484-00-00                ##
###############################################
## Copyright 2017-2023  ENVERUS.  All Rights Reserved. 
## Confidential - Property of ENVERUS, use governed by terms and 
## conditions found within the existing Information Services Subscription Agreement 
## (as may be amended, the “ISSA”) between Customer and ENVERUS. 
## 
~VERSION INFORMATION
# MNEM.UNIT                               DATA : DESCRIPTION OF MNEMONIC
#-----.-----     ----------------------------- : -----------------------------
VERS.                                     2.00 : CWLS LOG ASCII STANDARD - VERSION 2.00
WRAP.                                       NO : MULTIPLE LINES PER DEPTH STEP
VEND.                                  ENVERUS : VENDOR
TYPE.                          ESS - OPEN HOLE : ENVERUS ESSENTIAL CURVES – ACCESSIBLE THROUGH ENVERUS PRISM(TM)
DOC.                                  31780441 : ENVERUS HEADER RAW DOCUMENT ID
#___________________________________________________________________________________________________ 
~WELL INFORMATION 
# aTsA/KVwhIqB1dg6n/zy22zTJjsJnyaNqg27ywuj9UrTfzbM7gscpQTlR+gOLN+9jERwUBAE6KvHEXpIT+cpyg== 
# MNEM.UNIT                                              DATA : DESCRIPTION OF MNEMONIC 
#-----.-----                    ----------------------------- : ----------------------------- 
CNTY.                                                  REEVES : COUNTY 
STATE.                                                  TEXAS : STATE 
CNTRY.                                                    USA : COUNTRY 
API.                                             42-389-32484 : API (10 Digit) 
API_14.                                    42-389-32484-00-00 : API (14 Digits) 
API_14_std.                                 42-389-32484-0000 : API (14 Digits Standard) 
UWI.                                           42389324840000 : UNIQUE WELL ID 
WELL.                                        BLK 59 ST 37  1H : WELL NAME
STRT.FT                                                 236.0 : START DEPTH
STOP.FT                                               12079.0 : STOP DEPTH
STEP.FT                                                   0.5 : STEP BETWEEN DEPTHS
NULL.                                                 -999.25 : NULL VALUE
COMP.                                       SHELL WESTERN E&P : COMPANY 
DATE.                                             05-SEP-2007 : LOG DATE
#___________________________________________________________________________________________________ 
~CURVE INFORMATION 
# MNEM.UNIT           : CURVE DESCRIPTION 
#-----.-----          : ----------------------------- 
 DEPT.FT               : MEASURED DEPTH 
 CALI.IN               : CALIPER (CAL - CAL) 
 GR.API                : GAMMA RAY (GR) 
 DT.US/FT              : SONIC DELTA TRANSIT TIME (DT) 
 DPHI.V/V              : DENSITY POROSITY (DPHI) 
 NPHI.V/V              : NEUTRON POROSITY (NPHI) 
 RHOB.G/CC             : BULK DENSITY (RHOB) 
 #___________________________________________________________________________________________________ 
~A         DEPT           CALI             GR             DT           DPHI           NPHI           RHOB
# ...
         3010.0         14.859          9.167       -999.250       -0.15578       -0.03651         2.9890
         3010.5         14.852          8.052       -999.250       -0.15927       -0.03677         2.9770
         3011.0         14.845          6.936       -999.250       -0.15634       -0.03704         2.9610
         3011.5         14.838          6.617       -999.250       -0.14133       -0.03731         2.9450
         3012.0         14.831          6.951       -999.250       -0.12992       -0.03757         2.9340
         3012.5         14.826          8.472       -999.250       -0.12676       -0.03784         2.9380
         3013.0         14.825          9.993       -999.250       -0.13013       -0.03811         2.9420
         3013.5         14.825          9.794       -999.250       -0.13334       -0.03792         2.9460
         3014.0         14.824          8.780       -999.250       -0.13604       -0.03742         2.9830
         3014.5         14.824          9.056       -999.250       -0.16275       -0.03691         3.0060
         3015.0         14.823          9.502       -999.250       -0.16893       -0.03640         3.0090
         3015.5         14.823         10.403       -999.250       -0.16458       -0.03589         3.0120
         3016.0         14.822         11.167       -999.250       -0.15313       -0.03578         2.9740
         3016.5         14.822         10.673       -999.250       -0.15946       -0.03578         2.9800
         3017.0         14.821         10.179       -999.250       -0.16864       -0.03578         2.9980
         3017.5         14.821          9.685       -999.250       -0.16460       -0.03578         2.9750
         3018.0         14.820          9.191       -999.250       -0.14388       -0.03636         2.9380
         3018.5         14.821          8.697       -999.250       -0.13051       -0.03721         2.9370
         3019.0         14.845          9.159       -999.250       -0.13371       -0.03805         2.9430
         3019.5         14.868          9.468       -999.250       -0.13691       -0.03761         2.9480
         3020.0         14.891          9.129       -999.250       -0.13589       -0.03687         2.9500
         3020.5         14.911          7.839       -999.250       -0.13169       -0.03612         2.9420
         3021.0         14.886          7.564       -999.250       -0.12749       -0.03537         2.9340
         3021.5         14.860          8.614       -999.250       -0.13309       -0.03498         2.9420
         3022.0         14.843          8.191       -999.250       -0.13860       -0.03567         2.9530
         3022.5         14.854          7.767       -999.250       -0.13583       -0.03637         2.9520
         3023.0         14.865          7.833       -999.250       -0.13279       -0.03707         2.9460
         3023.5         14.877          8.662       -999.250       -0.13138       -0.03777         2.9410
         3024.0         14.872          9.491       -999.250       -0.13060       -0.03846         2.9350
         3024.5         14.806         10.140       -999.250       -0.12623       -0.03916         2.9330
         3025.0         14.740          9.226       -999.250       -0.12779       -0.03967         2.9370
         3025.5         14.675          8.312       -999.250       -0.13230       -0.03967         2.9410
         3026.0         14.652          7.668       -999.250       -0.13681       -0.03967         2.9440
         3026.5         14.752          9.107       -999.250       -0.13731       -0.03967         2.9480
         3027.0         14.645         10.546       -999.250       -0.13656       -0.03956         2.9640
         3027.5         14.538         11.557       -999.250       -0.14616       -0.03902         2.9860
         3028.0         14.474         11.432       -999.250       -0.15576       -0.03848         3.0120
         3028.5         14.416         12.026       -999.250       -0.16537       -0.03794         3.0070
         3029.0         14.384         13.402       -999.250       -0.16968       -0.03798         3.0030
         3029.5         14.383         14.777       -999.250       -0.16204       -0.03843         2.9630
         3030.0         14.383         14.331       -999.250       -0.14493       -0.03888         2.9600
         3030.5         14.380         10.380       -999.250       -0.14661       -0.03933         2.9640
         3031.0         14.360          6.811       -999.250       -0.14830       -0.03953         2.9670
         3031.5         14.341          7.145       -999.250       -0.14914       -0.03903         2.9710
         3032.0         14.322          8.106       -999.250       -0.14813       -0.03852         2.9750
         3032.5         14.310          9.066       -999.250       -0.15357       -0.03828         2.9720
         3033.0         14.313          9.364       -999.250       -0.14380       -0.03848         2.9620
         3033.5         14.315          9.441       -999.250       -0.13773       -0.03869         2.9520
         3034.0         14.317          9.136       -999.250       -0.13166       -0.03889         2.9410
         3034.5         14.319          8.832       -999.250       -0.12849       -0.03909         2.9330
         3035.0         14.321          8.527       -999.250       -0.12765       -0.03929         2.9330
         3035.5         14.323          8.222       -999.250       -0.12681       -0.03949         2.9320
         3036.0         14.326          9.031       -999.250       -0.12871       -0.03962         2.9350
         3036.5         14.328         10.071       -999.250       -0.13134       -0.03935         2.9420
         3037.0         14.332         11.111       -999.250       -0.13762       -0.03908         2.9500
         3037.5         14.340         10.769       -999.250       -0.14191       -0.03880         2.9540
         3038.0         14.348         10.409       -999.250       -0.13474       -0.03853         2.9460
         3038.5         14.356         10.278       -999.250       -0.12756       -0.03826         2.9380
         3039.0         14.365         10.430       -999.250       -0.13402       -0.03799         2.9360
         3039.5         14.373         10.002       -999.250       -0.14467       -0.03772         2.9660
         3040.0         14.381          9.544       -999.250       -0.15654       -0.03728         2.9940
         3040.5         14.389          9.086       -999.250       -0.15713       -0.03683         2.9860
         3041.0         14.398          8.874       -999.250       -0.15203       -0.03749         2.9780
         3041.5         14.406          8.672       -999.250       -0.15043       -0.03844         2.9710
         3042.0         14.414          8.812       -999.250       -0.14882       -0.03938         2.9690
         3042.5         14.422          9.116       -999.250       -0.14721       -0.04003         2.9670
         3043.0         14.431          9.813       -999.250       -0.14561       -0.03948         2.9650
         3043.5         14.439         10.509       -999.250       -0.14400       -0.03893         2.9630
         3044.0         14.447         11.205       -999.250       -0.14240       -0.03859         2.9610
         3044.5         14.455         10.823       -999.250       -0.14746       -0.03844         2.9810
         3045.0         14.463          9.303       -999.250       -0.15280       -0.03828         3.0130
         3045.5         14.472          7.783       -999.250       -0.17138       -0.03856         3.0090
         3046.0         14.480          8.974       -999.250       -0.16640       -0.03943         3.0050
         3046.5         14.488         10.327       -999.250       -0.15892       -0.04030         2.9910
         3047.0         14.496         11.129       -999.250       -0.14812       -0.04107         2.9730
         3047.5         14.505         10.322       -999.250       -0.15056       -0.04044         2.9810
