###############################################
##         ENVERUS                           ##
##         ESS - Open Hole                   ##
##         PERMIAN / DELAWARE                ##
##         Nov 04 2023  V4.0                 ##
##         42-389-31391-00-00                ##
###############################################
## Copyright 2017-2023  ENVERUS.  All Rights Reserved. 
## Confidential - Property of ENVERUS, use governed by terms and 
## conditions found within the existing Information Services Subscription Agreement 
## (as may be amended, the “ISSA”) between Customer and ENVERUS. 
## 
~VERSION INFORMATION
# MNEM.UNIT                               DATA : DESCRIPTION OF MNEMONIC
#-----.-----     ----------------------------- : -----------------------------
VERS.                                     2.00 : CWLS LOG ASCII STANDARD - VERSION 2.00
WRAP.                                       NO : MULTIPLE LINES PER DEPTH STEP
VEND.                                  ENVERUS : VENDOR
TYPE.                          ESS - OPEN HOLE : ENVERUS ESSENTIAL CURVES – ACCESSIBLE THROUGH ENVERUS PRISM(TM)
DOC.                                  23866972 : ENVERUS HEADER RAW DOCUMENT ID
#___________________________________________________________________________________________________ 
~WELL INFORMATION 
# fYFWm3OWRd9IdMsmH1sgiJ8+yI47SyIf11h8n9fSv2EtxvNnkQHcFoeZabdKB/2nhpfFDZXLrBDJ+4Q2ZBaHeQ== 
# MNEM.UNIT                                              DATA : DESCRIPTION OF MNEMONIC 
#-----.-----                    ----------------------------- : ----------------------------- 
CNTY.                                                  REEVES : COUNTY 
STATE.                                                  TEXAS : STATE 
CNTRY.                                                    USA : COUNTRY 
API.                                             42-389-31391 : API (10 Digit) 
API_14.                                    42-389-31391-00-00 : API (14 Digits) 
API_14_std.                                 42-389-31391-0000 : API (14 Digits Standard) 
UWI.                                           42389313910000 : UNIQUE WELL ID 
WELL.                                       DIXIELAND # 3 - 1 : WELL NAME
STRT.FT                                                4000.0 : START DEPTH
STOP.FT                                               12000.0 : STOP DEPTH
STEP.FT                                                   0.5 : STEP BETWEEN DEPTHS
NULL.                                                 -999.25 : NULL VALUE
COMP.                             R. K. PETROLEUM CORPORATION : COMPANY 
FLD.                                                  WILDCAT : FIELD 
DATE.                                              08/13/2015 : DATE 
TVD.                                                       NO : TVD FLAG 
WSTA.                                                     LOC : WELL STATUS
#___________________________________________________________________________________________________ 
~PARAMETER INFORMATION 
# MNEM.UNIT                                              DATA : DESCRIPTION OF MNEMONIC 
#-----.-----                    ----------------------------- : ----------------------------- 
RUN.                                                      ONE : RUN NUMBER 
PDAT.                                                      GL : PERMANENT DATUM 
LMF.                                            KELLY BUSHING : LOG MEASURED FROM
#___________________________________________________________________________________________________ 
~CURVE INFORMATION 
# MNEM.UNIT           : CURVE DESCRIPTION 
#-----.-----          : ----------------------------- 
 DEPT.FT               : MEASURED DEPTH 
 CALI.IN               : CALIPER (CALIPER) 
 GR.API                : GAMMA RAY (GAMMA RAY) 
 DT.US/FT              : SONIC DELTA TRANSIT TIME (DELTA-T) 
 RESD.OHMM             : DEEP INDUCTION RESISTIVITY (ILD - DEEP INDUCTION STANDARD PROCESSED RESISTIVITY) 
 RESD_LL.OHMM          : DEEP LATEROLOG (LLD - LATERO-LOG DEEP (RESISTIVITY)) 
 NPHI.V/V              : NEUTRON POROSITY (NEUTRON POROSITY) 
 #___________________________________________________________________________________________________ 
~A         DEPT           CALI             GR             DT           RESD        RESD_LL           NPHI
# ...
         8256.0         12.605         77.020         63.146       -999.250       140.7176     -999.25000
         8256.5         12.626         90.332         63.713       -999.250       146.1732     -999.25000
         8257.0         12.653        105.622         65.315       -999.250       153.2538     -999.25000
         8257.5         12.660        126.694         66.916       -999.250       150.4173     -999.25000
         8258.0         12.772        130.866         68.517       -999.250       150.8225     -999.25000
         8258.5         12.823        129.078         70.000       -999.250       152.3681     -999.25000
         8259.0         12.872        110.698         68.522       -999.250       153.4814     -999.25000
         8259.5         12.899         85.053         67.145       -999.250       165.3438     -999.25000
         8260.0         12.906         86.287         65.769       -999.250       170.6443     -999.25000
         8260.5         12.920         86.989         64.496       -999.250       173.2177     -999.25000
         8261.0         12.933         88.595         65.156       -999.250       175.7850     -999.25000
         8261.5         12.941         93.047         66.477       -999.250       157.1638     -999.25000
         8262.0         12.939        101.833         67.797       -999.250       124.1258     -999.25000
         8262.5         12.940        108.155         69.117       -999.250        77.4573     -999.25000
         8263.0         12.940        115.164         69.918       -999.250        48.6073     -999.25000
         8263.5         12.937        118.454         70.227       -999.250        30.5028     -999.25000
         8264.0         12.967        111.932         70.536       -999.250        19.1416     -999.25000
         8264.5         13.060         89.245         69.158       -999.250         9.6516     -999.25000
         8265.0         13.145         67.317         69.158       -999.250        11.6342     -999.25000
         8265.5         13.253         49.857         68.677       -999.250        11.4188     -999.25000
         8266.0         13.339         48.668         68.221       -999.250        11.8891     -999.25000
         8266.5         13.447         47.201         67.547       -999.250        12.7680     -999.25000
         8267.0         13.548         46.043         66.872       -999.250        14.0240     -999.25000
         8267.5         13.654         46.039         65.792       -999.250        17.4563     -999.25000
         8268.0         13.766         48.603         66.089       -999.250        23.4969     -999.25000
         8268.5         13.879         55.720         66.840       -999.250        31.6276     -999.25000
         8269.0         13.989         62.240         67.836       -999.250        39.9239     -999.25000
         8269.5         14.095         67.658         67.548       -999.250        37.0492     -999.25000
         8270.0         14.099         72.592         67.120       -999.250        25.5553     -999.25000
         8270.5         14.102         64.014         66.692       -999.250        18.2336     -999.25000
         8271.0         14.100         54.360         66.264       -999.250        13.0096     -999.25000
         8271.5         14.100         46.023         65.836       -999.250         9.8336     -999.25000
         8272.0         14.088         46.945         65.671       -999.250         9.3011     -999.25000
         8272.5         14.070         42.602         66.221       -999.250         8.7909     -999.25000
         8273.0         14.052         39.055         66.877       -999.250         9.2976     -999.25000
         8273.5         14.035         36.389         67.534       -999.250         9.1782     -999.25000
         8274.0         14.017         37.347         68.191       -999.250         8.9931     -999.25000
         8274.5         14.000         40.858         68.847       -999.250         8.7909     -999.25000
         8275.0         13.982         44.558         69.504       -999.250         7.4304     -999.25000
         8275.5         13.965         47.198         70.000       -999.250         7.5256     -999.25000
         8276.0         13.947         49.462         69.817       -999.250         7.8386     -999.25000
         8276.5         13.930         54.296         69.405       -999.250         8.1646     -999.25000
         8277.0         13.912         59.035         68.993       -999.250        10.7290     -999.25000
         8277.5         13.895         62.713         68.557       -999.250        16.8994     -999.25000
         8278.0         13.877         67.729         66.699       -999.250        26.6186     -999.25000
         8278.5         13.859         60.660         64.726       -999.250        41.9649     -999.25000
         8279.0         13.842         51.144         62.753       -999.250        37.0492     -999.25000
         8279.5         13.824         48.161         60.780       -999.250        28.4757     -999.25000
         8280.0         13.838         46.330         58.577       -999.250        18.0403     -999.25000
         8280.5         13.864         44.336         59.900       -999.250        13.4291     -999.25000
         8281.0         13.891         41.781         61.397       -999.250        11.8300     -999.25000
         8281.5         13.916         41.531         62.895       -999.250        10.5966     -999.25000
         8282.0         13.941         46.599         64.393       -999.250         9.4730     -999.25000
         8282.5         13.969         51.643         66.152       -999.250         9.1256     -999.25000
         8283.0         13.978         57.169         66.407       -999.250         9.1256     -999.25000
         8283.5         13.969         60.833         66.982       -999.250         9.1256     -999.25000
         8284.0         13.962         57.899         67.695       -999.250         8.1434     -999.25000
         8284.5         13.954         51.514         68.408       -999.250         5.9381     -999.25000
         8285.0         13.947         45.847         69.121       -999.250         5.8282     -999.25000
         8285.5         13.940         41.072         69.834       -999.250         6.6424     -999.25000
         8286.0         13.940         42.483         70.521       -999.250         7.3750     -999.25000
         8286.5         13.940         50.987         71.191       -999.250         8.3059     -999.25000
         8287.0         13.940         61.094         71.438       -999.250         9.3543     -999.25000
         8287.5         13.940         72.200         70.481       -999.250        11.0001     -999.25000
         8288.0         13.940         76.543         68.803       -999.250        12.1065     -999.25000
         8288.5         13.940         72.439         67.691       -999.250        13.4734     -999.25000
         8289.0         13.940         69.158         67.067       -999.250        13.2596     -999.25000
         8289.5         13.940         66.482         67.264       -999.250        12.5369     -999.25000
         8290.0         13.940         63.018         67.461       -999.250        11.5476     -999.25000
         8290.5         13.940         57.971         67.657       -999.250        10.3760     -999.25000
         8291.0         13.940         53.643         67.836       -999.250        10.4746     -999.25000
         8291.5         13.940         49.435         68.196       -999.250        11.6342     -999.25000
         8292.0         13.940         47.849         66.152       -999.250        14.7138     -999.25000
         8292.5         13.940         50.888         63.945       -999.250        20.0421     -999.25000
         8293.0         13.940         55.019         62.064       -999.250        25.4980     -999.25000
         8293.5         13.940         58.554         62.455       -999.250        31.3153     -999.25000
