###############################################
##         ENVERUS                           ##
##         ESS - Open Hole                   ##
##         PERMIAN / DELAWARE                ##
##         Nov 04 2023  V4.0                 ##
##         42-389-31270-00-00                ##
###############################################
## Copyright 2017-2023  ENVERUS.  All Rights Reserved. 
## Confidential - Property of ENVERUS, use governed by terms and 
## conditions found within the existing Information Services Subscription Agreement 
## (as may be amended, the “ISSA”) between Customer and ENVERUS. 
## 
~VERSION INFORMATION
# MNEM.UNIT                               DATA : DESCRIPTION OF MNEMONIC
#-----.-----     ----------------------------- : -----------------------------
VERS.                                     2.00 : CWLS LOG ASCII STANDARD - VERSION 2.00
WRAP.                                       NO : MULTIPLE LINES PER DEPTH STEP
VEND.                                  ENVERUS : VENDOR
TYPE.                          ESS - OPEN HOLE : ENVERUS ESSENTIAL CURVES – ACCESSIBLE THROUGH ENVERUS PRISM(TM)
DOC.                                  31950282 : ENVERUS HEADER RAW DOCUMENT ID
#___________________________________________________________________________________________________ 
~WELL INFORMATION 
# 0CODbT4LMl4UGLa7W4QP9cEC157HhgZEtdKI2U+cm8ET/zLKkJfEe4mvdgudHboWMGmWziBYTrzgVEWtCsCjWg== 
# MNEM.UNIT                                              DATA : DESCRIPTION OF MNEMONIC 
#-----.-----                    ----------------------------- : ----------------------------- 
CNTY.                                                  REEVES : COUNTY 
STATE.                                                  TEXAS : STATE 
CNTRY.                                                    USA : COUNTRY 
API.                                             42-389-31270 : API (10 Digit) 
API_14.                                    42-389-31270-00-00 : API (14 Digits) 
API_14_std.                                 42-389-31270-0000 : API (14 Digits Standard) 
UWI.                                           42389312700000 : UNIQUE WELL ID 
WELL.                                        FORTUNE UNIT  2R : WELL NAME
STRT.FT                                                3825.0 : START DEPTH
STOP.FT                                               13654.0 : STOP DEPTH
STEP.FT                                                   0.5 : STEP BETWEEN DEPTHS
NULL.                                                 -999.25 : NULL VALUE
COMP.                          SANDRIDGE EXPL. AND PROD.  LLC : COMPANY 
DATE.                                             19-AUG-2004 : LOG DATE
#___________________________________________________________________________________________________ 
~CURVE INFORMATION 
# MNEM.UNIT           : CURVE DESCRIPTION 
#-----.-----          : ----------------------------- 
 DEPT.FT               : MEASURED DEPTH 
 CALI__B.IN            : CALIPER (CAL - CAL) 
 GR__B.API             : GAMMA RAY (GR) 
 DT__B.US/FT           : SONIC DELTA TRANSIT TIME (DT) 
 #___________________________________________________________________________________________________ 
~A         DEPT        CALI__B          GR__B          DT__B
# ...
        13593.0          6.653         38.124         62.855
        13593.5          6.670         42.691         61.269
        13594.0          6.688         47.258         60.136
        13594.5          6.705         51.825         59.003
        13595.0          6.722         83.041         57.870
        13595.5          6.739        114.718         56.737
        13596.0          6.756        125.983         55.604
        13596.5          6.773        136.562         54.471
        13597.0          6.790        142.691         53.339
        13597.5          6.808        134.803         53.057
        13598.0          6.825        126.915         60.307
        13598.5          6.842        112.305         67.557
        13599.0          6.859         94.811         85.866
        13599.5          6.876         78.539         83.266
        13600.0          6.893         71.437         80.666
        13600.5          6.911         70.661         78.066
        13601.0          6.946         71.032         75.467
        13601.5          7.041         71.403         72.867
        13602.0          7.136         71.774         70.267
        13602.5          7.230         77.720         67.667
        13603.0          7.325         83.901         75.826
        13603.5          8.587         87.569         88.614
        13604.0          9.871         90.460         99.302
        13604.5         10.894         90.027         96.255
        13605.0          9.722         89.235         93.208
        13605.5          8.550         88.443         90.160
        13606.0          8.044         87.652         87.113
        13606.5          7.631         86.860         84.066
        13607.0          7.219         86.001         81.019
        13607.5          7.057         85.099         77.971
        13608.0          7.138         84.197         80.273
        13608.5          7.394         83.294         82.938
        13609.0          7.918         82.392         85.604
        13609.5          8.442         84.265         88.269
        13610.0          8.967         87.853         90.934
        13610.5          9.491         88.094         93.600
        13611.0          9.564         88.334         96.265
        13611.5          9.289         88.574         96.317
        13612.0          9.013         88.814         92.840
        13612.5          8.560         89.054         89.364
        13613.0          8.086         90.484         86.628
        13613.5          7.611         93.290         86.386
        13614.0          7.244         96.096         86.144
        13614.5          7.281         98.902         85.902
        13615.0          7.317        101.708         85.407
        13615.5          7.354        102.257         83.004
        13616.0          7.391        100.710         84.112
        13616.5          7.394         99.163         85.221
        13617.0          7.370         95.462         86.329
        13617.5          7.346         88.912         86.489
        13618.0          7.322         76.801         84.777
        13618.5          7.298         62.397         85.066
        13619.0          7.274         53.587         87.513
        13619.5          7.250         56.790         84.894
        13620.0          7.226         59.993         75.166
        13620.5          7.204         63.196         65.439
        13621.0          7.250         66.400         49.527
        13621.5          7.295         71.296         50.913
        13622.0          7.341         74.025         52.298
        13622.5          7.387         74.484         53.683
        13623.0          7.740         74.942         55.069
        13623.5          8.651         75.400         54.517
        13624.0          9.562         75.858         49.982
        13624.5         10.473         75.057         45.448
        13625.0         10.699         72.957         40.913
        13625.5         10.329         70.857         40.146
        13626.0          9.958         68.757         34.598
        13626.5          9.588         66.657         29.050
        13627.0          9.217         64.557         29.271
        13627.5          9.112         63.840         27.469
        13628.0          9.368         64.717         25.667
        13628.5          9.625         66.539         23.866
        13629.0          9.881         72.313         30.154
        13629.5         10.138         78.088         29.447
        13630.0         10.254         81.151         28.741
        13630.5          9.574         78.001         28.034
        13631.0          8.893         74.850         27.327
        13631.5          8.359         73.682         26.621
        13632.0          8.666         72.760         28.653
        13632.5          8.972         71.838         30.754
        13633.0          9.279         70.916         32.854
        13633.5          9.586         69.994         34.955
        13634.0          9.893         69.071         34.080
        13634.5          9.749         68.149         31.100
        13635.0          9.421         67.227         28.120
        13635.5          9.093         67.167         25.140
        13636.0          8.765         67.110         25.284
        13636.5          8.437         67.053         26.641
        13637.0          8.109         66.997         27.997
        13637.5          7.781         68.045         29.354
        13638.0          7.602         69.731         28.836
        13638.5          7.720         71.417         28.158
        13639.0          7.837         73.103         27.480
        13639.5          7.955       -999.250         26.802
        13640.0          8.073       -999.250         26.123
        13640.5          8.013       -999.250         25.445
        13641.0          7.755       -999.250         25.432
        13641.5          7.497       -999.250         28.602
        13642.0          7.582       -999.250         31.771
        13642.5          7.761       -999.250         34.940
        13643.0          7.941       -999.250         34.063
        13643.5          8.121       -999.250         31.445
        13644.0          8.211       -999.250         28.827
        13644.5          8.098       -999.250         26.209
        13645.0          7.986       -999.250         29.715
        13645.5          7.874       -999.250       -999.250
        13646.0          8.263       -999.250       -999.250
        13646.5          8.680       -999.250       -999.250
        13647.0          9.098       -999.250       -999.250
        13647.5          9.515       -999.250       -999.250
        13648.0          9.932       -999.250       -999.250
        13648.5         10.349       -999.250       -999.250
        13649.0         10.766       -999.250       -999.250
        13649.5         10.920       -999.250       -999.250
        13650.0          9.615       -999.250       -999.250
        13650.5          8.310       -999.250       -999.250
        13651.0          7.205       -999.250       -999.250
        13651.5          7.395       -999.250       -999.250
        13652.0          7.585       -999.250       -999.250
        13652.5          7.775       -999.250       -999.250
        13653.0          7.965       -999.250       -999.250
        13653.5          8.155       -999.250       -999.250
        13654.0          8.345       -999.250       -999.250
