#--------------------------------------------------#
#-------------------ENVERUS, INC.------------------#
#------------------WWW.ENVERUS.COM-----------------#
#------------------COPYRIGHT 2020------------------#
#--------------------------------------------------#
#THIS FILE MAY BE USED ONLY IN ACCORDANCE WITH A CURRENT SUBSCRIPTION AGREEMENT BETWEEN
#THE USER AND ENVERUS, INC. NO PART OF THIS FILE MAY BE REPRODUCED, USED, COPIED,
#MODIFIED, PROPAGATED, OR DISTRIBUTED EXCEPT IN ACCORDANCE WITH THE SUBSCRIPTION
#AGREEMENT. UNAUTHORIZED USE OR DISTRIBUTION OF ALL OR ANY PART OF THIS FILE MAY VIOLATE
#COPYRIGHT, TRADEMARK, AND/OR OTHER LAWS AND IS SUBJECT TO CIVIL AS WELL AS CRIMINAL
#SANCTIONS.
#--------------------------------------------------#
#THIS FILE IS PROVIDED "AS-IS" AND ALL WARRANTIES ARE EXPRESSLY DISCLAIMED, WHETHER
#EXPRESS, ORAL, IMPLIED, STATUTORY OR OTHERWISE, INCLUDING ANY IMPLIED WARRANTY OF FITNESS
#FOR A PARTICULAR PURPOSE, MERCHANTABILITY, TITLE OR NON-INFRINGEMENT, AND ANY WARRANTIES
#ARISING BY VIRTUE OF CUSTOM OF TRADE OR COURSE OF DEALING.  FURTHER, ENVERUS, INC.
#AND ITS LICENSORS DO NOT REPRESENT OR WARRANT THAT THIS FILE WILL MEET USER'S
#REQUIREMENTS OR ARE SUITABLE FOR USER'S NEEDS OR THAT THE DATA OR RESULTS PROVIDED IN
#CONJUNCTION THEREWITH ARE CORRECT, ACCURATE, TIMELY OR RELIABLE. THESE DISCLAIMERS SHALL
#APPLY REGARDLESS OF ANY FAILURE OF ESSENTIAL PURPOSE OF ANY LIMITED REMEDY.  SOME
#JURISDICTIONS DO NOT ALLOW THE EXCLUSION OF CERTAIN WARRANTIES SO SOME OF THE ABOVE
#EXCLUSIONS MAY NOT APPLY. IN NO EVENT SHALL ENVERUS, INC. OR ANY OF ITS AFFILIATES
#BE LIABLE UNDER ANY LEGAL THEORY, WHETHER IN TORT (INCLUDING WITHOUT LIMITATION
#NEGLIGENCE), CONTRACT, STRICT LIABILITY, STATUTORY OR OTHERWISE, FOR ANY SPECIAL,
#INCIDENTAL, CONSEQUENTIAL, EXEMPLARY, PUNITIVE OR INDIRECT DAMAGE OF ANY KIND, INCLUDING
#WITHOUT LIMITATION LOSS OF REVENUE, PROFITS, GOODWILL, USE, AND/OR DATA OR THE COST OF
#PROCUREMENT OF SUBSTITUTE GOODS OR SERVICES, EVEN IF APPRISED OF THE POSSIBILITY OF SUCH
#DAMAGES IN ADVANCE.
#--------------------------------------------------#

~VERSION INFORMATION
VERS. 2.0 : CWLS LOG ASCII STANDARD - VERSION 2.0
WRAP.  NO : ONE LINE PER DEPTH STEP
~WELL INFORMATION
#MNEMONIC     .UNIT              VALUE :DESCRIPTION
STRT       .FT                47 :START DEPTH
STOP       .FT                15730 :STOP DEPTH
STEP       .FT                   0.500 :STEP
NULL       .                  -999.250 :NULL
UWI        .              42389303580000 :UNIQUE WELL ID
API        .              42389303580000 :API NUMBER
COMP       .         CIMAREX ENERGY CO. OF COLORADO :COMPANY
WELL       .        REEVES  AZ  FEE  1 :WELL
DATE       .                08-JAN-2006 :LOG DATE
~CURVE INFORMATION
#MNEMONIC     .UNIT      API CODE :CURVE DESCRIPTION
DEPTH       .FT                      :MEASURED DEPTH
NEUT.API        UNKNOWN   :NEUT
GR.API        UNKNOWN   :GR
DT.US/FT        UNKNOWN   :DT
CAL.INCH        UNKNOWN   :CAL
~A    DEPTH    NEUT    GR    DT    CAL
# ...
 9264     -999.250   52.288   69.973   12.39
 9264.5     -999.250   52.732   68.765   12.395
 9265     -999.250   53.176   68.807   12.4
 9265.5     -999.250   53.62   70.56   12.406
 9266     -999.250   54.064   72.228   12.411
 9266.5     -999.250   54.23   73.309   12.416
 9267     -999.250   52.422   74.139   12.421
 9267.5     -999.250   50.614   74.676   12.426
 9268     -999.250   48.806   75.184   12.431
 9268.5     -999.250   46.998   75.425   12.436
 9269     -999.250   45.189   75.666   12.441
 9269.5     -999.250   43.381   75.666   12.446
 9270     -999.250   41.573   69.854   12.452
 9270.5     -999.250   39.765   67.382   12.457
 9271     -999.250   39.421   65.482   12.462
 9271.5     -999.250   44.093   63.582   12.467
 9272     -999.250   48.764   61.405   12.472
 9272.5     -999.250   53.436   61.171   12.477
 9273     -999.250   54.675   63.16   12.482
 9273.5     -999.250   54.873   65.149   12.487
 9274     -999.250   55.07   79.921   12.493
 9274.5     -999.250   55.268   78.325   12.498
 9275     -999.250   55.466   76.73   12.503
 9275.5     -999.250   55.663   74.959   12.508
 9276     -999.250   55.861   70.759   12.513
 9276.5     -999.250   54.906   66.559   12.518
 9277     -999.250   53.885   66.448   12.523
 9277.5     -999.250   52.864   67.398   12.528
 9278     -999.250   51.843   69.953   12.533
 9278.5     -999.250   50.821   73.71   12.539
 9279     -999.250   49.598   70.68   12.544
 9279.5     -999.250   48.1   68.38   12.549
 9280     -999.250   46.603   67.171   12.554
 9280.5     -999.250   45.106   67.146   12.559
 9281     -999.250   43.608   67.126   12.564
 9281.5     -999.250   42.111   67.106   12.569
 9282     -999.250   42.02   67.086   12.574
 9282.5     -999.250   42.067   67.066   12.579
 9283     -999.250   42.114   66.981   12.585
 9283.5     -999.250   42.161   66.61   12.59
 9284     -999.250   42.207   66.239   12.595
 9284.5     -999.250   42.254   65.868   12.6
 9285     -999.250   42.301   65.467   12.605
 9285.5     -999.250   42.348   65.055   12.61
 9286     -999.250   42.395   64.644   12.615
 9286.5     -999.250   42.442   64.841   12.62
 9287     -999.250   42.303   65.389   12.625
 9287.5     -999.250   41.625   65.938   12.631
 9288     -999.250   40.947   68.516   12.636
 9288.5     -999.250   40.269   69.498   12.641
 9289     -999.250   39.591   69.54   12.646
 9289.5     -999.250   39.433   69.288   12.651
 9290     -999.250   42.147   68.197   12.656
 9290.5     -999.250   44.86   67.387   12.661
 9291     -999.250   47.574   66.848   12.666
 9291.5     -999.250   50.287   66.31   12.664
 9292     -999.250   53.001   67.473   12.642
 9292.5     -999.250   51.355   69.232   12.621
 9293     -999.250   49.698   70.991   12.599
 9293.5     -999.250   48.042   72.448   12.578
 9294     -999.250   46.386   71.834   12.557
 9294.5     -999.250   44.73   70.785   12.535
 9295     -999.250   43.941   69.068   12.514
 9295.5     -999.250   44.068   67.351   12.492
 9296     -999.250   44.194   67.352   12.471
 9296.5     -999.250   44.32   68.754   12.449
 9297     -999.250   44.446   70.156   12.428
 9297.5     -999.250   44.573   71.558   12.406
 9298     -999.250   44.699   71.888   12.385
 9298.5     -999.250   45.181   68.928   12.363
 9299     -999.250   46.788   65.967   12.364
 9299.5     -999.250   48.395   63.007   12.373
 9300     -999.250   50.002   64.143   12.383
 9300.5     -999.250   51.609   65.501   12.393
 9301     -999.250   53.216   67.794   12.402
 9301.5     -999.250   54.242   72.293   12.412
 9302     -999.250   53.478   75.149   12.422
 9302.5     -999.250   52.715   75.387   12.431
 9303     -999.250   51.951   74.962   12.431
 9303.5     -999.250   51.188   74.538   12.432
 9304     -999.250   50.57   74.113   12.432
 9304.5     -999.250   50.817   73.689   12.433
 9305     -999.250   51.063   73.265   12.434
 9305.5     -999.250   51.31   72.833   12.434
 9306     -999.250   51.557   72.401   12.435
 9306.5     -999.250   51.804   71.969   12.436
 9307     -999.250   52.05   71.741   12.436
 9307.5     -999.250   52.297   71.756   12.437
 9308     -999.250   52.176   71.77   12.437
 9308.5     -999.250   52.012   71.785   12.438
 9309     -999.250   51.357   71.799   12.439
 9309.5     -999.250   49.747   71.814   12.439
 9310     -999.250   48.137   71.828   12.44
 9310.5     -999.250   46.527   73.064   12.441
 9311     -999.250   44.917   74.339   12.441
 9311.5     -999.250   43.306   72.416   12.442
 9312     -999.250   42.959   70.414   12.442
 9312.5     -999.250   44.494   68.508   12.443
 9313     -999.250   46.029   67.357   12.444
 9313.5     -999.250   47.565   66.564   12.444
 9314     -999.250   46.888   66.408   12.445
 9314.5     -999.250   46.161   70.245   12.446
 9315     -999.250   45.435   74.587   12.446
 9315.5     -999.250   44.709   75.747   12.447
 9316     -999.250   43.982   72.633   12.447
 9316.5     -999.250   43.335   69.518   12.448
 9317     -999.250   45.827   66.404   12.449
 9317.5     -999.250   48.318   64.67   12.449
 9318     -999.250   50.809   63.436   12.45
 9318.5     -999.250   52.875   65.376   12.45
 9319     -999.250   52.745   73.244   12.451
 9319.5     -999.250   52.614   74.41   12.445
 9320     -999.250   52.484   74.72   12.439
 9320.5     -999.250   52.354   75.031   12.433
 9321     -999.250   52.223   74.473   12.427
 9321.5     -999.250   52.093   73.769   12.421
 9322     -999.250   51.672   73.064   12.415
 9322.5     -999.250   51.166   72.778   12.409
 9323     -999.250   50.66   73.161   12.403
 9323.5     -999.250   50.153   73.544   12.397
 9324     -999.250   49.647   73.927   12.391
 9324.5     -999.250   49.141   74.31   12.385
 9325     -999.250   48.635   72.777   12.379
 9325.5     -999.250   48.128   71.202   12.373
 9326     -999.250   47.622   69.628   12.369
 9326.5     -999.250   47.354   68.053   12.373
 9327     -999.250   47.426   68.324   12.377
 9327.5     -999.250   47.499   69.273   12.381
 9328     -999.250   47.571   70.222   12.385
 9328.5     -999.250   47.644   71.17   12.389
 9329     -999.250   47.716   71.122   12.393
 9329.5     -999.250   47.789   69.454   12.397
 9330     -999.250   47.861   67.786   12.401
 9330.5     -999.250   47.934   70.025   12.405
 9331     -999.250   48.006   72.705   12.409
 9331.5     -999.250   48.079   72.11   12.413
 9332     -999.250   48.151   71.383   12.417
 9332.5     -999.250   48.223   70.651   12.421
 9333     -999.250   48.388   69.903   12.425
 9333.5     -999.250   48.928   69.155   12.429
 9334     -999.250   49.468   68.54   12.433
 9334.5     -999.250   50.008   70.111   12.437
 9335     -999.250   50.548   71.681   12.441
 9335.5     -999.250   51.088   73.252   12.445
 9336     -999.250   51.628   71.202   12.449
 9336.5     -999.250   52.167   67.968   12.453
 9337     -999.250   52.707   68.419   12.457
 9337.5     -999.250   53.247   69.206   12.461
 9338     -999.250   52.721   69.993   12.465
 9338.5     -999.250   50.48   70.78   12.469
 9339     -999.250   48.24   71.805   12.473
 9339.5     -999.250   45.999   72.861   12.477
 9340     -999.250   43.759   73.917   12.481
 9340.5     -999.250   43.885   73.243   12.485
 9341     -999.250   44.912   72.329   12.489
 9341.5     -999.250   45.94   71.321   12.493
 9342     -999.250   46.967   69.338   12.497
 9342.5     -999.250   47.995   67.354   12.501
 9343     -999.250   49.022   65.371   12.505
 9343.5     -999.250   50.049   67.049   12.509
 9344     -999.250   51.077   68.422   12.513
 9344.5     -999.250   52.104   69.182   12.517
 9345     -999.250   53.132   69.942   12.521
 9345.5     -999.250   53.44   70.703   12.525
 9346     -999.250   52.934   71.602   12.53
 9346.5     -999.250   52.429   72.621   12.529
 9347     -999.250   51.923   73.641   12.516
 9347.5     -999.250   51.417   74.204   12.502
 9348     -999.250   51.017   74.358   12.489
 9348.5     -999.250   50.804   74.512   12.476
 9349     -999.250   50.591   72.978   12.463
 9349.5     -999.250   50.378   71.03   12.45
