#--------------------------------------------------#
#-------------------ENVERUS, INC.------------------#
#------------------WWW.ENVERUS.COM-----------------#
#------------------COPYRIGHT 2020------------------#
#--------------------------------------------------#
#THIS FILE MAY BE USED ONLY IN ACCORDANCE WITH A CURRENT SUBSCRIPTION AGREEMENT BETWEEN
#THE USER AND ENVERUS, INC. NO PART OF THIS FILE MAY BE REPRODUCED, USED, COPIED,
#MODIFIED, PROPAGATED, OR DISTRIBUTED EXCEPT IN ACCORDANCE WITH THE SUBSCRIPTION
#AGREEMENT. UNAUTHORIZED USE OR DISTRIBUTION OF ALL OR ANY PART OF THIS FILE MAY VIOLATE
#COPYRIGHT, TRADEMARK, AND/OR OTHER LAWS AND IS SUBJECT TO CIVIL AS WELL AS CRIMINAL
#SANCTIONS.
#--------------------------------------------------#
#THIS FILE IS PROVIDED "AS-IS" AND ALL WARRANTIES ARE EXPRESSLY DISCLAIMED, WHETHER
#EXPRESS, ORAL, IMPLIED, STATUTORY OR OTHERWISE, INCLUDING ANY IMPLIED WARRANTY OF FITNESS
#FOR A PARTICULAR PURPOSE, MERCHANTABILITY, TITLE OR NON-INFRINGEMENT, AND ANY WARRANTIES
#ARISING BY VIRTUE OF CUSTOM OF TRADE OR COURSE OF DEALING.  FURTHER, ENVERUS, INC.
#AND ITS LICENSORS DO NOT REPRESENT OR WARRANT THAT THIS FILE WILL MEET USER'S
#REQUIREMENTS OR ARE SUITABLE FOR USER'S NEEDS OR THAT THE DATA OR RESULTS PROVIDED IN
#CONJUNCTION THEREWITH ARE CORRECT, ACCURATE, TIMELY OR RELIABLE. THESE DISCLAIMERS SHALL
#APPLY REGARDLESS OF ANY FAILURE OF ESSENTIAL PURPOSE OF ANY LIMITED REMEDY.  SOME
#JURISDICTIONS DO NOT ALLOW THE EXCLUSION OF CERTAIN WARRANTIES SO SOME OF THE ABOVE
#EXCLUSIONS MAY NOT APPLY. IN NO EVENT SHALL ENVERUS, INC. OR ANY OF ITS AFFILIATES
#BE LIABLE UNDER ANY LEGAL THEORY, WHETHER IN TORT (INCLUDING WITHOUT LIMITATION
#NEGLIGENCE), CONTRACT, STRICT LIABILITY, STATUTORY OR OTHERWISE, FOR ANY SPECIAL,
#INCIDENTAL, CONSEQUENTIAL, EXEMPLARY, PUNITIVE OR INDIRECT DAMAGE OF ANY KIND, INCLUDING
#WITHOUT LIMITATION LOSS OF REVENUE, PROFITS, GOODWILL, USE, AND/OR DATA OR THE COST OF
#PROCUREMENT OF SUBSTITUTE GOODS OR SERVICES, EVEN IF APPRISED OF THE POSSIBILITY OF SUCH
#DAMAGES IN ADVANCE.
#--------------------------------------------------#

~VERSION INFORMATION
VERS. 2.0 : CWLS LOG ASCII STANDARD - VERSION 2.0
WRAP.  NO : ONE LINE PER DEPTH STEP
~WELL INFORMATION
#MNEMONIC     .UNIT              VALUE :DESCRIPTION
STRT       .FT                51 :START DEPTH
STOP       .FT                4494 :STOP DEPTH
STEP       .FT                   0.500 :STEP
NULL       .                  -999.990 :NULL
UWI        .              42389102200000 :UNIQUE WELL ID
API        .              42389102200000 :API NUMBER
COMP       .         GRUY PETROLEUM MANAGEMENT CO. :COMPANY
WELL       .        REEVES -AQ- FEE  2 :WELL
DATE       .                30-NOV-1992 :LOG DATE
~CURVE INFORMATION
#MNEMONIC     .UNIT      API CODE :CURVE DESCRIPTION
DEPTH       .FT                      :MEASURED DEPTH
CAL.INCH        UNKNOWN   :CAL
GR.API        UNKNOWN   :GR
DT.US/FT        UNKNOWN   :DT
~A    DEPTH    CAL    GR    DT
# ...
 1489     8.394   5.928   48.906
 1489.5     8.394   5.9   49.1
 1490     8.394   5.871   49.357
 1490.5     8.394   5.842   49.613
 1491     8.394   5.813   49.869
 1491.5     8.394   5.785   50.125
 1492     8.394   6.445   49.562
 1492.5     8.395   7.642   48.957
 1493     8.395   8.838   48.806
 1493.5     8.395   9.84   49.137
 1494     8.395   10.617   49.463
 1494.5     8.395   11.393   49.148
 1495     8.395   12.17   48.834
 1495.5     8.395   12.55   48.52
 1496     8.395   11.196   48.62
 1496.5     8.395   9.842   48.756
 1497     8.395   8.489   48.891
 1497.5     8.395   7.135   49.027
 1498     8.395   7.096   49.162
 1498.5     8.395   7.263   48.813
 1499     8.403   7.431   48.52
 1499.5     8.416   7.598   48.731
 1500     8.428   7.692   48.942
 1500.5     8.44   7.462   49.153
 1501     8.452   7.232   49.364
 1501.5     8.464   7.002   49.575
 1502     8.477   6.773   49.785
 1502.5     8.489   6.584   49.996
 1503     8.501   6.739   49.944
 1503.5     8.513   6.893   49.777
 1504     8.525   7.048   49.611
 1504.5     8.538   7.203   49.445
 1505     8.55   7.337   49.279
 1505.5     8.562   6.964   49.558
 1506     8.574   6.59   49.979
 1506.5     8.586   6.216   50.401
 1507     8.599   5.843   50.795
 1507.5     8.611   5.469   50.568
 1508     8.623   5.095   50.342
 1508.5     8.635   5.257   50.115
 1509     8.651   5.566   49.888
 1509.5     8.675   5.875   49.617
 1510     8.699   6.184   48.952
 1510.5     8.723   6.492   48.937
 1511     8.747   6.449   49.021
 1511.5     8.771   6.268   49.106
 1512     8.795   6.087   49.19
 1512.5     8.819   5.906   49.274
 1513     8.843   5.878   49.359
 1513.5     8.868   6.058   49.312
 1514     8.892   6.238   49.204
 1514.5     8.916   6.417   49.097
 1515     8.94   6.597   48.989
 1515.5     8.964   6.776   48.882
 1516     8.988   6.568   48.841
 1516.5     9.012   6.347   49.275
 1517     9.013   6.125   49.708
 1517.5     9.01   6.045   50.121
 1518     9.006   6.137   49.819
 1518.5     9.002   6.228   49.517
 1519     8.999   6.32   49.215
 1519.5     8.995   6.363   48.912
 1520     8.994   6.156   48.61
 1520.5     9.066   5.949   48.308
 1521     9.139   5.742   48.499
 1521.5     9.211   5.534   48.774
 1522     9.209   5.552   49.05
 1522.5     9.203   5.82   49.325
 1523     9.196   6.088   49.362
 1523.5     9.19   6.356   49.181
 1524     9.184   6.623   48.999
 1524.5     9.178   6.891   48.818
 1525     9.171   7.048   48.637
 1525.5     9.165   7.14   48.707
 1526     9.159   7.231   48.959
 1526.5     9.152   7.323   49.211
 1527     9.146   7.257   49.463
 1527.5     9.146   6.884   49.715
 1528     9.173   6.51   49.967
 1528.5     9.2   6.24   50.219
 1529     9.227   6.356   50.222
 1529.5     9.253   6.472   50.153
 1530     9.28   6.589   50.084
 1530.5     9.287   6.705   50.015
 1531     9.282   6.777   49.678
 1531.5     9.277   6.584   49.144
 1532     9.272   6.39   49.09
 1532.5     9.267   6.197   49.036
 1533     9.296   6.003   48.983
 1533.5     9.34   5.81   48.929
 1534     9.384   5.616   48.875
 1534.5     9.428   5.518   49.07
 1535     9.472   6.175   49.397
 1535.5     9.517   6.832   49.724
 1536     9.536   7.489   50.05
 1536.5     9.533   8.145   50.207
 1537     9.529   8.765   50
 1537.5     9.525   8.766   49.792
 1538     9.521   8.766   49.585
 1538.5     9.518   8.767   49.378
 1539     9.514   7.573   49.464
 1539.5     9.51   6.297   49.552
 1540     9.506   5.269   49.64
 1540.5     9.503   5.332   49.727
 1541     9.499   5.396   49.815
 1541.5     9.495   5.478   49.902
 1542     9.491   5.825   49.947
 1542.5     9.488   6.173   49.813
 1543     9.484   6.52   49.678
 1543.5     9.48   6.868   49.544
 1544     9.476   7.215   49.41
 1544.5     9.473   7.216   49.275
 1545     9.469   7.216   49.323
 1545.5     9.465   7.217   49.476
 1546     9.461   7.218   49.63
 1546.5     9.458   7.032   49.783
 1547     9.454   6.77   49.936
 1547.5     9.45   6.508   50.089
 1548     9.446   6.246   50.243
 1548.5     9.443   5.984   49.314
 1549     9.437   5.722   48.953
 1549.5     9.43   5.46   49.121
 1550     9.423   5.354   49.29
 1550.5     9.416   5.641   49.459
 1551     9.409   5.928   49.627
 1551.5     9.402   6.387   49.796
 1552     9.395   6.98   49.87
 1552.5     9.388   7.574   49.809
 1553     9.381   8.168   49.749
 1553.5     9.374   8.497   49.688
 1554     9.367   8.145   49.719
 1554.5     9.353   7.794   49.788
 1555     9.339   7.442   49.856
 1555.5     9.324   7.091   49.925
 1556     9.31   6.739   49.877
 1556.5     9.296   6.388   49.636
 1557     9.281   6.81   49.394
 1557.5     9.267   7.678   49.225
 1558     9.253   8.547   49.237
 1558.5     9.238   9.416   49.249
 1559     9.224   9.888   49.261
 1559.5     9.21   9.661   49.273
 1560     9.195   9.435   49.285
 1560.5     9.181   9.209   49.313
 1561     9.167   9.011   49.487
 1561.5     9.152   9.227   49.661
 1562     9.133   9.443   49.835
 1562.5     9.109   9.417   50.009
 1563     9.084   8.919   50.183
 1563.5     9.06   8.421   50.251
 1564     9.035   8.061   50.226
 1564.5     9.011   8.229   50.202
 1565     8.987   8.397   50.178
 1565.5     8.962   8.138   50.153
 1566     8.938   7.815   50.129
 1566.5     8.914   7.491   49.812
 1567     8.889   7.167   49.081
 1567.5     8.875   6.844   49.177
 1568     8.879   6.52   49.274
 1568.5     8.883   6.197   49.368
 1569     8.887   5.892   49.415
 1569.5     8.891   5.951   49.461
 1570     8.895   6.011   49.507
 1570.5     8.899   6.071   49.553
 1571     8.904   6.13   49.6
 1571.5     8.908   6.19   49.646
 1572     8.912   6.25   49.692
 1572.5     8.916   6.323   49.738
 1573     8.92   6.414   49.552
 1573.5     8.924   6.506   49.363
 1574     8.944   6.598   49.175
 1574.5     8.964   6.667   48.987
 1575     8.984   6.585   48.799
 1575.5     9.004   6.502   48.778
 1576     9.024   6.42   48.974
 1576.5     9.044   6.338   49.169
 1577     9.064   6.255   49.365
 1577.5     9.084   6.173   49.561
 1578     9.104   6.207   49.52
 1578.5     9.125   7.299   49.226
 1579     9.145   8.39   48.933
 1579.5     9.165   9.482   48.639
 1580     9.185   10.573   48.432
 1580.5     9.2   11.232   48.673
 1581     9.208   11.358   48.914
 1581.5     9.216   11.483   49.134
 1582     9.223   11.609   49.065
 1582.5     9.231   11.735   48.996
 1583     9.239   10.432   48.926
 1583.5     9.247   8.961   48.857
 1584     9.254   8.58   49.03
 1584.5     9.262   8.2   49.289
 1585     9.27   7.819   49.547
 1585.5     9.278   7.438   49.805
 1586     9.286   7.058   50.013
 1586.5     9.293   6.677   50.148
 1587     9.301   6.337   50.284
 1587.5     9.309   6.031   50.419
 1588     9.317   5.725   50.555
 1588.5     9.332   5.419   50.442
 1589     9.366   5.112   50.039
 1589.5     9.399   5.136   49.636
 1590     9.433   5.547   49.233
 1590.5     9.446   5.958   49.125
 1591     9.446   6.369   49.111
 1591.5     9.446   6.78   49.098
 1592     9.446   7.191   49.084
 1592.5     9.446   7.602   49.071
 1593     9.446   8.013   49.025
 1593.5     9.446   8.424   48.843
 1594     9.446   7.975   48.662
 1594.5     9.447   7.428   48.481
 1595     9.447   6.88   48.468
 1595.5     9.447   6.333   48.634
 1596     9.447   6.428   48.799
 1596.5     9.447   6.534   48.965
 1597     9.447   6.64   49.131
 1597.5     9.447   6.747   49.417
 1598     9.447   6.853   49.809
 1598.5     9.447   6.959   50.2
 1599     9.447   7.065   50.591
 1599.5     9.447   6.797   50.982
 1600     9.447   6.25   51.138
 1600.5     9.447   5.702   51.126
 1601     9.447   5.155   51.114
 1601.5     9.447   5.353   51.101
 1602     9.448   5.94   51.089
 1602.5     9.448   6.321   51.077
 1603     9.448   6.276   50.981
 1603.5     9.448   6.232   50.761
 1604     9.448   6.187   50.54
 1604.5     9.448   6.173   50.32
 1605     9.448   7.108   50.1
 1605.5     9.448   8.042   49.879
 1606     9.448   8.977   49.659
 1606.5     9.448   9.912   49.438
 1607     9.433   10.847   49.218
 1607.5     9.414   11.351   48.998
