###############################################
##         ENVERUS                           ##
##         ESS - Open Hole                   ##
##         PERMIAN / DELAWARE                ##
##         Nov 02 2023  V4.0                 ##
##         42-301-31112-00-00                ##
###############################################
## Copyright 2017-2023  ENVERUS.  All Rights Reserved. 
## Confidential - Property of ENVERUS, use governed by terms and 
## conditions found within the existing Information Services Subscription Agreement 
## (as may be amended, the “ISSA”) between Customer and ENVERUS. 
## 
~VERSION INFORMATION
# MNEM.UNIT                               DATA : DESCRIPTION OF MNEMONIC
#-----.-----     ----------------------------- : -----------------------------
VERS.                                     2.00 : CWLS LOG ASCII STANDARD - VERSION 2.00
WRAP.                                       NO : MULTIPLE LINES PER DEPTH STEP
VEND.                                  ENVERUS : VENDOR
TYPE.                          ESS - OPEN HOLE : ENVERUS ESSENTIAL CURVES – ACCESSIBLE THROUGH ENVERUS PRISM(TM)
DOC.                                  31879965 : ENVERUS HEADER RAW DOCUMENT ID
#___________________________________________________________________________________________________ 
~WELL INFORMATION 
# p11foxtE5QnwhaJbtzBz2LJF4p4dkL7jzyXNzohJvMqLCglFSJK87xuVm3WB3m+8huK6qzS+fp5X73xeHrMy5w== 
# MNEM.UNIT                                              DATA : DESCRIPTION OF MNEMONIC 
#-----.-----                    ----------------------------- : ----------------------------- 
CNTY.                                                  LOVING : COUNTY 
STATE.                                                  TEXAS : STATE 
CNTRY.                                                    USA : COUNTRY 
API.                                             42-301-31112 : API (10 Digit) 
API_14.                                    42-301-31112-00-00 : API (14 Digits) 
API_14_std.                                 42-301-31112-0000 : API (14 Digits Standard) 
UWI.                                           42301311120000 : UNIQUE WELL ID 
WELL.                                                    JR 1 : WELL NAME
STRT.FT                                                3102.0 : START DEPTH
STOP.FT                                               15993.0 : STOP DEPTH
STEP.FT                                                   0.5 : STEP BETWEEN DEPTHS
NULL.                                                 -999.25 : NULL VALUE
LOC.                                                      UNK : LOCATION 
SRVC.                                                     UNK : SERVICE COMPANY
#___________________________________________________________________________________________________ 
~CURVE INFORMATION 
# MNEM.UNIT           : CURVE DESCRIPTION 
#-----.-----          : ----------------------------- 
 DEPT.FT               : MEASURED DEPTH 
 CALI.IN               : CALIPER (CAL - CAL) 
 GR.API                : GAMMA RAY (GR) 
 DT.US/FT              : SONIC DELTA TRANSIT TIME (DT) 
 #___________________________________________________________________________________________________ 
~A         DEPT           CALI             GR             DT
# ...
         8316.0         13.154         52.679         63.805
         8316.5         13.154         51.876         62.490
         8317.0         13.153         47.041         60.457
         8317.5         13.152         41.654         58.424
         8318.0         13.152         40.385         56.818
         8318.5         13.152         41.856         58.076
         8319.0         13.152         44.381         60.545
         8319.5         13.153         49.712         63.014
         8320.0         13.153         55.043         65.483
         8320.5         13.153         59.124         67.022
         8321.0         13.160         62.573         67.506
         8321.5         13.176         66.475         67.993
         8322.0         13.192         70.451         68.557
         8322.5         13.209         74.267         69.122
         8323.0         13.225         78.083         69.490
         8323.5         13.241         77.593         69.470
         8324.0         13.257         72.918         67.486
         8324.5         13.273         66.647         65.502
         8325.0         13.289         57.075         64.427
         8325.5         13.305         53.630         64.811
         8326.0         13.322         51.952         65.195
         8326.5         13.331         51.590         65.419
         8327.0         13.335         51.639         64.924
         8327.5         13.340         49.126         64.429
         8328.0         13.345         46.113         63.934
         8328.5         13.358         44.014         63.440
         8329.0         13.382         44.321         63.243
         8329.5         13.407         46.557         64.258
         8330.0         13.431         52.015         65.273
         8330.5         13.455         57.472         66.288
         8331.0         13.466         62.621         66.836
         8331.5         13.471         66.778         66.939
         8332.0         13.476         70.927         67.383
         8332.5         13.481         74.696         67.982
         8333.0         13.485         75.342         68.401
         8333.5         13.490         72.801         68.547
         8334.0         13.495         70.094         68.693
         8334.5         13.499         65.963         68.096
         8335.0         13.503         61.832         67.325
         8335.5         13.501         58.138         66.553
         8336.0         13.498         57.776         66.397
         8336.5         13.495         60.183         66.522
         8337.0         13.492         62.590         66.810
         8337.5         13.490         63.748         66.457
         8338.0         13.487         60.196         66.237
         8338.5         13.484         56.775         66.694
         8339.0         13.481         53.355         67.536
         8339.5         13.479         49.934         68.377
         8340.0         13.476         46.513         67.830
         8340.5         13.473         45.328         67.096
         8341.0         13.470         44.286         65.185
         8341.5         13.468         43.245         62.557
         8342.0         13.465         41.167         59.928
         8342.5         13.462         37.144         57.300
         8343.0         13.459         33.121         55.886
         8343.5         13.457         30.602         55.863
         8344.0         13.454         32.857         58.539
         8344.5         13.451         37.164         61.214
         8345.0         13.448         41.354         63.889
         8345.5         13.446         45.456         65.303
         8346.0         13.443         42.608         65.587
         8346.5         13.440         37.069         65.870
         8347.0         13.437         31.617         66.185
         8347.5         13.435         31.898         67.732
         8348.0         13.427         33.808         69.279
         8348.5         13.409         36.405         70.827
         8349.0         13.390         38.568         71.000
         8349.5         13.372         40.666         70.358
         8350.0         13.353         42.764         69.717
         8350.5         13.332         50.206         69.075
         8351.0         13.298         58.217         69.250
         8351.5         13.263         65.855         69.465
         8352.0         13.228         73.491         69.488
         8352.5         13.194         81.127         69.732
         8353.0         13.159         88.763         70.371
         8353.5         13.149         92.648         71.009
         8354.0         13.150         89.166         70.817
         8354.5         13.151         77.199         68.247
         8355.0         13.152         65.231         60.427
         8355.5         13.153         48.601         52.452
         8356.0         13.154         43.682         47.384
         8356.5         13.155         45.122         56.177
         8357.0         13.156         52.173         61.666
         8357.5         13.157         67.946         63.863
         8358.0         13.158         80.363         66.060
         8358.5         13.159         87.124         68.257
         8359.0         13.160         90.449         68.628
         8359.5         13.161         85.636         67.827
         8360.0         13.162         79.448         67.025
         8360.5         13.163         73.260         66.486
         8361.0         13.164         70.712         66.571
         8361.5         13.165         73.191         67.515
         8362.0         13.166         78.270         68.972
         8362.5         13.167         83.348         68.128
         8363.0         13.168         85.077         67.218
         8363.5         13.169         78.175         67.075
         8364.0         13.170         70.455         66.372
         8364.5         13.172         64.037         65.669
         8365.0         13.173         65.086         65.541
         8365.5         13.199         66.135         65.984
         8366.0         13.227         67.184         65.703
         8366.5         13.224         64.277         64.173
         8367.0         13.218         59.998         62.642
         8367.5         13.219         55.718         61.112
         8368.0         13.265         55.242         62.738
         8368.5         13.310         56.020         65.687
         8369.0         13.356         57.304         68.636
         8369.5         13.401         59.367         69.909
         8370.0         13.447         61.430         70.275
         8370.5         13.462         63.239         71.637
         8371.0         13.462         64.975         73.028
         8371.5         13.462         66.060         72.162
         8372.0         13.462         63.805         63.764
         8372.5         13.463         59.291         56.893
         8373.0         13.474         54.776         63.311
         8373.5         13.530         51.007         66.833
         8374.0         13.587         49.060         67.246
         8374.5         13.644         46.491         67.660
         8375.0         13.701         42.272         67.654
         8375.5         13.758         40.203         67.935
         8376.0         13.815         40.462         69.770
         8376.5         13.872         42.972         71.605
         8377.0         13.929         43.619         72.119
         8377.5         13.986         41.125         72.056
         8378.0         14.043         38.632         70.422
         8378.5         14.095         37.690         68.788
         8379.0         14.140         38.445         70.092
         8379.5         14.185         38.324         69.749
         8380.0         14.229         36.076         56.570
         8380.5         14.274         35.916         43.163
         8381.0         14.319         37.004         66.379
         8381.5         14.364         38.649         74.914
