#--------------------------------------------------#
#-------------------ENVERUS, INC.------------------#
#------------------WWW.ENVERUS.COM-----------------#
#------------------COPYRIGHT 2020------------------#
#--------------------------------------------------#
#THIS FILE MAY BE USED ONLY IN ACCORDANCE WITH A CURRENT SUBSCRIPTION AGREEMENT BETWEEN
#THE USER AND ENVERUS, INC. NO PART OF THIS FILE MAY BE REPRODUCED, USED, COPIED,
#MODIFIED, PROPAGATED, OR DISTRIBUTED EXCEPT IN ACCORDANCE WITH THE SUBSCRIPTION
#AGREEMENT. UNAUTHORIZED USE OR DISTRIBUTION OF ALL OR ANY PART OF THIS FILE MAY VIOLATE
#COPYRIGHT, TRADEMARK, AND/OR OTHER LAWS AND IS SUBJECT TO CIVIL AS WELL AS CRIMINAL
#SANCTIONS.
#--------------------------------------------------#
#THIS FILE IS PROVIDED "AS-IS" AND ALL WARRANTIES ARE EXPRESSLY DISCLAIMED, WHETHER
#EXPRESS, ORAL, IMPLIED, STATUTORY OR OTHERWISE, INCLUDING ANY IMPLIED WARRANTY OF FITNESS
#FOR A PARTICULAR PURPOSE, MERCHANTABILITY, TITLE OR NON-INFRINGEMENT, AND ANY WARRANTIES
#ARISING BY VIRTUE OF CUSTOM OF TRADE OR COURSE OF DEALING.  FURTHER, ENVERUS, INC.
#AND ITS LICENSORS DO NOT REPRESENT OR WARRANT THAT THIS FILE WILL MEET USER'S
#REQUIREMENTS OR ARE SUITABLE FOR USER'S NEEDS OR THAT THE DATA OR RESULTS PROVIDED IN
#CONJUNCTION THEREWITH ARE CORRECT, ACCURATE, TIMELY OR RELIABLE. THESE DISCLAIMERS SHALL
#APPLY REGARDLESS OF ANY FAILURE OF ESSENTIAL PURPOSE OF ANY LIMITED REMEDY.  SOME
#JURISDICTIONS DO NOT ALLOW THE EXCLUSION OF CERTAIN WARRANTIES SO SOME OF THE ABOVE
#EXCLUSIONS MAY NOT APPLY. IN NO EVENT SHALL ENVERUS, INC. OR ANY OF ITS AFFILIATES
#BE LIABLE UNDER ANY LEGAL THEORY, WHETHER IN TORT (INCLUDING WITHOUT LIMITATION
#NEGLIGENCE), CONTRACT, STRICT LIABILITY, STATUTORY OR OTHERWISE, FOR ANY SPECIAL,
#INCIDENTAL, CONSEQUENTIAL, EXEMPLARY, PUNITIVE OR INDIRECT DAMAGE OF ANY KIND, INCLUDING
#WITHOUT LIMITATION LOSS OF REVENUE, PROFITS, GOODWILL, USE, AND/OR DATA OR THE COST OF
#PROCUREMENT OF SUBSTITUTE GOODS OR SERVICES, EVEN IF APPRISED OF THE POSSIBILITY OF SUCH
#DAMAGES IN ADVANCE.
#--------------------------------------------------#

# EXPORTED FROM DI TRANSFORM
# DI TRANSFORM - A PRODUCT OF DRILLINGINFO, INC. - WWW.DRILLINGINFO.COM
#
~VERSION INFORMATION
 VERS.        2.0 : LAS ASCII STANDARD - VERSION 2.0
 WRAP.         NO : ONE LINE PER DEPTH STEP

~WELL INFORMATION
#MNEM.UNIT       DATA TYPE       INFORMATION
#---------       ---------       -----------
 STRT.FT                3800 : START DEPTH
 STOP.FT               10654 : STOP DEPTH
 STEP.FT                 0.5 : STEP LENGTH
 NULL.               -999.25 : NULL VALUE
 UWI.         42389340250000 : UNIQUE WELL ID
 API.         42389340250000 : WELL IDENTIFIER
 COMP.                       : COMPANY
 WELL.  42389340250000_API14 : WELL NAME
 FLD.                        : FIELD NAME
 LOC.                        : WELL LOCATION
 CNTY.                       : COUNTY
 STAT.                       : STATE OR PROVINCE
 CTRY.                       : COUNTRY
 SRVC.                       : SERVICE COMPANY
 DATE.                       : DATE

~CURVE INFORMATION
#MNEM.UNIT       API CODE       CURVE DESCRIPTION
#---------       --------       -----------------
 DEPT.FT        : <MEASURED DEPTH>
 CAL.IN         : CALIPER
 DT.US/FT       : SONIC
 GR.GAPI        : GAMMA RAY

~PARAMETER INFORMATION
#MNEM.UNIT       VALUE       DESCRIPTION
#---------       -----       -----------
 EKB.FT      3120.5 : ELEVATION ABOVE MSL

~A      DEPT         CAL          DT          GR
# ...
        6506      9.5729     66.7021     78.6346
      6506.5      9.5729     66.5797      64.855
        6507      9.5729     66.3896     67.5003
      6507.5      9.5729     66.1785     70.1455
        6508       9.513     65.9768     74.3738
      6508.5       9.513     65.6701     75.7225
        6509       9.513     65.2505     71.7423
      6509.5       9.513     64.3731     67.7622
        6510       9.513     64.1725      63.782
      6510.5       9.493     63.9719     68.7419
        6511       9.493     63.9719     74.7326
      6511.5       9.493     63.7296     80.7233
        6512       9.493     63.1749      86.714
      6512.5       9.493     62.4141      90.516
        6513       9.493     61.9068     82.0443
      6513.5       9.493     61.2992     73.5726
        6514       9.493     60.7919      65.101
      6514.5       9.493     60.5617     56.6293
        6515       9.493     60.4433     48.1576
      6515.5       9.493     60.4614     53.7823
        6516       9.493     60.7558     62.6516
      6516.5      9.4951     61.1628     74.6063
        6517       9.513     61.6701     87.1677
      6517.5       9.513     62.1774     92.3102
        6518       9.513     62.9856     96.7073
      6518.5       9.493     63.3926     109.111
        6519       9.493     63.8999    108.4776
      6519.5       9.493     64.2728     106.277
        6520       9.493     64.3731     104.176
      6520.5       9.513     64.3731    108.4864
        6521       9.513     64.3731     114.918
      6521.5       9.493     64.0149    111.0617
        6522       9.493     63.4704    106.6604
      6522.5       9.493     63.2698    102.2591
        6523       9.493     62.8942     97.8578
      6523.5      9.4731     62.5677     79.5221
        6524      9.4731     62.3811     66.9281
      6524.5      9.4731     62.2668     79.1369
        6525       9.493     62.5653     91.3457
      6525.5       9.493     62.6714     97.8394
        6526       9.493     63.2698    101.1935
      6526.5       9.493     63.5857    104.5476
        6527       9.493     63.7713    107.9017
      6527.5       9.493     63.7713    111.2558
        6528       9.493     63.4381    110.0795
      6528.5       9.493     63.1695     98.6761
        6529       9.493     63.2698     87.2727
      6529.5       9.493     63.2698     79.7002
        6530       9.493     63.3701     85.6468
      6530.5       9.493     63.4315     92.1463
        6531       9.493     63.8385     87.8897
      6531.5       9.493     64.2728     97.0611
        6532       9.493     64.6525    106.2325
      6532.5       9.513     65.2601    115.4039
        6533       9.513     65.4665     65.5106
      6533.5       9.513     65.7773      5.7295
        6534       9.513     65.8776     34.4259
      6534.5       9.513     65.6696     63.1222
        6535      9.4882     65.2626     91.8186
      6535.5      9.4731     65.0562    114.6033
        6536      9.4731     64.4238    122.2055
      6536.5       9.493     63.6404    114.6573
        6537       9.493     63.0328    105.3545
      6537.5       9.493     62.5677     96.0517
        6538       9.493     62.3671     86.7489
      6538.5       9.493     62.3671     77.4461
        6539       9.493     62.3671     69.4758
      6539.5       9.493     62.3671     56.4938
        6540       9.493     62.1665     37.9253
      6540.5       9.493     61.7116     19.3567
        6541       9.493     61.0807      4.7882
      6541.5      9.4733     60.5734     61.0681
        6542      9.4731     60.1605     17.7457
      6542.5      9.4531     60.1605     33.6172
        6543      9.4531      60.467     49.4886
      6543.5      9.4731     60.7737     65.3601
        6544      9.4731     61.0804     59.2211
      6544.5      9.4731     61.6108     42.3271
        6545      9.4731     62.7257     25.4331
      6545.5      9.4731     63.2698      8.5391
        6546       9.493     63.8118     14.0077
      6546.5      9.4817     64.3191     40.1489
        6547      9.4731     64.7261     66.2901
      6547.5      9.4731     65.1755     92.4314
        6548      9.4731     65.1119    109.9559
      6548.5      9.4731     64.6046     85.3485
        6549      9.4531     64.0973     60.7411
      6549.5      9.4331     63.8716     52.0193
        6550      9.4331     63.8716     52.8009
      6550.5      9.4531     63.7713     44.5631
        6551      9.4531     64.0703     36.3253
      6551.5      9.4531     64.2728     32.8103
        6552      9.4531     64.5737      43.495
      6552.5      9.4531     64.7743     48.1815
        6553      9.4531     64.8746     46.1068
      6553.5      9.4731     64.9749     80.1752
        6554      9.4731     65.1755    117.6245
      6554.5      9.4731     65.3761     142.482
        6555      9.4731     65.3316     126.428
      6555.5      9.4731     65.1755    106.9388
        6556      9.4731     64.9189     87.4496
      6556.5      9.5055     64.4116     78.9027
        6557       9.513     63.5968     73.8301
      6557.5       9.513     63.3969     68.7575
        6558       9.513     63.1695     63.6848
      6558.5       9.513     63.1695     58.6122
        6559      9.5329     63.5518     53.5396
      6559.5      9.5329     63.7713     80.5838
        6560      9.5553     63.6732     96.9465
      6560.5      9.5928     63.2619     91.4885
        6561      9.5928     62.8686     86.0304
      6561.5      9.5928     62.7683     80.5724
        6562      9.5928      62.668     75.1143
      6562.5      9.6128     63.1003     71.4211
        6563      9.6128     63.2698     68.8919
      6563.5      9.6128     61.9808     60.0226
        6564      9.5928     60.4129     51.1533
      6564.5      9.5601     60.1605     42.2839
        6565      9.5329     60.1605     33.4146
      6565.5       9.548     60.3267     44.0794
        6566      9.5729     62.0235     55.4695
      6566.5      9.5928     63.5479     51.6245
        6567      9.5928     64.0552     48.6024
      6567.5      9.6128     64.4622     49.4894
        6568      9.6128     64.8692     50.3763
      6568.5      9.6527     64.8742     51.2632
        6569      9.6527     64.3669     51.4728
      6569.5      9.6926      65.725     49.6833
        6570      9.6926     66.8159     47.8939
      6570.5      9.6926     67.0577      60.929
        6571      9.6926     66.7803     75.9767
      6571.5      9.6926     66.4794     91.0244
        6572      9.6926     66.7252    106.0721
      6572.5      9.6926     67.8301    121.1197
        6573      9.6204     68.8008    136.1674
      6573.5      9.5394     66.4721     146.609
        6574      9.5329     64.2168     132.501
      6574.5      9.5329     63.4005    120.1638
        6575      9.5329     62.8932    110.7343
      6575.5      9.5329     62.4862    102.8069
        6576      9.5529     62.1665     97.1203
      6576.5      9.5529     62.9474     90.3821
        6577      9.5529      63.671     80.0501
      6577.5      9.5529     63.1695     69.7181
        6578       9.513     62.5575     62.1826
      6578.5      9.5329     62.1345     62.5828
        6579      9.5329      62.088     69.3426
      6579.5       9.513     62.3947     76.9982
        6580       9.513     62.5008     84.6539
      6580.5       9.513     63.2479      85.769
        6581       9.513     63.9166     92.9756
      6581.5       9.513     64.1725     94.9146
        6582       9.513     64.3165     96.8537
      6582.5      9.4987     63.6465      88.803
        6583      9.4731     63.2698     98.2986
      6583.5      9.4331     63.2698    108.6402
        6584      9.4331     63.5707    118.6286
      6584.5      9.4331     63.8569    128.0815
        6585      9.4331     64.5648    106.1241
      6585.5      9.4331     65.0721     86.6987
        6586      9.4331     65.5821     98.8357
      6586.5      9.4132     66.3876    109.9886
        6587      9.4577     66.9092    105.4243
      6587.5      9.4731     67.9438     97.5988
