#--------------------------------------------------#
#-------------------ENVERUS, INC.------------------#
#------------------WWW.ENVERUS.COM-----------------#
#------------------COPYRIGHT 2020------------------#
#--------------------------------------------------#
#THIS FILE MAY BE USED ONLY IN ACCORDANCE WITH A CURRENT SUBSCRIPTION AGREEMENT BETWEEN
#THE USER AND ENVERUS, INC. NO PART OF THIS FILE MAY BE REPRODUCED, USED, COPIED,
#MODIFIED, PROPAGATED, OR DISTRIBUTED EXCEPT IN ACCORDANCE WITH THE SUBSCRIPTION
#AGREEMENT. UNAUTHORIZED USE OR DISTRIBUTION OF ALL OR ANY PART OF THIS FILE MAY VIOLATE
#COPYRIGHT, TRADEMARK, AND/OR OTHER LAWS AND IS SUBJECT TO CIVIL AS WELL AS CRIMINAL
#SANCTIONS.
#--------------------------------------------------#
#THIS FILE IS PROVIDED "AS-IS" AND ALL WARRANTIES ARE EXPRESSLY DISCLAIMED, WHETHER
#EXPRESS, ORAL, IMPLIED, STATUTORY OR OTHERWISE, INCLUDING ANY IMPLIED WARRANTY OF FITNESS
#FOR A PARTICULAR PURPOSE, MERCHANTABILITY, TITLE OR NON-INFRINGEMENT, AND ANY WARRANTIES
#ARISING BY VIRTUE OF CUSTOM OF TRADE OR COURSE OF DEALING.  FURTHER, ENVERUS, INC.
#AND ITS LICENSORS DO NOT REPRESENT OR WARRANT THAT THIS FILE WILL MEET USER'S
#REQUIREMENTS OR ARE SUITABLE FOR USER'S NEEDS OR THAT THE DATA OR RESULTS PROVIDED IN
#CONJUNCTION THEREWITH ARE CORRECT, ACCURATE, TIMELY OR RELIABLE. THESE DISCLAIMERS SHALL
#APPLY REGARDLESS OF ANY FAILURE OF ESSENTIAL PURPOSE OF ANY LIMITED REMEDY.  SOME
#JURISDICTIONS DO NOT ALLOW THE EXCLUSION OF CERTAIN WARRANTIES SO SOME OF THE ABOVE
#EXCLUSIONS MAY NOT APPLY. IN NO EVENT SHALL ENVERUS, INC. OR ANY OF ITS AFFILIATES
#BE LIABLE UNDER ANY LEGAL THEORY, WHETHER IN TORT (INCLUDING WITHOUT LIMITATION
#NEGLIGENCE), CONTRACT, STRICT LIABILITY, STATUTORY OR OTHERWISE, FOR ANY SPECIAL,
#INCIDENTAL, CONSEQUENTIAL, EXEMPLARY, PUNITIVE OR INDIRECT DAMAGE OF ANY KIND, INCLUDING
#WITHOUT LIMITATION LOSS OF REVENUE, PROFITS, GOODWILL, USE, AND/OR DATA OR THE COST OF
#PROCUREMENT OF SUBSTITUTE GOODS OR SERVICES, EVEN IF APPRISED OF THE POSSIBILITY OF SUCH
#DAMAGES IN ADVANCE.
#--------------------------------------------------#

~VERSION INFORMATION
VERS. 2.0 : CWLS LOG ASCII STANDARD - VERSION 2.0
WRAP.  NO : ONE LINE PER DEPTH STEP
~WELL INFORMATION
#MNEMONIC     .UNIT              VALUE :DESCRIPTION
STRT       .FT                145 :START DEPTH
STOP       .FT                15608 :STOP DEPTH
STEP       .FT                   0.500 :STEP
NULL       .                  -999.250 :NULL
UWI        .              42389304120000 :UNIQUE WELL ID
API        .              42389304120000 :API NUMBER
COMP       .         BTA OIL PRODUCERS :COMPANY
WELL       .        7607 JV-P ORLA  1 :WELL
DATE       .                            :LOG DATE
~CURVE INFORMATION
#MNEMONIC     .UNIT      API CODE :CURVE DESCRIPTION
DEPTH       .FT                      :MEASURED DEPTH
DT.US/FT        UNKNOWN   :DT
CAL.INCH        UNKNOWN   :CAL
GR.API        UNKNOWN   :GR
~A    DEPTH    DT    CAL    GR
# ...
 2910     -999.250   -999.250   36.833
 2910.5     -999.250   -999.250   37.436
 2911     -999.250   -999.250   37.939
 2911.5     -999.250   -999.250   37.206
 2912     -999.250   -999.250   36.472
 2912.5     -999.250   -999.250   35.739
 2913     -999.250   -999.250   35.005
 2913.5     -999.250   -999.250   34.272
 2914     -999.250   -999.250   33.538
 2914.5     -999.250   -999.250   32.805
 2915     -999.250   -999.250   32.071
 2915.5     -999.250   -999.250   31.337
 2916     -999.250   -999.250   31.563
 2916.5     -999.250   -999.250   32.02
 2917     -999.250   -999.250   32.476
 2917.5     -999.250   -999.250   32.932
 2918     -999.250   -999.250   33.389
 2918.5     -999.250   -999.250   33.845
 2919     -999.250   -999.250   34.301
 2919.5     -999.250   -999.250   34.758
 2920     -999.250   -999.250   34.413
 2920.5     -999.250   -999.250   34.051
 2921     -999.250   -999.250   33.689
 2921.5     -999.250   -999.250   33.326
 2922     -999.250   -999.250   32.964
 2922.5     -999.250   -999.250   32.65
 2923     -999.250   -999.250   33.277
 2923.5     -999.250   -999.250   33.904
 2924     -999.250   -999.250   34.531
 2924.5     -999.250   -999.250   35.159
 2925     -999.250   -999.250   35.146
 2925.5     -999.250   -999.250   34.47
 2926     -999.250   -999.250   33.794
 2926.5     -999.250   -999.250   33.118
 2927     -999.250   -999.250   32.442
 2927.5     -999.250   -999.250   32.021
 2928     -999.250   -999.250   32.631
 2928.5     -999.250   -999.250   33.241
 2929     -999.250   -999.250   33.85
 2929.5     -999.250   -999.250   34.46
 2930     -999.250   -999.250   35.07
 2930.5     -999.250   -999.250   35.383
 2931     -999.250   -999.250   35.118
 2931.5     -999.250   -999.250   34.853
 2932     -999.250   -999.250   34.588
 2932.5     -999.250   -999.250   34.322
 2933     -999.250   -999.250   34.057
 2933.5     -999.250   -999.250   33.792
 2934     -999.250   -999.250   33.527
 2934.5     -999.250   -999.250   33.262
 2935     -999.250   -999.250   32.997
 2935.5     -999.250   -999.250   32.732
 2936     -999.250   -999.250   32.467
 2936.5     -999.250   -999.250   32.202
 2937     -999.250   -999.250   31.937
 2937.5     -999.250   -999.250   31.671
 2938     -999.250   -999.250   31.406
 2938.5     -999.250   -999.250   31.141
 2939     -999.250   -999.250   30.876
 2939.5     -999.250   -999.250   30.611
 2940     -999.250   -999.250   30.346
 2940.5     -999.250   -999.250   30.081
 2941     -999.250   -999.250   29.816
 2941.5     -999.250   -999.250   29.551
 2942     -999.250   -999.250   29.286
 2942.5     -999.250   -999.250   29.02
 2943     -999.250   -999.250   28.755
 2943.5     -999.250   -999.250   29.335
 2944     -999.250   -999.250   30.339
 2944.5     -999.250   -999.250   31.344
 2945     -999.250   -999.250   32.348
 2945.5     -999.250   -999.250   33.352
 2946     -999.250   -999.250   34.356
 2946.5     -999.250   -999.250   35.36
 2947     -999.250   -999.250   35.684
 2947.5     -999.250   -999.250   35.442
 2948     -999.250   -999.250   35.2
 2948.5     -999.250   -999.250   34.958
 2949     -999.250   -999.250   34.716
 2949.5     -999.250   -999.250   34.474
 2950     -999.250   -999.250   34.84
 2950.5     -999.250   -999.250   35.574
 2951     -999.250   -999.250   36.307
 2951.5     -999.250   -999.250   37.041
 2952     -999.250   -999.250   37.775
 2952.5     -999.250   -999.250   38.508
 2953     -999.250   -999.250   37.51
 2953.5     -999.250   -999.250   36.014
 2954     -999.250   -999.250   34.517
 2954.5     -999.250   -999.250   33.021
 2955     -999.250   -999.250   31.525
 2955.5     -999.250   -999.250   30.028
 2956     -999.250   -999.250   28.68
 2956.5     -999.250   -999.250   28.978
 2957     -999.250   -999.250   29.276
 2957.5     -999.250   -999.250   29.575
 2958     -999.250   -999.250   29.873
 2958.5     -999.250   -999.250   30.171
 2959     -999.250   12.954   30.844
 2959.5     -999.250   12.947   30.158
 2960     -999.250   12.939   29.473
 2960.5     -999.250   12.932   28.787
 2961     -999.250   12.925   29.58
 2961.5     -999.250   12.918   30.998
 2962     -999.250   12.911   32.416
 2962.5     -999.250   12.903   33.835
 2963     -999.250   12.896   35.253
 2963.5     -999.250   12.889   36.671
 2964     -999.250   12.882   38.09
 2964.5     -999.250   12.875   37.632
 2965     -999.250   12.867   35.349
 2965.5     -999.250   12.86   33.066
 2966     -999.250   12.853   31.342
 2966.5     -999.250   12.846   32.352
 2967     -999.250   12.839   33.362
 2967.5     -999.250   12.831   34.371
 2968     -999.250   12.824   35.381
 2968.5     -999.250   12.817   36.39
 2969     -999.250   12.81   36.447
 2969.5     -999.250   12.803   33.912
 2970     -999.250   12.795   33.383
 2970.5     -999.250   12.788   34.194
 2971     -999.250   12.781   35.006
 2971.5     -999.250   12.774   35.817
 2972     -999.250   12.772   36.629
 2972.5     -999.250   12.773   37.064
 2973     -999.250   12.775   36.798
 2973.5     -999.250   12.776   36.532
 2974     -999.250   12.777   36.265
 2974.5     -999.250   12.779   35.999
 2975     -999.250   12.78   35.733
 2975.5     -999.250   12.781   35.27
 2976     -999.250   12.783   32.489
 2976.5     -999.250   12.784   29.708
 2977     -999.250   12.786   26.926
 2977.5     -999.250   12.787   26.885
 2978     -999.250   12.788   27.859
 2978.5     -999.250   12.79   28.833
 2979     -999.250   12.791   29.808
 2979.5     -999.250   12.793   30.782
 2980     -999.250   12.794   31.756
 2980.5     -999.250   12.795   32.73
 2981     -999.250   12.797   33.705
 2981.5     -999.250   12.798   33.842
 2982     -999.250   12.799   33.846
 2982.5     -999.250   12.801   33.85
 2983     -999.250   12.802   33.854
 2983.5     -999.250   12.804   33.743
 2984     -999.250   12.805   33.282
 2984.5     -999.250   12.806   32.82
 2985     -999.250   12.808   32.359
 2985.5     -999.250   12.809   31.897
 2986     -999.250   12.81   31.436
 2986.5     -999.250   12.812   30.974
 2987     -999.250   12.813   30.513
 2987.5     -999.250   12.815   31.504
 2988     -999.250   12.83   33.589
 2988.5     -999.250   12.878   35.555
 2989     -999.250   12.927   34.535
 2989.5     -999.250   12.975   34.465
 2990     -999.250   13.024   35.928
 2990.5     -999.250   13.088   37.39
 2991     -999.250   13.179   37.539
 2991.5     -999.250   13.27   37.286
 2992     -999.250   13.361   37.033
 2992.5     -999.250   13.452   36.781
 2993     -999.250   13.602   36.528
 2993.5     -999.250   14.161   37.995
 2994     -999.250   14.719   39.856
 2994.5     -999.250   15.197   41.716
 2995     -999.250   15.46   43.577
 2995.5     -999.250   15.466   45.437
 2996     -999.250   15.467   47.298
 2996.5     -999.250   15.467   49.158
 2997     -999.250   15.467   49.313
 2997.5     -999.250   15.468   49.403
 2998     -999.250   15.472   49.494
 2998.5     -999.250   15.569   49.584
 2999     -999.250   15.666   49.653
 2999.5     -999.250   15.763   48.785
 3000     -999.250   15.86   47.916
 3000.5     -999.250   15.939   47.047
 3001     -999.250   15.897   46.178
 3001.5     -999.250   15.855   45.309
 3002     -999.250   15.813   44.44
 3002.5     -999.250   15.771   43.571
 3003     -999.250   15.73   44.254
 3003.5     -999.250   15.688   45.495
 3004     -999.250   15.646   46.735
 3004.5     -999.250   15.604   47.976
 3005     -999.250   15.563   49.216
 3005.5     -999.250   15.521   50.457
 3006     -999.250   15.479   51.697
 3006.5     -999.250   15.437   51.883
 3007     -999.250   15.407   51.148
 3007.5     -999.250   15.41   50.413
 3008     -999.250   15.414   49.679
 3008.5     -999.250   15.417   48.944
 3009     -999.250   15.421   48.209
 3009.5     -999.250   15.424   47.474
 3010     -999.250   15.428   46.739
 3010.5     -999.250   15.432   46.004
 3011     -999.250   15.435   46.725
 3011.5     -999.250   15.439   47.56
 3012     -999.250   15.442   48.395
 3012.5     -999.250   15.446   49.23
 3013     -999.250   15.449   49.679
