#   WellGreen Tech Inc.   Digitizing Services
#   www.wellgreentech.com
#   email: sales@wellgreentech.com
#
~Version Information Block
 VERS.                2.00:     CWLS LOG ASCII STANDARD - VERSION 2.000000
 WRAP.                  NO:     One Line Per Depth Step
#
~Well Information Block
#MNEM.UNIT                     Data                         Information
#----------   ------------------------------------------   ----------------
 STRT.FT                                     4000.0000:     START DEPTH
 STOP.FT                                    15710.0000:     STOP DEPTH
 STEP.FT                                        0.5000:     STEP
 NULL.                                       -999.2500:     NULL VALUE
 COMP.                        THE SUPERIOR OIL COMPANY:     COMPANY
 WELL.                                FORTUNE STATE #1:     WELL
 FLD .                                    CHAPMAN DEEP:     FIELD
 LOC .                                                :     LOCATION
 CNTY.                                          REEVES:     COUNTY
 STAT.                                              TX:     STATE
 CTRY.                                             USA:     COUNTRY
 SRVC.                                    SCHLUMBERGER:     SERVICE COMPANY
 DATE.                                      11/10/1974:     DATE
 API .               42389302950000:    API NUMBER
 UWI .               42389302950000:    UWI NUMBER
 TVD .                                              NO:     TVD flag
 MATRIX .G/CC                  :    Matrix Density
#
~Curve Information Block
#MNEM.UNIT       API CODE      Curve Description
#----------    -------------   -------------------
 DEPT.FT                   :   Depth in Feet
 CALI.IN       70 280 01 01:   Caliper
 GR  .API      35 310 01 01:   Gamma Ray
 DT  .US/F     60 520 08 01:   Sonic transit time
#
~Parameter Information Block
#MNEM.UNIT            Value               Description
#----------    --------------------    -------------------
 RUN .                         ONE:    Run Number
 PDAT.                          GL:    Permanent Datum
 EPD .FT                  000.0000:    Elevation Of Perm. Datum
 LMF .               KELLY BUSHING:    Log Measured From
 EKB .FT                  3065.0:    Elevation Of Kelly Bushing
 DF .FT                    000.0:    Elevation Of Derrick Floor
 GL .FT                   3034.0:    Elevation Of Ground Level
 TD .FT                  15710.0000:    Total Depth
 BHT .DEGF               260.00 :  Bottom Hole Temperature
 BLI .FT               15710.0000:   Bottom Log Interval
 CSGSIZE.IN              9.6250:   Casing Size
 BITSIZE.IN               8.750 :  BitSize
 CSGD.FT                  4000.0:    Casing Bottom (Driller) 1
 CSGL.FT                  400.0:    Casing Bottom (Logger) 1
 MUD . BRINE                                :    Drilling Fluid Type
 MUDV .CP                  27.0:    Drilling Fluid Viscosity
 MUDD .LB/USG              9.25:    Drilling Fluid Density
 PH.                        6.2:    Drilling Fluid Ph
 FL .ML/30MIN              11.0:    Drilling Fluid Loss
 MUDS .FLOW LINE                        :    Mud Sample Source
 RM .OHMM                   0.09:    Resistivity Of Mud Sample
 RMT .DEGF                 60.00:    Mud Sample Temperature
 RMF .OHMM                  0.09:    Mud Filtrate Resistivity
 RMFT.DEGF                 60.00:    Mud Filtrate Sample Temperature
 RMC .OHMM                  0.00:    Mud Cake Resistivity
 RMCT.DEGF                 00.00:    Mud Cake Sample Temperature
 RMB .OHMM                 0.027:    Mud Resistivity At Bht
 TMAX .DEGF               260.00:    Bottom Hole Temperature
#
~Other Information Block
<DescLogPlotStart>   NEURALOG PLOT DEFINITION
PLOTDEFVERSION: 3
LASFILE: D:\nds\projects\G\DAVE\new work\RS Energy - Texas - May 17 - Folder 2\
DEPTHSCALE: 240.000000
RESOLUTION: 400
DEPTHLABELFREQ: 100.000000
HEAVYGRIDFREQ: 100.000000
MEDIUMGRIDFREQ: 50.000000
LIGHTGRIDFREQ: 10.000000
#
#   TRACK 1
#
STARTTRACK: 
 LEFTX: 0.500000 inch
 RIGHTX: 3.000000 inch
 SCALETYPE: Linear
 NUMCHARTDIVISIONS: 10
CURVE: CALI  6.000000   16.000000  (0,0,255)      Solid             2     N    
CURVE: GR    0.000000   125.000000 (0,131,131)    Dot               2     Y    
BACKUP: 125.000000 250.000000 (0,131,131)    Dot               2    
ENDTRACK: 
#
#   TRACK 2
#
STARTTRACK: 
 LEFTX: 3.500000 inch
 RIGHTX: 8.500000 inch
 SCALETYPE: Linear
 NUMCHARTDIVISIONS: 10
CURVE: DT    100.000000 40.000000  (255,0,255)    Solid             2     Y    
BACKUP: 160.000000 100.000000 (255,0,255)    Solid             2    
ENDTRACK: 
<DescLogPlotEnd>
~A DEPTH     CALI             GR               DT              
# ...
   14875.000 10.655           68.432           88.744          
   14875.500 10.954           66.840           87.013          
   14876.000 11.125           63.003           84.865          
   14876.500 10.579           60.846           83.513          
   14877.000 10.720           58.474           87.273          
   14877.500 10.857           55.497           88.615          
   14878.000 10.612           55.194           86.917          
   14878.500 10.181           62.371           84.745          
   14879.000 10.439           64.349           82.740          
   14879.500 10.735           64.494           84.320          
   14880.000 10.175           64.411           83.350          
   14880.500 10.319           67.132           82.106          
   14881.000 10.586           69.861           86.886          
   14881.500 10.735           70.967           91.917          
   14882.000 11.131           68.786           90.927          
   14882.500 11.262           68.237           92.182          
   14883.000 11.498           69.211           90.010          
   14883.500 11.576           67.949           89.926          
   14884.000 11.493           65.428           87.652          
   14884.500 10.971           63.831           86.157          
   14885.000 11.466           65.795           85.424          
   14885.500 10.860           67.815           84.891          
   14886.000 10.274           66.451           87.280          
   14886.500 10.615           64.725           83.692          
   14887.000 10.596           64.756           85.693          
   14887.500 10.847           66.885           87.997          
   14888.000 10.808           70.382           86.562          
   14888.500 10.529           73.880           87.223          
   14889.000 10.210           75.584           87.997          
   14889.500 10.222           71.995           84.948          
   14890.000 10.540           74.171           86.597          
   14890.500 11.145           74.690           87.967          
   14891.000 10.940           74.199           86.754          
   14891.500 10.584           72.420           87.164          
   14892.000 10.922           71.555           83.124          
   14892.500 10.485           69.982           83.934          
   14893.000 10.847           71.770           84.350          
   14893.500 10.431           73.821           82.915          
   14894.000 10.558           76.787           83.812          
   14894.500 10.615           73.928           83.547          
   14895.000 10.633           68.232           83.105          
   14895.500 10.622           66.128           82.616          
   14896.000 10.482           69.671           84.828          
   14896.500 10.379           70.791           82.190          
   14897.000 10.475           72.854           82.981          
   14897.500 10.571           74.196           84.021          
   14898.000 10.565           70.991           84.682          
   14898.500 10.423           68.349           86.200          
   14899.000 10.310           65.698           83.877          
   14899.500 10.369           66.353           81.958          
   14900.000 10.301           67.809           84.168          
   14900.500 10.319           68.938           84.270          
   14901.000 10.401           69.885           83.769          
   14901.500 10.510           72.094           85.645          
   14902.000 10.709           76.435           85.976          
   14902.500 10.908           74.139           85.955          
   14903.000 11.030           72.418           85.934          
   14903.500 10.734           73.123           85.912          
   14904.000 10.470           73.439           85.891          
   14904.500 10.413           73.451           85.870          
   14905.000 10.454           71.563           85.849          
   14905.500 10.430           67.883           85.214          
   14906.000 10.429           63.440           84.308          
   14906.500 10.395           66.323           84.238          
   14907.000 10.370           70.713           84.564          
   14907.500 10.400           71.814           83.274          
   14908.000 10.535           71.811           84.918          
   14908.500 10.597           71.894           85.819          
   14909.000 10.794           72.669           84.247          
   14909.500 10.728           73.434           83.349          
   14910.000 10.746           74.130           83.633          
   14910.500 10.785           71.159           85.934          
   14911.000 10.789           70.571           84.320          
   14911.500 10.781           71.704           85.764          
   14912.000 10.773           72.834           85.459          
   14912.500 10.764           73.572           84.877          
   14913.000 10.657           73.488           83.903          
   14913.500 10.501           75.299           84.140          
   14914.000 10.429           76.309           85.571          
   14914.500 10.467           74.619           83.752          
   14915.000 10.351           71.475           84.649          
   14915.500 10.375           67.776           83.632          
   14916.000 10.401           65.280           83.951          
   14916.500 10.458           66.193           84.998          
   14917.000 10.552           68.030           87.177          
   14917.500 10.703           70.126           86.921          
   14918.000 10.780           69.898           89.071          
   14918.500 11.327           68.570           87.491          
   14919.000 11.190           73.171           88.208          
   14919.500 10.965           74.739           90.209          
   14920.000 11.058           74.067           88.595          
   14920.500 11.148           68.422           90.179          
   14921.000 11.199           64.944           87.894          
   14921.500 11.213           64.837           85.509          
   14922.000 11.055           66.476           84.141          
   14922.500 10.929           69.801           85.725          
   14923.000 11.097           71.856           82.676          
   14923.500 11.292           71.229           84.673          
   14924.000 11.076           69.945           84.931          
   14924.500 10.925           68.647           91.016          
   14925.000 11.032           69.123           85.881          
   14925.500 11.065           68.251           84.074          
   14926.000 10.754           65.671           85.007          
   14926.500 10.547           63.053           83.094          
   14927.000 10.727           67.144           84.971          
   14927.500 10.968           69.523           86.166          
   14928.000 10.939           72.372           86.155          
   14928.500 11.198           77.237           84.741          
   14929.000 11.328           78.353           84.141          
   14929.500 11.254           78.234           85.366          
   14930.000 11.049           76.809           82.646          
   14930.500 10.902           74.585           84.434          
   14931.000 11.097           73.336           85.007          
   14931.500 11.289           70.487           84.648          
   14932.000 11.247           68.788           83.844          
   14932.500 11.135           70.013           86.108          
   14933.000 11.315           68.997           84.922          
   14933.500 10.959           69.420           83.507          
   14934.000 10.912           71.655           82.051          
   14934.500 10.488           72.900           77.986          
   14935.000 10.398           73.541           75.803          
   14935.500 10.307           69.671           76.208          
   14936.000 10.094           67.892           77.061          
   14936.500 10.137           69.900           79.146          
   14937.000 10.169           68.321           79.640          
