#--------------------------------------------------#
#-------------------ENVERUS, INC.------------------#
#------------------WWW.ENVERUS.COM-----------------#
#------------------COPYRIGHT 2020------------------#
#--------------------------------------------------#
#THIS FILE MAY BE USED ONLY IN ACCORDANCE WITH A CURRENT SUBSCRIPTION AGREEMENT BETWEEN
#THE USER AND ENVERUS, INC. NO PART OF THIS FILE MAY BE REPRODUCED, USED, COPIED,
#MODIFIED, PROPAGATED, OR DISTRIBUTED EXCEPT IN ACCORDANCE WITH THE SUBSCRIPTION
#AGREEMENT. UNAUTHORIZED USE OR DISTRIBUTION OF ALL OR ANY PART OF THIS FILE MAY VIOLATE
#COPYRIGHT, TRADEMARK, AND/OR OTHER LAWS AND IS SUBJECT TO CIVIL AS WELL AS CRIMINAL
#SANCTIONS.
#--------------------------------------------------#
#THIS FILE IS PROVIDED "AS-IS" AND ALL WARRANTIES ARE EXPRESSLY DISCLAIMED, WHETHER
#EXPRESS, ORAL, IMPLIED, STATUTORY OR OTHERWISE, INCLUDING ANY IMPLIED WARRANTY OF FITNESS
#FOR A PARTICULAR PURPOSE, MERCHANTABILITY, TITLE OR NON-INFRINGEMENT, AND ANY WARRANTIES
#ARISING BY VIRTUE OF CUSTOM OF TRADE OR COURSE OF DEALING.  FURTHER, ENVERUS, INC.
#AND ITS LICENSORS DO NOT REPRESENT OR WARRANT THAT THIS FILE WILL MEET USER'S
#REQUIREMENTS OR ARE SUITABLE FOR USER'S NEEDS OR THAT THE DATA OR RESULTS PROVIDED IN
#CONJUNCTION THEREWITH ARE CORRECT, ACCURATE, TIMELY OR RELIABLE. THESE DISCLAIMERS SHALL
#APPLY REGARDLESS OF ANY FAILURE OF ESSENTIAL PURPOSE OF ANY LIMITED REMEDY.  SOME
#JURISDICTIONS DO NOT ALLOW THE EXCLUSION OF CERTAIN WARRANTIES SO SOME OF THE ABOVE
#EXCLUSIONS MAY NOT APPLY. IN NO EVENT SHALL ENVERUS, INC. OR ANY OF ITS AFFILIATES
#BE LIABLE UNDER ANY LEGAL THEORY, WHETHER IN TORT (INCLUDING WITHOUT LIMITATION
#NEGLIGENCE), CONTRACT, STRICT LIABILITY, STATUTORY OR OTHERWISE, FOR ANY SPECIAL,
#INCIDENTAL, CONSEQUENTIAL, EXEMPLARY, PUNITIVE OR INDIRECT DAMAGE OF ANY KIND, INCLUDING
#WITHOUT LIMITATION LOSS OF REVENUE, PROFITS, GOODWILL, USE, AND/OR DATA OR THE COST OF
#PROCUREMENT OF SUBSTITUTE GOODS OR SERVICES, EVEN IF APPRISED OF THE POSSIBILITY OF SUCH
#DAMAGES IN ADVANCE.
#--------------------------------------------------#

~VERSION INFORMATION
VERS. 2.0 : CWLS LOG ASCII STANDARD - VERSION 2.0
WRAP.  NO : ONE LINE PER DEPTH STEP
~WELL INFORMATION
#MNEMONIC     .UNIT              VALUE :DESCRIPTION
STRT       .FT                25 :START DEPTH
STOP       .FT                17136 :STOP DEPTH
STEP       .FT                   0.500 :STEP
NULL       .                  -999.250 :NULL
UWI        .              42389302310000 :UNIQUE WELL ID
API        .              42389302310000 :API NUMBER
COMP       .         EDISTO RESOURCES CORPORATION :COMPANY
WELL       .        WIGGINS  ORLA  1 :WELL
DATE       .                            :LOG DATE
~CURVE INFORMATION
#MNEMONIC     .UNIT      API CODE :CURVE DESCRIPTION
DEPTH       .FT                      :MEASURED DEPTH
CAL.INCH        UNKNOWN   :CAL
ILS.OHM        UNKNOWN   :ILS
SP.MV        UNKNOWN   :SP
DT.US/FT        UNKNOWN   :DT
GR.API        UNKNOWN   :GR
ILD.OHM        UNKNOWN   :ILD
~A    DEPTH    CAL    ILS    SP    DT    GR    ILD
# ...
 17041     3.863   1124.807   -4.953   47.438   5.083   1270.164
 17041.5     3.865   987.88   -4.99   47.132   5.441   1081.696
 17042     3.867   951.155   -5.027   46.827   5.798   1007.363
 17042.5     3.869   1189.452   -5.064   46.834   6.135   1256.34
 17043     3.871   1528.069   -4.948   47.125   6.453   1661.429
 17043.5     3.873   1972.39   -4.685   47.416   6.772   2214.834
 17044     3.875   1985.338   -4.423   46.99   7.429   2249.439
 17044.5     3.877   1998.286   -4.16   46.045   8.608   2069.191
 17045     3.878   1874.075   -3.898   45.978   7.807   1777.29
 17045.5     3.879   1563.629   -3.636   46.089   7.006   1499.502
 17046     3.881   1316.672   -3.373   46.385   5.936   1301.688
 17046.5     3.882   1206.449   -3.157   47.167   4.383   1103.873
 17047     3.883   983.672   -3.019   47.95   4.528   901.544
 17047.5     3.885   736.072   -2.88   48.133   4.674   696.742
 17048     3.886   623.85   -2.742   47.991   4.983   619.284
 17048.5     3.887   553.453   -2.604   47.849   5.506   573.033
 17049     3.888   499.295   -2.492   47.707   5.073   537.837
 17049.5     3.89   485.914   -2.468   47.565   4.579   609.111
 17050     3.891   587.649   -2.444   47.44   4.577   680.385
 17050.5     3.89   689.383   -2.42   47.68   2.659   751.658
 17051     3.88   889.128   -2.396   47.92   3.596   1027.82
 17051.5     3.87   1087.491   -2.372   48.035   4.068   1176.119
 17052     3.861   1202.788   -2.348   48.086   4.539   1186.387
 17052.5     3.851   1202.514   -2.324   48.137   5.011   1196.656
 17053     3.841   1220.473   -2.3   48.189   5.327   1206.924
 17053.5     3.831   1347.845   -2.275   48.24   5.034   1369.012
 17054     3.821   1475.217   -2.26   48.291   4.74   1546.694
 17054.5     3.811   1568.912   -2.276   48.342   4.447   1615.43
 17055     3.802   1609.193   -2.291   48.225   4.168   1565.061
 17055.5     3.792   1406.878   -2.307   48.094   3.888   1514.693
 17056     3.782   1421.584   -2.323   47.963   3.608   1464.324
 17056.5     3.772   1476.713   -2.339   47.832   3.229   1564.107
 17057     3.762   1598.807   -2.355   48.074   2.913   1684.063
 17057.5     3.752   1772.971   -2.37   48.58   2.958   1804.02
 17058     3.742   1913.753   -2.386   49.085   3.003   1896.736
 17058.5     3.733   1929.834   -2.402   49.153   3.176   1967.316
 17059     3.727   2013.416   -2.418   49.216   3.406   2151.403
 17059.5     3.733   2251.469   -2.433   49.28   3.596   2259.112
 17060     3.739   2208.107   -2.449   49.343   3.736   2280.132
 17060.5     3.746   2164.745   -2.465   49.383   3.877   2301.152
 17061     3.752   2052.479   -2.481   49.395   4.077   2154.464
 17061.5     3.758   1882.431   -2.582   49.406   4.301   1755.937
 17062     3.76   1611.351   -2.691   49.417   4.526   1551.639
 17062.5     3.758   1340.271   -2.799   49.428   5.152   1347.341
 17063     3.757   1096.055   -2.908   49.417   5.552   1143.042
 17063.5     3.756   954.184   -2.789   49.287   5.125   938.744
 17064     3.754   827.485   -2.536   49.156   4.698   861.04
 17064.5     3.753   823.769   -2.283   49.026   4.37   867.637
 17065     3.752   819.877   -2.308   48.896   4.224   874.233
 17065.5     3.75   813.298   -2.414   48.765   4.078   806.847
 17066     3.749   756.159   -2.52   48.583   3.932   732.816
 17066.5     3.748   695.845   -2.626   48.397   3.514   658.785
 17067     3.747   592.239   -2.732   48.211   2.994   584.754
 17067.5     3.745   574.024   -2.839   48.024   2.657   618.173
 17068     3.744   625.816   -2.695   48.248   2.531   672.114
 17068.5     3.743   697.153   -2.526   48.49   2.646   778.998
 17069     3.741   851.677   -2.356   48.732   3.227   917.921
 17069.5     3.74   1046.597   -2.187   48.974   3.733   1056.844
 17070     3.739   1083.239   -2.018   49.216   3.608   1129.956
 17070.5     3.739   1078.522   -1.849   48.979   3.482   1103.492
 17071     3.739   1040.193   -1.68   48.741   3.32   1034.523
 17071.5     3.739   980.541   -1.511   48.504   3.157   965.554
 17072     3.738   892.576   -1.342   48.267   2.995   896.585
 17072.5     3.738   804.611   -1.173   48.029   2.524   827.616
 17073     3.738   747.824   -1.064   47.792   1.94   758.646
 17073.5     3.738   788.549   -0.973   47.555   2.309   796.846
 17074     3.738   848.501   -0.883   47.347   3.052   864.469
 17074.5     3.737   910.206   -0.792   47.463   3.795   932.093
 17075     3.737   971.911   -0.702   47.578   3.878   999.008
 17075.5     3.737   1011.176   -0.611   47.694   3.742   1016.053
 17076     3.737   1019.649   -0.521   47.809   3.605   1033.099
 17076.5     3.737   1085.416   -0.43   47.925   3.468   1050.144
 17077     3.736   1247.625   -0.34   48.041   4.973   1375.45
 17077.5     3.736   1512.682   -0.249   48.113   6.372   1741.284
 17078     3.736   2064.133   -0.161   47.933   5.729   2107.117
 17078.5     3.736   2231.549   -0.126   47.753   3.889   2254.867
 17079     3.736   2174.452   -0.092   47.572   0.266   2264.871
 17079.5     3.736   2010.014   -0.058   47.392   -0.466   2147.214
 17080     3.735   1644.171   -0.024   47.273   -0.458   1817.49
 17080.5     3.735   1280.884   0.011   47.735   -0.45   1487.767
 17081     3.735   1025.041   0.045   48.198   -0.443   1158.043
 17081.5     3.735   1003.328   0.079   48.376   -0.435   1006.95
 17082     3.735   1026.457   0.113   48.271   -0.427   1052.056
 17082.5     3.734   1049.585   0.148   48.166   -0.42   1097.163
 17083     3.734   1072.714   0.182   48.161   -0.412   1118.99
 17083.5     3.734   1090.655   0.216   48.459   -0.404   1135.168
 17084     3.734   1101.307   0.25   48.757   -0.397   1151.345
 17084.5     3.734   1111.959   0.285   49.055   -0.389   1167.523
 17085     3.733   1122.612   0.319   49.353   -0.381   1183.7
 17085.5     3.733   1133.264   0.353   49.312   -0.373   1199.878
 17086     3.733   1172.679   0.387   49.086   -0.366   1218.265
 17086.5     3.733   1213.586   0.422   48.903   -0.358   1256.413
 17087     3.733   1254.493   0.456   49.013   -0.35   1294.56
 17087.5     3.733   1295.4   0.464   49.123   -0.343   1332.707
 17088     3.732   1336.307   0.44   49.233   -0.335   1370.854
 17088.5     3.732   1372.402   0.417   49.2   -0.327   1409.001
 17089     3.732   1401.042   0.393   49.011   -0.32   1410.929
 17089.5     3.732   1337.964   0.37   48.821   -0.312   1327.736
 17090     3.732   1239.793   0.346   48.632   -0.304   1244.543
 17090.5     3.731   1141.622   0.323   48.443   -0.297   1161.349
 17091     3.731   1043.451   0.299   48.528   -0.289   1078.156
 17091.5     3.731   979.893   0.275   48.623   -0.281   1029.081
 17092     3.731   1000.44   0.252   48.717   -0.274   1047.266
 17092.5     3.731   -999.250   0.228   48.811   -0.266   -999.250
 17093     3.73   -999.250   0.205   48.905   -0.258   -999.250
 17093.5     3.73   -999.250   0.181   48.94   -0.251   -999.250
 17094     3.73   -999.250   0.158   48.914   -0.243   -999.250
 17094.5     3.73   -999.250   0.134   48.931   -0.235   -999.250
 17095     3.73   -999.250   0.11   49.04   -0.228   -999.250
 17095.5     3.73   -999.250   0.087   49.148   -0.22   -999.250
 17096     3.729   -999.250   0.063   49.257   -0.212   -999.250
 17096.5     3.729   -999.250   0.04   49.366   -0.205   -999.250
 17097     3.729   -999.250   0.016   49.174   -0.197   -999.250
 17097.5     3.729   -999.250   -0.007   48.759   -0.189   -999.250
 17098     3.729   -999.250   -0.031   48.344   -0.182   -999.250
 17098.5     3.728   -999.250   -999.250   47.93   -0.174   -999.250
 17099     3.728   -999.250   -999.250   47.74   -0.166   -999.250
 17099.5     3.728   -999.250   -999.250   47.551   -0.159   -999.250
 17100     3.728   -999.250   -999.250   47.361   -0.151   -999.250
 17100.5     -999.250   -999.250   -999.250   47.172   -999.250   -999.250
 17101     -999.250   -999.250   -999.250   47.072   -999.250   -999.250
 17101.5     -999.250   -999.250   -999.250   47.064   -999.250   -999.250
 17102     -999.250   -999.250   -999.250   47.056   -999.250   -999.250
