#--------------------------------------------------#
#-------------------ENVERUS, INC.------------------#
#------------------WWW.ENVERUS.COM-----------------#
#------------------COPYRIGHT 2020------------------#
#--------------------------------------------------#
#THIS FILE MAY BE USED ONLY IN ACCORDANCE WITH A CURRENT SUBSCRIPTION AGREEMENT BETWEEN
#THE USER AND ENVERUS, INC. NO PART OF THIS FILE MAY BE REPRODUCED, USED, COPIED,
#MODIFIED, PROPAGATED, OR DISTRIBUTED EXCEPT IN ACCORDANCE WITH THE SUBSCRIPTION
#AGREEMENT. UNAUTHORIZED USE OR DISTRIBUTION OF ALL OR ANY PART OF THIS FILE MAY VIOLATE
#COPYRIGHT, TRADEMARK, AND/OR OTHER LAWS AND IS SUBJECT TO CIVIL AS WELL AS CRIMINAL
#SANCTIONS.
#--------------------------------------------------#
#THIS FILE IS PROVIDED "AS-IS" AND ALL WARRANTIES ARE EXPRESSLY DISCLAIMED, WHETHER
#EXPRESS, ORAL, IMPLIED, STATUTORY OR OTHERWISE, INCLUDING ANY IMPLIED WARRANTY OF FITNESS
#FOR A PARTICULAR PURPOSE, MERCHANTABILITY, TITLE OR NON-INFRINGEMENT, AND ANY WARRANTIES
#ARISING BY VIRTUE OF CUSTOM OF TRADE OR COURSE OF DEALING.  FURTHER, ENVERUS, INC.
#AND ITS LICENSORS DO NOT REPRESENT OR WARRANT THAT THIS FILE WILL MEET USER'S
#REQUIREMENTS OR ARE SUITABLE FOR USER'S NEEDS OR THAT THE DATA OR RESULTS PROVIDED IN
#CONJUNCTION THEREWITH ARE CORRECT, ACCURATE, TIMELY OR RELIABLE. THESE DISCLAIMERS SHALL
#APPLY REGARDLESS OF ANY FAILURE OF ESSENTIAL PURPOSE OF ANY LIMITED REMEDY.  SOME
#JURISDICTIONS DO NOT ALLOW THE EXCLUSION OF CERTAIN WARRANTIES SO SOME OF THE ABOVE
#EXCLUSIONS MAY NOT APPLY. IN NO EVENT SHALL ENVERUS, INC. OR ANY OF ITS AFFILIATES
#BE LIABLE UNDER ANY LEGAL THEORY, WHETHER IN TORT (INCLUDING WITHOUT LIMITATION
#NEGLIGENCE), CONTRACT, STRICT LIABILITY, STATUTORY OR OTHERWISE, FOR ANY SPECIAL,
#INCIDENTAL, CONSEQUENTIAL, EXEMPLARY, PUNITIVE OR INDIRECT DAMAGE OF ANY KIND, INCLUDING
#WITHOUT LIMITATION LOSS OF REVENUE, PROFITS, GOODWILL, USE, AND/OR DATA OR THE COST OF
#PROCUREMENT OF SUBSTITUTE GOODS OR SERVICES, EVEN IF APPRISED OF THE POSSIBILITY OF SUCH
#DAMAGES IN ADVANCE.
#--------------------------------------------------#

~VERSION INFORMATION
VERS. 2.0 : CWLS LOG ASCII STANDARD - VERSION 2.0
WRAP.  NO : ONE LINE PER DEPTH STEP
~WELL INFORMATION
#MNEMONIC     .UNIT              VALUE :DESCRIPTION
STRT       .FT                0 :START DEPTH
STOP       .FT                13134 :STOP DEPTH
STEP       .FT                   0.500 :STEP
NULL       .                  -999.250 :NULL
UWI        .              42389303540000 :UNIQUE WELL ID
API        .              42389303540000 :API NUMBER
COMP       .         SMC OIL & GAS  INC. :COMPANY
WELL       .        TIFFANY STATE  1 :WELL
DATE       .                18-OCT-1995 :LOG DATE
~CURVE INFORMATION
#MNEMONIC     .UNIT      API CODE :CURVE DESCRIPTION
DEPTH       .FT                      :MEASURED DEPTH
DT.US/FT        UNKNOWN   :DT
CAL.INCH        UNKNOWN   :CAL
GR.API        UNKNOWN   :GR
~A    DEPTH    DT    CAL    GR
# ...
 8621     70.822   9.774   63.63
 8621.5     67.143   9.772   55.75
 8622     63.438   9.77   48.719
 8622.5     60.768   9.767   45.737
 8623     59.902   9.765   45.131
 8623.5     66.095   9.763   53.17
 8624     72.288   9.761   72.379
 8624.5     74.713   9.759   88.886
 8625     75.468   9.759   101.09
 8625.5     76.144   9.759   100.358
 8626     76.59   9.759   99.626
 8626.5     77.637   9.759   99.592
 8627     79.31   9.759   101.315
 8627.5     80.983   9.759   103.038
 8628     78.159   9.76   96.415
 8628.5     76.159   9.76   87.895
 8629     74.159   9.76   79.375
 8629.5     72.158   9.76   70.128
 8630     70.158   9.788   61.349
 8630.5     68.158   9.817   57.11
 8631     66.157   9.846   48.987
 8631.5     64.023   9.875   43.543
 8632     60.985   9.904   38.098
 8632.5     57.948   9.934   37.618
 8633     58.046   9.963   41.531
 8633.5     61.911   9.99   53.304
 8634     69.42   9.963   65.076
 8634.5     76.003   9.937   73.455
 8635     78.328   9.911   79.3
 8635.5     80.198   9.884   85.144
 8636     80.586   9.858   90.988
 8636.5     80.675   9.832   87.739
 8637     78.249   9.805   82.517
 8637.5     75.824   9.793   77.295
 8638     73.154   9.789   72.073
 8638.5     70.352   9.784   67.637
 8639     76.967   9.78   77.775
 8639.5     76.36   9.776   87.913
 8640     77.628   9.771   95.216
 8640.5     76.905   9.767   86.905
 8641     73.188   9.763   78.593
 8641.5     69.471   9.758   70.282
 8642     67.314   9.754   57.987
 8642.5     65.688   9.749   56.604
 8643     64.062   9.745   63.365
 8643.5     68.222   9.741   71.638
 8644     72.25   9.736   80.721
 8644.5     76.241   9.732   89.667
 8645     77.292   9.728   87.716
 8645.5     77.3   9.723   85.764
 8646     76.672   9.719   83.812
 8646.5     76.237   9.714   81.861
 8647     76.116   9.71   75.586
 8647.5     73.023   9.706   76.604
 8648     69.695   9.703   80.298
 8648.5     69.895   9.7   83.992
 8649     77.182   9.697   87.687
 8649.5     80.158   9.694   92.493
 8650     81.609   9.69   97.402
 8650.5     82.88   9.687   102.311
 8651     82.329   9.684   102.993
 8651.5     80.999   9.681   100.11
 8652     79.67   9.678   95.106
 8652.5     76.216   9.674   87.02
 8653     72.738   9.672   78.934
 8653.5     72.204   9.671   74.078
 8654     72.367   9.67   74.768
 8654.5     72.53   9.668   75.457
 8655     70.345   9.667   70.573
 8655.5     66.497   9.665   46.073
 8656     63.622   9.664   43.737
 8656.5     62.528   9.663   41.4
 8657     61.434   9.661   40.344
 8657.5     60.34   9.66   39.73
 8658     59.247   9.659   41.377
 8658.5     60.87   9.657   43.714
 8659     66.856   9.656   82.163
 8659.5     72.842   9.657   89.164
 8660     77.321   9.659   96.166
 8660.5     78.651   9.66   100.057
 8661     79.981   9.661   97.087
 8661.5     78.407   9.663   94.118
 8662     74.967   9.664   82.511
 8662.5     68.627   9.666   66.285
 8663     63.348   9.667   56.583
 8663.5     61.291   9.668   54.344
 8664     66.088   9.67   65.122
 8664.5     70.884   9.671   76.907
 8665     75.681   9.672   92.007
 8665.5     78.004   9.674   90.23
 8666     78.98   9.679   88.454
 8666.5     79.047   9.686   86.677
 8667     78.501   9.693   82.563
 8667.5     79.04   9.699   68.278
 8668     66.378   9.706   53.286
 8668.5     65.198   9.713   51.322
 8669     64.018   9.719   54.561
 8669.5     66.823   9.726   61.235
 8670     69.684   9.732   67.908
 8670.5     74.984   9.739   74.581
 8671     78.524   9.746   74.491
 8671.5     78.202   9.752   69.557
 8672     74.447   9.759   63.381
 8672.5     70.693   9.765   57.206
 8673     64.692   9.772   50.914
 8673.5     60.833   9.779   44.106
 8674     61.041   9.816   45.375
 8674.5     63.537   9.874   49.264
 8675     66.034   9.933   53.154
 8675.5     68.53   9.991   57.043
 8676     69.022   10.049   60.331
 8676.5     69.205   10.022   63.552
 8677     69.397   9.962   66.772
 8677.5     72.599   9.902   69.992
 8678     72.758   9.842   70.603
 8678.5     71.943   9.782   62.992
 8679     68.273   9.729   55.38
 8679.5     64.381   9.735   52.089
 8680     63.455   9.742   54.796
 8680.5     64.303   9.748   57.503
 8681     66.643   9.754   60.21
 8681.5     68.983   9.76   61.594
 8682     70.549   9.759   58.427
 8682.5     69.854   9.747   55.26
 8683     67.767   9.735   52.093
 8683.5     66.694   9.723   48.926
 8684     67.357   9.711   49.576
 8684.5     67.732   9.717   52.005
 8685     66.045   9.722   52.988
 8685.5     64.436   9.728   52.989
 8686     63.271   9.734   52.989
 8686.5     63.588   9.739   55.927
 8687     68.906   9.745   61.722
 8687.5     73.722   9.75   88.723
 8688     76.895   9.756   98.096
 8688.5     79.115   9.761   94.003
 8689     78.049   9.759   89.91
 8689.5     75.637   9.745   85.817
 8690     73.225   9.732   81.724
 8690.5     68.865   9.718   77.632
 8691     68.954   9.705   73.299
 8691.5     69.89   9.696   68.162
 8692     70.48   9.71   63.026
 8692.5     67.658   9.725   56.842
 8693     64.836   9.739   50.131
 8693.5     62.014   9.753   45.779
 8694     60.445   9.767   43.597
 8694.5     59.584   9.781   41.416
 8695     58.733   9.795   40.553
 8695.5     57.881   9.809   39.967
 8696     57.937   9.823   40.027
 8696.5     58.714   9.833   50.536
 8697     65.515   9.792   61.046
 8697.5     74.696   9.751   71.555
 8698     76.045   9.71   75.179
 8698.5     75.757   9.669   72.189
 8699     73.886   9.628   66.001
 8699.5     71.013   9.632   59.812
 8700     67.885   9.642   53.623
 8700.5     61.803   9.652   41.647
 8701     58.235   9.661   31.651
 8701.5     57.903   9.671   33.253
 8702     59.026   9.681   34.855
 8702.5     57.675   9.691   36.458
 8703     56.305   9.701   34.029
 8703.5     54.163   9.711   31.384
 8704     56.768   9.721   35.61
 8704.5     59.373   9.73   39.835
 8705     61.978   9.74   44.061
 8705.5     63.629   9.75   43.971
 8706     64.839   9.76   40.526
 8706.5     60.163   9.77   37.08
 8707     59.155   9.781   33.635
 8707.5     61.31   9.791   35.558
 8708     63.466   9.802   38.85
 8708.5     64.485   9.813   42.142
 8709     62.744   9.824   45.434
 8709.5     61.004   9.834   41.8
 8710     59.037   9.845   38.01
 8710.5     58.323   9.856   34.221
 8711     59.026   9.867   33.511
 8711.5     59.73   9.878   32.858
 8712     60.093   9.889   32.205
 8712.5     58.978   9.901   31.552
 8713     59.822   9.912   33.544
 8713.5     61.701   9.923   39.284
 8714     63.581   9.934   49.014
 8714.5     65.533   9.946   58.744
 8715     67.486   9.958   63.786
 8715.5     69.438   9.97   66.166
 8716     71.101   9.981   58.822
 8716.5     72.337   9.993   51.479
 8717     61.522   10.005   44.135
 8717.5     61.164   10.017   43.682
 8718     61.415   10.029   46.735
 8718.5     63.103   10.041   49.788
 8719     64.79   10.052   52.841
 8719.5     66.478   10.064   55.864
 8720     66.569   10.045   56.615
 8720.5     66.363   10.01   57.366
 8721     64.924   9.975   58.117
 8721.5     64.941   9.94   58.869
 8722     70.074   9.905   71.142
 8722.5     74.436   9.87   83.862
 8723     75.984   9.835   93.677
 8723.5     76.756   9.8   89.66
 8724     74.513   9.765   84.564
 8724.5     72.269   9.765   79.468
 8725     71.936   9.795   75.918
 8725.5     72.199   9.825   76.633
 8726     72.015   9.855   77.349
 8726.5     70.596   9.885   67.759
 8727     63.399   9.915   44.536
 8727.5     60.275   9.945   31.696
 8728     59.45   9.975   31.184
 8728.5     58.626   10.004   33.36
 8729     58.118   10.034   38.486
 8729.5     60.428   10.064   43.613
 8730     62.738   10.094   48.739
 8730.5     68.522   10.124   101.802
 8731     77.267   10.154   105.049
 8731.5     78.98   10.143   107.241
 8732     79.9   10.126   106.186
 8732.5     80.483   10.11   101.643
 8733     79.884   10.093   97.1
 8733.5     78.485   10.077   92.557
 8734     75.658   10.06   84.439
 8734.5     72.078   10.043   71.408
 8735     68.498   10.027   58.377
 8735.5     64.918   10.01   45.07
