#--------------------------------------------------#
#-------------------ENVERUS, INC.------------------#
#------------------WWW.ENVERUS.COM-----------------#
#------------------COPYRIGHT 2020------------------#
#--------------------------------------------------#
#THIS FILE MAY BE USED ONLY IN ACCORDANCE WITH A CURRENT SUBSCRIPTION AGREEMENT BETWEEN
#THE USER AND ENVERUS, INC. NO PART OF THIS FILE MAY BE REPRODUCED, USED, COPIED,
#MODIFIED, PROPAGATED, OR DISTRIBUTED EXCEPT IN ACCORDANCE WITH THE SUBSCRIPTION
#AGREEMENT. UNAUTHORIZED USE OR DISTRIBUTION OF ALL OR ANY PART OF THIS FILE MAY VIOLATE
#COPYRIGHT, TRADEMARK, AND/OR OTHER LAWS AND IS SUBJECT TO CIVIL AS WELL AS CRIMINAL
#SANCTIONS.
#--------------------------------------------------#
#THIS FILE IS PROVIDED "AS-IS" AND ALL WARRANTIES ARE EXPRESSLY DISCLAIMED, WHETHER
#EXPRESS, ORAL, IMPLIED, STATUTORY OR OTHERWISE, INCLUDING ANY IMPLIED WARRANTY OF FITNESS
#FOR A PARTICULAR PURPOSE, MERCHANTABILITY, TITLE OR NON-INFRINGEMENT, AND ANY WARRANTIES
#ARISING BY VIRTUE OF CUSTOM OF TRADE OR COURSE OF DEALING.  FURTHER, ENVERUS, INC.
#AND ITS LICENSORS DO NOT REPRESENT OR WARRANT THAT THIS FILE WILL MEET USER'S
#REQUIREMENTS OR ARE SUITABLE FOR USER'S NEEDS OR THAT THE DATA OR RESULTS PROVIDED IN
#CONJUNCTION THEREWITH ARE CORRECT, ACCURATE, TIMELY OR RELIABLE. THESE DISCLAIMERS SHALL
#APPLY REGARDLESS OF ANY FAILURE OF ESSENTIAL PURPOSE OF ANY LIMITED REMEDY.  SOME
#JURISDICTIONS DO NOT ALLOW THE EXCLUSION OF CERTAIN WARRANTIES SO SOME OF THE ABOVE
#EXCLUSIONS MAY NOT APPLY. IN NO EVENT SHALL ENVERUS, INC. OR ANY OF ITS AFFILIATES
#BE LIABLE UNDER ANY LEGAL THEORY, WHETHER IN TORT (INCLUDING WITHOUT LIMITATION
#NEGLIGENCE), CONTRACT, STRICT LIABILITY, STATUTORY OR OTHERWISE, FOR ANY SPECIAL,
#INCIDENTAL, CONSEQUENTIAL, EXEMPLARY, PUNITIVE OR INDIRECT DAMAGE OF ANY KIND, INCLUDING
#WITHOUT LIMITATION LOSS OF REVENUE, PROFITS, GOODWILL, USE, AND/OR DATA OR THE COST OF
#PROCUREMENT OF SUBSTITUTE GOODS OR SERVICES, EVEN IF APPRISED OF THE POSSIBILITY OF SUCH
#DAMAGES IN ADVANCE.
#--------------------------------------------------#

~VERSION INFORMATION
VERS. 2.0 : CWLS LOG ASCII STANDARD - VERSION 2.0
WRAP.  NO : ONE LINE PER DEPTH STEP
~WELL INFORMATION
#MNEMONIC     .UNIT              VALUE :DESCRIPTION
STRT       .FT                0 :START DEPTH
STOP       .FT                15761 :STOP DEPTH
STEP       .FT                   0.500 :STEP
NULL       .                  -999.250 :NULL
UWI        .              42389302550000 :UNIQUE WELL ID
API        .              42389302550000 :API NUMBER
COMP       .         COASTAL STATES GAS PROD. CO. :COMPANY
WELL       .        CHAPMAN  MCGUIRE & WYNNE  3B :WELL
DATE       .                            :LOG DATE
~CURVE INFORMATION
#MNEMONIC     .UNIT      API CODE :CURVE DESCRIPTION
DEPTH       .FT                      :MEASURED DEPTH
GR.API        UNKNOWN   :GR
DT.US/FT        UNKNOWN   :DT
CAL.INCH        UNKNOWN   :CAL
~A    DEPTH    GR    DT    CAL
# ...
 10446     85.388   66.23   12.963
 10446.5     84.048   75.376   12.963
 10447     77.006   84.584   12.963
 10447.5     69.021   90.943   12.964
 10448     61.775   97.393   12.964
 10448.5     54.752   99.786   12.964
 10449     50.945   99.055   12.965
 10449.5     50.812   85.479   12.965
 10450     54.332   91.298   12.965
 10450.5     57.964   79.754   12.966
 10451     61.796   81.981   12.966
 10451.5     65.628   85.812   12.968
 10452     68.727   91.768   12.979
 10452.5     70.482   88.168   12.99
 10453     70.739   85.159   13.001
 10453.5     72.226   82.815   13.012
 10454     73.293   81.292   13.023
 10454.5     73.412   82.367   13.034
 10455     73.506   84.324   13.045
 10455.5     72.433   84.613   13.056
 10456     71.361   83.4   13.067
 10456.5     66.898   83.92   13.078
 10457     66.381   85.057   13.089
 10457.5     67.718   86.543   13.1
 10458     66.552   88.179   13.111
 10458.5     64.848   87.016   13.122
 10459     65.079   85.492   13.135
 10459.5     66.851   85.907   13.148
 10460     67.072   87.344   13.16
 10460.5     70.312   88.782   13.18
 10461     70.71   88.525   13.302
 10461.5     66.18   89.632   13.212
 10462     62.686   96.224   13.105
 10462.5     59.191   74.537   13.094
 10463     59.621   75.659   13.106
 10463.5     63.988   82.908   13.118
 10464     68.67   85.33   13.131
 10464.5     68.119   84.433   13.129
 10465     65.254   86.975   13.118
 10465.5     64.856   92.673   13.107
 10466     64.853   96.626   13.095
 10466.5     61.495   83.137   13.084
 10467     58.109   78.627   13.073
 10467.5     54.724   85.999   13.061
 10468     54.276   81.765   13.05
 10468.5     53.247   78.715   13.039
 10469     51.592   79.464   13.027
 10469.5     49.938   80.212   13.016
 10470     48.426   80.96   13.005
 10470.5     48.55   81.436   12.994
 10471     51.229   81.864   12.994
 10471.5     53.909   81.828   12.993
 10472     55.646   81.029   12.993
 10472.5     55.311   78.625   12.993
 10473     52.123   79.514   12.993
 10473.5     48.935   86.476   12.993
 10474     47.015   96.159   12.992
 10474.5     49.295   76.493   12.992
 10475     53.319   75.687   12.992
 10475.5     55.847   73.441   12.992
 10476     56.849   68.841   12.992
 10476.5     61.943   67.395   12.991
 10477     67.853   69.842   12.991
 10477.5     73.247   77.717   13.003
 10478     78.482   84.38   13.068
 10478.5     80.318   87.898   13.133
 10479     77.98   87.01   13.198
 10479.5     75.216   86.035   13.223
 10480     72.452   85.001   13.197
 10480.5     68.952   82.835   13.171
 10481     65.194   80.197   13.145
 10481.5     61.436   79.25   13.119
 10482     58.821   78.303   13.093
 10482.5     57.862   77.53   13.066
 10483     56.904   78.044   13.04
 10483.5     57.453   80.361   13.014
 10484     59.522   82.691   12.988
 10484.5     60.825   90.839   12.971
 10485     59.336   90.067   12.973
 10485.5     59.65   80.523   12.975
 10486     62.387   70.455   12.976
 10486.5     60.97   62.205   12.978
 10487     58.695   71.417   12.98
 10487.5     59.179   73.228   12.981
 10488     62.115   74.47   12.983
 10488.5     68.64   75.713   12.985
 10489     77.841   94.923   12.987
 10489.5     74.923   100.544   12.988
 10490     72.005   103.798   12.99
 10490.5     66.952   93.253   12.992
 10491     64.268   76.737   12.993
 10491.5     63.353   76.02   12.995
 10492     64.355   75.328   12.997
 10492.5     65.357   77.656   12.998
 10493     67.543   80.252   13
 10493.5     70.015   82.471   13.002
 10494     72.152   84.552   13.015
 10494.5     71.512   86.632   13.031
 10495     70.873   87.85   13.048
 10495.5     70.233   87.238   13.064
 10496     69.593   87.341   13.081
 10496.5     71.294   96.066   13.073
 10497     73.469   88.726   13.046
 10497.5     71.938   83.542   13.019
 10498     69.237   80.896   12.992
 10498.5     65.843   78.25   12.965
 10499     62.449   75.808   12.938
 10499.5     62.709   76.832   12.913
 10500     63.28   77.857   12.916
 10500.5     63.835   78.882   12.919
 10501     63.163   78.454   12.922
 10501.5     62.492   77.291   12.925
 10502     61.976   77.404   12.928
 10502.5     62.811   79.361   12.931
 10503     64.461   80.601   12.934
 10503.5     67.14   85.88   12.937
 10504     68.908   94.611   12.94
 10504.5     69.111   79.172   12.944
 10505     69.315   81.904   12.959
 10505.5     69.282   84.637   12.989
 10506     69.13   88.851   13.02
 10506.5     60.374   96.932   13.048
 10507     49.431   99.812   13.012
 10507.5     43.376   87.934   12.976
 10508     37.768   78.003   12.94
 10508.5     38.162   68.072   12.943
 10509     44.898   72.856   12.969
 10509.5     52.309   73.338   12.995
 10510     58.485   78.178   13.021
 10510.5     64.661   82.576   13.048
 10511     68.939   86.947   13.074
 10511.5     67.217   83.849   13.1
 10512     68.027   80.157   13.127
 10512.5     69.389   85.473   13.153
 10513     69.743   84.9   13.179
 10513.5     70.098   84.427   13.205
 10514     70.437   84.32   13.232
 10514.5     68.788   84.612   13.258
 10515     67.139   84.966   13.284
 10515.5     65.992   95.867   13.311
 10516     65.989   100.061   13.311
 10516.5     63.794   86.344   13.283
 10517     61.213   80.498   13.255
 10517.5     58.632   79.889   13.227
 10518     63.644   79.831   13.199
 10518.5     68.718   79.773   13.171
 10519     68.181   79.567   13.143
 10519.5     67.643   79.285   13.115
 10520     69.161   79.016   13.087
 10520.5     69.739   78.748   13.059
 10521     69.513   78.699   13.031
 10521.5     69.357   79.713   13.002
 10522     70.583   80.727   12.991
 10522.5     71.808   85.747   12.99
 10523     71.606   83.016   12.99
 10523.5     70.265   82.579   12.99
 10524     68.925   83.46   12.99
 10524.5     68.384   82.777   12.99
 10525     67.98   83.879   12.989
 10525.5     67.195   85   12.989
 10526     66.3   86.244   12.989
 10526.5     65.405   87.5   12.989
 10527     66.751   88.348   12.988
 10527.5     69.262   87.127   12.988
 10528     64.999   85.696   12.988
 10528.5     60.721   83.33   12.988
 10529     60.136   80.964   12.988
 10529.5     59.89   78.838   12.987
 10530     60.279   77.349   12.987
 10530.5     61.409   79.521   12.987
 10531     64.256   83.101   12.987
 10531.5     66.817   86.316   12.987
 10532     68.859   89.532   12.986
 10532.5     67.184   90.223   12.986
 10533     64.918   89.168   12.986
 10533.5     61.764   86.136   13.007
 10534     58.61   82.866   13.033
 10534.5     55.511   79.335   13.06
 10535     52.47   75.803   13.086
 10535.5     50.778   73.303   13.084
 10536     54.973   75.566   13.077
 10536.5     61.461   78.432   13.071
 10537     67.949   82.387   13.064
 10537.5     72.027   86.342   13.057
 10538     74.949   91.182   13.051
 10538.5     76.852   96.202   13.044
 10539     77.184   86.992   13.037
 10539.5     76.8   85.272   13.03
 10540     76.153   84.95   13.024
 10540.5     75.506   84.413   13.017
 10541     74.859   83.769   13.01
 10541.5     74.212   83.959   13.004
 10542     73.026   86.076   12.997
 10542.5     67.903   100.133   12.99
 10543     62.78   94.602   12.984
 10543.5     60.229   81.28   12.984
 10544     59.245   76.543   12.986
 10544.5     58.261   75.932   12.988
 10545     57.687   76.812   12.991
 10545.5     57.517   77.901   12.993
 10546     55.461   79.14   12.995
 10546.5     53.051   79.156   12.998
 10547     54.006   78.807   13
 10547.5     56.014   78.61   13.003
 10548     58.021   80.24   13.005
 10548.5     60.498   81.869   13.007
 10549     63.571   83.505   13.01
 10549.5     66.644   84.683   13.012
 10550     69.717   84.233   13.014
 10550.5     70.561   83.782   13.017
 10551     71.193   84.672   13.019
 10551.5     71.825   85.598   13.021
 10552     72.456   85.793   13.024
 10552.5     69.728   85.942   13.026
 10553     66.884   86.066   13.029
 10553.5     64.039   84.363   13.024
 10554     62.752   82.903   13.009
 10554.5     62.348   82.258   12.994
 10555     62.92   81.614   12.979
