###############################################
##         ENVERUS                           ##
##         ESS - Open Hole                   ##
##         PERMIAN / DELAWARE                ##
##         Nov 04 2023  V4.0                 ##
##         42-389-31270-00-00                ##
###############################################
## Copyright 2017-2023  ENVERUS.  All Rights Reserved. 
## Confidential - Property of ENVERUS, use governed by terms and 
## conditions found within the existing Information Services Subscription Agreement 
## (as may be amended, the “ISSA”) between Customer and ENVERUS. 
## 
~VERSION INFORMATION
# MNEM.UNIT                               DATA : DESCRIPTION OF MNEMONIC
#-----.-----     ----------------------------- : -----------------------------
VERS.                                     2.00 : CWLS LOG ASCII STANDARD - VERSION 2.00
WRAP.                                       NO : MULTIPLE LINES PER DEPTH STEP
VEND.                                  ENVERUS : VENDOR
TYPE.                          ESS - OPEN HOLE : ENVERUS ESSENTIAL CURVES – ACCESSIBLE THROUGH ENVERUS PRISM(TM)
DOC.                                  31950282 : ENVERUS HEADER RAW DOCUMENT ID
#___________________________________________________________________________________________________ 
~WELL INFORMATION 
# 0CODbT4LMl4UGLa7W4QP9cEC157HhgZEtdKI2U+cm8ET/zLKkJfEe4mvdgudHboWMGmWziBYTrzgVEWtCsCjWg== 
# MNEM.UNIT                                              DATA : DESCRIPTION OF MNEMONIC 
#-----.-----                    ----------------------------- : ----------------------------- 
CNTY.                                                  REEVES : COUNTY 
STATE.                                                  TEXAS : STATE 
CNTRY.                                                    USA : COUNTRY 
API.                                             42-389-31270 : API (10 Digit) 
API_14.                                    42-389-31270-00-00 : API (14 Digits) 
API_14_std.                                 42-389-31270-0000 : API (14 Digits Standard) 
UWI.                                           42389312700000 : UNIQUE WELL ID 
WELL.                                        FORTUNE UNIT  2R : WELL NAME
STRT.FT                                                3825.0 : START DEPTH
STOP.FT                                               13654.0 : STOP DEPTH
STEP.FT                                                   0.5 : STEP BETWEEN DEPTHS
NULL.                                                 -999.25 : NULL VALUE
COMP.                          SANDRIDGE EXPL. AND PROD.  LLC : COMPANY 
DATE.                                             19-AUG-2004 : LOG DATE
#___________________________________________________________________________________________________ 
~CURVE INFORMATION 
# MNEM.UNIT           : CURVE DESCRIPTION 
#-----.-----          : ----------------------------- 
 DEPT.FT               : MEASURED DEPTH 
 CALI__B.IN            : CALIPER (CAL - CAL) 
 GR__B.API             : GAMMA RAY (GR) 
 DT__B.US/FT           : SONIC DELTA TRANSIT TIME (DT) 
 #___________________________________________________________________________________________________ 
~A         DEPT        CALI__B          GR__B          DT__B
# ...
         7059.0         10.372         52.756         69.161
         7059.5         10.344         56.858         70.843
         7060.0         10.316         60.961         83.890
         7060.5         10.288         86.770         84.109
         7061.0         10.260        121.651         84.328
         7061.5         10.243        130.958         84.547
         7062.0         10.252        130.960         84.766
         7062.5         10.261        130.892         84.985
         7063.0         10.271        120.942         85.204
         7063.5         10.280        106.787         85.423
         7064.0         10.289        101.564         80.697
         7064.5         10.308        105.212         81.216
         7065.0         10.426        108.859         81.736
         7065.5         10.519        112.507         82.255
         7066.0         10.562        116.155         82.775
         7066.5         10.542        114.233         83.294
         7067.0         10.477        110.787         83.813
         7067.5         10.411        107.342         84.326
         7068.0         10.401        113.701         83.072
         7068.5         10.461        119.609         82.834
         7069.0         10.559        125.466         83.575
         7069.5         10.776        131.322         84.315
         7070.0         10.972        132.138         78.887
         7070.5         10.930         79.250         77.010
         7071.0         10.888         83.815         78.744
         7071.5         10.846         87.245         80.479
         7072.0         10.768         90.050         80.315
         7072.5         10.231         92.855         77.062
         7073.0         10.066         96.699         78.578
         7073.5         10.109        101.693         80.095
         7074.0         10.152        106.652         81.611
         7074.5         10.281        111.560         83.128
         7075.0         10.410        116.469         84.644
         7075.5         10.539        121.378         86.160
         7076.0         10.668        122.950         85.865
         7076.5         10.797        115.122         61.501
         7077.0         10.747        107.295         59.857
         7077.5         10.640         94.350         58.212
         7078.0         10.533         69.348         56.567
         7078.5         10.510         44.345         55.384
         7079.0         10.542         25.913         55.207
         7079.5         10.573         21.554         55.031
         7080.0         10.604         17.195         54.854
         7080.5         10.636         12.836         54.677
         7081.0         10.667         12.534         54.501
         7081.5         10.698         12.669         54.324
         7082.0         10.646         12.803         54.147
         7082.5         10.592         12.938         53.970
         7083.0         10.538         18.291         53.794
         7083.5         10.484         30.242         57.394
         7084.0         10.431         49.401         61.917
         7084.5         10.377         71.946         66.441
         7085.0         10.323         94.491         70.964
         7085.5         10.269        108.031         80.869
         7086.0         10.215        121.382         81.936
         7086.5         10.199        133.325         83.002
         7087.0         10.208        133.015         84.069
         7087.5         10.216        128.173         85.136
         7088.0         10.224        122.837         85.489
         7088.5         10.232        116.327         83.101
         7089.0         10.241        109.818         80.714
         7089.5         10.249         94.660         78.327
         7090.0         10.257         79.184         75.940
         7090.5         10.265         63.707         73.552
         7091.0         10.273         49.434         71.165
         7091.5         10.282         54.507         68.778
         7092.0         10.290         59.580         74.544
         7092.5         10.298         64.654         74.566
         7093.0         10.306         68.333         74.588
         7093.5         10.315         70.254         74.610
         7094.0         10.323         72.175         74.632
         7094.5         10.332         74.096         74.653
         7095.0         10.345         73.090         74.675
         7095.5         10.357         70.882         74.697
         7096.0         10.370         68.674         74.719
         7096.5         10.382         66.466         74.611
         7097.0         10.395         64.257         74.091
         7097.5         10.407         62.478         73.571
         7098.0         10.420         63.438         73.051
         7098.5         10.432         64.397         72.531
         7099.0         10.445         61.099         72.011
         7099.5         10.458         52.406         71.490
         7100.0         10.430         43.713         70.970
         7100.5         10.375         35.019         57.442
         7101.0         10.320         37.503         62.085
         7101.5         10.265         70.528         66.729
         7102.0         10.211         73.051         71.372
         7102.5         10.156         75.574         75.009
         7103.0         10.101         78.097         75.721
         7103.5         10.074         77.290         76.434
         7104.0         10.082         75.994         75.357
         7104.5         10.090         70.020         73.736
         7105.0         10.099         61.690         72.116
         7105.5         10.107         52.935         70.495
         7106.0         10.115         44.121         68.875
         7106.5         10.123         35.306         67.254
         7107.0         10.131         26.491         63.291
         7107.5         10.139         18.298         58.961
         7108.0         10.148         15.607         55.427
         7108.5         10.156         12.917         55.051
         7109.0         10.164         13.488         54.674
         7109.5         10.172         14.554         54.298
         7110.0         10.180         15.620         53.921
         7110.5         10.180         20.732         53.545
         7111.0         10.157         28.154         59.487
         7111.5         10.135         35.577         68.195
         7112.0         10.112        103.992         76.902
         7112.5         10.090        106.602         80.353
         7113.0         10.067        109.195         83.630
         7113.5         10.073        111.346         86.693
         7114.0         10.107        113.496         87.324
         7114.5         10.141        115.647         87.955
         7115.0         10.175        123.298         88.585
         7115.5         10.210        132.016         89.216
         7116.0         10.244        140.734         89.847
         7116.5         10.278        137.490         88.060
         7117.0         10.312        131.529         80.754
         7117.5         10.346        125.569         73.448
         7118.0         10.380         72.277         72.127
         7118.5         10.415         67.690         70.903
         7119.0         10.428         69.569         69.546
         7119.5         10.415         71.449         68.140
         7120.0         10.403         73.328         66.733
         7120.5         10.390         68.591         65.326
         7121.0         10.377         58.079         62.818
         7121.5         10.266         47.499         56.860
         7122.0         10.239         42.569         50.902
         7122.5         10.256         43.456         49.159
         7123.0         10.273         44.344         49.272
         7123.5         10.290         45.591         49.385
         7124.0         10.306         47.880         49.497
         7124.5         10.323         50.169         49.610
