###############################################
##         ENVERUS                           ##
##         ESS - Open Hole                   ##
##         PERMIAN / DELAWARE                ##
##         Nov 04 2023  V4.0                 ##
##         42-389-30297-00-00                ##
###############################################
## Copyright 2017-2023  ENVERUS.  All Rights Reserved. 
## Confidential - Property of ENVERUS, use governed by terms and 
## conditions found within the existing Information Services Subscription Agreement 
## (as may be amended, the “ISSA”) between Customer and ENVERUS. 
## 
~VERSION INFORMATION
# MNEM.UNIT                               DATA : DESCRIPTION OF MNEMONIC
#-----.-----     ----------------------------- : -----------------------------
VERS.                                     2.00 : CWLS LOG ASCII STANDARD - VERSION 2.00
WRAP.                                       NO : MULTIPLE LINES PER DEPTH STEP
VEND.                                  ENVERUS : VENDOR
TYPE.                          ESS - OPEN HOLE : ENVERUS ESSENTIAL CURVES – ACCESSIBLE THROUGH ENVERUS PRISM(TM)
DOC.                                  32306493 : ENVERUS HEADER RAW DOCUMENT ID
#___________________________________________________________________________________________________ 
~WELL INFORMATION 
# rQStLE5sYsP+YdYw4QOWpp6z6mWwFJBvCxgTqRv2Ioz+qyoYLl+79qTOna8BSHgUk5jTgp49hkgrAQ1kFKyHCg== 
# MNEM.UNIT                                              DATA : DESCRIPTION OF MNEMONIC 
#-----.-----                    ----------------------------- : ----------------------------- 
CNTY.                                                  REEVES : COUNTY 
STATE.                                                  TEXAS : STATE 
CNTRY.                                                    USA : COUNTRY 
API.                                             42-389-30297 : API (10 Digit) 
API_14.                                    42-389-30297-00-00 : API (14 Digits) 
API_14_std.                                 42-389-30297-0000 : API (14 Digits Standard) 
UWI.                                           42389302970000 : UNIQUE WELL ID 
WELL.                              R.S. BRENNAND, JR. ET AL 1 : WELL NAME
STRT.FT                                                   3.0 : START DEPTH
STOP.FT                                               13007.0 : STOP DEPTH
STEP.FT                                                   0.5 : STEP BETWEEN DEPTHS
NULL.                                                 -999.25 : NULL VALUE
#___________________________________________________________________________________________________ 
~CURVE INFORMATION 
# MNEM.UNIT           : CURVE DESCRIPTION 
#-----.-----          : ----------------------------- 
 DEPT.FT               : MEASURED DEPTH 
 CALI.IN               : CALIPER (CAL - CAL) 
 GR.API                : GAMMA RAY (GR) 
 DT.US/FT              : SONIC DELTA TRANSIT TIME (DT) 
 NPHI.V/V              : NEUTRON POROSITY (NPHI) 
 RHOB.G/CC             : BULK DENSITY (RHOB) 
 #___________________________________________________________________________________________________ 
~A         DEPT           CALI             GR             DT           NPHI           RHOB
# ...
         7835.0          9.956         91.584         64.801     -999.25000         2.5524
         7835.5          9.956         97.807         67.613     -999.25000         2.5460
         7836.0          9.957         83.081         68.190     -999.25000         2.5580
         7836.5          9.957         73.732         68.767     -999.25000         2.5701
         7837.0          9.957         79.721         67.213     -999.25000         2.5822
         7837.5          9.957         85.709         65.108     -999.25000         2.5942
         7838.0          9.957         91.697         63.004     -999.25000         2.5958
         7838.5          9.957         97.686         60.900     -999.25000         2.5636
         7839.0          9.957        103.674         61.090     -999.25000         2.5526
         7839.5          9.957        108.404         64.373     -999.25000         2.5477
         7840.0          9.957        106.440         66.193     -999.25000         2.5428
         7840.5          9.958        107.672         67.774     -999.25000         2.5379
         7841.0          9.958        109.870         69.356     -999.25000         2.5330
         7841.5          9.958        112.067         69.474     -999.25000         2.5424
         7842.0          9.958        114.264         69.231     -999.25000         2.5521
         7842.5          9.958        100.895         68.716     -999.25000         2.5617
         7843.0          9.958        110.722         67.609     -999.25000         2.5714
         7843.5          9.958        105.557         66.502     -999.25000         2.5810
         7844.0          9.958         97.244         67.446     -999.25000         2.5753
         7844.5          9.958         88.931         68.736     -999.25000         2.5709
         7845.0          9.959         80.619         70.027     -999.25000         2.5874
         7845.5          9.959         74.253         68.350     -999.25000         2.6040
         7846.0          9.959         78.914         65.976     -999.25000         2.6200
         7846.5          9.959         83.575         63.685     -999.25000         2.6173
         7847.0          9.959         88.236         61.525     -999.25000         2.6146
         7847.5          9.959         89.771         62.316     -999.25000         2.6119
         7848.0          9.959         86.870         63.318     -999.25000         2.6092
         7848.5          9.959         85.739         64.319     -999.25000         2.5983
         7849.0          9.959         97.110         65.321     -999.25000         2.5870
         7849.5          9.960        108.481         64.780     -999.25000         2.5756
         7850.0          9.960        111.201         64.046     -999.25000         2.5642
         7850.5          9.960        102.817         63.311     -999.25000         2.5553
         7851.0          9.960         94.433         63.477     -999.25000         2.5785
         7851.5          9.960         86.049         63.718     -999.25000         2.6016
         7852.0          9.960         77.666         66.038     -999.25000         2.6065
         7852.5          9.960         80.947         68.932     -999.25000         2.5932
         7853.0          9.960         88.019         67.528     -999.25000         2.5799
         7853.5          9.960         95.091         66.125     -999.25000         2.5667
         7854.0          9.961        102.163         64.722     -999.25000         2.5534
         7854.5          9.961        109.235         64.893     -999.25000         2.5650
         7855.0          9.961        111.935         67.176     -999.25000         2.5927
         7855.5          9.961        106.400         69.459     -999.25000         2.6182
         7856.0          9.961        102.014         68.799     -999.25000         2.6100
         7856.5          9.961        105.567         67.894     -999.25000         2.6019
         7857.0          9.961        109.120         67.382     -999.25000         2.5937
         7857.5          9.961        112.673         66.869     -999.25000         2.5856
         7858.0          9.962        108.983         66.357     -999.25000         2.5774
         7858.5          9.962        104.951         65.844     -999.25000         2.5693
         7859.0          9.962        100.861         65.895     -999.25000         2.5611
         7859.5          9.962         96.065         66.710     -999.25000         2.5529
         7860.0          9.962         91.268         67.526     -999.25000         2.5448
         7860.5          9.962         87.814         67.967     -999.25000         2.5424
         7861.0          9.962         91.524         68.121     -999.25000         2.5486
         7861.5          9.962         95.235         67.900     -999.25000         2.5548
         7862.0          9.962         98.946         67.679     -999.25000         2.5629
         7862.5          9.963        102.656         67.458     -999.25000         2.5982
         7863.0          9.963        106.381         67.236     -999.25000         2.5908
         7863.5          9.963        110.243         67.015     -999.25000         2.5735
         7864.0          9.963        114.105         66.689     -999.25000         2.5561
         7864.5          9.963        117.967         66.354     -999.25000         2.5387
         7865.0          9.963        121.829         66.019     -999.25000         2.5214
         7865.5          9.963        122.221         65.684     -999.25000         2.5193
         7866.0          9.963        120.942         66.543     -999.25000         2.5195
         7866.5          9.963        119.663         67.469     -999.25000         2.5197
         7867.0          9.964        118.384         68.395     -999.25000         2.5198
         7867.5          9.964        117.105         69.320     -999.25000         2.5200
         7868.0          9.964         89.553         70.246     -999.25000         2.5202
         7868.5          9.964         75.727         70.517     -999.25000         2.5203
         7869.0          9.964         80.916         69.783     -999.25000         2.5205
         7869.5          9.964         86.105         69.049     -999.25000         2.5268
         7870.0          9.964         86.463         66.370     -999.25000         2.5351
         7870.5          9.964         79.158         64.992     -999.25000         2.5441
         7871.0          9.964         71.852         65.234     -999.25000         2.5595
         7871.5          9.965         64.547         65.475     -999.25000         2.5749
         7872.0          9.965         57.242         65.716     -999.25000         2.5903
         7872.5          9.965         66.379         65.958     -999.25000         2.6058
         7873.0          9.965         79.483         63.891     -999.25000         2.6038
         7873.5          9.965         91.963         61.752     -999.25000         2.5856
         7874.0          9.965         90.583         59.613     -999.25000         2.5673
         7874.5          9.965         89.203         57.473     -999.25000         2.5491
         7875.0          9.965         87.823         56.138     -999.25000         2.5359
         7875.5          9.965         86.443         61.681     -999.25000         2.5363
         7876.0          9.966         85.064         64.920     -999.25000         2.5366
         7876.5          9.966         83.684         65.859     -999.25000         2.5370
         7877.0          9.966         91.400         66.797     -999.25000         2.5374
         7877.5          9.966        100.616         66.864     -999.25000         2.5378
         7878.0          9.966        109.831         65.954     -999.25000         2.5381
         7878.5          9.966        119.046         65.043     -999.25000         2.5385
