###############################################
##         ENVERUS                           ##
##         ESS - Open Hole                   ##
##         PERMIAN / DELAWARE                ##
##         Nov 04 2023  V4.0                 ##
##         42-389-32484-00-00                ##
###############################################
## Copyright 2017-2023  ENVERUS.  All Rights Reserved. 
## Confidential - Property of ENVERUS, use governed by terms and 
## conditions found within the existing Information Services Subscription Agreement 
## (as may be amended, the “ISSA”) between Customer and ENVERUS. 
## 
~VERSION INFORMATION
# MNEM.UNIT                               DATA : DESCRIPTION OF MNEMONIC
#-----.-----     ----------------------------- : -----------------------------
VERS.                                     2.00 : CWLS LOG ASCII STANDARD - VERSION 2.00
WRAP.                                       NO : MULTIPLE LINES PER DEPTH STEP
VEND.                                  ENVERUS : VENDOR
TYPE.                          ESS - OPEN HOLE : ENVERUS ESSENTIAL CURVES – ACCESSIBLE THROUGH ENVERUS PRISM(TM)
DOC.                                  31780441 : ENVERUS HEADER RAW DOCUMENT ID
#___________________________________________________________________________________________________ 
~WELL INFORMATION 
# aTsA/KVwhIqB1dg6n/zy22zTJjsJnyaNqg27ywuj9UrTfzbM7gscpQTlR+gOLN+9jERwUBAE6KvHEXpIT+cpyg== 
# MNEM.UNIT                                              DATA : DESCRIPTION OF MNEMONIC 
#-----.-----                    ----------------------------- : ----------------------------- 
CNTY.                                                  REEVES : COUNTY 
STATE.                                                  TEXAS : STATE 
CNTRY.                                                    USA : COUNTRY 
API.                                             42-389-32484 : API (10 Digit) 
API_14.                                    42-389-32484-00-00 : API (14 Digits) 
API_14_std.                                 42-389-32484-0000 : API (14 Digits Standard) 
UWI.                                           42389324840000 : UNIQUE WELL ID 
WELL.                                        BLK 59 ST 37  1H : WELL NAME
STRT.FT                                                 236.0 : START DEPTH
STOP.FT                                               12079.0 : STOP DEPTH
STEP.FT                                                   0.5 : STEP BETWEEN DEPTHS
NULL.                                                 -999.25 : NULL VALUE
COMP.                                       SHELL WESTERN E&P : COMPANY 
DATE.                                             05-SEP-2007 : LOG DATE
#___________________________________________________________________________________________________ 
~CURVE INFORMATION 
# MNEM.UNIT           : CURVE DESCRIPTION 
#-----.-----          : ----------------------------- 
 DEPT.FT               : MEASURED DEPTH 
 CALI.IN               : CALIPER (CAL - CAL) 
 GR.API                : GAMMA RAY (GR) 
 DT.US/FT              : SONIC DELTA TRANSIT TIME (DT) 
 DPHI.V/V              : DENSITY POROSITY (DPHI) 
 NPHI.V/V              : NEUTRON POROSITY (NPHI) 
 RHOB.G/CC             : BULK DENSITY (RHOB) 
 #___________________________________________________________________________________________________ 
~A         DEPT           CALI             GR             DT           DPHI           NPHI           RHOB
# ...
         7152.0         12.284         89.865       -999.250        0.12488        0.18977         2.5420
         7152.5         12.286         91.034       -999.250        0.10210        0.16284         2.5370
         7153.0         12.288        101.567       -999.250        0.10300        0.16320         2.5310
         7153.5         12.289        112.101       -999.250        0.10843        0.16778         2.5260
         7154.0         12.291        122.188       -999.250        0.11885        0.17236         2.5200
         7154.5         12.293        119.890       -999.250        0.12202        0.18686         2.5150
         7155.0         12.295        116.392       -999.250        0.12389        0.18540         2.5100
         7155.5         12.297        112.874       -999.250        0.11825        0.17990         2.5170
         7156.0         12.299        106.652       -999.250        0.11171        0.17015         2.5260
         7156.5         12.301        100.430       -999.250        0.10862        0.16545         2.5290
         7157.0         12.302         98.216       -999.250        0.11051        0.17129         2.5320
         7157.5         12.302        106.192       -999.250        0.10822        0.19126         2.5450
         7158.0         12.302        116.229       -999.250        0.10189        0.20229         2.5630
         7158.5         12.302        121.168       -999.250        0.09015        0.19919         2.5820
         7159.0         12.303        115.662       -999.250        0.06685        0.17575         2.6010
         7159.5         12.303        108.950       -999.250        0.05971        0.13571         2.6040
         7160.0         12.303        104.995       -999.250        0.07132        0.12045         2.5800
         7160.5         12.303        116.212       -999.250        0.07996        0.13542         2.5870
         7161.0         12.304        127.999       -999.250        0.07431        0.14659         2.6010
         7161.5         12.304        118.970       -999.250        0.06802        0.12697         2.6140
         7162.0         12.304        105.058       -999.250        0.05461        0.08523         2.6270
         7162.5         12.296         77.098       -999.250        0.05535        0.07192         2.6400
         7163.0         12.269         45.948       -999.250        0.05138        0.06918         2.6530
         7163.5         12.241         41.305       -999.250        0.04340        0.06644         2.6410
         7164.0         12.247         42.598       -999.250        0.03738        0.06804         2.6300
         7164.5         12.259         58.186       -999.250        0.03971        0.08927         2.6190
         7165.0         12.270         75.888       -999.250        0.05423        0.11050         2.6300
         7165.5         12.282         90.702       -999.250        0.05560        0.10609         2.6440
         7166.0         12.283         95.039       -999.250        0.04946        0.09678         2.6570
         7166.5         12.282         92.588       -999.250        0.03106        0.07909         2.6700
         7167.0         12.282         67.420       -999.250        0.01850        0.06140         2.6750
         7167.5         12.281         42.948       -999.250        0.01904        0.04372         2.6460
         7168.0         12.280         39.889       -999.250        0.02815        0.05064         2.6170
         7168.5         12.280         49.588       -999.250        0.04481        0.06136         2.5880
         7169.0         12.279         68.372       -999.250        0.06981        0.09401         2.5600
         7169.5         12.278         87.156       -999.250        0.09481        0.14396         2.5310
         7170.0         12.278        107.698       -999.250        0.11981        0.19176         2.5020
         7170.5         12.277        124.378       -999.250        0.12997        0.20624         2.4740
         7171.0         12.277        131.925       -999.250        0.13815        0.19594         2.4890
         7171.5         12.276        130.418       -999.250        0.13994        0.18391         2.5040
         7172.0         12.275        123.411       -999.250        0.13580        0.17266         2.5190
         7172.5         12.275         98.597       -999.250        0.10420        0.16141         2.5330
         7173.0         12.274         79.116       -999.250        0.08600        0.15016         2.5480
         7173.5         12.274         72.967       -999.250        0.08684        0.13890         2.5630
         7174.0         12.273         74.890       -999.250        0.09248        0.14011         2.5540
         7174.5         12.272         95.105       -999.250        0.11028        0.19028         2.5350
         7175.0         12.272        108.720       -999.250        0.11886        0.20505         2.5160
         7175.5         12.271        114.640       -999.250        0.12686        0.21336         2.4990
         7176.0         12.271        116.252       -999.250        0.13083        0.22154         2.5100
         7176.5         12.270        115.620       -999.250        0.12833        0.21680         2.5210
         7177.0         12.269        113.773       -999.250        0.11694        0.21091         2.5320
         7177.5         12.269        104.827       -999.250        0.10202        0.20501         2.5440
         7178.0         12.268         91.788       -999.250        0.09968        0.17038         2.5550
         7178.5         12.267         78.749       -999.250        0.09750        0.11903         2.5660
         7179.0         12.267         72.015       -999.250        0.09506        0.11017         2.5770
         7179.5         12.266         76.327       -999.250        0.08144        0.11208         2.5710
         7180.0         12.266         89.417       -999.250        0.07601        0.11532         2.5570
         7180.5         12.265        104.154       -999.250        0.07757        0.12537         2.5440
         7181.0         12.265        110.014       -999.250        0.09424        0.15526         2.5300
         7181.5         12.264        110.323       -999.250        0.10667        0.16402         2.5170
         7182.0         12.264        103.887       -999.250        0.11859        0.17156         2.5110
         7182.5         12.263         96.917       -999.250        0.12533        0.17789         2.5110
         7183.0         12.263         90.463       -999.250        0.12622        0.18668         2.5110
         7183.5         12.262         90.167       -999.250        0.12361        0.19785         2.5110
         7184.0         12.262         93.469       -999.250        0.11997        0.20902         2.5120
         7184.5         12.261         97.844       -999.250        0.11632        0.21612         2.5120
         7185.0         12.261        102.219       -999.250        0.11660        0.20523         2.5200
         7185.5         12.261        101.991       -999.250        0.11903        0.19393         2.5300
         7186.0         12.260         98.617       -999.250        0.11696        0.18264         2.5410
         7186.5         12.260         92.502       -999.250        0.10053        0.17134         2.5510
         7187.0         12.259         77.583       -999.250        0.09066        0.16335         2.5620
         7187.5         12.259         73.717       -999.250        0.09857        0.15967         2.5580
         7188.0         12.258         74.858       -999.250        0.10089        0.15505         2.5420
         7188.5         12.258         80.559       -999.250        0.11528        0.14840         2.5250
         7189.0         12.257         88.598       -999.250        0.12007        0.14176         2.5090
         7189.5         12.257         79.282       -999.250        0.12440        0.13167         2.5200
