###############################################
##         ENVERUS                           ##
##         ESS - Open Hole                   ##
##         PERMIAN / DELAWARE                ##
##         Nov 04 2023  V4.0                 ##
##         42-389-32421-01-00                ##
###############################################
## Copyright 2017-2023  ENVERUS.  All Rights Reserved. 
## Confidential - Property of ENVERUS, use governed by terms and 
## conditions found within the existing Information Services Subscription Agreement 
## (as may be amended, the “ISSA”) between Customer and ENVERUS. 
## 
~VERSION INFORMATION
# MNEM.UNIT                               DATA : DESCRIPTION OF MNEMONIC
#-----.-----     ----------------------------- : -----------------------------
VERS.                                     2.00 : CWLS LOG ASCII STANDARD - VERSION 2.00
WRAP.                                       NO : MULTIPLE LINES PER DEPTH STEP
VEND.                                  ENVERUS : VENDOR
TYPE.                          ESS - OPEN HOLE : ENVERUS ESSENTIAL CURVES – ACCESSIBLE THROUGH ENVERUS PRISM(TM)
DOC.                                  51226874 : ENVERUS HEADER RAW DOCUMENT ID
#___________________________________________________________________________________________________ 
~WELL INFORMATION 
# Tb73rb1SL3MkDZoC3l18/hn1AqNnLhXquKbAWMIBLpWCEGQs+cUq/9XFz1I3dh1trdNBSXyPtAuUBW0L3ONtkQ== 
# MNEM.UNIT                                              DATA : DESCRIPTION OF MNEMONIC 
#-----.-----                    ----------------------------- : ----------------------------- 
CNTY.                                                  REEVES : COUNTY 
STATE.                                                  TEXAS : STATE 
CNTRY.                                                    USA : COUNTRY 
API.                                             42-389-32421 : API (10 Digit) 
API_14.                                    42-389-32421-01-00 : API (14 Digits) 
API_14_std.                                 42-389-32421-0100 : API (14 Digits Standard) 
UWI.                                           42389324210100 : UNIQUE WELL ID 
WELL.                                      ARMSTRONG STATE  1 : WELL NAME
STRT.FT                                                 182.0 : START DEPTH
STOP.FT                                               14775.0 : STOP DEPTH
STEP.FT                                                   0.5 : STEP BETWEEN DEPTHS
NULL.                                                 -999.25 : NULL VALUE
PREV_UWI.                                      42389324210000 : UNIQUE WELL ID 
PREV_API.                                      42389324210000 : API NUMBER 
COMP.                                    STALEY OPERATING CO. : COMPANY 
DATE.                                             26-JUN-2006 : LOG DATE
#___________________________________________________________________________________________________ 
~CURVE INFORMATION 
# MNEM.UNIT           : CURVE DESCRIPTION 
#-----.-----          : ----------------------------- 
 DEPT.FT               : MEASURED DEPTH 
 CALI__A.IN            : CALIPER (CAL - CAL) 
 GR__A.API             : GAMMA RAY (GR) 
 DT__A.US/FT           : SONIC DELTA TRANSIT TIME (DT) 
 DPHI__A.V/V           : DENSITY POROSITY (DPHI) 
 NPHI__A.V/V           : NEUTRON POROSITY (NPHI) 
 RHOB__A.G/CC          : BULK DENSITY (RHOB) 
 #___________________________________________________________________________________________________ 
~A         DEPT        CALI__A          GR__A          DT__A        DPHI__A        NPHI__A        RHOB__A
# ...
         7934.0          9.516         82.929         62.585        0.03094        0.08017         2.6340
         7934.5          9.516         94.314         63.658        0.05034        0.09390         2.6460
         7935.0          9.515        105.998         67.610        0.07269        0.11816         2.5650
         7935.5          9.515        117.975         69.676        0.08888        0.13779         2.5550
         7936.0          9.514        127.972         70.085        0.09552        0.14244         2.5450
         7936.5          9.513        134.007         70.494        0.10216        0.13913         2.5350
         7937.0          9.513        140.042         70.903        0.10880        0.13815         2.5250
         7937.5          9.512        146.078         71.311        0.11544        0.14241         2.5160
         7938.0          9.512        137.846         69.554        0.11727        0.14576         2.5240
         7938.5          9.511        116.712         67.778        0.10516        0.14342         2.5490
         7939.0          9.510         90.312         64.608        0.08198        0.12232         2.5730
         7939.5          9.510         69.618         61.398        0.05879        0.08388         2.5970
         7940.0          9.509         48.924         58.526        0.03561        0.05546         2.6220
         7940.5          9.509         54.856         60.270        0.02919        0.04722         2.6460
         7941.0          9.508         66.334         62.013        0.03267        0.05854         2.6600
         7941.5          9.508         83.060         66.581        0.04997        0.08158         2.6040
         7942.0          9.507         99.594         71.251        0.07361        0.11018         2.5490
         7942.5          9.506        114.055         72.464        0.09724        0.13661         2.5120
         7943.0          9.506        128.516         73.676        0.12082        0.16084         2.5270
         7943.5          9.505        137.058         72.783        0.11924        0.17100         2.5420
         7944.0          9.505        132.869         70.376        0.11424        0.16949         2.5560
         7944.5          9.504         91.538         67.486        0.09505        0.14159         2.5710
         7945.0          9.503         72.513         64.209        0.07586        0.10802         2.5860
         7945.5          9.503         58.041         60.932        0.05668        0.05679         2.6010
         7946.0          9.501         62.622         59.668        0.03582        0.04934         2.6150
         7946.5          9.497         74.504         61.978        0.04530        0.05453         2.6300
         7947.0          9.493         86.386         64.288        0.06841        0.07302         2.6450
         7947.5          9.489         98.269         66.659        0.08960        0.10017         2.5400
         7948.0          9.485        106.399         69.207        0.09608        0.12094         2.5370
         7948.5          9.482        112.032         71.171        0.10256        0.12511         2.5330
         7949.0          9.478        117.648         71.674        0.10862        0.12919         2.5300
         7949.5          9.474        115.096         70.117        0.11402        0.13320         2.5260
         7950.0          9.470        101.325         68.221        0.10304        0.12936         2.5350
         7950.5          9.467         84.688         66.326        0.08515        0.11039         2.5990
         7951.0          9.463         72.433         64.431        0.06780        0.09264         2.5900
         7951.5          9.459         67.865         63.582        0.06799        0.08593         2.5810
         7952.0          9.455         73.068         66.009        0.07766        0.09381         2.5720
         7952.5          9.452         83.553         68.435        0.09066        0.10743         2.5630
         7953.0          9.448         95.806         70.861        0.10006        0.12121         2.5570
         7953.5          9.444        108.059         72.387        0.09923        0.13472         2.5530
         7954.0          9.440        120.312         73.253        0.09840        0.14761         2.5480
         7954.5          9.437        123.208         72.660        0.09757        0.15110         2.5440
         7955.0          9.433        118.197         71.052        0.09673        0.14796         2.5390
         7955.5          9.429         97.118         69.443        0.09590        0.13644         2.5590
         7956.0          9.425         78.467         67.834        0.08784        0.11125         2.5870
         7956.5          9.422         59.288         64.130        0.06471        0.08250         2.6160
         7957.0          9.418         38.692         60.040        0.04194        0.05375         2.6440
         7957.5          9.414         33.283         56.495        0.02707        0.03862         2.6730
         7958.0          9.413         28.988         54.945        0.01544        0.02466         2.6890
         7958.5          9.413         26.624         53.395        0.01309        0.01674         2.6870
         7959.0          9.414         27.482         52.421        0.01074        0.01513         2.6850
         7959.5          9.414         37.995         53.347        0.01214        0.01952         2.6820
         7960.0          9.415         50.376         55.978        0.01379        0.02879         2.6610
         7960.5          9.415         64.887         58.609        0.02756        0.04273         2.6400
         7961.0          9.416         79.398         62.068        0.04562        0.06768         2.6190
         7961.5          9.416         86.256         67.251        0.06369        0.10042         2.5980
         7962.0          9.417         81.933         67.682        0.08175        0.11570         2.5790
         7962.5          9.418         74.360         66.611        0.07169        0.10790         2.5880
         7963.0          9.418         66.787         64.378        0.05982        0.09056         2.5980
         7963.5          9.419         65.361         62.144        0.04794        0.07238         2.6070
         7964.0          9.419         74.960         62.612        0.05251        0.06376         2.6170
         7964.5          9.420         87.814         64.386        0.06750        0.07129         2.6260
         7965.0          9.420         84.615         65.597        0.07948        0.08159         2.5840
         7965.5          9.421         77.758         66.000        0.07724        0.09112         2.5800
         7966.0          9.421         75.226         66.402        0.07159        0.10006         2.5870
         7966.5          9.422         72.693         66.399        0.07385        0.10901         2.5840
         7967.0          9.423         70.052         66.080        0.07447        0.10980         2.5850
         7967.5          9.423         69.862         65.761        0.06411        0.10727         2.5930
         7968.0          9.424         77.520         66.415        0.06158        0.10751         2.6010
         7968.5          9.424         85.919         68.447        0.08235        0.12040         2.5690
         7969.0          9.425         94.571         70.479        0.10311        0.13336         2.5300
         7969.5          9.425         99.589         71.524        0.10693        0.14029         2.5350
         7970.0          9.426        101.149         71.883        0.10390        0.13972         2.5460
         7970.5          9.427        101.310         70.876        0.10086        0.13914         2.5570
         7971.0          9.428         95.441         68.934        0.09783        0.13856         2.5690
         7971.5          9.430         87.035         66.992        0.08542        0.13700         2.5970
