###############################################
##         ENVERUS                           ##
##         ESS - Open Hole                   ##
##         PERMIAN / DELAWARE                ##
##         Nov 02 2023  V4.0                 ##
##         42-301-31112-00-00                ##
###############################################
## Copyright 2017-2023  ENVERUS.  All Rights Reserved. 
## Confidential - Property of ENVERUS, use governed by terms and 
## conditions found within the existing Information Services Subscription Agreement 
## (as may be amended, the “ISSA”) between Customer and ENVERUS. 
## 
~VERSION INFORMATION
# MNEM.UNIT                               DATA : DESCRIPTION OF MNEMONIC
#-----.-----     ----------------------------- : -----------------------------
VERS.                                     2.00 : CWLS LOG ASCII STANDARD - VERSION 2.00
WRAP.                                       NO : MULTIPLE LINES PER DEPTH STEP
VEND.                                  ENVERUS : VENDOR
TYPE.                          ESS - OPEN HOLE : ENVERUS ESSENTIAL CURVES – ACCESSIBLE THROUGH ENVERUS PRISM(TM)
DOC.                                  31879965 : ENVERUS HEADER RAW DOCUMENT ID
#___________________________________________________________________________________________________ 
~WELL INFORMATION 
# p11foxtE5QnwhaJbtzBz2LJF4p4dkL7jzyXNzohJvMqLCglFSJK87xuVm3WB3m+8huK6qzS+fp5X73xeHrMy5w== 
# MNEM.UNIT                                              DATA : DESCRIPTION OF MNEMONIC 
#-----.-----                    ----------------------------- : ----------------------------- 
CNTY.                                                  LOVING : COUNTY 
STATE.                                                  TEXAS : STATE 
CNTRY.                                                    USA : COUNTRY 
API.                                             42-301-31112 : API (10 Digit) 
API_14.                                    42-301-31112-00-00 : API (14 Digits) 
API_14_std.                                 42-301-31112-0000 : API (14 Digits Standard) 
UWI.                                           42301311120000 : UNIQUE WELL ID 
WELL.                                                    JR 1 : WELL NAME
STRT.FT                                                3102.0 : START DEPTH
STOP.FT                                               15993.0 : STOP DEPTH
STEP.FT                                                   0.5 : STEP BETWEEN DEPTHS
NULL.                                                 -999.25 : NULL VALUE
LOC.                                                      UNK : LOCATION 
SRVC.                                                     UNK : SERVICE COMPANY
#___________________________________________________________________________________________________ 
~CURVE INFORMATION 
# MNEM.UNIT           : CURVE DESCRIPTION 
#-----.-----          : ----------------------------- 
 DEPT.FT               : MEASURED DEPTH 
 CALI.IN               : CALIPER (CAL - CAL) 
 GR.API                : GAMMA RAY (GR) 
 DT.US/FT              : SONIC DELTA TRANSIT TIME (DT) 
 #___________________________________________________________________________________________________ 
~A         DEPT           CALI             GR             DT
# ...
         9174.0         13.665         43.166         52.372
         9174.5         13.666         42.074         55.344
         9175.0         13.667         41.848         63.916
         9175.5         13.668         42.574         65.845
         9176.0         13.669         42.873         67.774
         9176.5         13.640         42.685         68.850
         9177.0         13.603         42.864         68.443
         9177.5         13.567         43.352         75.046
         9178.0         13.536         43.841         96.410
         9178.5         13.538         43.217         99.549
         9179.0         13.539         45.128        100.515
         9179.5         13.541         48.749         72.093
         9180.0         13.542         52.370         66.992
         9180.5         13.544         55.991         74.385
         9181.0         13.545         56.826         76.792
         9181.5         13.546         56.194         75.487
         9182.0         13.548         54.105         73.227
         9182.5         13.549         49.992         70.967
         9183.0         13.551         45.879         68.707
         9183.5         13.552         42.147         68.072
         9184.0         13.553         43.192         69.279
         9184.5         13.555         46.075         70.892
         9185.0         13.556         49.527         72.505
         9185.5         13.554         52.978         72.203
         9186.0         13.544         53.580         71.592
         9186.5         13.534         50.731         70.980
         9187.0         13.524         47.609         70.812
         9187.5         13.514         47.446         70.728
         9188.0         13.504         48.231         70.604
         9188.5         13.502         49.923         70.447
         9189.0         13.503         50.551         71.069
         9189.5         13.504         50.675         71.956
         9190.0         13.505         50.799         72.491
         9190.5         13.506         50.396         71.881
         9191.0         13.507         48.451         70.297
         9191.5         13.508         44.341         67.845
         9192.0         13.509         39.632         64.289
         9192.5         13.510         34.924         60.734
         9193.0         13.511         33.162         58.021
         9193.5         13.512         35.662         59.697
         9194.0         13.513         41.977         66.952
         9194.5         13.514         48.292         72.640
         9195.0         13.515         54.595         75.309
         9195.5         13.516         57.667         74.803
         9196.0         13.517         57.870         72.368
         9196.5         13.518         52.626         71.538
         9197.0         13.520         45.848         71.404
         9197.5         13.521         39.986         70.468
         9198.0         13.522         36.738         68.938
         9198.5         13.522         38.463         68.918
         9199.0         13.520         40.498         69.326
         9199.5         13.518         42.533         69.734
         9200.0         13.516         43.511         69.911
         9200.5         13.514         44.069         70.057
         9201.0         13.512         44.725         70.050
         9201.5         13.510         46.327         69.680
         9202.0         13.508         47.928         69.097
         9202.5         13.506         48.703         68.390
         9203.0         13.504         48.056         67.878
         9203.5         13.502         44.795         67.411
         9204.0         13.500         41.534         67.234
         9204.5         13.498         38.007         67.058
         9205.0         13.496         33.218         65.918
         9205.5         13.494         28.429         64.091
         9206.0         13.492         23.943         62.265
         9206.5         13.490         22.724         60.451
         9207.0         13.488         24.115         60.406
         9207.5         13.487         29.365         62.699
         9208.0         13.487         37.132         66.053
         9208.5         13.487         44.899         69.806
         9209.0         13.517         52.666         73.560
         9209.5         13.550         59.346         77.313
         9210.0         13.584         64.937         79.726
         9210.5         13.617         65.981         78.556
         9211.0         13.638         63.873         77.385
         9211.5         13.632         61.672         76.215
         9212.0         13.627         62.728         76.431
         9212.5         13.621         64.711         77.327
         9213.0         13.616         65.482         78.224
         9213.5         13.610         62.622         77.788
         9214.0         13.605         59.760         75.727
         9214.5         13.599         56.880         73.667
         9215.0         13.594         54.001         72.956
         9215.5         13.588         52.710         73.810
         9216.0         13.583         52.135         74.663
         9216.5         13.577         49.990         75.046
         9217.0         13.572         49.513         74.762
         9217.5         13.566         50.141         75.381
         9218.0         13.567         53.448         76.307
         9218.5         13.570         56.756         77.149
         9219.0         13.573         60.063         77.798
         9219.5         13.576         57.947         76.237
         9220.0         13.579         54.652         74.676
         9220.5         13.582         51.696         73.115
         9221.0         13.585         50.608         71.554
         9221.5         13.575         51.455         71.954
         9222.0         13.565         57.134         74.714
         9222.5         13.555         62.822         78.552
         9223.0         13.545         68.764         79.499
         9223.5         13.535         70.883         79.544
         9224.0         13.523         68.917         78.700
         9224.5         13.509         65.331         77.344
         9225.0         13.494         61.746         77.182
         9225.5         13.480         61.974         78.042
         9226.0         13.465         62.497         78.068
         9226.5         13.451         58.711         74.214
         9227.0         13.437         52.670         69.682
         9227.5         13.422         46.629         66.897
         9228.0         13.408         42.904         67.700
         9228.5         13.396         45.915         68.504
         9229.0         13.396         52.582         66.076
         9229.5         13.397         59.224         54.055
         9230.0         13.397         59.767         52.938
         9230.5         13.397         60.310         54.921
         9231.0         13.397         62.218         76.211
         9231.5         13.397         64.426         80.472
         9232.0         13.397         65.258         80.333
         9232.5         13.397         64.516         79.960
         9233.0         13.397         63.791         79.587
         9233.5         13.398         64.280         79.692
         9234.0         13.398         62.601         80.054
         9234.5         13.398         55.751         76.055
         9235.0         13.398         46.599         71.104
         9235.5         13.398         37.447         66.152
         9236.0         13.398         32.624         63.814
         9236.5         13.398         31.819         61.928
         9237.0         13.398         33.381         62.256
         9237.5         13.398         38.409         65.256
         9238.0         13.399         47.865         69.497
         9238.5         13.399         57.321         73.738
         9239.0         13.399         66.690         77.978
         9239.5         13.399         71.595         79.189
