#--------------------------------------------------#
#-------------------ENVERUS, INC.------------------#
#------------------WWW.ENVERUS.COM-----------------#
#------------------COPYRIGHT 2020------------------#
#--------------------------------------------------#
#THIS FILE MAY BE USED ONLY IN ACCORDANCE WITH A CURRENT SUBSCRIPTION AGREEMENT BETWEEN
#THE USER AND ENVERUS, INC. NO PART OF THIS FILE MAY BE REPRODUCED, USED, COPIED,
#MODIFIED, PROPAGATED, OR DISTRIBUTED EXCEPT IN ACCORDANCE WITH THE SUBSCRIPTION
#AGREEMENT. UNAUTHORIZED USE OR DISTRIBUTION OF ALL OR ANY PART OF THIS FILE MAY VIOLATE
#COPYRIGHT, TRADEMARK, AND/OR OTHER LAWS AND IS SUBJECT TO CIVIL AS WELL AS CRIMINAL
#SANCTIONS.
#--------------------------------------------------#
#THIS FILE IS PROVIDED "AS-IS" AND ALL WARRANTIES ARE EXPRESSLY DISCLAIMED, WHETHER
#EXPRESS, ORAL, IMPLIED, STATUTORY OR OTHERWISE, INCLUDING ANY IMPLIED WARRANTY OF FITNESS
#FOR A PARTICULAR PURPOSE, MERCHANTABILITY, TITLE OR NON-INFRINGEMENT, AND ANY WARRANTIES
#ARISING BY VIRTUE OF CUSTOM OF TRADE OR COURSE OF DEALING.  FURTHER, ENVERUS, INC.
#AND ITS LICENSORS DO NOT REPRESENT OR WARRANT THAT THIS FILE WILL MEET USER'S
#REQUIREMENTS OR ARE SUITABLE FOR USER'S NEEDS OR THAT THE DATA OR RESULTS PROVIDED IN
#CONJUNCTION THEREWITH ARE CORRECT, ACCURATE, TIMELY OR RELIABLE. THESE DISCLAIMERS SHALL
#APPLY REGARDLESS OF ANY FAILURE OF ESSENTIAL PURPOSE OF ANY LIMITED REMEDY.  SOME
#JURISDICTIONS DO NOT ALLOW THE EXCLUSION OF CERTAIN WARRANTIES SO SOME OF THE ABOVE
#EXCLUSIONS MAY NOT APPLY. IN NO EVENT SHALL ENVERUS, INC. OR ANY OF ITS AFFILIATES
#BE LIABLE UNDER ANY LEGAL THEORY, WHETHER IN TORT (INCLUDING WITHOUT LIMITATION
#NEGLIGENCE), CONTRACT, STRICT LIABILITY, STATUTORY OR OTHERWISE, FOR ANY SPECIAL,
#INCIDENTAL, CONSEQUENTIAL, EXEMPLARY, PUNITIVE OR INDIRECT DAMAGE OF ANY KIND, INCLUDING
#WITHOUT LIMITATION LOSS OF REVENUE, PROFITS, GOODWILL, USE, AND/OR DATA OR THE COST OF
#PROCUREMENT OF SUBSTITUTE GOODS OR SERVICES, EVEN IF APPRISED OF THE POSSIBILITY OF SUCH
#DAMAGES IN ADVANCE.
#--------------------------------------------------#

# EXPORTED FROM TRANSFORM SOFTWARE 5.2.0 ON 31-MAY-2019 BY USER BRIAN.UMLANG
# DI TRANSFORM - A PRODUCT OF DRILLINGINFO, INC. - WWW.DRILLINGINFO.COM
#
~VERSION INFORMATION
 VERS.        2.0 : LAS ASCII STANDARD - VERSION 2.0
 WRAP.         NO : ONE LINE PER DEPTH STEP

~WELL INFORMATION
#MNEM.UNIT       DATA TYPE       INFORMATION
#---------       ---------       -----------
 STRT.FT                 256 : START DEPTH
 STOP.FT                4706 : STOP DEPTH
 STEP.FT                 0.5 : STEP LENGTH
 NULL.               -999.25 : NULL VALUE
 UWI.         42301312890000 : UNIQUE WELL ID
 API.         42301312890000 : WELL IDENTIFIER
 COMP.                       : COMPANY
 WELL.  42301312890000_API14 : WELL NAME
 FLD.                        : FIELD NAME
 LOC.                        : WELL LOCATION
 CNTY.                       : COUNTY
 STAT.                       : STATE OR PROVINCE
 CTRY.                       : COUNTRY
 SRVC.                       : SERVICE COMPANY
 DATE.                       : DATE

~CURVE INFORMATION
#MNEM.UNIT       API CODE       CURVE DESCRIPTION
#---------       --------       -----------------
 DEPT.FT          : <MEASURED DEPTH>
 CAL.IN           : CALIPER
 DPHI.%           : DENSITY POROSITY
 DT.US/FT         : SONIC
 GR.GAPI          : GAMMA RAY
 ILD.OHMM         : DEEP RESISTIVITY
 ILS.OHMM         : SHALLOW RESISTIVITY
 NPHI.%           : NEUTRON POROSITY
 PE.B/ELEC        : PHOTOELECTRIC FACTOR
 RHOB.G/CM3       : DENSITY

~PARAMETER INFORMATION
#MNEM.UNIT       VALUE       DESCRIPTION
#---------       -----       -----------
 EKB.FT      2822 : ELEVATION ABOVE MSL

~A      DEPT         CAL        DPHI          DT          GR         ILD         ILS        NPHI          PE        RHOB
# ...
      4644.5     -999.25     21.8117     77.7182     -999.25      2.8294      1.6689     21.7907      2.2846      2.2943
        4645     -999.25     22.2012     78.2431     -999.25      2.6251      1.5536     22.2719      2.2846      2.2765
      4645.5     -999.25     22.3618     78.6799     -999.25      2.4838      1.4647     22.3127      2.2463      2.2575
        4646     -999.25     21.9407     78.8947     -999.25      2.4184      1.3978     21.9628      2.2049      2.2322
      4646.5     -999.25     21.6634     78.9392     -999.25      2.4456       1.387     21.5141      2.1844      2.2331
        4647     -999.25     21.2553     78.4358     -999.25      2.5626      1.4162     21.1385      2.1844      2.2109
      4647.5     -999.25     21.0376     77.4655     -999.25      2.6852      1.4799     20.9859      2.2445       2.208
        4648     -999.25     21.9034     77.3146     -999.25      2.8137      1.5124     21.1662      2.2846      2.2059
      4648.5     -999.25       22.14     77.8147     -999.25      2.8839      1.5557     22.1301      2.3046      2.2062
        4649     -999.25     22.4414     78.3045     -999.25       2.977      1.5646     21.9322      2.3046      2.2187
      4649.5     -999.25     22.7638     78.0774     -999.25       2.925      1.5646     16.5221      2.3046       2.252
        4650     -999.25     22.7141     77.3717     -999.25      2.9108      1.5217     13.4162      2.3046      2.3446
      4650.5     -999.25     22.5226     77.0073     -999.25      2.8425      1.4723      7.5321      2.3046      2.3442
        4651     -999.25     22.8186     77.2576     -999.25      2.6237      1.3539      7.3246      2.3175      2.3339
      4651.5     -999.25     23.2842      78.695     -999.25      2.4197      1.3041      7.2327      2.3246      2.3122
        4652     -999.25     24.6149     79.6735     -999.25      2.2376      1.1773      7.2327      2.3246      2.2928
      4652.5     -999.25     26.3746     80.4219     -999.25      2.0379      1.0726      7.2327      2.2877      2.2749
        4653     -999.25     27.4606      80.724     -999.25      1.9542      1.0428      7.2327      2.2846       2.265
      4653.5     -999.25      27.902     80.9663     -999.25      1.9183        1.02      7.2327      2.2846      2.2637
        4654     -999.25     27.7511     80.9157     -999.25      1.9339      0.9765      7.2389       2.285      2.2673
      4654.5     -999.25      27.326     80.5651     -999.25      1.9892      0.9761      7.2691      2.2445      2.2722
        4655     -999.25     27.1026     79.8298     -999.25      2.0844      1.0396      7.2923      2.2008      2.2748
      4655.5     -999.25     26.9849     79.8113     -999.25      2.2045        1.07      7.2923      2.1794      2.2799
        4656     -999.25      27.057     80.0208     -999.25      2.2887      1.0906      7.2923      2.1443       2.289
      4656.5     -999.25     26.5445      80.695     -999.25       2.374      1.1114      7.2923      2.1443      2.2859
        4657     -999.25     26.4623     81.3628     -999.25      2.4184      1.1312      7.2923      2.1443      2.2849
      4657.5     -999.25     27.0816     81.8321     -999.25       2.514      1.1417      7.2923      2.1643      2.2758
        4658     -999.25     27.2143     81.9639     -999.25       2.562      1.1874      7.2923      2.1844        2.27
      4658.5     -999.25     27.5693     81.8611     -999.25       2.587      1.1849      7.2923      2.1844       2.267
        4659     -999.25     27.7085     81.8682     -999.25      2.6045      1.1849      7.2698      2.2044      2.2669
      4659.5     -999.25     27.5208     82.1564     -999.25      2.5102      1.1739      7.2327      2.2044      2.2689
        4660     -999.25     27.4271     82.4731     -999.25      2.5321      1.1588      7.1192      2.2214      2.2704
      4660.5     -999.25      27.379     82.8106     -999.25      2.5542      1.1312      7.1135      2.1068      2.2707
        4661     -999.25     27.4218      83.006     -999.25      2.5765      1.1312      7.2816      1.3429      2.2693
      4661.5     -999.25     27.4673     83.0862     -999.25       2.599      1.1312     12.0208      1.3627     -999.25
        4662     -999.25     27.4797     83.1263     -999.25      2.6217      1.1417     -999.25      1.3627     -999.25
      4662.5     -999.25     -999.25     83.0488     -999.25      2.6445      1.1524     -999.25      1.3627     -999.25
        4663     -999.25     -999.25      82.827     -999.25      2.6508      1.2033     -999.25      1.3627     -999.25
      4663.5     -999.25     -999.25     82.5031     -999.25      2.6855       1.207     -999.25      1.3627     -999.25
        4664     -999.25     -999.25     82.1559     -999.25      2.7231      1.2269     -999.25      1.3627     -999.25
      4664.5     -999.25     -999.25     81.9238     -999.25      2.7612      1.2296     -999.25      1.3627     -999.25
        4665     -999.25     -999.25     82.2775     -999.25      2.7999      1.2183     -999.25      1.3627     -999.25
      4665.5     -999.25     -999.25     82.8906     -999.25      2.8971       1.207     -999.25      1.3627     -999.25
        4666     -999.25     -999.25     83.3819     -999.25      2.9599      1.1959     -999.25      1.3627     -999.25
      4666.5     -999.25     -999.25     83.7655     -999.25      2.9761      1.1741     -999.25      1.3627     -999.25
        4667     -999.25     -999.25      83.827     -999.25      3.0039      1.1742     -999.25      1.3627     -999.25
      4667.5     -999.25     -999.25     83.4601     -999.25      3.0318      1.1951     -999.25      1.3627     -999.25
        4668     -999.25     -999.25     83.0512     -999.25      3.0426      1.1739     -999.25      1.3627     -999.25
      4668.5     -999.25     -999.25     82.8056     -999.25      3.0426      1.1739     -999.25      1.3627     -999.25
        4669     -999.25     -999.25     82.6854     -999.25      3.0376      1.1739     -999.25      1.3627     -999.25
      4669.5     -999.25     -999.25     82.4505     -999.25      3.0165      1.1739     -999.25      1.3627     -999.25
        4670     -999.25     -999.25     82.1395     -999.25      2.9956      1.1739     -999.25      1.3627     -999.25
      4670.5     -999.25     -999.25     81.7436     -999.25      2.9749      1.4043     -999.25      1.3627     -999.25
        4671     -999.25     -999.25     81.4545     -999.25      2.9486      1.3234     -999.25      1.3627     -999.25
      4671.5     -999.25     -999.25     81.4429     -999.25      2.9079       1.387     -999.25      1.3627     -999.25
        4672     -999.25     -999.25     81.4429     -999.25      2.8678      1.2617     -999.25      1.3627     -999.25
      4672.5     -999.25     -999.25     81.4089     -999.25      2.8282      1.1739     -999.25      1.3627     -999.25
        4673     -999.25     -999.25     81.2868     -999.25      2.8011      1.1959     -999.25      1.3627     -999.25
      4673.5     -999.25     -999.25     80.9467     -999.25      2.8011        1.52     -999.25      1.3627     -999.25
        4674     -999.25     -999.25     80.8812     -999.25      2.8011      2.1159     -999.25      1.3627     -999.25
      4674.5     -999.25     -999.25     81.2462     -999.25      2.8011      2.6532     -999.25      1.3627     -999.25
        4675     -999.25     -999.25     81.7882     -999.25      2.8011       3.127     -999.25      1.3627     -999.25
      4675.5     -999.25     -999.25      82.312     -999.25      2.8011      3.4391     -999.25      1.3627     -999.25
        4676     -999.25     -999.25     82.4381     -999.25       2.809      3.5034     -999.25      1.3627     -999.25
      4676.5     -999.25     -999.25     81.9968     -999.25      2.8583     -999.25     -999.25      1.3627     -999.25
        4677     -999.25     -999.25     80.8689     -999.25      2.9084     -999.25     -999.25      1.3627     -999.25
      4677.5     -999.25     -999.25     79.2311     -999.25      2.9594     -999.25     -999.25      1.3627     -999.25
