#--------------------------------------------------#
#-------------------ENVERUS, INC.------------------#
#------------------WWW.ENVERUS.COM-----------------#
#------------------COPYRIGHT 2020------------------#
#--------------------------------------------------#
#THIS FILE MAY BE USED ONLY IN ACCORDANCE WITH A CURRENT SUBSCRIPTION AGREEMENT BETWEEN
#THE USER AND ENVERUS, INC. NO PART OF THIS FILE MAY BE REPRODUCED, USED, COPIED,
#MODIFIED, PROPAGATED, OR DISTRIBUTED EXCEPT IN ACCORDANCE WITH THE SUBSCRIPTION
#AGREEMENT. UNAUTHORIZED USE OR DISTRIBUTION OF ALL OR ANY PART OF THIS FILE MAY VIOLATE
#COPYRIGHT, TRADEMARK, AND/OR OTHER LAWS AND IS SUBJECT TO CIVIL AS WELL AS CRIMINAL
#SANCTIONS.
#--------------------------------------------------#
#THIS FILE IS PROVIDED "AS-IS" AND ALL WARRANTIES ARE EXPRESSLY DISCLAIMED, WHETHER
#EXPRESS, ORAL, IMPLIED, STATUTORY OR OTHERWISE, INCLUDING ANY IMPLIED WARRANTY OF FITNESS
#FOR A PARTICULAR PURPOSE, MERCHANTABILITY, TITLE OR NON-INFRINGEMENT, AND ANY WARRANTIES
#ARISING BY VIRTUE OF CUSTOM OF TRADE OR COURSE OF DEALING.  FURTHER, ENVERUS, INC.
#AND ITS LICENSORS DO NOT REPRESENT OR WARRANT THAT THIS FILE WILL MEET USER'S
#REQUIREMENTS OR ARE SUITABLE FOR USER'S NEEDS OR THAT THE DATA OR RESULTS PROVIDED IN
#CONJUNCTION THEREWITH ARE CORRECT, ACCURATE, TIMELY OR RELIABLE. THESE DISCLAIMERS SHALL
#APPLY REGARDLESS OF ANY FAILURE OF ESSENTIAL PURPOSE OF ANY LIMITED REMEDY.  SOME
#JURISDICTIONS DO NOT ALLOW THE EXCLUSION OF CERTAIN WARRANTIES SO SOME OF THE ABOVE
#EXCLUSIONS MAY NOT APPLY. IN NO EVENT SHALL ENVERUS, INC. OR ANY OF ITS AFFILIATES
#BE LIABLE UNDER ANY LEGAL THEORY, WHETHER IN TORT (INCLUDING WITHOUT LIMITATION
#NEGLIGENCE), CONTRACT, STRICT LIABILITY, STATUTORY OR OTHERWISE, FOR ANY SPECIAL,
#INCIDENTAL, CONSEQUENTIAL, EXEMPLARY, PUNITIVE OR INDIRECT DAMAGE OF ANY KIND, INCLUDING
#WITHOUT LIMITATION LOSS OF REVENUE, PROFITS, GOODWILL, USE, AND/OR DATA OR THE COST OF
#PROCUREMENT OF SUBSTITUTE GOODS OR SERVICES, EVEN IF APPRISED OF THE POSSIBILITY OF SUCH
#DAMAGES IN ADVANCE.
#--------------------------------------------------#

~VERSION INFORMATION
VERS. 2.0 : CWLS LOG ASCII STANDARD - VERSION 2.0
WRAP.  NO : ONE LINE PER DEPTH STEP
~WELL INFORMATION
#MNEMONIC     .UNIT              VALUE :DESCRIPTION
STRT       .FT                25 :START DEPTH
STOP       .FT                17136 :STOP DEPTH
STEP       .FT                   0.500 :STEP
NULL       .                  -999.250 :NULL
UWI        .              42389302310000 :UNIQUE WELL ID
API        .              42389302310000 :API NUMBER
COMP       .         EDISTO RESOURCES CORPORATION :COMPANY
WELL       .        WIGGINS  ORLA  1 :WELL
DATE       .                            :LOG DATE
~CURVE INFORMATION
#MNEMONIC     .UNIT      API CODE :CURVE DESCRIPTION
DEPTH       .FT                      :MEASURED DEPTH
CAL.INCH        UNKNOWN   :CAL
ILS.OHM        UNKNOWN   :ILS
SP.MV        UNKNOWN   :SP
DT.US/FT        UNKNOWN   :DT
GR.API        UNKNOWN   :GR
ILD.OHM        UNKNOWN   :ILD
~A    DEPTH    CAL    ILS    SP    DT    GR    ILD
# ...
 10606     12.667   16.944   10.498   83.601   70.853   18.865
 10606.5     12.668   13.57   10.602   83.955   69.494   14.227
 10607     12.668   12.935   10.707   83.728   68.177   13.023
 10607.5     12.669   14.615   10.811   84.284   66.86   13.724
 10608     12.669   16.371   10.916   84.202   67.446   15.04
 10608.5     12.67   18.127   11.02   83.579   68.739   16.9
 10609     12.671   19.883   11.125   83.242   70.033   18.761
 10609.5     12.671   21.64   11.23   83.661   71.327   20.138
 10610     12.672   23.396   11.34   83.993   74.136   21.387
 10610.5     12.673   25.121   11.46   82.818   78.187   25.185
 10611     12.673   26.556   11.58   81.053   79.656   30.798
 10611.5     12.674   27.991   11.699   80.616   77.952   34.727
 10612     12.675   29.426   11.819   80.178   73.85   32.372
 10612.5     12.675   30.861   11.938   76.296   69.476   29.996
 10613     12.676   32.296   12.058   72.998   65.101   30.075
 10613.5     12.677   33.954   12.178   71.609   62.318   30.654
 10614     12.677   36.07   12.297   70.22   60.614   35.403
 10614.5     12.678   38.186   12.417   76.982   60.437   41.16
 10615     12.679   37.982   12.536   84.258   63.265   47.785
 10615.5     12.679   34.841   12.656   86.734   69.324   53.305
 10616     12.68   31.701   12.776   87.579   74.985   47.853
 10616.5     12.681   26.997   12.895   86.426   78.51   34.938
 10617     12.681   22.201   13.015   85.274   74.493   23.262
 10617.5     12.682   22.616   13.134   74.7   69.213   22.041
 10618     12.682   24.231   13.254   72.61   65.708   23.78
 10618.5     12.683   31.312   13.328   66.77   47.696   33.183
 10619     12.684   41.361   13.378   62.679   40.765   47.641
 10619.5     12.684   50.488   13.428   66.524   40.38   62.1
 10620     12.685   49.317   13.59   70.368   45.012   76.573
 10620.5     12.686   48.146   13.8   74.213   51.979   85.609
 10621     12.686   46.975   14.011   78.058   58.177   72.883
 10621.5     12.687   42.037   14.222   81.903   63.629   53.864
 10622     12.688   33.278   14.433   80.317   65.598   37.887
 10622.5     12.688   27.481   14.644   78.755   61.985   28.435
 10623     12.689   26.567   14.855   77.193   58.256   26.991
 10623.5     12.69   25.652   15.065   76.282   55.511   25.739
 10624     12.69   28.932   15.276   77.573   54.384   26.574
 10624.5     12.691   32.856   15.487   75.204   54.096   30.289
 10625     12.692   36.78   15.465   75.234   55.475   35.912
 10625.5     12.692   32.987   15.273   77.113   58.3   39.275
 10626     12.693   24.165   15.081   80.162   60.763   28.708
 10626.5     12.693   18.518   14.889   77.18   59.551   18.605
 10627     12.693   16.077   14.696   79.077   58.689   16.67
 10627.5     12.693   16.594   14.756   79.07   59.246   15.24
 10628     12.693   22.352   14.937   82.077   59.802   18.781
 10628.5     12.693   28.11   15.118   88.834   71.336   22.517
 10629     12.693   33.869   15.299   87.847   75.089   28.494
 10629.5     12.694   39.627   15.481   86.861   75.769   38.647
 10630     12.694   45.385   15.662   86.469   75.669   45.433
 10630.5     12.694   41.924   15.843   87.731   75.092   44.48
 10631     12.694   37.356   16.024   88.994   74.514   39.479
 10631.5     12.694   34.364   16.205   89.715   72.288   34.741
 10632     12.694   38.35   16.387   86.58   69.81   33.958
 10632.5     12.694   56.019   16.568   82.363   65.925   46.853
 10633     12.694   73.687   16.749   74.628   60.325   62.052
 10633.5     12.695   79.137   16.93   67.229   54.725   81.796
 10634     12.695   65.003   17.112   67.323   49.125   72.43
 10634.5     12.695   50.87   17.293   70.152   46.061   53.916
 10635     12.695   36.736   17.474   72.536   49.988   35.402
 10635.5     12.695   25.745   17.629   72.451   53.914   25.801
 10636     12.695   31.66   17.778   72.365   56.78   31.434
 10636.5     12.695   37.576   17.928   73.888   55.556   36.83
 10637     12.695   35.387   18.077   75.835   53.001   40.927
 10637.5     12.696   29.158   18.227   77.783   54.468   30.369
 10638     12.717   28.071   18.376   77.844   56.233   27.644
 10638.5     12.738   26.984   18.475   77.805   60.3   26.644
 10639     12.759   25.897   18.539   79.859   63.149   25.643
 10639.5     12.78   24.809   18.604   81.913   64.353   24.643
 10640     12.801   19.967   18.668   79.065   63.802   19.484
 10640.5     12.822   11.838   18.732   79.703   60.375   14.271
 10641     12.819   8.683   18.797   77.803   56.998   9.877
 10641.5     12.798   7.93   18.861   72.534   55.197   7.852
 10642     12.777   9.026   18.907   67.265   52.869   9
 10642.5     12.755   10.122   18.544   64.467   43.505   10.885
 10643     12.734   10.797   18.181   62.378   35.67   12.769
 10643.5     12.713   8.454   17.818   68.929   38.384   9.308
 10644     12.695   6.11   17.147   75.92   41.098   5.843
 10644.5     12.686   4.329   16.47   81.321   52.294   4.238
 10645     12.677   3.793   15.793   82.239   63.318   3.771
 10645.5     12.668   3.634   15.116   83.157   66.439   3.756
 10646     12.659   3.808   14.44   81.527   68.667   3.856
 10646.5     12.65   3.876   13.763   81.748   70.817   3.929
 10647     12.641   3.763   13.058   82.505   71.302   3.763
 10647.5     12.632   3.65   12.348   83.261   71.096   3.596
 10648     12.623   3.795   11.638   82.66   72.725   4.01
 10648.5     12.625   4.195   10.928   79.334   74.366   4.046
 10649     12.643   4.595   10.218   76.008   73.038   4.439
 10649.5     12.661   4.995   9.508   77.512   71.566   5.048
 10650     12.68   4.883   8.798   79.178   70.85   4.939
 10650.5     12.698   4.706   8.088   78.181   72.364   4.831
 10651     12.691   4.529   7.378   77.045   72.469   4.723
 10651.5     12.682   4.636   6.668   75.91   71.91   4.853
 10652     12.674   4.892   5.912   77.528   70.982   4.99
 10652.5     12.666   5.338   5.142   83.323   70.055   5.614
 10653     12.658   6.991   4.371   89.119   69.166   6.85
 10653.5     12.65   8.643   3.601   90.434   69.353   8.309
 10654     12.641   10.296   2.83   89.826   69.54   9.96
 10654.5     12.633   11.948   2.06   84.461   69.727   11.611
 10655     12.625   13.6   1.289   76.379   69.914   13.262
 10655.5     12.617   14.25   0.519   72.983   70.101   13.949
 10656     12.609   13.75   -0.815   77.011   70.381   13.663
 10656.5     12.6   11.081   -2.533   81.04   70.806   11.157
 10657     12.592   8.413   -4.03   85.068   71.232   8.272
 10657.5     12.584   8.733   -5.119   86.723   72.316   9.063
 10658     12.576   9.97   -6.209   85.15   74.098   10.108
 10658.5     12.568   11.207   -7.298   83.577   75.88   11.153
 10659     12.569   12.444   -8.388   82.164   76.782   12.197
 10659.5     12.572   13.681   -9.477   81.509   76.472   13.497
 10660     12.576   14.919   -10.552   76.05   74.93   15.293
 10660.5     12.579   21.028   -11.156   72.347   72.884   22.683
 10661     12.582   41.906   -11.76   68.667   70.839   30.258
 10661.5     12.586   62.785   -12.364   65.186   70.85   45.288
 10662     12.589   74.801   -12.971   61.469   70.959   74.677
 10662.5     12.593   61.642   -13.632   57.682   71.067   71.178
 10663     12.596   50.093   -14.293   57.257   72.559   60.565
 10663.5     12.6   49.048   -14.954   63.902   73.421   48.066
 10664     12.603   48.003   -15.615   68.395   73.724   45.787
 10664.5     12.607   46.958   -15.802   72.4   74.027   43.508
 10665     12.61   42.981   -15.844   76.405   65.439   41.14
 10665.5     12.613   38.695   -15.886   77.931   11.015   37.455
 10666     12.617   34.409   -15.927   69.912   1.149   33.215
 10666.5     12.62   30.123   -15.969   65.915   1.149   28.151
 10667     12.621   22.295   -16.011   63.986   1.149   21.533
 10667.5     12.619   14.417   -16.052   62.067   1.149   12.91
 10668     12.618   14.144   -16.094   65.934   1.149   15.26
 10668.5     12.616   -999.99   -999.99   51.682   1.149   -999.99
 10669     12.615   -999.99   -999.99   52.768   1.149   -999.99
 10669.5     12.613   -999.99   -999.99   53.89   1.149   -999.99
