###############################################
##         ENVERUS                           ##
##         ESS - Open Hole                   ##
##         PERMIAN / DELAWARE                ##
##         Nov 04 2023  V4.0                 ##
##         42-389-32484-00-00                ##
###############################################
## Copyright 2017-2023  ENVERUS.  All Rights Reserved. 
## Confidential - Property of ENVERUS, use governed by terms and 
## conditions found within the existing Information Services Subscription Agreement 
## (as may be amended, the “ISSA”) between Customer and ENVERUS. 
## 
~VERSION INFORMATION
# MNEM.UNIT                               DATA : DESCRIPTION OF MNEMONIC
#-----.-----     ----------------------------- : -----------------------------
VERS.                                     2.00 : CWLS LOG ASCII STANDARD - VERSION 2.00
WRAP.                                       NO : MULTIPLE LINES PER DEPTH STEP
VEND.                                  ENVERUS : VENDOR
TYPE.                          ESS - OPEN HOLE : ENVERUS ESSENTIAL CURVES – ACCESSIBLE THROUGH ENVERUS PRISM(TM)
DOC.                                  31780441 : ENVERUS HEADER RAW DOCUMENT ID
#___________________________________________________________________________________________________ 
~WELL INFORMATION 
# aTsA/KVwhIqB1dg6n/zy22zTJjsJnyaNqg27ywuj9UrTfzbM7gscpQTlR+gOLN+9jERwUBAE6KvHEXpIT+cpyg== 
# MNEM.UNIT                                              DATA : DESCRIPTION OF MNEMONIC 
#-----.-----                    ----------------------------- : ----------------------------- 
CNTY.                                                  REEVES : COUNTY 
STATE.                                                  TEXAS : STATE 
CNTRY.                                                    USA : COUNTRY 
API.                                             42-389-32484 : API (10 Digit) 
API_14.                                    42-389-32484-00-00 : API (14 Digits) 
API_14_std.                                 42-389-32484-0000 : API (14 Digits Standard) 
UWI.                                           42389324840000 : UNIQUE WELL ID 
WELL.                                        BLK 59 ST 37  1H : WELL NAME
STRT.FT                                                 236.0 : START DEPTH
STOP.FT                                               12079.0 : STOP DEPTH
STEP.FT                                                   0.5 : STEP BETWEEN DEPTHS
NULL.                                                 -999.25 : NULL VALUE
COMP.                                       SHELL WESTERN E&P : COMPANY 
DATE.                                             05-SEP-2007 : LOG DATE
#___________________________________________________________________________________________________ 
~CURVE INFORMATION 
# MNEM.UNIT           : CURVE DESCRIPTION 
#-----.-----          : ----------------------------- 
 DEPT.FT               : MEASURED DEPTH 
 CALI.IN               : CALIPER (CAL - CAL) 
 GR.API                : GAMMA RAY (GR) 
 DT.US/FT              : SONIC DELTA TRANSIT TIME (DT) 
 DPHI.V/V              : DENSITY POROSITY (DPHI) 
 NPHI.V/V              : NEUTRON POROSITY (NPHI) 
 RHOB.G/CC             : BULK DENSITY (RHOB) 
 #___________________________________________________________________________________________________ 
~A         DEPT           CALI             GR             DT           DPHI           NPHI           RHOB
# ...
        10648.0          8.889        116.331         83.811        0.06421        0.21400         2.5830
        10648.5          8.883        113.318         82.723        0.05681        0.21275         2.6010
        10649.0          8.907        111.245         81.635        0.05910        0.21052         2.6020
        10649.5          8.908        110.613         80.546        0.06408        0.20445         2.5970
        10650.0          8.863        112.574         79.458        0.06760        0.19689         2.5970
        10650.5          8.820        114.756         78.370        0.06048        0.19804         2.6040
        10651.0          8.874        112.247         77.311        0.05336        0.19959         2.6100
        10651.5          8.937        109.186         76.517        0.05186        0.20115         2.6170
        10652.0          8.982        106.125         75.723        0.05843        0.19352         2.6160
        10652.5          8.899        103.928         74.930        0.06226        0.17820         2.6090
        10653.0          8.859        103.169         74.878        0.05637        0.17753         2.6020
        10653.5          8.912         99.481         75.497        0.05116        0.17685         2.6030
        10654.0          8.967         95.613         76.411        0.05516        0.17644         2.5880
        10654.5          8.952         94.259         77.529        0.07730        0.17760         2.5740
        10655.0          8.885         99.979         78.648        0.07483        0.17875         2.5770
        10655.5          8.859        105.927         79.766        0.06903        0.18585         2.5890
        10656.0          8.868        111.875         80.605        0.05970        0.18955         2.5950
        10656.5          8.946        117.688         80.784        0.06160        0.19213         2.5860
        10657.0          9.059        118.040         80.915        0.07488        0.19410         2.5760
        10657.5          8.962        117.366         80.959        0.07634        0.19598         2.5670
        10658.0          8.866        115.032         80.511        0.06700        0.19736         2.5660
        10658.5          8.836        113.501         80.127        0.06027        0.19534         2.5820
        10659.0          8.873        114.516         80.228        0.06627        0.19332         2.5960
        10659.5          8.920        115.532         80.329        0.07017        0.20115         2.5920
        10660.0          8.903        116.179         80.430        0.06735        0.22212         2.5890
        10660.5          8.827        116.814         80.531        0.05749        0.21789         2.6040
        10661.0          8.826        117.448         82.167        0.04522        0.21226         2.6190
        10661.5          8.909        123.642         84.173        0.04657        0.20742         2.6120
        10662.0          9.023        130.234         86.179        0.05819        0.21653         2.5970
        10662.5          8.936        136.826         86.688        0.07054        0.22627         2.5830
        10663.0          8.897        143.418         86.279        0.07857        0.23842         2.5680
        10663.5          8.915        149.457         85.339        0.07760        0.24701         2.5630
        10664.0          8.979        148.552         84.035        0.07356        0.25381         2.5610
        10664.5          9.043        142.487         82.688        0.08111        0.25287         2.5590
        10665.0          8.966        136.421         81.340        0.08009        0.24035         2.5600
        10665.5          8.925        129.380         79.993        0.07226        0.23045         2.5610
        10666.0          8.931        121.615         79.265        0.06064        0.22364         2.5810
        10666.5          9.019        113.851         79.318        0.04874        0.22634         2.6090
        10667.0          9.058        108.369         79.626        0.05246        0.23120         2.6100
        10667.5          8.946        105.641         80.326        0.05713        0.23638         2.6020
        10668.0          8.848        110.219         81.027        0.06138        0.23767         2.5980
        10668.5          8.817        118.080         81.727        0.05895        0.23897         2.5980
        10669.0          8.865        119.099         82.428        0.05983        0.23527         2.5990
        10669.5          8.924        119.387         82.119        0.07020        0.22792         2.5920
        10670.0          8.884        119.675         81.340        0.08064        0.22029         2.5820
        10670.5          8.754        119.964         80.527        0.08337        0.21466         2.5720
        10671.0          8.759        119.697         79.830        0.07493        0.21287         2.5710
        10671.5          8.895        117.582         80.337        0.06836        0.21233         2.5780
        10672.0          8.898        115.467         80.844        0.07495        0.21233         2.5730
        10672.5          8.835        113.352         81.351        0.08099        0.21084         2.5690
        10673.0          8.764        113.190         81.858        0.07736        0.20796         2.5800
        10673.5          8.757        113.114         81.724        0.07114        0.20508         2.5900
        10674.0          8.852        114.748         81.222        0.06105        0.21110         2.5830
        10674.5          8.908        118.624         80.122        0.07167        0.21748         2.5760
        10675.0          8.841        122.500         79.023        0.07901        0.22018         2.5690
        10675.5          8.727        125.496         77.924        0.07576        0.22038         2.5820
        10676.0          8.775        125.953         76.825        0.05867        0.21753         2.5970
        10676.5          8.829        123.397         76.575        0.04748        0.20147         2.6110
        10677.0          8.835        120.822         77.478        0.05577        0.19079         2.6160
        10677.5          8.770        119.955         78.300        0.06611        0.19165         2.6090
        10678.0          8.726        120.210         78.608        0.05997        0.20010         2.6010
        10678.5          8.783        120.465         78.916        0.05299        0.20312         2.5940
        10679.0          8.841        118.302         79.224        0.04427        0.20261         2.6010
        10679.5          8.854        114.334         79.532        0.04816        0.20144         2.6210
        10680.0          8.769        110.366         79.705        0.05205        0.19625         2.6190
        10680.5          8.684        113.331         79.269        0.05088        0.20278         2.6200
        10681.0          8.700        117.929         78.832        0.04776        0.20846         2.6230
        10681.5          8.756        122.526         78.396        0.04529        0.20897         2.6250
        10682.0          8.808        122.517         78.088        0.04375        0.19857         2.6220
        10682.5          8.736        117.989         78.358        0.04780        0.19732         2.6190
        10683.0          8.672        113.462         78.204        0.05184        0.20795         2.6170
        10683.5          8.672        112.466         77.723        0.05286        0.21942         2.6140
        10684.0          8.722        116.957         77.316        0.04956        0.21784         2.6110
        10684.5          8.785        121.463         77.084        0.04756        0.21506         2.6140
        10685.0          8.761        118.179         76.853        0.04730        0.20993         2.6200
        10685.5          8.697        114.895         76.621        0.04705        0.20281         2.6240
