###############################################
##         ENVERUS                           ##
##         ESS - Open Hole                   ##
##         PERMIAN / DELAWARE                ##
##         Nov 04 2023  V4.0                 ##
##         42-389-30414-00-00                ##
###############################################
## Copyright 2017-2023  ENVERUS.  All Rights Reserved. 
## Confidential - Property of ENVERUS, use governed by terms and 
## conditions found within the existing Information Services Subscription Agreement 
## (as may be amended, the “ISSA”) between Customer and ENVERUS. 
## 
~VERSION INFORMATION
# MNEM.UNIT                               DATA : DESCRIPTION OF MNEMONIC
#-----.-----     ----------------------------- : -----------------------------
VERS.                                     2.00 : CWLS LOG ASCII STANDARD - VERSION 2.00
WRAP.                                       NO : MULTIPLE LINES PER DEPTH STEP
VEND.                                  ENVERUS : VENDOR
TYPE.                          ESS - OPEN HOLE : ENVERUS ESSENTIAL CURVES – ACCESSIBLE THROUGH ENVERUS PRISM(TM)
DOC.                                  31965441 : ENVERUS HEADER RAW DOCUMENT ID
#___________________________________________________________________________________________________ 
~WELL INFORMATION 
# 4Nagw4FJNzCtYOfTAudVsymR6uv0ccMrNFKiy1Vrqa1gQVNLoB6NNR/Tzdk8H0Jxf2Akv2rjPRKaT9zVNBkTiw== 
# MNEM.UNIT                                              DATA : DESCRIPTION OF MNEMONIC 
#-----.-----                    ----------------------------- : ----------------------------- 
CNTY.                                                  REEVES : COUNTY 
STATE.                                                  TEXAS : STATE 
CNTRY.                                                    USA : COUNTRY 
API.                                             42-389-30414 : API (10 Digit) 
API_14.                                    42-389-30414-00-00 : API (14 Digits) 
API_14_std.                                 42-389-30414-0000 : API (14 Digits Standard) 
UWI.                                           42389304140000 : UNIQUE WELL ID 
WELL.                                            TXL 17-39  2 : WELL NAME
STRT.FT                                                 237.0 : START DEPTH
STOP.FT                                               13872.0 : STOP DEPTH
STEP.FT                                                   0.5 : STEP BETWEEN DEPTHS
NULL.                                                 -999.25 : NULL VALUE
COMP.                          ENDEAVOR ENERGY RESOURCES L.P. : COMPANY
#___________________________________________________________________________________________________ 
~CURVE INFORMATION 
# MNEM.UNIT           : CURVE DESCRIPTION 
#-----.-----          : ----------------------------- 
 DEPT.FT               : MEASURED DEPTH 
 CALI.IN               : CALIPER (CAL - CAL) 
 GR.API                : GAMMA RAY (GR) 
 DT.US/FT              : SONIC DELTA TRANSIT TIME (DT) 
 RESS.OHMM             : SHALLOW INDUCTION RESISTIVITY (ILS - ILS) 
 RESD.OHMM             : DEEP INDUCTION RESISTIVITY (ILD - ILD) 
 #___________________________________________________________________________________________________ 
~A         DEPT           CALI             GR             DT           RESS           RESD
# ...
        13833.0          7.820         64.036         76.190       -999.250          3.050
        13833.5          7.825         64.070         55.435       -999.250          3.053
        13834.0          7.829         64.105         56.940       -999.250          3.055
        13834.5          7.834         64.139         59.222       -999.250          3.057
        13835.0          7.838         64.173         78.255       -999.250          3.060
        13835.5          7.843         64.208         82.334       -999.250          3.062
        13836.0          7.848         64.242         86.413       -999.250          3.064
        13836.5          7.852         64.276         89.860       -999.250          3.067
        13837.0          7.857         64.311         89.904       -999.250          3.068
        13837.5          7.861         64.345         89.949       -999.250          3.067
        13838.0          7.866         64.379         89.994       -999.250          3.067
        13838.5          7.870         64.414         90.023       -999.250          3.066
        13839.0          7.875         64.448         90.050       -999.250          3.065
        13839.5          7.879         64.483         90.077       -999.250          3.065
        13840.0          7.884         64.517         90.103       -999.250          3.064
        13840.5          7.888         64.551         90.130       -999.250          3.063
        13841.0          7.893         64.586         90.157       -999.250          3.063
        13841.5          7.897         64.620         90.184       -999.250          3.062
        13842.0          7.902         64.654         90.210       -999.250          3.061
        13842.5          7.906         64.689         90.237       -999.250          3.061
        13843.0          7.911         64.723         90.264       -999.250          3.060
        13843.5          7.916         64.757         90.290       -999.250          3.059
        13844.0          7.920         64.792         90.317       -999.250          3.059
        13844.5          7.925         64.826         90.344       -999.250          3.058
        13845.0          7.929         65.286         90.371       -999.250          3.057
        13845.5          7.940         66.313         90.397       -999.250          3.057
        13846.0          7.996         67.341         90.424       -999.250          3.056
        13846.5          8.053         68.368         90.083       -999.250          3.055
        13847.0          8.135         69.395         89.652       -999.250          3.055
        13847.5          8.259         70.422         89.221       -999.250          3.054
        13848.0          8.383         70.593         88.791       -999.250          3.054
        13848.5          8.758         70.603         88.496       -999.250          3.053
        13849.0          9.157         70.612         88.553       -999.250          3.052
        13849.5          9.276         70.621         88.611       -999.250          3.052
        13850.0          9.299         70.631         88.668       -999.250          3.051
        13850.5          9.307         70.640         88.725       -999.250          3.050
        13851.0          9.299         70.649         88.782       -999.250          3.050
        13851.5          9.291         70.659         88.839       -999.250          3.049
        13852.0          9.284         70.668         88.896       -999.250          3.048
        13852.5          9.276         70.677       -999.250       -999.250          3.048
        13853.0          9.269         70.687       -999.250       -999.250          3.047
        13853.5          9.261         70.696       -999.250       -999.250          3.046
        13854.0          9.253         70.705       -999.250       -999.250          3.046
        13854.5          9.246         70.714       -999.250       -999.250          3.045
        13855.0          9.238         70.724       -999.250       -999.250          3.044
        13855.5          9.230         70.733       -999.250       -999.250          3.044
        13856.0          9.223         70.742       -999.250       -999.250          3.043
        13856.5          9.215         70.752       -999.250       -999.250          3.042
        13857.0          9.208         69.698       -999.250       -999.250          3.042
        13857.5          9.200       -999.250       -999.250       -999.250          3.041
        13858.0          9.192       -999.250       -999.250       -999.250          3.040
        13858.5          9.185       -999.250       -999.250       -999.250          3.040
        13859.0          9.177       -999.250       -999.250       -999.250          3.039
        13859.5          9.165       -999.250       -999.250       -999.250          3.038
        13860.0          9.137       -999.250       -999.250       -999.250          3.038
        13860.5          8.876       -999.250       -999.250       -999.250          3.037
        13861.0          8.337       -999.250       -999.250       -999.250          3.036
        13861.5          7.981       -999.250       -999.250       -999.250          3.036
        13862.0          7.983       -999.250       -999.250       -999.250          3.035
        13862.5          7.985       -999.250       -999.250       -999.250          3.034
        13863.0          7.987       -999.250       -999.250       -999.250          3.034
        13863.5          7.989       -999.250       -999.250       -999.250          3.033
        13864.0          7.991       -999.250       -999.250       -999.250          3.033
        13864.5          7.993       -999.250       -999.250       -999.250          3.032
        13865.0          7.995       -999.250       -999.250       -999.250          3.031
        13865.5          7.997       -999.250       -999.250       -999.250          3.031
        13866.0          7.999       -999.250       -999.250       -999.250          3.030
        13866.5          8.001       -999.250       -999.250       -999.250          3.029
        13867.0          8.003       -999.250       -999.250       -999.250          3.029
        13867.5          8.005       -999.250       -999.250       -999.250          3.028
        13868.0          8.007       -999.250       -999.250       -999.250          3.027
        13868.5          8.009       -999.250       -999.250       -999.250          3.027
        13869.0          8.011       -999.250       -999.250       -999.250          3.026
        13869.5       -999.250       -999.250       -999.250       -999.250          3.025
        13870.0       -999.250       -999.250       -999.250       -999.250          3.025
        13870.5       -999.250       -999.250       -999.250       -999.250          3.024
        13871.0       -999.250       -999.250       -999.250       -999.250          3.023
        13871.5       -999.250       -999.250       -999.250       -999.250          3.023
        13872.0       -999.250       -999.250       -999.250       -999.250          3.022
