#--------------------------------------------------#
#-------------------ENVERUS, INC.------------------#
#------------------WWW.ENVERUS.COM-----------------#
#------------------COPYRIGHT 2020------------------#
#--------------------------------------------------#
#THIS FILE MAY BE USED ONLY IN ACCORDANCE WITH A CURRENT SUBSCRIPTION AGREEMENT BETWEEN
#THE USER AND ENVERUS, INC. NO PART OF THIS FILE MAY BE REPRODUCED, USED, COPIED,
#MODIFIED, PROPAGATED, OR DISTRIBUTED EXCEPT IN ACCORDANCE WITH THE SUBSCRIPTION
#AGREEMENT. UNAUTHORIZED USE OR DISTRIBUTION OF ALL OR ANY PART OF THIS FILE MAY VIOLATE
#COPYRIGHT, TRADEMARK, AND/OR OTHER LAWS AND IS SUBJECT TO CIVIL AS WELL AS CRIMINAL
#SANCTIONS.
#--------------------------------------------------#
#THIS FILE IS PROVIDED "AS-IS" AND ALL WARRANTIES ARE EXPRESSLY DISCLAIMED, WHETHER
#EXPRESS, ORAL, IMPLIED, STATUTORY OR OTHERWISE, INCLUDING ANY IMPLIED WARRANTY OF FITNESS
#FOR A PARTICULAR PURPOSE, MERCHANTABILITY, TITLE OR NON-INFRINGEMENT, AND ANY WARRANTIES
#ARISING BY VIRTUE OF CUSTOM OF TRADE OR COURSE OF DEALING.  FURTHER, ENVERUS, INC.
#AND ITS LICENSORS DO NOT REPRESENT OR WARRANT THAT THIS FILE WILL MEET USER'S
#REQUIREMENTS OR ARE SUITABLE FOR USER'S NEEDS OR THAT THE DATA OR RESULTS PROVIDED IN
#CONJUNCTION THEREWITH ARE CORRECT, ACCURATE, TIMELY OR RELIABLE. THESE DISCLAIMERS SHALL
#APPLY REGARDLESS OF ANY FAILURE OF ESSENTIAL PURPOSE OF ANY LIMITED REMEDY.  SOME
#JURISDICTIONS DO NOT ALLOW THE EXCLUSION OF CERTAIN WARRANTIES SO SOME OF THE ABOVE
#EXCLUSIONS MAY NOT APPLY. IN NO EVENT SHALL ENVERUS, INC. OR ANY OF ITS AFFILIATES
#BE LIABLE UNDER ANY LEGAL THEORY, WHETHER IN TORT (INCLUDING WITHOUT LIMITATION
#NEGLIGENCE), CONTRACT, STRICT LIABILITY, STATUTORY OR OTHERWISE, FOR ANY SPECIAL,
#INCIDENTAL, CONSEQUENTIAL, EXEMPLARY, PUNITIVE OR INDIRECT DAMAGE OF ANY KIND, INCLUDING
#WITHOUT LIMITATION LOSS OF REVENUE, PROFITS, GOODWILL, USE, AND/OR DATA OR THE COST OF
#PROCUREMENT OF SUBSTITUTE GOODS OR SERVICES, EVEN IF APPRISED OF THE POSSIBILITY OF SUCH
#DAMAGES IN ADVANCE.
#--------------------------------------------------#

~VERSION INFORMATION
VERS. 2.0 : CWLS LOG ASCII STANDARD - VERSION 2.0
WRAP.  NO : ONE LINE PER DEPTH STEP
~WELL INFORMATION
#MNEMONIC     .UNIT              VALUE :DESCRIPTION
STRT       .FT                0 :START DEPTH
STOP       .FT                3396 :STOP DEPTH
STEP       .FT                   0.500 :STEP
NULL       .                  -999.250 :NULL
UWI        .              42389305140000 :UNIQUE WELL ID
API        .              42389305140000 :API NUMBER
COMP       .         SLEDGE BROS. OIL CO. :COMPANY
WELL       .        BOLLINGER  5 :WELL
DATE       .                            :LOG DATE
~CURVE INFORMATION
#MNEMONIC     .UNIT      API CODE :CURVE DESCRIPTION
DEPTH       .FT                      :MEASURED DEPTH
ILS.OHM        UNKNOWN   :ILS
GR.API        UNKNOWN   :GR
DT.US/FT        UNKNOWN   :DT
CAL.INCH        UNKNOWN   :CAL
ILD.OHM        UNKNOWN   :ILD
~A    DEPTH    ILS    GR    DT    CAL    ILD
# ...
 2705     -999.250   4.173   67.053   13.268   -999.250
 2705.5     -999.250   3.169   68.706   13.516   -999.250
 2706     -999.250   3.28   75.126   13.4   -999.250
 2706.5     -999.250   4.053   76.035   13.528   -999.250
 2707     -999.250   4.86   67.397   13.705   -999.250
 2707.5     -999.250   5.666   65.544   13.882   -999.250
 2708     -999.250   6.016   66.719   13.974   -999.250
 2708.5     -999.250   5.778   67.896   14.002   -999.250
 2709     -999.250   5.365   63.818   14.013   -999.250
 2709.5     -999.250   4.005   61.561   13.992   -999.250
 2710     -999.250   2.644   66.511   13.971   -999.250
 2710.5     -999.250   2.641   64.516   13.945   -999.250
 2711     -999.250   3.951   64.709   13.908   -999.250
 2711.5     -999.250   5.261   66.478   13.871   -999.250
 2712     -999.250   4.64   65.668   13.833   -999.250
 2712.5     -999.250   3.729   65.023   13.796   -999.250
 2713     -999.250   2.818   65.799   13.759   -999.250
 2713.5     -999.250   2.783   67.24   13.722   -999.250
 2714     -999.250   3.405   66.976   13.702   -999.250
 2714.5     -999.250   4.173   66.256   13.696   -999.250
 2715     -999.250   4.205   65.737   13.69   -999.250
 2715.5     -999.250   4.203   65.815   13.684   -999.250
 2716     -999.250   4.201   65.894   13.678   -999.250
 2716.5     -999.250   4.2   64.903   13.676   -999.250
 2717     -999.250   4.198   65.932   13.682   -999.250
 2717.5     -999.250   4.197   66.484   13.688   -999.250
 2718     -999.250   4.195   66.161   13.527   -999.250
 2718.5     -999.250   4.193   69.374   12.65   -999.250
 2719     -999.250   5.38   69.699   11.773   -999.250
 2719.5     -999.250   7.162   68.7   10.896   -999.250
 2720     -999.250   8.944   69.082   10.557   -999.250
 2720.5     -999.250   9.255   67.007   10.81   -999.250
 2721     -999.250   8.125   56.473   11.51   -999.250
 2721.5     -999.250   6.994   55.155   12.21   -999.250
 2722     -999.250   6.615   62.815   12.887   -999.250
 2722.5     -999.250   6.614   82.804   13.129   -999.250
 2723     -999.250   6.318   77.376   13.371   -999.250
 2723.5     -999.250   5.99   69.907   13.534   -999.250
 2724     -999.250   5.663   67.262   13.628   -999.250
 2724.5     -999.250   5.336   67.189   13.725   -999.250
 2725     -999.250   5.254   67.318   13.822   -999.250
 2725.5     -999.250   5.252   67.223   13.919   -999.250
 2726     -999.250   5.25   67.373   14.013   -999.250
 2726.5     -999.250   4.843   66.24   13.943   -999.250
 2727     -999.250   4.3   67.75   13.874   -999.250
 2727.5     -999.250   3.87   67.548   13.838   -999.250
 2728     -999.250   3.776   66.761   13.875   -999.250
 2728.5     -999.250   4.773   67.439   13.901   -999.250
 2729     -999.250   6.037   67.371   13.889   -999.250
 2729.5     -999.250   7.301   67.302   13.878   -999.250
 2730     -999.250   7.3   66.471   13.866   -999.250
 2730.5     -999.250   6.253   65.915   13.861   -999.250
 2731     -999.250   5.103   67.759   13.888   -999.250
 2731.5     -999.250   4.214   68.661   13.915   -999.250
 2732     -999.250   4.575   67.937   13.942   -999.250
 2732.5     -999.250   4.645   67.261   13.949   -999.250
 2733     -999.250   4.065   67.281   13.949   -999.250
 2733.5     -999.250   3.915   67.298   13.949   -999.250
 2734     -999.250   4.311   66.784   13.949   -999.250
 2734.5     -999.250   4.645   66.997   13.948   -999.250
 2735     -999.250   4.024   66.939   13.951   -999.250
 2735.5     -999.250   3.402   66.708   13.954   -999.250
 2736     -999.250   3.864   67.684   13.957   -999.250
 2736.5     -999.250   4.476   67.817   13.96   -999.250
 2737     -999.250   5.087   67.061   13.963   -999.250
 2737.5     -999.250   5.011   66.454   13.95   -999.250
 2738     -999.250   4.418   66.621   13.935   -999.250
 2738.5     -999.250   3.825   66.67   13.92   -999.250
 2739     -999.250   3.344   66.576   13.905   -999.250
 2739.5     -999.250   3.534   66.482   13.89   -999.250
 2740     -999.250   3.724   66.684   13.875   -999.250
 2740.5     -999.250   3.914   67.367   13.875   -999.250
 2741     -999.250   3.803   67.435   13.887   -999.250
 2741.5     -999.250   3.507   67.472   13.899   -999.250
 2742     -999.250   3.211   67.447   13.912   -999.250
 2742.5     -999.250   3.587   67.094   13.924   -999.250
 2743     -999.250   4.949   66.75   13.936   -999.250
 2743.5     -999.250   6.311   67.098   13.94   -999.250
 2744     -999.250   6.543   66.573   13.921   -999.250
 2744.5     -999.250   4.842   66.768   13.902   -999.250
 2745     -999.250   3.543   67.177   13.883   -999.250
 2745.5     -999.250   3.295   67.322   13.879   -999.250
 2746     -999.250   4.399   67.244   13.869   -999.250
 2746.5     -999.250   5.657   66.896   13.859   -999.250
 2747     -999.250   6.545   66.67   13.85   -999.250
 2747.5     -999.250   5.914   66.796   13.84   -999.250
 2748     -999.250   5.283   66.856   13.831   -999.250
 2748.5     -999.250   4.652   66.682   13.821   -999.250
 2749     -999.250   4.021   66.518   13.811   -999.250
 2749.5     -999.250   3.39   66.697   13.802   -999.250
 2750     -999.250   2.759   66.837   13.792   -999.250
 2750.5     -999.250   2.85   66.702   13.783   -999.250
 2751     -999.250   3.174   66.567   13.773   -999.250
 2751.5     -999.250   3.816   66.5   13.764   -999.250
 2752     -999.250   4.533   66.439   13.754   -999.250
 2752.5     -999.250   5.125   66.512   13.744   -999.250
 2753     -999.250   5.718   66.601   13.735   -999.250
 2753.5     -999.250   5.884   66.616   13.725   -999.250
 2754     -999.250   5.232   66.63   13.716   -999.250
 2754.5     -999.250   5.041   66.643   13.706   -999.250
 2755     -999.250   5.366   66.692   13.696   -999.250
 2755.5     -999.250   5.691   66.755   13.687   -999.250
 2756     -999.250   5.553   66.899   13.677   -999.250
 2756.5     -999.250   5.072   67.083   13.67   -999.250
 2757     -999.250   4.59   67.268   13.662   -999.250
 2757.5     -999.250   4.109   67.316   13.655   -999.250
 2758     -999.250   4.13   67.296   13.648   -999.250
 2758.5     -999.250   4.445   67.276   13.641   -999.250
 2759     -999.250   4.761   67.256   13.634   -999.250
 2759.5     -999.250   5.077   67.273   13.627   -999.250
 2760     -999.250   4.971   67.318   13.62   -999.250
 2760.5     -999.250   4.758   67.363   13.612   -999.250
 2761     -999.250   4.546   67.259   13.603   -999.250
 2761.5     -999.250   4.334   67.094   13.593   -999.250
 2762     -999.250   4.121   66.943   13.584   -999.250
 2762.5     -999.250   3.909   66.8   13.574   -999.250
 2763     -999.250   3.697   66.658   13.564   -999.250
 2763.5     -999.250   4.016   66.54   13.554   -999.250
 2764     -999.250   4.517   66.628   13.544   -999.250
 2764.5     -999.250   4.941   66.716   13.534   -999.250
 2765     -999.250   4.095   66.803   13.524   -999.250
 2765.5     -999.250   3.249   66.576   13.515   -999.250
 2766     -999.250   3.985   66.247   13.505   -999.250
 2766.5     -999.250   4.758   66.44   13.495   -999.250
 2767     -999.250   5.275   66.758   13.485   -999.250
 2767.5     -999.250   4.677   67.193   13.475   -999.250
 2768     -999.250   4.079   66.884   13.462   -999.250
 2768.5     -999.250   4.39   66.725   13.438   -999.250
 2769     -999.250   5.101   66.771   13.415   -999.250
 2769.5     -999.250   5.474   67.218   13.391   -999.250
 2770     -999.250   5.379   67.338   13.367   -999.250
 2770.5     -999.250   5.284   67.029   13.344   -999.250
 2771     -999.250   5.19   67.455   13.32   -999.250
 2771.5     -999.250   5.095   67.537   13.296   -999.250
 2772     -999.250   5   66.795   13.273   -999.250
 2772.5     -999.250   5.297   66.656   13.249   -999.250
 2773     -999.250   5.839   67.029   13.226   -999.250
 2773.5     -999.250   6.249   66.906   13.216   -999.250
 2774     -999.250   5.782   66.271   13.216   -999.250
 2774.5     -999.250   5.316   66.58   13.216   -999.250
 2775     -999.250   4.85   66.945   13.215   -999.250
 2775.5     -999.250   4.383   67.12   13.21   -999.250
