#--------------------------------------------------#
#-------------------ENVERUS, INC.------------------#
#------------------WWW.ENVERUS.COM-----------------#
#------------------COPYRIGHT 2020------------------#
#--------------------------------------------------#
#THIS FILE MAY BE USED ONLY IN ACCORDANCE WITH A CURRENT SUBSCRIPTION AGREEMENT BETWEEN
#THE USER AND ENVERUS, INC. NO PART OF THIS FILE MAY BE REPRODUCED, USED, COPIED,
#MODIFIED, PROPAGATED, OR DISTRIBUTED EXCEPT IN ACCORDANCE WITH THE SUBSCRIPTION
#AGREEMENT. UNAUTHORIZED USE OR DISTRIBUTION OF ALL OR ANY PART OF THIS FILE MAY VIOLATE
#COPYRIGHT, TRADEMARK, AND/OR OTHER LAWS AND IS SUBJECT TO CIVIL AS WELL AS CRIMINAL
#SANCTIONS.
#--------------------------------------------------#
#THIS FILE IS PROVIDED "AS-IS" AND ALL WARRANTIES ARE EXPRESSLY DISCLAIMED, WHETHER
#EXPRESS, ORAL, IMPLIED, STATUTORY OR OTHERWISE, INCLUDING ANY IMPLIED WARRANTY OF FITNESS
#FOR A PARTICULAR PURPOSE, MERCHANTABILITY, TITLE OR NON-INFRINGEMENT, AND ANY WARRANTIES
#ARISING BY VIRTUE OF CUSTOM OF TRADE OR COURSE OF DEALING.  FURTHER, ENVERUS, INC.
#AND ITS LICENSORS DO NOT REPRESENT OR WARRANT THAT THIS FILE WILL MEET USER'S
#REQUIREMENTS OR ARE SUITABLE FOR USER'S NEEDS OR THAT THE DATA OR RESULTS PROVIDED IN
#CONJUNCTION THEREWITH ARE CORRECT, ACCURATE, TIMELY OR RELIABLE. THESE DISCLAIMERS SHALL
#APPLY REGARDLESS OF ANY FAILURE OF ESSENTIAL PURPOSE OF ANY LIMITED REMEDY.  SOME
#JURISDICTIONS DO NOT ALLOW THE EXCLUSION OF CERTAIN WARRANTIES SO SOME OF THE ABOVE
#EXCLUSIONS MAY NOT APPLY. IN NO EVENT SHALL ENVERUS, INC. OR ANY OF ITS AFFILIATES
#BE LIABLE UNDER ANY LEGAL THEORY, WHETHER IN TORT (INCLUDING WITHOUT LIMITATION
#NEGLIGENCE), CONTRACT, STRICT LIABILITY, STATUTORY OR OTHERWISE, FOR ANY SPECIAL,
#INCIDENTAL, CONSEQUENTIAL, EXEMPLARY, PUNITIVE OR INDIRECT DAMAGE OF ANY KIND, INCLUDING
#WITHOUT LIMITATION LOSS OF REVENUE, PROFITS, GOODWILL, USE, AND/OR DATA OR THE COST OF
#PROCUREMENT OF SUBSTITUTE GOODS OR SERVICES, EVEN IF APPRISED OF THE POSSIBILITY OF SUCH
#DAMAGES IN ADVANCE.
#--------------------------------------------------#

# EXPORTED FROM DI TRANSFORM
# DI TRANSFORM - A PRODUCT OF DRILLINGINFO, INC. - WWW.DRILLINGINFO.COM
#
~VERSION INFORMATION
 VERS.        2.0 : LAS ASCII STANDARD - VERSION 2.0
 WRAP.         NO : ONE LINE PER DEPTH STEP

~WELL INFORMATION
#MNEM.UNIT       DATA TYPE       INFORMATION
#---------       ---------       -----------
 STRT.FT                3800 : START DEPTH
 STOP.FT               10654 : STOP DEPTH
 STEP.FT                 0.5 : STEP LENGTH
 NULL.               -999.25 : NULL VALUE
 UWI.         42389340250000 : UNIQUE WELL ID
 API.         42389340250000 : WELL IDENTIFIER
 COMP.                       : COMPANY
 WELL.  42389340250000_API14 : WELL NAME
 FLD.                        : FIELD NAME
 LOC.                        : WELL LOCATION
 CNTY.                       : COUNTY
 STAT.                       : STATE OR PROVINCE
 CTRY.                       : COUNTRY
 SRVC.                       : SERVICE COMPANY
 DATE.                       : DATE

~CURVE INFORMATION
#MNEM.UNIT       API CODE       CURVE DESCRIPTION
#---------       --------       -----------------
 DEPT.FT        : <MEASURED DEPTH>
 CAL.IN         : CALIPER
 DT.US/FT       : SONIC
 GR.GAPI        : GAMMA RAY

~PARAMETER INFORMATION
#MNEM.UNIT       VALUE       DESCRIPTION
#---------       -----       -----------
 EKB.FT      3120.5 : ELEVATION ABOVE MSL

~A      DEPT         CAL          DT          GR
# ...
        8310      9.5928     64.2428     97.5176
      8310.5      9.5928     63.5635     90.2512
        8311      9.5928     62.1419     82.3764
      8311.5      9.5928     61.2692     74.5015
        8312      9.5928     60.6088     66.6266
      8312.5      9.5928     60.1605     58.7517
        8313      9.5928     59.8376     50.8768
      8313.5      9.6128     60.9035      43.002
        8314      9.6128     61.8417     39.7341
      8314.5      9.6128     62.8324     46.2987
        8315      9.6128     64.1356     51.6572
      8315.5      9.6527     65.2693     54.8947
        8316      9.6527     67.0784     57.3228
      8316.5      9.6527      68.087     59.6921
        8317      9.6527     68.3852     61.9527
      8317.5      9.6527     68.3852     59.5008
        8318      9.6527     68.2849     55.6365
      8318.5      9.6527     68.2566     52.8524
        8319      9.6527     67.9499     54.4153
      8319.5      9.6527      67.242     55.9782
        8320      9.6527     66.6344     57.5411
      8320.5      9.6727     66.4794      59.104
        8321      9.6727     66.3791     60.6669
      8321.5      9.6727     66.0782     82.4051
        8322      9.6727     65.7085    104.5121
      8322.5      9.6727     65.1009     93.7693
        8323      9.6727     64.5936     83.0265
      8323.5      9.6727     64.1725     74.0317
        8324      9.6727     63.9802     66.7116
      8324.5      9.6627     63.8716     59.3914
        8325      9.6327     63.8716     62.5443
      8325.5      9.6327     63.7713     69.3262
        8326      9.6327     63.4704     76.1081
      8326.5      9.6327     63.5707      80.708
        8327      9.6327     63.6975     80.3995
      8327.5      9.6327     64.0366     80.2789
        8328      9.6128     65.0512     86.4845
      8328.5      9.5928     65.7209     92.6902
        8329      9.5928     66.1777     99.2403
      8329.5      9.5928     66.8358     113.461
        8330      9.5928     67.6664    127.6818
      8330.5      9.5928     68.2517    135.1816
        8331      9.5928      68.759    101.3907
      8331.5      9.5928     68.8867     51.8242
        8332      9.5928     68.7864     84.3474
      8332.5      9.5928     68.9769    119.5697
        8333      9.5928     68.6903     112.446
      8333.5      9.5928      68.183    105.4777
        8334      9.5729      67.776     98.5095
      8334.5      9.5329     67.1552     91.5412
        8335      9.5329     65.9644     84.5729
      8335.5      9.5329     64.0474     77.6047
        8336      9.5329     62.6155     70.6364
      8336.5      9.5329     60.7899     63.6682
        8337      9.5329     59.6328     56.6999
      8337.5      9.5329     58.2068     49.7316
        8338      9.5329     57.4431     42.7634
      8338.5      9.5329     57.5527     35.7951
        8339      9.5329      57.653     43.2625
      8339.5      9.5329     57.9247     57.9567
        8340      9.5329      59.435     72.6508
      8340.5      9.5329     60.9453     85.5856
        8341      9.5329     61.5412     96.3163
      8341.5      9.5329     62.9629    107.8017
        8342      9.5329      63.771    127.8962
      8342.5      9.5329     63.9719    128.4982
        8343      9.5329     63.6596    119.0947
      8343.5      9.5329     63.1351     107.038
        8344      9.5329     62.0432     82.4284
      8344.5      9.5329     61.4356     70.1708
        8345      9.5329     60.5582     57.9131
      8345.5      9.5329     59.7189     48.9893
        8346      9.5329     59.5125     51.7882
      8346.5      9.5329     59.3061      54.587
        8347      9.5329     59.1575     58.2806
      8347.5      9.5329     59.0939     63.0531
        8348      9.5329     58.8875     67.7647
      8348.5      9.5329     58.7563     70.8722
        8349      9.5329     58.9375     64.9945
      8349.5      9.5529      59.659     59.1169
        8350      9.5529     60.2531     53.2392
      8350.5      9.5729     60.8607     48.3568
        8351      9.5928     61.0671     49.7069
      8351.5      9.5806     61.1635      51.057
        8352      9.5529     61.0632     52.4071
      8352.5      9.5384     60.8413     53.7572
        8353      9.5329      60.334     55.1073
      8353.5      9.5329      59.927     56.4574
        8354      9.5329     59.1188     48.7669
      8354.5      9.5138       58.11     48.7669
        8355       9.513     57.3521     48.7669
      8355.5       9.513       55.29     48.4849
        8356       9.513     54.7209     43.4979
      8356.5       9.513     53.9745      41.907
        8357       9.513     54.1156     40.3162
      8357.5       9.513     54.6229     38.7254
        8358       9.513     55.0146     37.1346
      8358.5      9.5329     55.8381     41.4458
        8359      9.5329     56.0481     58.2943
      8359.5      9.5329     55.8475     75.1428
        8360      9.5329     56.0481     92.6673
      8360.5      9.6616     56.5771     91.6567
        8361      9.7725     57.6725     76.1073
      8361.5      9.7725     58.1798      60.558
        8362      9.7725     59.0883     45.0087
      8362.5      9.7549     59.7962     48.6322
        8363      9.6446     60.5894     79.7014
      8363.5      9.5928     61.6132    110.7706
        8364      9.5529     62.8769    119.8172
      8364.5      9.5529     63.6308    123.0579
        8365      9.5529     64.0378    124.3497
      8365.5      9.5529     64.0722    125.6415
        8366      9.5529      63.238    115.7404
      8366.5      9.5529     62.4844    109.7893
        8367      9.5529     61.6875    103.8382
      8367.5      9.5529     61.2692     97.3188
        8368      9.5529     61.0632     90.2857
      8368.5      9.5529      61.057     83.2527
        8369      9.5529     60.7503     78.1072
      8369.5      9.5529       60.78     82.5828
        8370      9.5529     61.4879     87.0584
      8370.5      9.5529      62.597      91.534
        8371      9.5529     63.4052     96.0096
      8371.5      9.5529     63.8122    100.4852
        8372       9.513     64.5201    104.9608
      8372.5       9.513     64.9271    100.2014
        8373       9.513     65.8454    104.1431
      8373.5       9.513     65.9779    108.0847
        8374       9.513     65.6071    107.9047
      8374.5      9.5581     64.8992    103.1824
        8375      9.6128     63.9907     99.6039
      8375.5      9.6128      63.671     97.1758
        8376      9.6128     63.7713     96.3498
      8376.5      9.6128     63.7713     98.9722
        8377      9.6128     63.9807     86.3573
      8377.5      9.6128     64.5737     85.7736
        8378      9.6128       64.69     94.8161
      8378.5      9.6128     64.8746    103.8587
        8379      9.6284     64.6464    114.5097
      8379.5      9.8961     64.4065    117.5255
        8380      9.9542     64.2336    109.2137
      8380.5      9.7852      63.626    100.1897
        8381      9.6926     62.9169      88.761
      8381.5      9.6513     62.1099     77.3322
        8382      9.6102     60.2016     66.3126
      8382.5      9.5529     59.8937     61.1832
        8383      9.5329     59.8937     56.0538
      8383.5      9.5729     59.8937     50.9244
        8384      9.5928     59.8937     50.1638
      8384.5      9.5928     60.1515     59.2064
        8385      9.5928     60.4614      61.904
      8385.5      9.5928     61.2664     62.2132
        8386      9.5928     62.3755     61.7975
      8386.5      9.6327     63.3986     57.4646
        8387      9.6527     64.9147     53.1317
      8387.5      9.6527     65.6026     48.7988
        8388       9.669     66.7749     54.7698
      8388.5      9.6727     67.5199     49.1739
        8389      9.6727     68.0133     49.8018
      8389.5      9.7126     68.9357     50.4298
        8390      9.7135     69.6984     51.0577
      8390.5      9.7525     70.2512     53.2313
        8391      9.7525     70.5579     52.0591
      8391.5      9.7769     71.2658     50.8869
