#--------------------------------------------------#
#-------------------ENVERUS, INC.------------------#
#------------------WWW.ENVERUS.COM-----------------#
#------------------COPYRIGHT 2020------------------#
#--------------------------------------------------#
#THIS FILE MAY BE USED ONLY IN ACCORDANCE WITH A CURRENT SUBSCRIPTION AGREEMENT BETWEEN
#THE USER AND ENVERUS, INC. NO PART OF THIS FILE MAY BE REPRODUCED, USED, COPIED,
#MODIFIED, PROPAGATED, OR DISTRIBUTED EXCEPT IN ACCORDANCE WITH THE SUBSCRIPTION
#AGREEMENT. UNAUTHORIZED USE OR DISTRIBUTION OF ALL OR ANY PART OF THIS FILE MAY VIOLATE
#COPYRIGHT, TRADEMARK, AND/OR OTHER LAWS AND IS SUBJECT TO CIVIL AS WELL AS CRIMINAL
#SANCTIONS.
#--------------------------------------------------#
#THIS FILE IS PROVIDED "AS-IS" AND ALL WARRANTIES ARE EXPRESSLY DISCLAIMED, WHETHER
#EXPRESS, ORAL, IMPLIED, STATUTORY OR OTHERWISE, INCLUDING ANY IMPLIED WARRANTY OF FITNESS
#FOR A PARTICULAR PURPOSE, MERCHANTABILITY, TITLE OR NON-INFRINGEMENT, AND ANY WARRANTIES
#ARISING BY VIRTUE OF CUSTOM OF TRADE OR COURSE OF DEALING.  FURTHER, ENVERUS, INC.
#AND ITS LICENSORS DO NOT REPRESENT OR WARRANT THAT THIS FILE WILL MEET USER'S
#REQUIREMENTS OR ARE SUITABLE FOR USER'S NEEDS OR THAT THE DATA OR RESULTS PROVIDED IN
#CONJUNCTION THEREWITH ARE CORRECT, ACCURATE, TIMELY OR RELIABLE. THESE DISCLAIMERS SHALL
#APPLY REGARDLESS OF ANY FAILURE OF ESSENTIAL PURPOSE OF ANY LIMITED REMEDY.  SOME
#JURISDICTIONS DO NOT ALLOW THE EXCLUSION OF CERTAIN WARRANTIES SO SOME OF THE ABOVE
#EXCLUSIONS MAY NOT APPLY. IN NO EVENT SHALL ENVERUS, INC. OR ANY OF ITS AFFILIATES
#BE LIABLE UNDER ANY LEGAL THEORY, WHETHER IN TORT (INCLUDING WITHOUT LIMITATION
#NEGLIGENCE), CONTRACT, STRICT LIABILITY, STATUTORY OR OTHERWISE, FOR ANY SPECIAL,
#INCIDENTAL, CONSEQUENTIAL, EXEMPLARY, PUNITIVE OR INDIRECT DAMAGE OF ANY KIND, INCLUDING
#WITHOUT LIMITATION LOSS OF REVENUE, PROFITS, GOODWILL, USE, AND/OR DATA OR THE COST OF
#PROCUREMENT OF SUBSTITUTE GOODS OR SERVICES, EVEN IF APPRISED OF THE POSSIBILITY OF SUCH
#DAMAGES IN ADVANCE.
#--------------------------------------------------#

~VERSION INFORMATION
VERS. 2.0 : CWLS LOG ASCII STANDARD - VERSION 2.0
WRAP.  NO : ONE LINE PER DEPTH STEP
~WELL INFORMATION
#MNEMONIC     .UNIT              VALUE :DESCRIPTION
STRT       .FT                0 :START DEPTH
STOP       .FT                13134 :STOP DEPTH
STEP       .FT                   0.500 :STEP
NULL       .                  -999.250 :NULL
UWI        .              42389303540000 :UNIQUE WELL ID
API        .              42389303540000 :API NUMBER
COMP       .         SMC OIL & GAS  INC. :COMPANY
WELL       .        TIFFANY STATE  1 :WELL
DATE       .                18-OCT-1995 :LOG DATE
~CURVE INFORMATION
#MNEMONIC     .UNIT      API CODE :CURVE DESCRIPTION
DEPTH       .FT                      :MEASURED DEPTH
DT.US/FT        UNKNOWN   :DT
CAL.INCH        UNKNOWN   :CAL
GR.API        UNKNOWN   :GR
~A    DEPTH    DT    CAL    GR
# ...
 12977.5     48.684   6.667   31.511
 12978     48.665   6.668   28.749
 12978.5     48.647   6.668   25.988
 12979     48.629   6.668   23.227
 12979.5     48.61   6.669   20.465
 12980     48.592   6.669   21.495
 12980.5     48.573   6.669   22.603
 12981     48.555   6.67   23.712
 12981.5     48.536   6.67   24.82
 12982     48.518   6.67   25.928
 12982.5     48.499   6.671   27.037
 12983     48.481   6.671   28.145
 12983.5     48.769   6.671   30.416
 12984     49.067   6.671   34.635
 12984.5     49.365   6.67   38.855
 12985     49.663   6.67   43.075
 12985.5     49.961   6.669   47.294
 12986     50.048   6.669   50.377
 12986.5     49.999   6.668   51.573
 12987     49.949   6.668   52.77
 12987.5     49.899   6.668   53.966
 12988     49.888   6.667   55.163
 12988.5     50.06   6.667   56.359
 12989     50.097   6.666   57.556
 12989.5     49.897   6.666   57.211
 12990     49.697   6.665   56.356
 12990.5     49.497   6.665   55.502
 12991     49.298   6.665   55.305
 12991.5     49.214   6.664   54.501
 12992     49.251   6.664   53.633
 12992.5     49.289   6.663   52.506
 12993     49.327   6.663   51.016
 12993.5     49.364   6.662   49.525
 12994     49.255   6.662   44.447
 12994.5     49.091   6.662   39.072
 12995     48.926   6.661   33.696
 12995.5     48.762   6.661   28.321
 12996     48.598   6.66   24.949
 12996.5     48.433   6.66   25.466
 12997     48.269   6.659   25.983
 12997.5     48.424   6.659   26.5
 12998     48.581   6.659   27.016
 12998.5     48.737   6.658   27.533
 12999     48.887   6.658   28.05
 12999.5     48.641   6.657   28.91
 13000     48.394   6.657   30.124
 13000.5     48.147   6.656   31.337
 13001     47.969   6.656   32.551
 13001.5     48.004   6.655   33.592
 13002     48.039   6.655   33.872
 13002.5     48.074   6.655   34.151
 13003     48.109   6.654   34.431
 13003.5     48.144   6.654   34.71
 13004     48.179   6.653   36.85
 13004.5     48.214   6.653   39.051
 13005     48.942   6.652   41.252
 13005.5     50.241   6.652   43.453
 13006     51.539   6.652   50.327
 13006.5     52.068   6.651   74.172
 13007     51.244   6.651   72.976
 13007.5     49.601   6.652   64.976
 13008     49.103   6.652   57.353
 13008.5     48.965   6.653   55.15
 13009     48.828   6.653   52.947
 13009.5     48.69   6.654   46.294
 13010     48.553   6.654   29.567
 13010.5     48.416   6.654   26.501
 13011     48.278   6.655   29.804
 13011.5     48.178   6.655   31.362
 13012     48.096   6.656   31.695
 13012.5     48.013   6.656   32.029
 13013     47.931   6.656   32.362
 13013.5     47.848   6.657   32.884
 13014     47.991   6.657   37.668
 13014.5     48.171   6.658   42.452
 13015     48.35   6.658   47.236
 13015.5     48.53   6.658   51.539
 13016     48.689   6.659   47.84
 13016.5     48.744   6.659   45.228
 13017     48.798   6.66   45.451
 13017.5     48.852   6.66   45.604
 13018     48.756   6.66   40.392
 13018.5     48.637   6.661   41.113
 13019     48.518   6.661   38.15
 13019.5     48.4   6.662   31.93
 13020     48.281   6.662   28.317
 13020.5     48.162   6.662   31.458
 13021     48.043   6.663   34.598
 13021.5     48.084   6.663   37.739
 13022     48.166   6.664   40.879
 13022.5     48.247   6.664   43.767
 13023     48.217   6.665   43.128
 13023.5     48.082   6.665   42.49
 13024     47.947   6.665   41.851
 13024.5     47.812   6.666   39.028
 13025     47.678   6.666   36.217
 13025.5     47.543   6.667   36.275
 13026     47.408   6.667   36.332
 13026.5     47.273   6.667   35.439
 13027     47.166   6.666   32.255
 13027.5     47.118   6.666   33.077
 13028     47.202   6.665   35.483
 13028.5     47.433   6.665   38.637
 13029     47.665   6.664   41.791
 13029.5     47.896   6.663   42.284
 13030     48.128   6.663   42.473
 13030.5     48.359   6.662   42.662
 13031     48.286   6.662   42.851
 13031.5     48.093   6.661   43.04
 13032     47.9   6.661   43.229
 13032.5     47.707   6.66   43.419
 13033     47.832   6.66   41.222
 13033.5     48.114   6.659   38.346
 13034     48.099   6.659   39.803
 13034.5     48.085   6.658   43.442
 13035     48.196   6.658   47.081
 13035.5     48.743   6.657   50.719
 13036     49.289   6.657   54.358
 13036.5     49.836   6.656   57.997
 13037     49.78   6.656   56.145
 13037.5     49.506   6.655   51.739
 13038     49.233   6.654   50.886
 13038.5     48.14   6.654   56.767
 13039     45.421   6.653   62.649
 13039.5     50.753   6.653   58.921
 13040     50.518   6.652   51.712
 13040.5     50.283   6.652   44.502
 13041     49.522   6.651   37.292
 13041.5     48.5   6.651   36.438
 13042     47.478   6.65   36.525
 13042.5     47.169   6.65   36.611
 13043     47.03   6.649   36.698
 13043.5     46.837   6.649   31.546
 13044     46.601   6.648   31.318
 13044.5     46.366   6.648   34.978
 13045     46.252   6.647   38.638
 13045.5     46.684   6.647   42.298
 13046     47.115   6.646   42.501
 13046.5     47.546   6.645   41.125
 13047     47.977   6.645   39.748
 13047.5     48.289   6.644   39.036
 13048     48.229   6.644   40.296
 13048.5     48.17   6.643   41.557
 13049     48.11   6.643   42.818
 13049.5     48.218   6.642   44.079
 13050     48.465   6.642   45.339
 13050.5     48.712   6.641   46.6
 13051     48.96   6.641   47.861
 13051.5     49.12   6.64   49.121
 13052     49.222   6.64   56.713
 13052.5     49.324   6.639   64.6
 13053     49.426   6.639   72.487
 13053.5     49.484   6.638   80.374
 13054     49.397   6.638   88.261
 13054.5     49.31   6.637   96.148
 13055     49.223   6.637   101.208
 13055.5     49.135   6.636   98.122
 13056     49.048   6.635   95.035
 13056.5     48.75   6.635   91.949
 13057     48.345   6.634   88.863
 13057.5     47.94   6.634   87.704
 13058     47.535   6.633   88.952
 13058.5     47.158   6.633   90.2
 13059     47.148   6.632   91.448
 13059.5     47.138   6.632   89.286
 13060     47.129   6.631   86.245
 13060.5     47.119   6.631   83.203
 13061     47.164   6.63   80.161
 13061.5     47.239   6.63   77.12
 13062     47.313   6.629   74.078
 13062.5     47.388   6.629   71.036
 13063     47.462   6.628   67.995
 13063.5     47.537   6.629   46.957
 13064     47.596   6.629   44.753
 13064.5     47.488   6.63   42.604
 13065     47.379   6.631   44.185
 13065.5     47.271   6.632   45.766
 13066     47.162   6.632   47.346
 13066.5     47.054   6.633   48.927
 13067     46.945   6.634   50.507
 13067.5     46.837   6.635   48.135
 13068     46.728   6.635   45.751
 13068.5     47.245   6.636   43.368
 13069     48.312   6.637   41.097
 13069.5     48.083   6.637   42.403
 13070     47.66   6.638   43.708
 13070.5     47.868   6.639   43.092
 13071     48.558   6.64   41.671
 13071.5     49.249   6.64   39.664
 13072     49.939   6.641   35.443
 13072.5     50.63   6.642   31.222
 13073     50.558   6.643   27
 13073.5     50.232   6.643   22.779
 13074     49.188   6.644   18.558
 13074.5     48.113   6.645   18.628
 13075     47.464   6.645   19.017
 13075.5     46.816   6.646   19.406
 13076     46.168   6.647   19.795
 13076.5     45.519   6.648   20.183
 13077     45.361   6.648   20.572
 13077.5     45.755   6.649   22.049
 13078     46.149   6.65   24.977
 13078.5     45.743   6.651   27.906
 13079     45.33   6.651   30.834
 13079.5     45.096   6.652   33.763
 13080     45.265   6.653   36.691
 13080.5     45.433   6.653   39.62
 13081     45.601   6.654   40.758
 13081.5     45.769   6.655   33.025
 13082     45.937   6.656   27.853
 13082.5     46.105   6.656   24.943
 13083     46.163   6.657   22.034
 13083.5     46.081   6.658   21.421
 13084     45.999   6.659   22.983
 13084.5     45.916   6.659   24.545
 13085     45.834   6.66   26.107
 13085.5     45.853   6.661   27.669
 13086     45.936   6.661   29.231
 13086.5     46.019   6.664   30.793
 13087     46.102   6.668   31.662
 13087.5     46.185   6.671   31.818
 13088     46.267   6.674   31.974
 13088.5     46.35   6.678   33.488
 13089     46.433   6.681   38.873
 13089.5     46.516   6.685   44.259
