#--------------------------------------------------#
#-------------------ENVERUS, INC.------------------#
#------------------WWW.ENVERUS.COM-----------------#
#------------------COPYRIGHT 2020------------------#
#--------------------------------------------------#
#THIS FILE MAY BE USED ONLY IN ACCORDANCE WITH A CURRENT SUBSCRIPTION AGREEMENT BETWEEN
#THE USER AND ENVERUS, INC. NO PART OF THIS FILE MAY BE REPRODUCED, USED, COPIED,
#MODIFIED, PROPAGATED, OR DISTRIBUTED EXCEPT IN ACCORDANCE WITH THE SUBSCRIPTION
#AGREEMENT. UNAUTHORIZED USE OR DISTRIBUTION OF ALL OR ANY PART OF THIS FILE MAY VIOLATE
#COPYRIGHT, TRADEMARK, AND/OR OTHER LAWS AND IS SUBJECT TO CIVIL AS WELL AS CRIMINAL
#SANCTIONS.
#--------------------------------------------------#
#THIS FILE IS PROVIDED "AS-IS" AND ALL WARRANTIES ARE EXPRESSLY DISCLAIMED, WHETHER
#EXPRESS, ORAL, IMPLIED, STATUTORY OR OTHERWISE, INCLUDING ANY IMPLIED WARRANTY OF FITNESS
#FOR A PARTICULAR PURPOSE, MERCHANTABILITY, TITLE OR NON-INFRINGEMENT, AND ANY WARRANTIES
#ARISING BY VIRTUE OF CUSTOM OF TRADE OR COURSE OF DEALING.  FURTHER, ENVERUS, INC.
#AND ITS LICENSORS DO NOT REPRESENT OR WARRANT THAT THIS FILE WILL MEET USER'S
#REQUIREMENTS OR ARE SUITABLE FOR USER'S NEEDS OR THAT THE DATA OR RESULTS PROVIDED IN
#CONJUNCTION THEREWITH ARE CORRECT, ACCURATE, TIMELY OR RELIABLE. THESE DISCLAIMERS SHALL
#APPLY REGARDLESS OF ANY FAILURE OF ESSENTIAL PURPOSE OF ANY LIMITED REMEDY.  SOME
#JURISDICTIONS DO NOT ALLOW THE EXCLUSION OF CERTAIN WARRANTIES SO SOME OF THE ABOVE
#EXCLUSIONS MAY NOT APPLY. IN NO EVENT SHALL ENVERUS, INC. OR ANY OF ITS AFFILIATES
#BE LIABLE UNDER ANY LEGAL THEORY, WHETHER IN TORT (INCLUDING WITHOUT LIMITATION
#NEGLIGENCE), CONTRACT, STRICT LIABILITY, STATUTORY OR OTHERWISE, FOR ANY SPECIAL,
#INCIDENTAL, CONSEQUENTIAL, EXEMPLARY, PUNITIVE OR INDIRECT DAMAGE OF ANY KIND, INCLUDING
#WITHOUT LIMITATION LOSS OF REVENUE, PROFITS, GOODWILL, USE, AND/OR DATA OR THE COST OF
#PROCUREMENT OF SUBSTITUTE GOODS OR SERVICES, EVEN IF APPRISED OF THE POSSIBILITY OF SUCH
#DAMAGES IN ADVANCE.
#--------------------------------------------------#

# EXPORTED FROM TRANSFORM SOFTWARE 5.2.0 ON 31-MAY-2019 BY USER BRIAN.UMLANG
# DI TRANSFORM - A PRODUCT OF DRILLINGINFO, INC. - WWW.DRILLINGINFO.COM
#
~VERSION INFORMATION
 VERS.        2.0 : LAS ASCII STANDARD - VERSION 2.0
 WRAP.         NO : ONE LINE PER DEPTH STEP

~WELL INFORMATION
#MNEM.UNIT       DATA TYPE       INFORMATION
#---------       ---------       -----------
 STRT.FT                 256 : START DEPTH
 STOP.FT                4706 : STOP DEPTH
 STEP.FT                 0.5 : STEP LENGTH
 NULL.               -999.25 : NULL VALUE
 UWI.         42301312890000 : UNIQUE WELL ID
 API.         42301312890000 : WELL IDENTIFIER
 COMP.                       : COMPANY
 WELL.  42301312890000_API14 : WELL NAME
 FLD.                        : FIELD NAME
 LOC.                        : WELL LOCATION
 CNTY.                       : COUNTY
 STAT.                       : STATE OR PROVINCE
 CTRY.                       : COUNTRY
 SRVC.                       : SERVICE COMPANY
 DATE.                       : DATE

~CURVE INFORMATION
#MNEM.UNIT       API CODE       CURVE DESCRIPTION
#---------       --------       -----------------
 DEPT.FT          : <MEASURED DEPTH>
 CAL.IN           : CALIPER
 DPHI.%           : DENSITY POROSITY
 DT.US/FT         : SONIC
 GR.GAPI          : GAMMA RAY
 ILD.OHMM         : DEEP RESISTIVITY
 ILS.OHMM         : SHALLOW RESISTIVITY
 NPHI.%           : NEUTRON POROSITY
 PE.B/ELEC        : PHOTOELECTRIC FACTOR
 RHOB.G/CM3       : DENSITY

~PARAMETER INFORMATION
#MNEM.UNIT       VALUE       DESCRIPTION
#---------       -----       -----------
 EKB.FT      2822 : ELEVATION ABOVE MSL

~A      DEPT         CAL        DPHI          DT          GR         ILD         ILS        NPHI          PE        RHOB
# ...
      4443.5      9.3449     20.8706     79.4036     53.8667       3.851      1.9399     20.8352      2.2846      2.3736
        4444      9.3138     20.3035     78.5952     54.4834      4.1107      2.0708     20.4065      2.2846      2.3867
      4444.5       9.276     19.1677     77.4997     54.1916      4.3718      2.1749     19.2125      2.2645      2.3952
        4445      9.2382     18.8266     76.8728     53.8922       4.684      2.3595     18.8657      2.2846      2.4074
      4445.5      9.2004     18.7179     76.6333     53.8922      4.9258      2.4496     18.7324      2.2846      2.4077
        4446      9.1629     18.9216     76.7578     54.1916      5.1225      2.5804     18.9019      2.2846      2.4057
      4446.5      9.1262     19.1348     77.0464     54.5728      5.0752      2.6045      19.122      2.3046      2.4022
        4447      9.0895      19.664     77.4068     55.5387      5.0997      2.6414     19.6579      2.3246      2.3946
      4447.5      9.0528     19.7639     77.6754     58.9764      5.3223      2.6919     20.2514      2.3246       2.393
        4448      9.0284     19.3717     77.4425     64.4349       5.877      3.0834     20.5118      2.3246      2.4061
      4448.5      9.0053     17.3698     76.2847     71.7973       7.017      3.4921      20.503      2.3246      2.4261
        4449      8.9822     15.5663     74.8037     80.0471      8.2242      3.9044     20.3995      2.3774      2.4397
      4449.5      8.9591     14.9603     74.1025     86.3847       8.828      4.4885     20.6109      2.4048      2.4445
        4450       8.936     15.2042     73.7875     87.4251      9.3365      4.7032     21.1066      2.4449      2.4639
      4450.5        8.98     16.4358     75.1768     86.0775      9.6188      4.7565     21.3632      2.4449      2.4454
        4451        8.98     16.9381     76.3092     84.4879      9.3662      4.6692     21.2752      2.4449      2.4396
      4451.5      8.9603     16.7616     76.6733     84.4311      8.9316      4.4201     20.8835      2.4449      2.4408
        4452        8.94     16.3185     76.4002     84.4311      8.6867      4.2956     20.5489      2.4449      2.4428
      4452.5        8.94     15.8063     75.7812     83.8355      8.7681      4.3358     19.4585      2.4669       2.453
        4453        8.94     15.3517     74.7648     81.2507      9.1876      4.4993     18.5474       2.505      2.4606
      4453.5        8.94     14.5561     73.1586     77.8118      9.5469      4.5875     18.0842      2.5003      2.4705
        4454        8.92     13.6493     71.5919     77.5953     10.3994      5.0215     17.8805       2.485      2.4835
      4454.5        8.92     12.6434     71.1869     81.2612     11.8342      5.6507     17.6769      2.5525      2.4969
        4455        8.92     11.6668     71.2598     89.5458     13.6687      6.3594     17.5941      2.5738      2.5195
      4455.5        8.92     10.1098     71.5021     95.0206     16.3946      7.3991     17.2697      2.6904      2.5316
        4456        8.92     10.2715     71.4214      95.509     18.7365      8.2935     16.3813      2.7769       2.541
      4456.5      8.9236       9.907     71.0365     94.0318     20.8248      9.1446     15.4755      2.8183      2.5454
        4457        8.86      9.8995     70.7369     92.0579     22.1078      9.4778     15.0895      2.8257      2.5502
      4457.5        8.84      9.8995     70.6613     91.3174     22.7703      9.7084     15.2722      2.8257      2.5509
        4458        8.84      9.9814     70.7899     91.3174     22.4576      9.5751     16.1402      2.8257      2.5476
      4458.5        8.84     10.5754     71.2328     90.2079     21.1296      8.9012     16.4954      2.8076      2.5422
        4459        8.84      11.703     71.8553     87.5657     18.8905      8.2043     16.9382      2.7455      2.5214
      4459.5        8.84     13.4267     72.7061     78.7387     16.3117      6.7746      17.838      2.6646      2.5127
        4460        8.84     14.5894     72.6595      72.881     13.1397      5.6213     18.2023      2.5631      2.4871
      4460.5        8.84     14.8293     70.4369     60.3295      9.7244      4.4637     17.5788      2.4816      2.4704
        4461        8.84     13.7734     69.0418     54.1867      7.6817      3.6857     16.4372      2.4649      2.4773
      4461.5        8.84     13.1367      68.556      51.497      6.2927      3.0492      16.079      2.4649      2.4903
        4462        8.84       13.66     69.3709      51.497      5.3464      2.6343     16.3025      2.4649      2.5037
      4462.5        8.84     15.8373     71.9314      51.497      4.5129      2.2899     17.3758      2.4562      2.4692
        4463        8.84     17.5726      73.393      51.497       4.106      2.1046     17.8068      2.3546      2.4375
      4463.5        8.84     19.0271     74.3371      51.497      3.9154      2.0659     19.2097      2.3046      2.4079
        4464        8.84     19.8633     75.3674      51.497      3.9154      2.0664     20.3911      2.2846      2.3795
      4464.5         8.8     21.3311     76.9186      51.497      4.0284      2.1046     20.9804      2.2846      2.3623
        4465         8.8     22.3745     78.8738     51.6412      4.1011      2.1417     21.4451      2.2846      2.3491
      4465.5         8.8     22.8646     80.2908     52.0958      4.0573      2.1439     21.9361      2.2846      2.3416
        4466        8.76     23.0826     81.2892     51.9159      3.9445      2.1006     22.3461      2.2664      2.3409
      4466.5        8.76     21.8447     81.3035     51.1976      3.8705      2.0234     -999.25      2.2244      2.3509
        4467        8.76     21.3923     79.7128     50.3831      3.7628      1.9542     22.5018      2.2244       2.367
      4467.5        8.76     20.3409     77.7833     49.7006      3.6695      1.9542     22.4177      2.2044      2.3834
        4468        8.76     19.6347     76.6688     49.7006      3.6022      1.9116     22.3842      2.2044      2.3925
      4468.5        8.76     19.3467     76.1924     49.7006      3.5222      1.8932     22.3008      2.2244      2.3962
        4469        8.76     19.3655     76.5602     49.7006      3.4711      1.8831     22.0371      2.2846      2.3967
      4469.5        8.76     19.6898      77.521     49.7006      3.4228      1.8485     21.3473      2.3246       2.394
        4470        8.76     20.2673     78.1947     49.7006      3.3139      1.8315     21.1035      2.3246      2.3872
      4470.5        8.76     21.1556     78.6053     50.0414      3.2531      1.8045     21.0685      2.2945      2.3734
        4471        8.76     21.5176     78.7976     51.6155      3.1743      1.7648      21.667      2.2846      2.3605
      4471.5        8.76     21.2244     78.4371     53.6699      3.1934      1.7978      21.378      2.2517      2.3549
        4472        8.76     20.9027     77.6291     53.8922      3.3826      1.8785     21.1424      2.2445      2.3776
      4472.5        8.76     18.4875     76.4087     52.8811      3.6209      1.9502     18.7166      2.2645      2.4171
        4473        8.76     17.4554     75.5098     51.0669       3.873      2.1404     17.6529      2.3014      2.4227
      4473.5        8.76     17.9762     75.0701     50.8982      3.9887      2.2017     17.8963      2.4221      2.4181
        4474        8.76     18.8643      75.626     50.8982      3.8793      2.1657      18.795      2.4649      2.3926
      4474.5      8.7603     21.4681     77.1984     50.8982      3.7382      2.0852     20.6237       2.424       2.367
        4475        8.74     21.8497     78.6088     52.1523      3.7037      2.0659     20.9709      2.3024      2.3558
      4475.5      8.7011     20.8703     78.9255     58.2246      3.8468      2.1054     20.5711      2.2645      2.3646
        4476        8.64     19.8133     78.1058     66.0371      4.3732      2.3981     19.9077      2.2645      2.4099
      4476.5        8.62     16.5348     75.8833     73.6036      5.7381      3.1386     18.8129      2.2908      2.4621
