#--------------------------------------------------#
#-------------------ENVERUS, INC.------------------#
#------------------WWW.ENVERUS.COM-----------------#
#------------------COPYRIGHT 2020------------------#
#--------------------------------------------------#
#THIS FILE MAY BE USED ONLY IN ACCORDANCE WITH A CURRENT SUBSCRIPTION AGREEMENT BETWEEN
#THE USER AND ENVERUS, INC. NO PART OF THIS FILE MAY BE REPRODUCED, USED, COPIED,
#MODIFIED, PROPAGATED, OR DISTRIBUTED EXCEPT IN ACCORDANCE WITH THE SUBSCRIPTION
#AGREEMENT. UNAUTHORIZED USE OR DISTRIBUTION OF ALL OR ANY PART OF THIS FILE MAY VIOLATE
#COPYRIGHT, TRADEMARK, AND/OR OTHER LAWS AND IS SUBJECT TO CIVIL AS WELL AS CRIMINAL
#SANCTIONS.
#--------------------------------------------------#
#THIS FILE IS PROVIDED "AS-IS" AND ALL WARRANTIES ARE EXPRESSLY DISCLAIMED, WHETHER
#EXPRESS, ORAL, IMPLIED, STATUTORY OR OTHERWISE, INCLUDING ANY IMPLIED WARRANTY OF FITNESS
#FOR A PARTICULAR PURPOSE, MERCHANTABILITY, TITLE OR NON-INFRINGEMENT, AND ANY WARRANTIES
#ARISING BY VIRTUE OF CUSTOM OF TRADE OR COURSE OF DEALING.  FURTHER, ENVERUS, INC.
#AND ITS LICENSORS DO NOT REPRESENT OR WARRANT THAT THIS FILE WILL MEET USER'S
#REQUIREMENTS OR ARE SUITABLE FOR USER'S NEEDS OR THAT THE DATA OR RESULTS PROVIDED IN
#CONJUNCTION THEREWITH ARE CORRECT, ACCURATE, TIMELY OR RELIABLE. THESE DISCLAIMERS SHALL
#APPLY REGARDLESS OF ANY FAILURE OF ESSENTIAL PURPOSE OF ANY LIMITED REMEDY.  SOME
#JURISDICTIONS DO NOT ALLOW THE EXCLUSION OF CERTAIN WARRANTIES SO SOME OF THE ABOVE
#EXCLUSIONS MAY NOT APPLY. IN NO EVENT SHALL ENVERUS, INC. OR ANY OF ITS AFFILIATES
#BE LIABLE UNDER ANY LEGAL THEORY, WHETHER IN TORT (INCLUDING WITHOUT LIMITATION
#NEGLIGENCE), CONTRACT, STRICT LIABILITY, STATUTORY OR OTHERWISE, FOR ANY SPECIAL,
#INCIDENTAL, CONSEQUENTIAL, EXEMPLARY, PUNITIVE OR INDIRECT DAMAGE OF ANY KIND, INCLUDING
#WITHOUT LIMITATION LOSS OF REVENUE, PROFITS, GOODWILL, USE, AND/OR DATA OR THE COST OF
#PROCUREMENT OF SUBSTITUTE GOODS OR SERVICES, EVEN IF APPRISED OF THE POSSIBILITY OF SUCH
#DAMAGES IN ADVANCE.
#--------------------------------------------------#

# EXPORTED FROM TRANSFORM SOFTWARE 5.2.0 ON 31-MAY-2019 BY USER BRIAN.UMLANG
# DI TRANSFORM - A PRODUCT OF DRILLINGINFO, INC. - WWW.DRILLINGINFO.COM
#
~VERSION INFORMATION
 VERS.        2.0 : LAS ASCII STANDARD - VERSION 2.0
 WRAP.         NO : ONE LINE PER DEPTH STEP

~WELL INFORMATION
#MNEM.UNIT       DATA TYPE       INFORMATION
#---------       ---------       -----------
 STRT.FT                 256 : START DEPTH
 STOP.FT                4706 : STOP DEPTH
 STEP.FT                 0.5 : STEP LENGTH
 NULL.               -999.25 : NULL VALUE
 UWI.         42301312890000 : UNIQUE WELL ID
 API.         42301312890000 : WELL IDENTIFIER
 COMP.                       : COMPANY
 WELL.  42301312890000_API14 : WELL NAME
 FLD.                        : FIELD NAME
 LOC.                        : WELL LOCATION
 CNTY.                       : COUNTY
 STAT.                       : STATE OR PROVINCE
 CTRY.                       : COUNTRY
 SRVC.                       : SERVICE COMPANY
 DATE.                       : DATE

~CURVE INFORMATION
#MNEM.UNIT       API CODE       CURVE DESCRIPTION
#---------       --------       -----------------
 DEPT.FT          : <MEASURED DEPTH>
 CAL.IN           : CALIPER
 DPHI.%           : DENSITY POROSITY
 DT.US/FT         : SONIC
 GR.GAPI          : GAMMA RAY
 ILD.OHMM         : DEEP RESISTIVITY
 ILS.OHMM         : SHALLOW RESISTIVITY
 NPHI.%           : NEUTRON POROSITY
 PE.B/ELEC        : PHOTOELECTRIC FACTOR
 RHOB.G/CM3       : DENSITY

~PARAMETER INFORMATION
#MNEM.UNIT       VALUE       DESCRIPTION
#---------       -----       -----------
 EKB.FT      2822 : ELEVATION ABOVE MSL

~A      DEPT         CAL        DPHI          DT          GR         ILD         ILS        NPHI          PE        RHOB
# ...
      4242.5      9.1958      21.769     80.8818     59.2572      6.0522      4.2167     21.7859      2.5251      2.3627
        4243      9.0165      21.624     80.9828     59.2814      6.1654       4.273     21.6109      2.5251       2.359
      4243.5      8.8534     20.7192     81.0996     58.6654      6.1654      4.3356     21.0262       2.505      2.3652
        4244      8.7921     20.1304     80.8172     56.8569      6.2228      4.3356     21.0301       2.505      2.3767
      4244.5        8.76     19.9002     80.4546     55.6886      6.2228      4.3759     21.5006      2.4649      2.3867
        4245        8.76     20.5495     80.2806     56.3525      6.2228      4.3759     22.2824      2.4649       2.383
      4245.5        8.74     21.0472     80.3957     61.4512      6.2228      4.4025     23.0057       2.505      2.3731
        4246        8.74     20.9561     80.9732     66.3693      6.6212      4.5834     23.3737      2.5251      2.3719
      4246.5         8.7     20.4095     81.5134     69.6391       6.874      4.7013     23.6176      2.5251      2.3771
        4247      8.6847     20.0143     81.3719     71.2575       7.406      5.0652     23.8212      2.5451      2.3838
      4247.5        8.68     19.6719      80.731     71.7113      8.0534      5.2586     23.9028      2.6052       2.389
        4248        8.62     19.0019     79.6803      72.328      8.7472      5.7249     23.3712      2.6052      2.3937
      4248.5       8.601     17.9529     78.6522     72.7545      9.8825      6.3767     20.9462      2.6417      2.4133
        4249      8.5598     16.6826     77.2607     72.7545     11.8752      7.3384     19.5734      2.6854      2.4323
      4249.5      8.5386     15.1484     75.3811     72.7545     15.0093      8.8096     18.4636      2.7255       2.441
        4250         8.5     14.7841     70.4144     73.3533      17.748     10.9884     16.6473       2.806      2.5466
      4250.5         8.5     11.8612     69.3306     74.2138      27.301      14.627     16.2424      2.8875      2.5586
        4251        8.46     10.0689     66.8427     74.8503      52.114     22.0745     13.4512       2.949      2.5598
      4251.5        8.46      7.2033     64.0234     74.1067     66.0521     34.4996     11.9738      3.0705      2.5701
        4252        8.46      5.5674      60.868     70.9104    100.3813     54.9931     10.9815      3.0862      2.6037
      4252.5      8.4688      3.8143     58.4213     63.6711    156.2022     77.3323      9.4074      3.1404      2.6363
        4253         8.5      3.2212     56.9633      57.805    204.5663     104.659      8.4937      3.4464      2.6534
      4253.5         8.5      2.4297     55.8392     52.0717    258.2657     130.426      7.7849      3.8465      2.6582
        4254         8.5      1.7715     55.2177      48.715    291.6873    151.6179      7.1244      4.1126      2.6692
      4254.5         8.5      1.2965     53.7302     47.2001    323.6589    173.5275      6.2222       5.238      2.6809
        4255       8.465      1.4498     53.2093     45.6853    339.1461    189.1758      5.9356      5.1697      2.6874
      4255.5      8.3438      1.8281     53.2932     44.1704    334.4799    192.7935      5.9356      4.9973      2.6858
        4256      8.4186      2.2729     53.4954     42.6555     331.395    200.1553      5.9356       4.811      2.6787
      4256.5      8.3997      2.3203     53.5872     43.2905     331.395    205.8818      5.8195      4.4856      2.6733
        4257      8.3799      1.9143     53.4187     44.8054     331.395    213.7433      5.5473      4.3295      2.6726
      4257.5      8.3595      1.7387     53.7857     46.3203     331.395    221.9051      5.3437      4.2685      2.6771
        4258       8.339      1.7207     53.0661     47.8352    334.4799    226.6501      5.2515      4.2904      2.6804
      4258.5      8.3186      1.8593     53.0661     48.7512    325.9027    222.4885      5.2113      4.3719      2.6804
        4259      8.2981      1.8593      52.986     48.8024    295.0398     205.353      5.0905      4.4289      2.6794
      4259.5      8.2777      2.0204     53.0686     49.6852    242.5676    172.6054      5.0503      4.4689      2.6783
        4260      8.2572       2.656     53.5116     51.2001     192.057     146.715      5.3734      4.2814      2.6671
      4260.5      8.2368      3.7139     55.2398     57.2974    109.0055     140.015      6.3316      4.0657      2.6588
        4261      8.2163      4.5679     56.6437     66.3774    106.9784     84.3672      7.0577       3.708      2.6469
      4261.5      8.1959      4.9132      57.568     63.6603      90.408     77.3669      7.3894       3.576      2.6339
        4262      8.1754      4.3687     57.7451     59.8839    120.1064       86.23      7.2286       3.457      2.6323
      4262.5       8.155       3.156      57.499     54.1697    148.4233    106.4044      6.3987      3.4961      2.6527
        4263      8.1456      2.3043     56.5185     49.2915    178.1851    129.8805      5.6647      3.9917      2.6666
      4263.5      8.1045      2.1979     54.8456     47.7129    184.8523    141.2943      5.5101      4.6328      2.6707
        4264      8.1045      2.5235     54.8786     45.9086    182.1654    138.5038      5.7735      4.5112        2.67
      4264.5      8.1045      2.8241     55.1983     54.6951    163.8747    126.0334      6.2612      4.3708      2.6683
        4265      8.1059      2.4953     55.8531     57.9656     144.767    113.5746      6.6843      4.0882      2.6719
      4265.5      8.1131      1.7039     56.1523     58.6826    135.0908    108.3661      6.7807      4.1902      2.6812
        4266      8.1203      1.6025     55.9669     58.3832    125.3361      103.62      6.7404      4.2285      2.6795
      4266.5      8.1274      3.0283     56.0727     58.9174    112.0546     89.7054      6.8525      4.1951      2.6615
        4267      8.1346      5.5868     56.5679     62.4346     91.3769     75.7114      7.1334      3.9474      2.6336
      4267.5      8.1418      6.9648     57.7081     66.0955     67.3276     72.1052      7.5394      3.6689      2.6111
        4268      8.1525      6.6785     58.5895     67.6537     52.9133     64.6619       7.666       3.278      2.6055
      4268.5      8.1674       6.804     60.9499     68.2635     45.9159     51.3446      8.8998      3.1214       2.603
        4269      8.1822      6.5822     61.7536     68.8623     43.1553     50.0519      9.6461      3.0461      2.6036
      4269.5      8.1867      5.7035     62.0019     69.1617     47.6888      45.643      9.9618      3.0821      2.6206
        4270      8.1867      4.8805      61.744     68.4722     53.9031     65.6681      9.6134      3.2974      2.6267
      4270.5      8.1867      3.8125     60.5059     65.6332     71.9273      69.785      8.3367      3.5739      2.6339
        4271      8.1867      3.2023     58.4335     59.6985    100.8172     90.1384      6.7455      3.8468      2.6465
      4271.5      8.1867      2.3212     56.4255     52.5732    153.2836    120.4669      4.8778      4.1413      2.6604
        4272      8.1867      1.8016     55.1222     51.1976    184.8592     164.663      4.2905      4.2672      2.6704
      4272.5      8.1867      1.3326     54.2774     52.0213    166.8692    188.3899      4.4266      4.3985      2.6823
        4273      8.1867      1.7912     54.8484     62.4139    171.8632    134.2409      5.8584      4.3684      2.6837
      4273.5      8.1867      2.7123       57.48     79.0592    118.8614    102.8981      8.5866      4.2083      2.6765
        4274      8.1867      3.3072     59.6917     90.4845     93.9436     85.6684     10.1478      4.0006      2.6629
      4274.5      8.1952      3.7085     60.3445     88.4208     75.2459     77.4272     10.4339      3.9173      2.6547
        4275      8.2056      3.5959     59.2004     74.3752     86.7544     78.7752      8.6645      3.9296      2.6543
      4275.5       8.216      3.0812      56.925     50.5256    115.9758     95.3614      6.8116      4.2128      2.6573
