#--------------------------------------------------#
#-------------------ENVERUS, INC.------------------#
#------------------WWW.ENVERUS.COM-----------------#
#------------------COPYRIGHT 2020------------------#
#--------------------------------------------------#
#THIS FILE MAY BE USED ONLY IN ACCORDANCE WITH A CURRENT SUBSCRIPTION AGREEMENT BETWEEN
#THE USER AND ENVERUS, INC. NO PART OF THIS FILE MAY BE REPRODUCED, USED, COPIED,
#MODIFIED, PROPAGATED, OR DISTRIBUTED EXCEPT IN ACCORDANCE WITH THE SUBSCRIPTION
#AGREEMENT. UNAUTHORIZED USE OR DISTRIBUTION OF ALL OR ANY PART OF THIS FILE MAY VIOLATE
#COPYRIGHT, TRADEMARK, AND/OR OTHER LAWS AND IS SUBJECT TO CIVIL AS WELL AS CRIMINAL
#SANCTIONS.
#--------------------------------------------------#
#THIS FILE IS PROVIDED "AS-IS" AND ALL WARRANTIES ARE EXPRESSLY DISCLAIMED, WHETHER
#EXPRESS, ORAL, IMPLIED, STATUTORY OR OTHERWISE, INCLUDING ANY IMPLIED WARRANTY OF FITNESS
#FOR A PARTICULAR PURPOSE, MERCHANTABILITY, TITLE OR NON-INFRINGEMENT, AND ANY WARRANTIES
#ARISING BY VIRTUE OF CUSTOM OF TRADE OR COURSE OF DEALING.  FURTHER, ENVERUS, INC.
#AND ITS LICENSORS DO NOT REPRESENT OR WARRANT THAT THIS FILE WILL MEET USER'S
#REQUIREMENTS OR ARE SUITABLE FOR USER'S NEEDS OR THAT THE DATA OR RESULTS PROVIDED IN
#CONJUNCTION THEREWITH ARE CORRECT, ACCURATE, TIMELY OR RELIABLE. THESE DISCLAIMERS SHALL
#APPLY REGARDLESS OF ANY FAILURE OF ESSENTIAL PURPOSE OF ANY LIMITED REMEDY.  SOME
#JURISDICTIONS DO NOT ALLOW THE EXCLUSION OF CERTAIN WARRANTIES SO SOME OF THE ABOVE
#EXCLUSIONS MAY NOT APPLY. IN NO EVENT SHALL ENVERUS, INC. OR ANY OF ITS AFFILIATES
#BE LIABLE UNDER ANY LEGAL THEORY, WHETHER IN TORT (INCLUDING WITHOUT LIMITATION
#NEGLIGENCE), CONTRACT, STRICT LIABILITY, STATUTORY OR OTHERWISE, FOR ANY SPECIAL,
#INCIDENTAL, CONSEQUENTIAL, EXEMPLARY, PUNITIVE OR INDIRECT DAMAGE OF ANY KIND, INCLUDING
#WITHOUT LIMITATION LOSS OF REVENUE, PROFITS, GOODWILL, USE, AND/OR DATA OR THE COST OF
#PROCUREMENT OF SUBSTITUTE GOODS OR SERVICES, EVEN IF APPRISED OF THE POSSIBILITY OF SUCH
#DAMAGES IN ADVANCE.
#--------------------------------------------------#

~VERSION INFORMATION
VERS. 2.0 : CWLS LOG ASCII STANDARD - VERSION 2.0
WRAP.  NO : ONE LINE PER DEPTH STEP
~WELL INFORMATION
#MNEMONIC     .UNIT              VALUE :DESCRIPTION
STRT       .FT                51 :START DEPTH
STOP       .FT                4494 :STOP DEPTH
STEP       .FT                   0.500 :STEP
NULL       .                  -999.990 :NULL
UWI        .              42389102200000 :UNIQUE WELL ID
API        .              42389102200000 :API NUMBER
COMP       .         GRUY PETROLEUM MANAGEMENT CO. :COMPANY
WELL       .        REEVES -AQ- FEE  2 :WELL
DATE       .                30-NOV-1992 :LOG DATE
~CURVE INFORMATION
#MNEMONIC     .UNIT      API CODE :CURVE DESCRIPTION
DEPTH       .FT                      :MEASURED DEPTH
CAL.INCH        UNKNOWN   :CAL
GR.API        UNKNOWN   :GR
DT.US/FT        UNKNOWN   :DT
~A    DEPTH    CAL    GR    DT
# ...
 923     -999.990   5.693   68.09
 923.5     -999.990   5.125   67.799
 924     -999.990   5.381   67.509
 924.5     -999.990   6.953   63.786
 925     -999.990   8.525   62.097
 925.5     -999.990   9.828   60.408
 926     -999.990   10.972   58.719
 926.5     -999.990   12.117   57.029
 927     -999.990   12.426   58.411
 927.5     -999.990   12.641   60.671
 928     -999.990   12.777   62.931
 928.5     -999.990   12.527   65.191
 929     -999.990   12.277   67.451
 929.5     -999.990   12.026   69.711
 930     -999.990   11.776   69.881
 930.5     -999.990   10.65   68.853
 931     -999.990   8.64   67.986
 931.5     -999.990   7.105   67.926
 932     -999.990   5.599   67.865
 932.5     -999.990   4.749   67.804
 933     -999.990   4.32   67.697
 933.5     -999.990   3.89   67.535
 934     -999.990   4.075   67.374
 934.5     -999.990   4.451   67.212
 935     -999.990   5.349   67.381
 935.5     -999.990   6.684   67.65
 936     -999.990   8.02   67.919
 936.5     -999.990   9.29   68.188
 937     -999.990   8.565   68.457
 937.5     -999.990   7.841   68.624
 938     -999.990   7.116   68.43
 938.5     -999.990   7.187   68.237
 939     -999.990   7.967   68.307
 939.5     -999.990   8.747   70.044
 940     -999.990   9.54   71.103
 940.5     -999.990   11.041   70.498
 941     -999.990   12.47   69.893
 941.5     -999.990   12.889   69.77
 942     -999.990   13.307   71.507
 942.5     -999.990   12.324   73.244
 943     -999.990   10.818   74.98
 943.5     -999.990   9.312   74.897
 944     -999.990   9.633   73.07
 944.5     -999.990   11.093   71.244
 945     -999.990   12.554   69.417
 945.5     -999.990   14.014   67.59
 946     -999.990   15.474   65.763
 946.5     -999.990   14.606   68.614
 947     -999.990   13.569   71.378
 947.5     -999.990   12.533   71.62
 948     -999.990   11.496   71.862
 948.5     -999.990   10.459   72.104
 949     -999.990   9.39   72.346
 949.5     -999.990   8.01   72.588
 950     -999.990   6.63   68.166
 950.5     -999.990   5.25   68.393
 951     -999.990   5.041   68.62
 951.5     -999.990   4.853   68.725
 952     -999.990   4.665   68.694
 952.5     -999.990   4.987   68.68
 953     -999.990   5.389   70.497
 953.5     -999.990   7.789   71.546
 954     -999.990   10.374   68.575
 954.5     -999.990   12.96   65.603
 955     -999.990   15.545   62.781
 955.5     -999.990   17.536   61.915
 956     -999.990   16.889   61.049
 956.5     -999.990   15.449   60.182
 957     -999.990   14.009   60.322
 957.5     -999.990   12.57   62.204
 958     -999.990   11.13   64.085
 958.5     -999.990   9.69   65.496
 959     -999.990   8.25   66.858
 959.5     -999.990   6.81   67.298
 960     -999.990   5.371   66.572
 960.5     -999.990   4.875   65.846
 961     -999.990   5.331   66.089
 961.5     -999.990   5.787   66.358
 962     -999.990   6.244   66.627
 962.5     -999.990   6.633   66.896
 963     -999.990   6.77   67.165
 963.5     -999.990   6.907   66.739
 964     -999.990   7.044   65.375
 964.5     -999.990   7.181   64.01
 965     -999.990   8.873   62.645
 965.5     -999.990   10.694   61.33
 966     -999.990   12.515   60.433
 966.5     -999.990   14.336   59.536
 967     -999.990   14.501   58.64
 967.5     -999.990   13.699   57.743
 968     -999.990   12.897   56.847
 968.5     -999.990   12.095   55.95
 969     -999.990   11.293   55.054
 969.5     -999.990   10.491   55.658
 970     -999.990   9.689   56.919
 970.5     -999.990   8.887   58.18
 971     -999.990   8.085   57.453
 971.5     -999.990   7.283   55.503
 972     -999.990   6.414   53.552
 972.5     -999.990   5.537   51.601
 973     -999.990   4.659   53.059
 973.5     -999.990   6.306   54.861
 974     -999.990   8.666   56.664
 974.5     -999.990   10.944   58.467
 975     -999.990   11.57   58.757
 975.5     -999.990   12.197   58.052
 976     -999.990   12.824   57.346
 976.5     -999.990   13.451   56.641
 977     -999.990   13.701   58.349
 977.5     -999.990   13.311   60.324
 978     -999.990   12.922   62.298
 978.5     -999.990   12.532   64.273
 979     -999.990   12.751   62.507
 979.5     -999.990   13.065   58.169
 980     -999.990   13.379   57.284
 980.5     -999.990   13.173   57.647
 981     -999.990   12.792   58.01
 981.5     -999.990   12.41   57.861
 982     -999.990   12.029   57.437
 982.5     -999.990   11.647   57.014
 983     -999.990   11.266   56.59
 983.5     -999.990   10.884   56.167
 984     -999.990   10.503   56.29
 984.5     -999.990   10.488   56.629
 985     -999.990   10.756   56.968
 985.5     -999.990   11.024   56.784
 986     -999.990   11.292   56.3
 986.5     -999.990   11.56   55.817
 987     -999.990   11.827   55.838
 987.5     -999.990   11.362   56.274
 988     -999.990   10.61   56.71
 988.5     -999.990   9.859   56.444
 989     -999.990   9.107   55.381
 989.5     -999.990   8.356   54.317
 990     -999.990   7.777   54.376
 990.5     -999.990   7.677   56.269
 991     -999.990   7.577   58.161
 991.5     -999.990   7.477   59.332
 992     -999.990   7.629   58.848
 992.5     -999.990   8.214   58.363
 993     -999.990   8.799   57.879
 993.5     -999.990   9.384   57.529
 994     -999.990   9.969   57.267
 994.5     -999.990   10.122   57.005
 995     -999.990   10.081   56.743
 995.5     -999.990   10.04   57.48
 996     -999.990   9.998   58.328
 996.5     -999.990   9.963   58.747
 997     -999.990   10.297   58.613
 997.5     -999.990   10.632   58.478
 998     -999.990   10.967   58.344
 998.5     -999.990   11.302   58.21
 999     -999.990   11.636   58.075
 999.5     -999.990   11.899   58.88
 1000     -999.990   11.813   59.759
 1000.5     -999.990   11.726   59.295
 1001     -999.990   11.639   58.832
 1001.5     -999.990   11.552   58.368
 1002     -999.990   11.466   58.412
 1002.5     -999.990   11.379   59.472
 1003     -999.990   11.292   60.532
 1003.5     -999.990   11.206   61.109
 1004     -999.990   11.24   61.613
 1004.5     -999.990   11.742   62.117
 1005     -999.990   12.244   62.434
 1005.5     -999.990   12.746   61.829
 1006     -999.990   12.92   61.224
 1006.5     -999.990   12.363   60.619
 1007     -999.990   11.806   60.014
 1007.5     -999.990   11.25   60.806
 1008     -999.990   11.773   61.844
 1008.5     -999.990   12.561   62.881
 1009     -999.990   13.35   63.919
 1009.5     -999.990   14.138   63.593
 1010     -999.990   14.926   62.082
 1010.5     -999.990   15.248   60.676
 1011     -999.990   14.697   60.777
 1011.5     -999.990   14.147   60.878
 1012     -999.990   13.596   60.979
 1012.5     -999.990   13.564   61.579
 1013     -999.990   14.166   63.044
 1013.5     -999.990   14.768   64.509
 1014     -999.990   15.37   65.974
 1014.5     -999.990   15.583   67.439
 1015     -999.990   15.483   68.905
 1015.5     -999.990   15.217   67.685
 1016     -999.990   14.841   65.852
 1016.5     -999.990   14.466   64.019
 1017     -999.990   14.091   62.186
 1017.5     -999.990   13.715   61.762
 1018     -999.990   13.34   62.76
 1018.5     -999.990   13.011   63.694
 1019     -999.990   12.761   62.565
 1019.5     -999.990   12.511   61.436
 1020     -999.990   12.535   60.306
 1020.5     -999.990   13.371   61.169
 1021     -999.990   14.208   66.094
 1021.5     -999.990   15.044   71.019
 1022     -999.990   18.255   75.945
 1022.5     -999.990   21.333   80.87
 1023     -999.990   23.731   85.795
 1023.5     -999.990   26.13   89.231
 1024     -999.990   28.301   82.852
 1024.5     -999.990   27.759   76.473
 1025     -999.990   27.216   70.093
 1025.5     -999.990   26.674   66.846
 1026     -999.990   26.132   67.299
 1026.5     -999.990   26.91   67.753
 1027     -999.990   29.674   66.232
 1027.5     -999.990   29.587   64.693
 1028     -999.990   28.975   63.154
 1028.5     -999.990   28.363   61.615
 1029     -999.990   27.751   66.666
 1029.5     -999.990   27.139   74.89
 1030     -999.990   26.527   75.012
 1030.5     -999.990   25.915   73.292
 1031     -999.990   26.376   71.571
 1031.5     -999.990   27.061   70.158
 1032     -999.990   27.745   68.856
