#--------------------------------------------------#
#-------------------ENVERUS, INC.------------------#
#------------------WWW.ENVERUS.COM-----------------#
#------------------COPYRIGHT 2020------------------#
#--------------------------------------------------#
#THIS FILE MAY BE USED ONLY IN ACCORDANCE WITH A CURRENT SUBSCRIPTION AGREEMENT BETWEEN
#THE USER AND ENVERUS, INC. NO PART OF THIS FILE MAY BE REPRODUCED, USED, COPIED,
#MODIFIED, PROPAGATED, OR DISTRIBUTED EXCEPT IN ACCORDANCE WITH THE SUBSCRIPTION
#AGREEMENT. UNAUTHORIZED USE OR DISTRIBUTION OF ALL OR ANY PART OF THIS FILE MAY VIOLATE
#COPYRIGHT, TRADEMARK, AND/OR OTHER LAWS AND IS SUBJECT TO CIVIL AS WELL AS CRIMINAL
#SANCTIONS.
#--------------------------------------------------#
#THIS FILE IS PROVIDED "AS-IS" AND ALL WARRANTIES ARE EXPRESSLY DISCLAIMED, WHETHER
#EXPRESS, ORAL, IMPLIED, STATUTORY OR OTHERWISE, INCLUDING ANY IMPLIED WARRANTY OF FITNESS
#FOR A PARTICULAR PURPOSE, MERCHANTABILITY, TITLE OR NON-INFRINGEMENT, AND ANY WARRANTIES
#ARISING BY VIRTUE OF CUSTOM OF TRADE OR COURSE OF DEALING.  FURTHER, ENVERUS, INC.
#AND ITS LICENSORS DO NOT REPRESENT OR WARRANT THAT THIS FILE WILL MEET USER'S
#REQUIREMENTS OR ARE SUITABLE FOR USER'S NEEDS OR THAT THE DATA OR RESULTS PROVIDED IN
#CONJUNCTION THEREWITH ARE CORRECT, ACCURATE, TIMELY OR RELIABLE. THESE DISCLAIMERS SHALL
#APPLY REGARDLESS OF ANY FAILURE OF ESSENTIAL PURPOSE OF ANY LIMITED REMEDY.  SOME
#JURISDICTIONS DO NOT ALLOW THE EXCLUSION OF CERTAIN WARRANTIES SO SOME OF THE ABOVE
#EXCLUSIONS MAY NOT APPLY. IN NO EVENT SHALL ENVERUS, INC. OR ANY OF ITS AFFILIATES
#BE LIABLE UNDER ANY LEGAL THEORY, WHETHER IN TORT (INCLUDING WITHOUT LIMITATION
#NEGLIGENCE), CONTRACT, STRICT LIABILITY, STATUTORY OR OTHERWISE, FOR ANY SPECIAL,
#INCIDENTAL, CONSEQUENTIAL, EXEMPLARY, PUNITIVE OR INDIRECT DAMAGE OF ANY KIND, INCLUDING
#WITHOUT LIMITATION LOSS OF REVENUE, PROFITS, GOODWILL, USE, AND/OR DATA OR THE COST OF
#PROCUREMENT OF SUBSTITUTE GOODS OR SERVICES, EVEN IF APPRISED OF THE POSSIBILITY OF SUCH
#DAMAGES IN ADVANCE.
#--------------------------------------------------#

~VERSION INFORMATION
VERS. 2.0 : CWLS LOG ASCII STANDARD - VERSION 2.0
WRAP.  NO : ONE LINE PER DEPTH STEP
~WELL INFORMATION
#MNEMONIC     .UNIT              VALUE :DESCRIPTION
STRT       .FT                24 :START DEPTH
STOP       .FT                5035 :STOP DEPTH
STEP       .FT                   0.500 :STEP
NULL       .                  -999.250 :NULL
UWI        .              42389314500000 :UNIQUE WELL ID
API        .              42389314500000 :API NUMBER
COMP       .         SLEDGE BROS. OIL CO. :COMPANY
WELL       .        ELIZABETH MITCHELL  1 :WELL
DATE       .                18-DEC-1983 :LOG DATE
~CURVE INFORMATION
#MNEMONIC     .UNIT      API CODE :CURVE DESCRIPTION
DEPTH       .FT                      :MEASURED DEPTH
CAL.INCH        UNKNOWN   :CAL
DT.US/FT        UNKNOWN   :DT
GR.API        UNKNOWN   :GR
~A    DEPTH    CAL    DT    GR
# ...
 3313.5     8.817   48.777   17.354
 3314     8.82   48.813   16.929
 3314.5     8.822   48.85   16.504
 3315     8.824   48.906   16.079
 3315.5     8.826   49.042   16.139
 3316     8.828   49.178   17.228
 3316.5     8.831   49.314   18.316
 3317     8.833   49.45   18.312
 3317.5     8.835   49.586   16.483
 3318     8.837   49.721   14.404
 3318.5     8.839   49.857   11.963
 3319     8.842   49.993   12.024
 3319.5     8.844   50.074   12.257
 3320     8.846   50.035   12.49
 3320.5     8.848   49.996   12.61
 3321     8.851   49.956   12.185
 3321.5     8.854   49.917   11.761
 3322     8.859   49.877   11.336
 3322.5     8.863   49.838   10.277
 3323     8.868   49.798   8.988
 3323.5     8.873   49.759   9.99
 3324     8.878   49.719   11.158
 3324.5     8.883   49.731   12.326
 3325     8.887   49.776   11.872
 3325.5     8.892   49.82   11.069
 3326     8.897   49.865   10.431
 3326.5     8.902   49.91   10.439
 3327     8.907   49.954   10.446
 3327.5     8.91   49.999   10.494
 3328     8.906   49.951   10.556
 3328.5     8.902   49.834   10.617
 3329     8.898   49.718   10.679
 3329.5     8.893   49.615   9.758
 3330     8.889   49.882   8.622
 3330.5     8.889   50.15   7.693
 3331     8.889   50.418   12.145
 3331.5     8.89   50.685   16.445
 3332     8.871   50.799   21.97
 3332.5     8.827   50.874   31.066
 3333     8.784   50.95   34.073
 3333.5     8.74   51.026   33.999
 3334     8.741   51.101   33.925
 3334.5     8.744   52.325   38.962
 3335     8.747   57.925   47.99
 3335.5     8.75   65.953   57.018
 3336     8.753   70.256   66.592
 3336.5     8.756   71.085   80.625
 3337     8.759   68.869   89.054
 3337.5     8.762   66.652   92.233
 3338     8.765   65.614   90.15
 3338.5     8.768   64.82   89.157
 3339     8.771   64.725   95.026
 3339.5     8.774   65.867   104.672
 3340     8.777   67.009   113.26
 3340.5     8.78   68.011   118.316
 3341     8.783   68.537   114.133
 3341.5     8.786   67.91   106.595
 3342     8.789   67.205   98.535
 3342.5     8.792   66.19   92.034
 3343     8.795   65.174   89.917
 3343.5     8.798   64.905   92.753
 3344     8.801   65.873   94.66
 3344.5     8.804   66.894   93.208
 3345     8.806   67.915   84.539
 3345.5     8.809   67.966   78.638
 3346     8.811   67.337   77.631
 3346.5     8.813   66.4   76.623
 3347     8.816   65.463   75.616
 3347.5     8.818   65.086   75.939
 3348     8.821   65.682   78.286
 3348.5     8.823   66.651   86.487
 3349     8.826   67.62   94.31
 3349.5     8.828   68.378   96.322
 3350     8.83   68.494   96.929
 3350.5     8.833   68.424   91.858
 3351     8.835   67.374   84.637
 3351.5     8.833   65.707   80.771
 3352     8.828   65.481   80.605
 3352.5     8.823   65.404   80.63
 3353     8.818   66.127   89.6
 3353.5     8.812   67.587   98.504
 3354     8.807   68.741   108.431
 3354.5     8.802   69.251   119.125
 3355     8.797   69.761   126.327
 3355.5     8.792   69.404   124.868
 3356     8.786   68.898   123.41
 3356.5     8.781   68.406   121.952
 3357     8.776   68.435   122.818
 3357.5     8.771   69.871   125.81
 3358     8.772   71.306   149.014
 3358.5     8.787   72.905   174.79
 3359     8.803   72.366   180.385
 3359.5     8.818   70.355   149.606
 3360     8.833   68.148   95.047
 3360.5     8.849   65.856   74.559
 3361     8.864   63.372   74.607
 3361.5     8.879   64.554   85.675
 3362     8.895   66.922   106.499
 3362.5     8.903   69.29   129.983
 3363     8.907   71.259   148.019
 3363.5     8.912   71.512   139.961
 3364     8.916   69.81   113.499
 3364.5     8.92   68.108   96.38
 3365     8.924   67.055   79.262
 3365.5     8.928   66.378   78.936
 3366     8.933   66.646   79.262
 3366.5     8.937   67.116   82.209
 3367     8.941   67.586   91.772
 3367.5     8.945   67.996   92.509
 3368     8.95   67.941   90.572
 3368.5     8.954   67.717   84.983
 3369     8.958   67.382   76.969
 3369.5     8.961   67.047   75.104
 3370     8.961   66.954   73.492
 3370.5     8.962   66.981   68.821
 3371     8.963   67.007   64.135
 3371.5     8.963   66.868   60.783
 3372     8.964   66.681   60.029
 3372.5     8.964   66.494   61.874
 3373     8.965   66.539   68.055
 3373.5     8.966   66.835   69.66
 3374     8.966   67.131   70.502
 3374.5     8.97   67.426   68.473
 3375     8.978   67.474   66.091
 3375.5     8.986   67.108   63.707
 3376     8.994   67.227   66.483
 3376.5     9.002   67.748   68.837
 3377     9.009   68.385   70.791
 3377.5     9.017   69.022   72.745
 3378     9.025   69.659   74.146
 3378.5     9.033   69.893   75.126
 3379     9.041   70.075   80.85
 3379.5     9.049   69.912   84.701
 3380     9.062   69.75   87.861
 3380.5     9.075   69.649   91.022
 3381     9.088   69.736   101.972
 3381.5     9.101   70.786   111.383
 3382     9.114   71.982   117.09
 3382.5     9.127   72.979   118.007
 3383     9.14   73.261   101.208
 3383.5     9.154   73.358   85.971
 3384     9.138   73.11   77.066
 3384.5     9.112   72.367   74.365
 3385     9.085   71.408   72.912
 3385.5     9.059   69.664   71.859
 3386     9.032   68.975   73.381
 3386.5     9.044   69.779   75.743
 3387     9.057   70.583   86.719
 3387.5     9.07   71.387   97.695
 3388     9.083   72.095   101.526
 3388.5     9.096   72.487   96.202
 3389     9.109   72.793   81.087
 3389.5     9.121   72.189   66.235
 3390     9.134   71.115   62.785
 3390.5     9.147   70.041   61.578
 3391     9.16   69.981   62.93
 3391.5     9.169   71.075   68.858
 3392     9.175   72.899   71.888
 3392.5     9.181   73.815   72.594
 3393     9.187   73.931   72.799
 3393.5     9.193   73.679   71.531
 3394     9.198   73.427   72.43
 3394.5     9.204   73.175   73.329
 3395     9.21   73.061   74.352
 3395.5     9.216   73.272   75.956
 3396     9.222   73.482   77.561
 3396.5     9.228   73.66   78.904
 3397     9.233   73.792   76.485
 3397.5     9.239   74.036   73.965
 3398     9.245   74.55   74.378
 3398.5     9.251   75.064   74.79
 3399     9.241   75.987   73.247
 3399.5     9.228   77.405   68.433
 3400     9.215   78.423   64.95
 3400.5     9.201   78.881   63.308
 3401     9.188   79.34   62.976
 3401.5     9.19   79.673   64.137
 3402     9.228   79.999   64.178
 3402.5     9.266   80.324   63.81
 3403     9.288   80.404   60.559
 3403.5     9.299   80.418   54.831
 3404     9.309   80.213   49.103
 3404.5     9.319   79.384   44.244
 3405     9.329   77.877   42.869
 3405.5     9.34   72.932   43.655
 3406     9.35   70.646   44.441
 3406.5     9.36   69.539   45.226
 3407     9.392   72.427   48.839
 3407.5     9.439   78.373   52.652
 3408     9.486   84.08   55.858
 3408.5     9.533   85.676   58.344
 3409     9.58   85.221   60.788
 3409.5     9.602   83.536   63.192
 3410     9.608   82.797   65.199
 3410.5     9.615   82.874   65.693
 3411     9.621   84.416   62.939
 3411.5     9.63   85.928   59.363
 3412     9.655   85.777   58.63
 3412.5     9.68   84.174   58.565
 3413     9.706   82.571   58.698
 3413.5     9.731   80.968   58.831
 3414     9.757   80.437   58.964
 3414.5     9.782   79.974   59.097
 3415     9.808   79.411   58.42
 3415.5     9.802   78.592   55.623
 3416     9.793   76.928   53.107
 3416.5     9.784   76.018   52.44
 3417     9.775   76.016   53.907
 3417.5     9.766   76.921   55.374
 3418     9.793   78.181   56.694
 3418.5     9.841   79.417   56.986
 3419     9.888   80.621   54.703
 3419.5     9.874   81.747   52.419
 3420     9.854   82.365   51.121
 3420.5     9.834   82.868   50.193
 3421     9.819   82.624   51.298
 3421.5     9.83   81.99   52.403
 3422     9.84   81.356   52.401
 3422.5     9.85   80.853   51.132
 3423     9.861   82.182   50.424
 3423.5     9.871   83.581   54.48
 3424     9.859   83.712   58.979
 3424.5     9.845   83.268   62.734
 3425     9.83   82.823   62.776
 3425.5     9.816   83.118   60.04
 3426     9.802   84.293   57.304
 3426.5     9.812   83.841   54.567
 3427     9.832   82.88   51.831
 3427.5     9.852   82.728   50.52
 3428     9.872   83.465   51.267
 3428.5     9.86   83.051   55.251
