#--------------------------------------------------#
#-------------------ENVERUS, INC.------------------#
#------------------WWW.ENVERUS.COM-----------------#
#------------------COPYRIGHT 2020------------------#
#--------------------------------------------------#
#THIS FILE MAY BE USED ONLY IN ACCORDANCE WITH A CURRENT SUBSCRIPTION AGREEMENT BETWEEN
#THE USER AND ENVERUS, INC. NO PART OF THIS FILE MAY BE REPRODUCED, USED, COPIED,
#MODIFIED, PROPAGATED, OR DISTRIBUTED EXCEPT IN ACCORDANCE WITH THE SUBSCRIPTION
#AGREEMENT. UNAUTHORIZED USE OR DISTRIBUTION OF ALL OR ANY PART OF THIS FILE MAY VIOLATE
#COPYRIGHT, TRADEMARK, AND/OR OTHER LAWS AND IS SUBJECT TO CIVIL AS WELL AS CRIMINAL
#SANCTIONS.
#--------------------------------------------------#
#THIS FILE IS PROVIDED "AS-IS" AND ALL WARRANTIES ARE EXPRESSLY DISCLAIMED, WHETHER
#EXPRESS, ORAL, IMPLIED, STATUTORY OR OTHERWISE, INCLUDING ANY IMPLIED WARRANTY OF FITNESS
#FOR A PARTICULAR PURPOSE, MERCHANTABILITY, TITLE OR NON-INFRINGEMENT, AND ANY WARRANTIES
#ARISING BY VIRTUE OF CUSTOM OF TRADE OR COURSE OF DEALING.  FURTHER, ENVERUS, INC.
#AND ITS LICENSORS DO NOT REPRESENT OR WARRANT THAT THIS FILE WILL MEET USER'S
#REQUIREMENTS OR ARE SUITABLE FOR USER'S NEEDS OR THAT THE DATA OR RESULTS PROVIDED IN
#CONJUNCTION THEREWITH ARE CORRECT, ACCURATE, TIMELY OR RELIABLE. THESE DISCLAIMERS SHALL
#APPLY REGARDLESS OF ANY FAILURE OF ESSENTIAL PURPOSE OF ANY LIMITED REMEDY.  SOME
#JURISDICTIONS DO NOT ALLOW THE EXCLUSION OF CERTAIN WARRANTIES SO SOME OF THE ABOVE
#EXCLUSIONS MAY NOT APPLY. IN NO EVENT SHALL ENVERUS, INC. OR ANY OF ITS AFFILIATES
#BE LIABLE UNDER ANY LEGAL THEORY, WHETHER IN TORT (INCLUDING WITHOUT LIMITATION
#NEGLIGENCE), CONTRACT, STRICT LIABILITY, STATUTORY OR OTHERWISE, FOR ANY SPECIAL,
#INCIDENTAL, CONSEQUENTIAL, EXEMPLARY, PUNITIVE OR INDIRECT DAMAGE OF ANY KIND, INCLUDING
#WITHOUT LIMITATION LOSS OF REVENUE, PROFITS, GOODWILL, USE, AND/OR DATA OR THE COST OF
#PROCUREMENT OF SUBSTITUTE GOODS OR SERVICES, EVEN IF APPRISED OF THE POSSIBILITY OF SUCH
#DAMAGES IN ADVANCE.
#--------------------------------------------------#

# EXPORTED FROM DI TRANSFORM
# DI TRANSFORM - A PRODUCT OF DRILLINGINFO, INC. - WWW.DRILLINGINFO.COM
#
~VERSION INFORMATION
 VERS.        2.0 : LAS ASCII STANDARD - VERSION 2.0
 WRAP.         NO : ONE LINE PER DEPTH STEP

~WELL INFORMATION
#MNEM.UNIT       DATA TYPE       INFORMATION
#---------       ---------       -----------
 STRT.FT          3310 : START DEPTH
 STOP.FT         11910 : STOP DEPTH
 STEP.FT           0.5 : STEP LENGTH
 NULL.         -999.25 : NULL VALUE
 UWI.   42389328760000 : UNIQUE WELL ID
 API.   42389328760000 : WELL IDENTIFIER
 COMP.                 : COMPANY
 WELL.          DRD_55 : WELL NAME
 FLD.                  : FIELD NAME
 LOC.                  : WELL LOCATION
 CNTY.                 : COUNTY
 STAT.                 : STATE OR PROVINCE
 CTRY.                 : COUNTRY
 SRVC.                 : SERVICE COMPANY
 DATE.                 : DATE

~CURVE INFORMATION
#MNEM.UNIT       API CODE       CURVE DESCRIPTION
#---------       --------       -----------------
 DEPT.FT        : <MEASURED DEPTH>
 CAL.IN         : CALIPER
 DT.US/FT       : SONIC
 GR.GAPI        : GAMMA RAY
 ILD.OHMM       : DEEP RESISTIVITY
 ILS.OHMM       : SHALLOW RESISTIVITY

~PARAMETER INFORMATION
#MNEM.UNIT       VALUE       DESCRIPTION
#---------       -----       -----------
 EKB.FT      3168.5 : ELEVATION ABOVE MSL

~A       DEPT         CAL          DT          GR         ILD         ILS
         3310     -999.25     -999.25     -999.25     -999.25     -999.25
       3310.5     -999.25     92.1714     -999.25     -999.25     -999.25
         3311     -999.25     92.6286     -999.25     -999.25     -999.25
       3311.5     -999.25     88.5143     -999.25     -999.25     -999.25
         3312     -999.25     87.9007     -999.25     -999.25     -999.25
       3312.5     -999.25     86.6857     -999.25     -999.25     -999.25
         3313     -999.25     85.7714     -999.25     -999.25     -999.25
       3313.5     -999.25     85.5881     -999.25     -999.25     -999.25
         3314     -999.25     85.7714     -999.25     -999.25     -999.25
       3314.5     -999.25     87.1429     -999.25     -999.25     -999.25
         3315     -999.25     89.7867     -999.25     -999.25     -999.25
       3315.5     -999.25     91.6874     -999.25     -999.25     -999.25
         3316     -999.25     92.6408     -999.25     -999.25     -999.25
       3316.5     -999.25     91.7143     -999.25     -999.25     -999.25
         3317     -999.25     95.3714     -999.25     -999.25     -999.25
       3317.5     -999.25     95.8286     -999.25     -999.25     -999.25
         3318     -999.25     92.9171     -999.25     -999.25     -999.25
       3318.5     -999.25      89.117     -999.25     -999.25     -999.25
         3319     -999.25     86.1051     -999.25     -999.25     -999.25
       3319.5     -999.25     83.6569     -999.25     -999.25     -999.25
         3320     -999.25     83.9429     -999.25     -999.25     -999.25
       3320.5      8.0689     85.1284     47.9122     14.6134      6.1429
         3321      8.0689     89.8319     45.8841     15.3416      6.4275
       3321.5      8.0689     92.1714     43.2476     16.3656        6.31
         3322      8.0689     97.2244     41.7272       17.34      6.4068
       3322.5      8.0689     99.0286     41.8327      18.731        6.31
         3323      8.0689        97.2     40.0222     20.8185      6.3411
       3323.5      8.0846     91.6434     37.2231      24.129      6.6459
         3324      8.5884     89.2477     37.2627     32.5084      7.0953
       3324.5      8.8259        87.6     40.4222     44.7925      7.4363
         3325       9.438     85.9695     49.1271     83.6275      7.9392
       3325.5      9.7945     84.1018        58.5    227.4366      8.3205
         3326     10.0596     83.0286     64.8582     611.952      8.8517
       3326.5     10.1833     82.3437     64.6867    509.0166      9.1091
         3327     10.1833     82.1143     57.4319    102.3681      7.9864
       3327.5     10.1897      83.026      51.201     21.8173      7.2924
         3328     10.2911     85.3509     50.0235     17.9961      7.0489
       3328.5     10.3526     89.8085     51.5439     25.6853      6.9523
         3329     10.3825     93.0877     52.5896     41.3965      7.2865
       3329.5     10.4223     97.3539     51.7899     44.9217      7.2688
         3330     10.4622     97.6571     50.2695     45.4719      6.9352
       3330.5     10.5418     97.8822     50.4541     45.4719      6.5916
         3331     10.5418     96.4716     51.3769     45.4719       6.198
       3331.5     10.6022     93.0857     51.0868     43.4114      5.9701
         3332     10.6614     91.3648     49.6368     41.4632      5.9766
       3332.5     10.6614     89.4286     50.1992     41.4632      6.0813
         3333     10.7469     88.5143     51.3944      40.705      6.2116
       3333.5     10.8207        87.6     51.3944     39.9605      6.4275
         3334     10.9098     87.1429     51.5351     39.2297      6.6985
       3334.5     11.0111     87.1429     53.0555     38.6705      6.7935
         3335     11.0727     87.1429     53.7849     37.5842        6.92
       3335.5      11.174        87.6     53.1873     36.4377      7.0319
         3336     11.2754        87.6     52.5896     34.8526      7.0489
       3336.5     11.2988        87.6      53.161     33.2527      7.0489
         3337     11.3386     87.1429     54.6813     31.7284      7.0489
       3337.5     11.3767     86.3632     54.9801     30.2719        7.32
         3338     11.3386     85.3143     54.3825     29.4223      7.6722
       3338.5     11.3334     83.9429     54.9801      28.072      8.1256
         3339      11.259     82.5887     55.5777     26.6192      8.5847
       3339.5      11.259     82.1143     53.3232     23.2882      8.4436
         3340      11.259     82.1143     49.2148     19.2199      8.0563
       3340.5      11.259     81.6571     49.9709     15.2875      7.7304
         3341      11.259        81.2     54.1191     12.9498       8.063
       3341.5      11.259     80.2857     57.9025     13.3006      8.7169
         3342      11.259       78.37     63.5402     14.5749      9.4605
       3342.5      11.259     77.7917     66.0272     15.9478     10.1004
         3343     11.2179     76.3935     68.1805     16.7926     10.5856
       3343.5     11.1166      76.258     71.6641     17.6006      11.095
         3344     10.9355     75.4911      73.506      18.109     11.6281
       3344.5     10.7946     74.7243     73.9016       18.98     12.1874
         3345     10.6092     74.7243     75.4219     19.4539     12.3103
       3345.5     10.4721     74.7243     75.4481     20.0932     12.6663
         3346     10.3707     74.7243     73.9277     20.5615     13.0325
       3346.5     10.2694     74.4589     71.6075     20.8826     13.2029
         3347     10.1847      74.043     69.5774      21.887     13.8465
       3347.5     10.1099     73.6272     65.3148     23.5515     14.7293
         3348     10.0488     73.2113      58.882     25.4111      16.614
       3348.5      9.9906     72.7955       59.48     26.5149     17.4097
         3349      9.9452     72.3797     62.9866     24.9086     16.5271
       3349.5      9.9003     73.3009     68.4049     23.1171     15.2749
         3350      9.8645     73.7473     72.6976      22.137     14.5745
       3350.5      9.8247     74.4444     75.9647     21.3347     14.2146
         3351      9.8247     76.1714     74.2616      21.627     14.4794
       3351.5      9.7849     75.6681     73.6731     22.5494     15.1021
         3352       9.752     75.2571     77.0744     22.9694     15.5888
       3352.5       9.745        74.8     81.0973     23.3973     15.8792
         3353      9.7087        74.8     81.8725     23.7948     16.4499
       3353.5       9.745     74.3429     81.2749     24.4835     16.4764
         3354       9.745     73.4286     80.6772     24.7294      17.096
       3354.5       9.745     73.8857     78.9941     24.7294      17.096
         3355      9.7052     73.8857     77.0388     24.7294     17.4144
       3355.5      9.7052     74.2448     75.5184     24.7294     17.4985
         3356      9.6653     74.3429     75.4044     24.2772      17.096
       3356.5      9.6653     74.3429     77.1402     23.9571      17.096
         3357      9.6255        74.8     78.8845     23.3973     16.7833
       3357.5      9.6255     74.8584     78.8845     22.6296     16.2326
         3358      9.6255     74.8975     79.4821     21.5917     15.4881
       3358.5      9.6255     76.1714     80.0183     20.6008     15.0239
         3359      9.6255     76.1714     80.9411     19.6563     14.3625
       3359.5      9.6255     76.4137     82.4615     18.7539     13.7031
         3360      9.6255     75.7143     80.4835     18.2476     13.3332
       3360.5      9.6255     75.7143     69.2466     19.9139     14.1432
         3361      9.6501     75.7143     56.9477     22.3918     16.6873
       3361.5      9.6653        74.8     53.1873      21.406     16.8394
         3362      9.6372     75.7143     54.4179     19.1852     14.5346
       3362.5      9.6355     76.1638     58.3424      17.578     12.8151
         3363      9.6653     76.6286     65.9577      16.119     11.3377
       3363.5      9.6653     77.0857     73.7223     15.6871     11.9693
         3364      9.6302     78.5669     79.9394     16.8669     12.9336
