#   WellGreen Tech Inc.   Digitizing Services
#   www.wellgreentech.com
#   email: sales@wellgreentech.com
#
~Version Information Block
 VERS.                2.00:     CWLS LOG ASCII STANDARD - VERSION 2.000000
 WRAP.                  NO:     One Line Per Depth Step
#
~Well Information Block
#MNEM.UNIT                     Data                         Information
#----------   ------------------------------------------   ----------------
 STRT.FT                                     4000.0000:     START DEPTH
 STOP.FT                                    15710.0000:     STOP DEPTH
 STEP.FT                                        0.5000:     STEP
 NULL.                                       -999.2500:     NULL VALUE
 COMP.                        THE SUPERIOR OIL COMPANY:     COMPANY
 WELL.                                FORTUNE STATE #1:     WELL
 FLD .                                    CHAPMAN DEEP:     FIELD
 LOC .                                                :     LOCATION
 CNTY.                                          REEVES:     COUNTY
 STAT.                                              TX:     STATE
 CTRY.                                             USA:     COUNTRY
 SRVC.                                    SCHLUMBERGER:     SERVICE COMPANY
 DATE.                                      11/10/1974:     DATE
 API .               42389302950000:    API NUMBER
 UWI .               42389302950000:    UWI NUMBER
 TVD .                                              NO:     TVD flag
 MATRIX .G/CC                  :    Matrix Density
#
~Curve Information Block
#MNEM.UNIT       API CODE      Curve Description
#----------    -------------   -------------------
 DEPT.FT                   :   Depth in Feet
 CALI.IN       70 280 01 01:   Caliper
 GR  .API      35 310 01 01:   Gamma Ray
 DT  .US/F     60 520 08 01:   Sonic transit time
#
~Parameter Information Block
#MNEM.UNIT            Value               Description
#----------    --------------------    -------------------
 RUN .                         ONE:    Run Number
 PDAT.                          GL:    Permanent Datum
 EPD .FT                  000.0000:    Elevation Of Perm. Datum
 LMF .               KELLY BUSHING:    Log Measured From
 EKB .FT                  3065.0:    Elevation Of Kelly Bushing
 DF .FT                    000.0:    Elevation Of Derrick Floor
 GL .FT                   3034.0:    Elevation Of Ground Level
 TD .FT                  15710.0000:    Total Depth
 BHT .DEGF               260.00 :  Bottom Hole Temperature
 BLI .FT               15710.0000:   Bottom Log Interval
 CSGSIZE.IN              9.6250:   Casing Size
 BITSIZE.IN               8.750 :  BitSize
 CSGD.FT                  4000.0:    Casing Bottom (Driller) 1
 CSGL.FT                  400.0:    Casing Bottom (Logger) 1
 MUD . BRINE                                :    Drilling Fluid Type
 MUDV .CP                  27.0:    Drilling Fluid Viscosity
 MUDD .LB/USG              9.25:    Drilling Fluid Density
 PH.                        6.2:    Drilling Fluid Ph
 FL .ML/30MIN              11.0:    Drilling Fluid Loss
 MUDS .FLOW LINE                        :    Mud Sample Source
 RM .OHMM                   0.09:    Resistivity Of Mud Sample
 RMT .DEGF                 60.00:    Mud Sample Temperature
 RMF .OHMM                  0.09:    Mud Filtrate Resistivity
 RMFT.DEGF                 60.00:    Mud Filtrate Sample Temperature
 RMC .OHMM                  0.00:    Mud Cake Resistivity
 RMCT.DEGF                 00.00:    Mud Cake Sample Temperature
 RMB .OHMM                 0.027:    Mud Resistivity At Bht
 TMAX .DEGF               260.00:    Bottom Hole Temperature
#
~Other Information Block
<DescLogPlotStart>   NEURALOG PLOT DEFINITION
PLOTDEFVERSION: 3
LASFILE: D:\nds\projects\G\DAVE\new work\RS Energy - Texas - May 17 - Folder 2\
DEPTHSCALE: 240.000000
RESOLUTION: 400
DEPTHLABELFREQ: 100.000000
HEAVYGRIDFREQ: 100.000000
MEDIUMGRIDFREQ: 50.000000
LIGHTGRIDFREQ: 10.000000
#
#   TRACK 1
#
STARTTRACK: 
 LEFTX: 0.500000 inch
 RIGHTX: 3.000000 inch
 SCALETYPE: Linear
 NUMCHARTDIVISIONS: 10
CURVE: CALI  6.000000   16.000000  (0,0,255)      Solid             2     N    
CURVE: GR    0.000000   125.000000 (0,131,131)    Dot               2     Y    
BACKUP: 125.000000 250.000000 (0,131,131)    Dot               2    
ENDTRACK: 
#
#   TRACK 2
#
STARTTRACK: 
 LEFTX: 3.500000 inch
 RIGHTX: 8.500000 inch
 SCALETYPE: Linear
 NUMCHARTDIVISIONS: 10
CURVE: DT    100.000000 40.000000  (255,0,255)    Solid             2     Y    
BACKUP: 160.000000 100.000000 (255,0,255)    Solid             2    
ENDTRACK: 
<DescLogPlotEnd>
~A DEPTH     CALI             GR               DT              
    4000.000 12.508           26.286           68.220          
    4000.500 12.501           28.129           68.332          
    4001.000 12.492           31.660           66.437          
    4001.500 12.481           34.684           55.060          
    4002.000 12.479           35.914           55.718          
    4002.500 12.479           35.755           54.665          
    4003.000 12.479           34.133           55.434          
    4003.500 12.479           35.905           56.021          
    4004.000 12.480           39.297           56.608          
    4004.500 12.480           43.761           57.653          
    4005.000 12.480           47.370           58.692          
    4005.500 12.480           46.184           59.409          
    4006.000 12.480           44.003           59.845          
    4006.500 12.481           40.048           57.777          
    4007.000 12.481           38.494           55.494          
    4007.500 12.481           35.998           53.886          
    4008.000 12.481           33.071           52.366          
    4008.500 12.482           30.998           52.994          
    4009.000 12.482           33.190           56.374          
    4009.500 12.482           38.928           59.084          
    4010.000 12.482           46.128           59.366          
    4010.500 12.482           53.749           59.640          
    4011.000 12.483           50.346           57.813          
    4011.500 12.483           42.092           55.019          
    4012.000 12.483           33.505           54.581          
    4012.500 12.483           28.298           54.136          
    4013.000 12.483           26.568           53.464          
    4013.500 12.484           25.990           52.632          
    4014.000 12.484           23.886           51.800          
    4014.500 12.484           21.605           50.968          
    4015.000 12.484           20.365           51.016          
    4015.500 12.485           20.900           51.266          
    4016.000 12.485           21.447           51.608          
    4016.500 12.485           23.660           51.976          
    4017.000 12.485           27.988           52.969          
    4017.500 12.485           39.638           57.051          
    4018.000 12.486           51.319           61.309          
    4018.500 12.486           61.606           64.980          
    4019.000 12.486           64.234           67.562          
    4019.500 12.486           59.846           62.119          
    4020.000 12.486           50.267           62.987          
    4020.500 12.487           42.925           63.959          
    4021.000 12.487           38.249           64.811          
    4021.500 12.487           34.504           66.306          
    4022.000 12.487           35.785           64.571          
    4022.500 12.488           36.318           64.986          
    4023.000 12.488           34.254           66.376          
    4023.500 12.488           34.212           67.691          
    4024.000 12.488           35.596           68.876          
    4024.500 12.488           37.011           68.546          
    4025.000 12.489           35.918           67.951          
    4025.500 12.489           34.497           70.061          
    4026.000 12.489           33.066           70.951          
    4026.500 12.489           33.955           71.134          
    4027.000 12.490           32.767           71.268          
    4027.500 12.490           31.311           71.481          
    4028.000 12.490           32.899           70.867          
    4028.500 12.490           34.912           70.374          
    4029.000 12.490           35.850           72.095          
    4029.500 12.491           36.961           73.622          
    4030.000 12.491           38.572           75.150          
    4030.500 12.491           40.389           75.802          
    4031.000 12.491           42.970           75.687          
    4031.500 12.491           46.613           75.791          
    4032.000 12.492           49.645           76.302          
    4032.500 12.492           47.116           76.815          
    4033.000 12.492           45.350           77.252          
    4033.500 12.492           46.534           76.661          
    4034.000 12.493           46.881           75.895          
    4034.500 12.493           45.260           74.884          
    4035.000 12.493           46.620           73.766          
    4035.500 12.493           47.869           73.061          
    4036.000 12.493           48.623           71.823          
    4036.500 12.494           45.918           70.419          
    4037.000 12.494           42.963           68.506          
    4037.500 12.494           42.071           65.177          
    4038.000 12.494           42.246           61.554          
    4038.500 12.495           39.273           58.005          
    4039.000 12.495           36.243           56.004          
    4039.500 12.495           34.933           55.705          
    4040.000 12.495           35.507           55.857          
    4040.500 12.495           35.331           55.314          
    4041.000 12.496           34.604           54.491          
    4041.500 12.496           34.332           53.427          
    4042.000 12.496           31.396           52.721          
    4042.500 12.496           27.488           52.798          
    4043.000 12.496           28.334           52.751          
    4043.500 12.497           29.273           52.781          
    4044.000 12.497           31.533           53.712          
    4044.500 12.497           35.325           55.975          
    4045.000 12.497           39.117           57.303          
    4045.500 12.498           42.156           57.701          
    4046.000 12.498           41.306           57.289          
    4046.500 12.498           39.798           56.834          
    4047.000 12.498           37.656           55.969          
    4047.500 12.498           35.520           55.060          
    4048.000 12.499           33.383           55.536          
    4048.500 12.499           32.474           56.916          
    4049.000 12.499           35.310           58.713          
    4049.500 12.499           40.380           61.610          
    4050.000 12.499           45.428           63.726          
    4050.500 12.499           48.592           65.678          
    4051.000 12.499           47.375           66.857          
    4051.500 12.499           44.971           67.473          
    4052.000 12.499           43.890           67.397          
    4052.500 12.499           46.772           67.429          
    4053.000 12.499           48.961           68.793          
    4053.500 12.500           48.908           69.680          
    4054.000 12.500           48.651           69.566          
    4054.500 12.500           49.008           70.494          
    4055.000 12.500           48.069           69.883          
    4055.500 12.500           51.046           69.028          
    4056.000 12.500           48.662           69.596          
    4056.500 12.500           46.403           68.161          
    4057.000 12.500           49.289           70.514          
    4057.500 12.500           51.004           67.455          
    4058.000 12.500           52.331           66.563          
    4058.500 12.500           54.468           66.097          
    4059.000 12.501           53.857           71.149          
    4059.500 12.501           56.433           70.542          
    4060.000 12.501           60.901           69.882          
    4060.500 12.501           66.083           69.092          
    4061.000 12.501           60.517           67.383          
    4061.500 12.501           58.582           67.850          
    4062.000 12.501           59.161           68.375          
