###############################################
##         ENVERUS                           ##
##         ESS - Open Hole                   ##
##         PERMIAN / DELAWARE                ##
##         Nov 04 2023  V4.0                 ##
##         42-389-32484-00-00                ##
###############################################
## Copyright 2017-2023  ENVERUS.  All Rights Reserved. 
## Confidential - Property of ENVERUS, use governed by terms and 
## conditions found within the existing Information Services Subscription Agreement 
## (as may be amended, the “ISSA”) between Customer and ENVERUS. 
## 
~VERSION INFORMATION
# MNEM.UNIT                               DATA : DESCRIPTION OF MNEMONIC
#-----.-----     ----------------------------- : -----------------------------
VERS.                                     2.00 : CWLS LOG ASCII STANDARD - VERSION 2.00
WRAP.                                       NO : MULTIPLE LINES PER DEPTH STEP
VEND.                                  ENVERUS : VENDOR
TYPE.                          ESS - OPEN HOLE : ENVERUS ESSENTIAL CURVES – ACCESSIBLE THROUGH ENVERUS PRISM(TM)
DOC.                                  31780441 : ENVERUS HEADER RAW DOCUMENT ID
#___________________________________________________________________________________________________ 
~WELL INFORMATION 
# aTsA/KVwhIqB1dg6n/zy22zTJjsJnyaNqg27ywuj9UrTfzbM7gscpQTlR+gOLN+9jERwUBAE6KvHEXpIT+cpyg== 
# MNEM.UNIT                                              DATA : DESCRIPTION OF MNEMONIC 
#-----.-----                    ----------------------------- : ----------------------------- 
CNTY.                                                  REEVES : COUNTY 
STATE.                                                  TEXAS : STATE 
CNTRY.                                                    USA : COUNTRY 
API.                                             42-389-32484 : API (10 Digit) 
API_14.                                    42-389-32484-00-00 : API (14 Digits) 
API_14_std.                                 42-389-32484-0000 : API (14 Digits Standard) 
UWI.                                           42389324840000 : UNIQUE WELL ID 
WELL.                                        BLK 59 ST 37  1H : WELL NAME
STRT.FT                                                 236.0 : START DEPTH
STOP.FT                                               12079.0 : STOP DEPTH
STEP.FT                                                   0.5 : STEP BETWEEN DEPTHS
NULL.                                                 -999.25 : NULL VALUE
COMP.                                       SHELL WESTERN E&P : COMPANY 
DATE.                                             05-SEP-2007 : LOG DATE
#___________________________________________________________________________________________________ 
~CURVE INFORMATION 
# MNEM.UNIT           : CURVE DESCRIPTION 
#-----.-----          : ----------------------------- 
 DEPT.FT               : MEASURED DEPTH 
 CALI.IN               : CALIPER (CAL - CAL) 
 GR.API                : GAMMA RAY (GR) 
 DT.US/FT              : SONIC DELTA TRANSIT TIME (DT) 
 DPHI.V/V              : DENSITY POROSITY (DPHI) 
 NPHI.V/V              : NEUTRON POROSITY (NPHI) 
 RHOB.G/CC             : BULK DENSITY (RHOB) 
 #___________________________________________________________________________________________________ 
~A         DEPT           CALI             GR             DT           DPHI           NPHI           RHOB
# ...
         9280.0          8.903         71.056         72.685        0.05758        0.09089         2.6060
         9280.5          8.900         81.928         73.701        0.06792        0.10179         2.6000
         9281.0          8.917         92.800         74.717        0.08230        0.11810         2.5740
         9281.5          8.892        103.672         74.920        0.08264        0.13441         2.5530
         9282.0          8.871        105.668         74.608        0.08048        0.14004         2.5590
         9282.5          8.878        106.337         73.865        0.08295        0.13949         2.5610
         9283.0          8.879        107.005         70.938        0.09507        0.14169         2.5510
         9283.5          8.871         99.909         67.998        0.09493        0.14550         2.5420
         9284.0          8.864         89.691         65.057        0.08548        0.13655         2.5460
         9284.5          8.856         79.474         63.364        0.07235        0.12751         2.5640
         9285.0          8.849         69.257         62.176        0.06223        0.11164         2.5830
         9285.5          8.844         59.039         60.989        0.04884        0.09408         2.6010
         9286.0          8.843         51.683         60.086        0.04459        0.07652         2.6200
         9286.5          8.842         51.485         60.470        0.03981        0.06934         2.6370
         9287.0          8.841         51.287         61.888        0.03420        0.06366         2.6530
         9287.5          8.840         50.699         63.307        0.02859        0.05799         2.6760
         9288.0          8.839         49.483         66.107        0.01724        0.05232         2.6980
         9288.5          8.839         48.267         69.135        0.00898        0.05548         2.6930
         9289.0          8.848         58.420         72.163        0.01387        0.06878         2.6840
         9289.5          8.847         70.448         72.992        0.03337        0.09604         2.6600
         9290.0          8.842         82.476         71.055        0.05328        0.12700         2.6250
         9290.5          8.837         94.504         69.075        0.07221        0.15075         2.5890
         9291.0          8.832        100.684         67.095        0.08284        0.16352         2.5650
         9291.5          8.826         95.540         66.107        0.08035        0.16352         2.5580
         9292.0          8.821         86.326         66.708        0.07549        0.14825         2.5510
         9292.5          8.816         77.113         68.082        0.04857        0.13865         2.5630
         9293.0          8.811         67.899         70.894        0.02922        0.11451         2.6150
         9293.5          8.806         64.557         73.907        0.02869        0.08962         2.6540
         9294.0          8.802         75.763         76.919        0.04099        0.08955         2.6330
         9294.5          8.798         86.969         79.046        0.05747        0.13881         2.6100
         9295.0          8.794         98.175         79.197        0.06961        0.15890         2.5870
         9295.5          8.791        127.081         78.739        0.07547        0.16860         2.5640
         9296.0          8.788        158.934         77.686        0.07628        0.18018         2.5620
         9296.5          8.785        202.080         76.633        0.08782        0.19176         2.5580
         9297.0          8.781        245.226         75.580        0.10289        0.20527         2.5430
         9297.5          8.777        190.836         75.353        0.10024        0.21245         2.5280
         9298.0          8.774        130.571         76.511        0.08887        0.20514         2.5350
         9298.5          8.770        121.251         77.936        0.07407        0.15711         2.5860
         9299.0          8.766        124.904         79.149        0.06598        0.13079         2.5750
         9299.5          8.762        180.575         79.208        0.07851        0.13825         2.5640
         9300.0          8.759        220.396         77.895        0.08537        0.19735         2.5530
         9300.5          8.756        228.744         75.123        0.08932        0.21211         2.5420
         9301.0          8.753        195.627         70.870        0.08596        0.21220         2.5490
         9301.5          8.750        147.028         67.458        0.08036        0.20110         2.5610
         9302.0          8.747        115.964         65.770        0.06969        0.18003         2.5730
         9302.5          8.744         91.524         65.520        0.06645        0.15747         2.5850
         9303.0          8.740         79.867         67.289        0.06116        0.13490         2.5960
         9303.5          8.740         68.209         70.539        0.04893        0.11372         2.6090
         9304.0          8.748         60.076         73.788        0.03690        0.09253         2.6250
         9304.5          8.757         77.997         77.037        0.04450        0.08830         2.6410
         9305.0          8.766         97.954         79.648        0.05505        0.10702         2.6100
         9305.5          8.759        105.818         81.210        0.07448        0.12960         2.5790
         9306.0          8.742        113.683         82.636        0.09727        0.15152         2.5470
         9306.5          8.725        121.547         82.636        0.11484        0.17649         2.5160
         9307.0          8.711        126.299         81.917        0.11768        0.20300         2.4840
         9307.5          8.706        126.521         81.146        0.11115        0.20181         2.4830
         9308.0          8.701        124.243         80.375        0.10110        0.19879         2.5020
         9308.5          8.740        121.966         79.605        0.09963        0.20159         2.5190
         9309.0          8.750        124.017         77.352        0.10148        0.20252         2.5190
         9309.5          8.749        126.871         75.089        0.09923        0.19373         2.5190
         9310.0          8.747        122.385         72.825        0.09162        0.18404         2.5190
         9310.5          8.746        112.793         70.562        0.08199        0.17315         2.5270
         9311.0          8.745        103.202         68.418        0.07237        0.15760         2.5550
         9311.5          8.737         93.610         67.614        0.06463        0.13920         2.5870
         9312.0          8.720         90.331         68.998        0.06330        0.12081         2.5910
         9312.5          8.721         90.331         70.623        0.06491        0.10596         2.5910
         9313.0          8.723         89.136         72.263        0.06167        0.10317         2.5950
         9313.5          8.724         84.577         74.411        0.05505        0.10039         2.6030
         9314.0          8.725         86.168         76.559        0.05005        0.09887         2.6120
         9314.5          8.711         98.338         78.591        0.06850        0.11247         2.6190
         9315.0          8.698        106.809         78.717        0.08794        0.12770         2.5830
         9315.5          8.717        102.370         77.205        0.10094        0.15178         2.5460
         9316.0          8.722         97.932         75.350        0.10686        0.17649         2.5100
         9316.5          8.724         93.692         74.309        0.10585        0.17788         2.5040
         9317.0          8.727         92.271         74.177        0.10689        0.17546         2.5020
         9317.5          8.729         90.849         74.503        0.10717        0.16850         2.5120
