###############################################
##         ENVERUS                           ##
##         ESS - Open Hole                   ##
##         PERMIAN / DELAWARE                ##
##         Nov 04 2023  V4.0                 ##
##         42-389-32730-00-00                ##
###############################################
## Copyright 2017-2023  ENVERUS.  All Rights Reserved. 
## Confidential - Property of ENVERUS, use governed by terms and 
## conditions found within the existing Information Services Subscription Agreement 
## (as may be amended, the “ISSA”) between Customer and ENVERUS. 
## 
~VERSION INFORMATION
# MNEM.UNIT                               DATA : DESCRIPTION OF MNEMONIC
#-----.-----     ----------------------------- : -----------------------------
VERS.                                     2.00 : CWLS LOG ASCII STANDARD - VERSION 2.00
WRAP.                                       NO : MULTIPLE LINES PER DEPTH STEP
VEND.                                  ENVERUS : VENDOR
TYPE.                          ESS - OPEN HOLE : ENVERUS ESSENTIAL CURVES – ACCESSIBLE THROUGH ENVERUS PRISM(TM)
DOC.                                  19552736 : ENVERUS HEADER RAW DOCUMENT ID
#___________________________________________________________________________________________________ 
~WELL INFORMATION 
# Emv0q1Fc4UOVqi1FEPTQ50pHgS2U6oO6A9wxQf5ozJtTAVTQXtUhuyCOytio7eHVwvke0CQF/LYkoyLsbhUTsQ== 
# MNEM.UNIT                                              DATA : DESCRIPTION OF MNEMONIC 
#-----.-----                    ----------------------------- : ----------------------------- 
CNTY.                                                  REEVES : COUNTY 
STATE.                                                  TEXAS : STATE 
CNTRY.                                                    USA : COUNTRY 
API.                                             42-389-32730 : API (10 Digit) 
API_14.                                    42-389-32730-00-00 : API (14 Digits) 
API_14_std.                                 42-389-32730-0000 : API (14 Digits Standard) 
UWI.                                           42389327300000 : UNIQUE WELL ID 
WELL.                                  BIG SKY 55 - 16 NO. 1H : WELL NAME
STRT.FT                                                3850.0 : START DEPTH
STOP.FT                                               12070.5 : STOP DEPTH
STEP.FT                                                   0.5 : STEP BETWEEN DEPTHS
NULL.                                                 -999.25 : NULL VALUE
COMP.                                      CIMAREX ENERGY CO. : COMPANY 
FLD.                                                  WILDCAT : FIELD 
SRVC.                                             HALLIBURTON : SERVICE COMPANY 
DATE.                                              03/23/2011 : DATE 
TVD.                                                       NO : TVD FLAG 
WSTA.                                                     LOC : WELL STATUS
#___________________________________________________________________________________________________ 
~PARAMETER INFORMATION 
# MNEM.UNIT                                              DATA : DESCRIPTION OF MNEMONIC 
#-----.-----                    ----------------------------- : ----------------------------- 
RUN.                                                      ONE : RUN NUMBER 
PDAT.                                                      GL : PERMANENT DATUM 
EPD.FT                                              2996.0000 : ELEVATION OF PERM. DATUM 
LMF.                                            KELLY BUSHING : LOG MEASURED FROM 
EKB.FT                                              3021.0000 : ELEVATION OF KELLY BUSHING 
DF.FT                                               3020.0000 : ELEVATION OF DERRICK FLOOR 
GL.FT                                               2996.0000 : ELEVATION OF GROUND LEVEL 
TD.FT                                              12100.0000 : TOTAL DEPTH 
CSGD.FT                                                  3861 : CASING BOTTOM (DRILLER) 1 
CSGL.FT                                                  3855 : CASING BOTTOM (LOGGER) 1 
MUD.                                                    BRINE : DRILLING FLUID TYPE 
MUDV.CP                                               36.0000 : DRILLING FLUID VISCOSITY 
MUDD.LB/USG                                           10.1000 : DRILLING FLUID DENSITY 
PH.                                                   10.0000 : DRILLING FLUID PH 
MUDS.                                                FLOWLINE : MUD SAMPLE SOURCE 
RM.OHMM                                                0.0600 : RESISTIVITY OF MUD SAMPLE 
RMT.DEGF                                              75.0000 : MUD SAMPLE TEMPERATURE 
RMF.OHMM                                               0.0400 : MUD FILTRATE RESISTIVITY 
RMFT.DEGF                                             75.0000 : MUD FILTRATE SAMPLE TEMPERATURE 
RMC.OHMM                                               0.0600 : MUD CAKE RESISTIVITY 
RMCT.DEGF                                             75.0000 : MUD CAKE SAMPLE TEMPERATURE 
RMB.OHMM                                               0.0240 : MUD RESISTIVITY AT BHT 
TMAX.DEGF                                            200.0000 : BOTTOM HOLE TEMPERATURE
#___________________________________________________________________________________________________ 
~CURVE INFORMATION 
# MNEM.UNIT           : CURVE DESCRIPTION 
#-----.-----          : ----------------------------- 
 DEPT.FT               : MEASURED DEPTH 
 GR.API                : GAMMA RAY (GAMMA RAY) 
 DT.US/FT              : SONIC DELTA TRANSIT TIME (DELTA T) 
 RESD_LL.OHMM          : DEEP LATEROLOG (LLD - DEEP LATEROLOG) 
 DPHI.V/V              : DENSITY POROSITY (DENSITY POROSITY) 
 NPHI.V/V              : NEUTRON POROSITY (NEUTRON POROSITY) 
 #___________________________________________________________________________________________________ 
~A         DEPT             GR             DT        RESD_LL           DPHI           NPHI
# ...
        10362.0         31.363         71.593         9.2500        0.11800        0.10300
        10362.5         29.660         71.916         9.8130        0.12400        0.10300
        10363.0         29.784         72.240        10.2190        0.12600        0.10200
        10363.5         29.869         72.284        10.6470        0.12500        0.09900
        10364.0         29.991         72.356        10.8750        0.12500        0.09700
        10364.5         30.740         72.438        10.4020        0.12500        0.09700
        10365.0         32.022         72.521        10.0160        0.12600        0.09800
        10365.5         34.080         72.603         9.7110        0.12600        0.09900
        10366.0         36.128         72.727         9.3960        0.12800        0.09900
        10366.5         38.084         72.895         9.0710        0.13200        0.10000
        10367.0         38.811         73.064         8.7580        0.13600        0.10100
        10367.5         39.486         73.245         8.4560        0.13900        0.10200
        10368.0         40.163         73.444         8.1640        0.13800        0.10300
        10368.5         40.833         73.659         7.8820        0.13700        0.10400
        10369.0         41.602         73.851         7.6100        0.13700        0.10500
        10369.5         42.346         73.718         7.3800        0.13700        0.10700
        10370.0         43.017         73.326         7.3830        0.13700        0.10900
        10370.5         44.911         72.935         7.3820        0.13200        0.10900
        10371.0         46.827         72.527         7.3820        0.11200        0.11500
        10371.5         48.699         72.567         7.3820        0.09200        0.12000
        10372.0         49.474         72.614         7.3520        0.08500        0.12500
        10372.5         48.910         72.788         7.3000        0.08500        0.12800
        10373.0         48.398         73.170         7.2480        0.08700        0.13200
        10373.5         48.453         73.491         7.1960        0.09000        0.13400
        10374.0         48.580         73.381         7.1450        0.09400        0.13500
        10374.5         48.712         73.106         7.0940        0.09900        0.13500
        10375.0         48.841         72.787         7.0440        0.09700        0.13500
        10375.5         48.702         72.288         6.9940        0.09200        0.13600
        10376.0         46.407         71.791         6.3880        0.08700        0.13600
        10376.5         44.086         71.288         5.7210        0.08600        0.13500
        10377.0         41.810         71.309         4.9200        0.09900        0.12600
        10377.5         40.410         71.438         5.1950        0.11100        0.11700
        10378.0         42.241         71.563         5.6570        0.11400        0.11400
        10378.5         44.977         71.563         6.1380        0.10600        0.11800
        10379.0         47.715         71.563         6.9260        0.08800        0.12200
        10379.5         50.428         71.563         7.7790        0.07300        0.12200
        10380.0         52.630         71.149         8.7360        0.06400        0.12200
        10380.5         53.711         70.562         9.8110        0.05700        0.12800
        10381.0         53.779         70.311        10.6780        0.03500        0.13700
        10381.5         53.763         70.917        10.5870        0.02100        0.14100
        10382.0         53.791         71.741        10.4840        0.04900        0.13500
        10382.5         49.826         71.988        10.3830        0.08100        0.12700
        10383.0         42.893         71.625        10.2890        0.11100        0.12000
        10383.5         37.489         71.383        10.0710        0.10900        0.11200
        10384.0         35.224         71.262         9.8710        0.10500        0.10700
        10384.5         33.068         71.423         9.5440        0.10200        0.10200
        10385.0         32.121         71.854         8.9540        0.09800        0.10000
        10385.5         32.143         72.291         8.4010        0.09400        0.10400
        10386.0         33.272         72.462         7.9470        0.09600        0.10800
        10386.5         36.751         72.545         8.6160        0.09900        0.10600
        10387.0         40.244         72.625         9.2540        0.10200        0.10500
        10387.5         44.847         72.738         9.8040        0.10300        0.10500
        10388.0         49.438         72.709        10.2700        0.09000        0.11400
        10388.5         51.385         72.392        10.7610        0.07600        0.12700
        10389.0         44.861         70.981        11.2650        0.07300        0.11800
        10389.5         39.608         70.361        11.7060        0.07400        0.10800
        10390.0         34.597         70.950         9.2120        0.07600        0.09800
        10390.5         35.880         72.048         8.7450        0.07800        0.11000
        10391.0         38.187         73.499         8.5560        0.08200        0.11900
        10391.5         38.181         74.088         8.9570        0.08600        0.11300
        10392.0         36.960         74.088         9.1690        0.08900        0.10700
        10392.5         36.460         74.088         9.3870        0.09100        0.10400
        10393.0         38.819         75.178         9.7900        0.08900        0.11000
        10393.5         43.947         76.854        10.9440        0.08800        0.12400
        10394.0         49.508         79.983        12.2330        0.08600        0.13900
        10394.5         58.198         83.044        13.6430        0.09100        0.15300
        10395.0         66.734         86.106        15.0910        0.11000        0.17100
        10395.5         73.308         86.473        19.4190        0.12800        0.18800
        10396.0         73.692         85.511        29.7470        0.13200        0.18700
        10396.5         61.526         78.988        45.6600        0.09700        0.18300
        10397.0         47.722         72.125        54.9820        0.06400        0.16100
        10397.5         34.067         70.240        59.4260        0.02700        0.13600
        10398.0         31.118         71.295        48.5060        0.02900        0.11700
        10398.5         31.255         73.118        50.4530        0.06800        0.11600
        10399.0         31.331         72.141        53.1960        0.09600        0.12100
        10399.5         31.378         71.190        44.3720        0.08000        0.12600
        10400.0         31.498         72.178        36.1800        0.05800        0.12000
        10400.5         36.560         74.085        28.9300        0.05100        0.11400
        10401.0         42.286         77.534        29.9160        0.09100        0.13400
        10401.5         44.890         78.150        31.1470        0.09800        0.15100
        10402.0         43.758         75.726        38.2330        0.09000        0.13700
        10402.5         35.821         71.443        54.9590        0.07700        0.11500
        10403.0         27.581         66.598        75.5410        0.06300        0.09400
        10403.5         24.819         64.729        61.8560        0.05600        0.07900
        10404.0         24.173         64.334        51.7750        0.05000        0.06900
        10404.5         26.886         66.858        43.3370        0.05600        0.07900
        10405.0         31.827         71.206        36.2740        0.06900        0.10000
        10405.5         37.930         75.352        31.1470        0.07600        0.12700
