###############################################
##         ENVERUS                           ##
##         ESS - Open Hole                   ##
##         PERMIAN / DELAWARE                ##
##         Nov 04 2023  V4.0                 ##
##         42-389-30297-00-00                ##
###############################################
## Copyright 2017-2023  ENVERUS.  All Rights Reserved. 
## Confidential - Property of ENVERUS, use governed by terms and 
## conditions found within the existing Information Services Subscription Agreement 
## (as may be amended, the “ISSA”) between Customer and ENVERUS. 
## 
~VERSION INFORMATION
# MNEM.UNIT                               DATA : DESCRIPTION OF MNEMONIC
#-----.-----     ----------------------------- : -----------------------------
VERS.                                     2.00 : CWLS LOG ASCII STANDARD - VERSION 2.00
WRAP.                                       NO : MULTIPLE LINES PER DEPTH STEP
VEND.                                  ENVERUS : VENDOR
TYPE.                          ESS - OPEN HOLE : ENVERUS ESSENTIAL CURVES – ACCESSIBLE THROUGH ENVERUS PRISM(TM)
DOC.                                  32306493 : ENVERUS HEADER RAW DOCUMENT ID
#___________________________________________________________________________________________________ 
~WELL INFORMATION 
# rQStLE5sYsP+YdYw4QOWpp6z6mWwFJBvCxgTqRv2Ioz+qyoYLl+79qTOna8BSHgUk5jTgp49hkgrAQ1kFKyHCg== 
# MNEM.UNIT                                              DATA : DESCRIPTION OF MNEMONIC 
#-----.-----                    ----------------------------- : ----------------------------- 
CNTY.                                                  REEVES : COUNTY 
STATE.                                                  TEXAS : STATE 
CNTRY.                                                    USA : COUNTRY 
API.                                             42-389-30297 : API (10 Digit) 
API_14.                                    42-389-30297-00-00 : API (14 Digits) 
API_14_std.                                 42-389-30297-0000 : API (14 Digits Standard) 
UWI.                                           42389302970000 : UNIQUE WELL ID 
WELL.                              R.S. BRENNAND, JR. ET AL 1 : WELL NAME
STRT.FT                                                   3.0 : START DEPTH
STOP.FT                                               13007.0 : STOP DEPTH
STEP.FT                                                   0.5 : STEP BETWEEN DEPTHS
NULL.                                                 -999.25 : NULL VALUE
#___________________________________________________________________________________________________ 
~CURVE INFORMATION 
# MNEM.UNIT           : CURVE DESCRIPTION 
#-----.-----          : ----------------------------- 
 DEPT.FT               : MEASURED DEPTH 
 CALI.IN               : CALIPER (CAL - CAL) 
 GR.API                : GAMMA RAY (GR) 
 DT.US/FT              : SONIC DELTA TRANSIT TIME (DT) 
 NPHI.V/V              : NEUTRON POROSITY (NPHI) 
 RHOB.G/CC             : BULK DENSITY (RHOB) 
 #___________________________________________________________________________________________________ 
~A         DEPT           CALI             GR             DT           NPHI           RHOB
# ...
        10783.0          7.115        104.985         71.577     -999.25000         2.6575
        10783.5          7.117        102.397         71.023     -999.25000         2.6651
        10784.0          7.118         99.809         70.468     -999.25000         2.6594
        10784.5          7.120         97.221         69.914     -999.25000         2.6516
        10785.0          7.122        100.462         69.360     -999.25000         2.6437
        10785.5          7.123        104.448         70.896     -999.25000         2.6359
        10786.0          7.125        108.435         75.887     -999.25000         2.6280
        10786.5          7.126        111.271         77.538     -999.25000         2.6142
        10787.0          7.128        109.796         76.935     -999.25000         2.5796
        10787.5          7.129        108.320         76.332     -999.25000         2.5449
        10788.0          7.129        106.844         75.729     -999.25000         2.5324
        10788.5          7.127        105.368         75.126     -999.25000         2.5277
        10789.0          7.126        103.893         74.523     -999.25000         2.5229
        10789.5          7.125        102.417         73.920     -999.25000         2.5182
        10790.0          7.124        100.941         73.367     -999.25000         2.5134
        10790.5          7.122        101.901         73.750     -999.25000         2.4891
        10791.0          7.121        104.466         74.132     -999.25000         2.3868
        10791.5          7.120        106.741         74.515     -999.25000         2.5767
        10792.0          7.119        105.565         74.898     -999.25000         2.6646
        10792.5          7.117        104.388         75.280     -999.25000         2.6539
        10793.0          7.116        103.212         74.813     -999.25000         2.6433
        10793.5          7.115        102.036         74.276     -999.25000         2.6326
        10794.0          7.114        100.859         73.740     -999.25000         2.6220
        10794.5          7.112        102.291         73.204     -999.25000         2.6113
        10795.0          7.111        105.581         72.667     -999.25000         2.6205
        10795.5          7.110        108.871         73.056     -999.25000         2.6304
        10796.0          7.109        112.161         74.924     -999.25000         2.6404
        10796.5          7.107        110.867         74.388     -999.25000         2.6503
        10797.0          7.106        108.787         73.445     -999.25000         2.6603
        10797.5          7.105        106.707         72.502     -999.25000         2.6702
        10798.0          7.104        104.628         71.559     -999.25000         2.6580
        10798.5          7.102        102.548         70.615     -999.25000         2.6276
        10799.0          7.101        108.494         69.672     -999.25000         2.6035
        10799.5          7.100        109.107         70.425     -999.25000         2.6201
        10800.0          7.099        108.052         71.580     -999.25000         2.6366
        10800.5          7.097        106.997         72.736     -999.25000         2.6523
        10801.0          7.096        105.942         73.891     -999.25000         2.6422
        10801.5          7.095        104.886         74.014     -999.25000         2.6321
        10802.0          7.094        103.777         73.569     -999.25000         2.6220
        10802.5          7.092        102.540         73.124     -999.25000         2.6229
        10803.0          7.091        101.304         72.680     -999.25000         2.6364
        10803.5          7.090        100.067         72.235     -999.25000         2.6499
        10804.0          7.089         99.842         71.791     -999.25000         2.6634
        10804.5          7.087        104.498         71.442     -999.25000         2.6759
        10805.0          7.086        109.153         71.881     -999.25000         2.6710
        10805.5          7.085        108.962         72.319     -999.25000         2.6660
        10806.0          7.084        107.202         72.758     -999.25000         2.6610
        10806.5          7.082        105.443         73.197     -999.25000         2.6560
        10807.0          7.081        104.550         73.635     -999.25000         2.6510
        10807.5          7.080        105.955         74.074     -999.25000         2.6541
        10808.0          7.079        107.360         74.496     -999.25000         2.6649
        10808.5          7.078        108.765         74.836     -999.25000         2.6758
        10809.0          7.076        110.170         75.176     -999.25000         2.6759
        10809.5          7.075        111.575         75.327     -999.25000         2.6754
        10810.0          7.074        110.746         73.580     -999.25000         2.6750
        10810.5          7.073        107.141         71.984     -999.25000         2.6745
        10811.0          7.071        103.535         70.650     -999.25000         2.6741
        10811.5          7.071         99.930         69.316     -999.25000         2.6736
        10812.0          7.074         96.324         69.421     -999.25000         2.6565
        10812.5          7.076         94.536         70.358     -999.25000         2.6367
        10813.0          7.078         96.196         71.296     -999.25000         2.6169
        10813.5          7.080         97.856         72.234     -999.25000         2.6213
        10814.0          7.082         99.516         72.411     -999.25000         2.6299
        10814.5          7.084        101.176         72.333     -999.25000         2.6385
        10815.0          7.087        102.836         72.255     -999.25000         2.6471
        10815.5          7.089        104.496         72.178     -999.25000         2.6557
        10816.0          7.091        106.156         72.392     -999.25000         2.6536
        10816.5          7.093        107.816         72.741     -999.25000         2.6467
        10817.0          7.095        109.476         73.090     -999.25000         2.6398
        10817.5          7.098        108.983         73.439     -999.25000         2.6329
        10818.0          7.100        107.507         73.387     -999.25000         2.6391
        10818.5          7.102        106.030         72.423     -999.25000         2.6596
        10819.0          7.104        104.554         71.459     -999.25000         2.6787
        10819.5          7.106        104.337         70.495     -999.25000         2.6667
        10820.0          7.108        105.206         70.602     -999.25000         2.6547
        10820.5          7.111        106.074         71.569     -999.25000         2.6427
        10821.0          7.113        106.943         72.537     -999.25000         2.6306
        10821.5          7.115        107.811         73.505     -999.25000         2.6186
        10822.0          7.117        108.679         73.044     -999.25000         2.6116
        10822.5          7.119        109.548         72.516     -999.25000         2.6174
        10823.0          7.122        110.416         71.988     -999.25000         2.6232
        10823.5          7.124        109.944         71.460     -999.25000         2.6291
        10824.0          7.126        108.817         71.797     -999.25000         2.6349
        10824.5          7.128        107.690         72.249     -999.25000         2.6405
        10825.0          7.130        106.563         72.700     -999.25000         2.6411
        10825.5          7.132        105.436         73.151     -999.25000         2.6416
        10826.0          7.135        104.309         72.811     -999.25000         2.6422
        10826.5          7.137        103.182         72.297     -999.25000         2.6428
