###############################################
##         ENVERUS                           ##
##         ESS - Open Hole                   ##
##         PERMIAN / DELAWARE                ##
##         Nov 04 2023  V4.0                 ##
##         42-389-32353-00-00                ##
###############################################
## Copyright 2017-2023  ENVERUS.  All Rights Reserved. 
## Confidential - Property of ENVERUS, use governed by terms and 
## conditions found within the existing Information Services Subscription Agreement 
## (as may be amended, the “ISSA”) between Customer and ENVERUS. 
## 
~VERSION INFORMATION
# MNEM.UNIT                               DATA : DESCRIPTION OF MNEMONIC
#-----.-----     ----------------------------- : -----------------------------
VERS.                                     2.00 : CWLS LOG ASCII STANDARD - VERSION 2.00
WRAP.                                       NO : MULTIPLE LINES PER DEPTH STEP
VEND.                                  ENVERUS : VENDOR
TYPE.                          ESS - OPEN HOLE : ENVERUS ESSENTIAL CURVES – ACCESSIBLE THROUGH ENVERUS PRISM(TM)
DOC.                                  31816014 : ENVERUS HEADER RAW DOCUMENT ID
#___________________________________________________________________________________________________ 
~WELL INFORMATION 
# N6wmpYeOPIEODBGNmaSz+o1WStwpnSM+Mr70h4S2k9wmNhpeTZrfoFyYX6I24xyp8IiB7B51j2C/wpla6NseZQ== 
# MNEM.UNIT                                              DATA : DESCRIPTION OF MNEMONIC 
#-----.-----                    ----------------------------- : ----------------------------- 
CNTY.                                                  REEVES : COUNTY 
STATE.                                                  TEXAS : STATE 
CNTRY.                                                    USA : COUNTRY 
API.                                             42-389-32353 : API (10 Digit) 
API_14.                                    42-389-32353-00-00 : API (14 Digits) 
API_14_std.                                 42-389-32353-0000 : API (14 Digits Standard) 
UWI.                                           42389323530000 : UNIQUE WELL ID 
WELL.                                             DORNFIELD 1 : WELL NAME
STRT.FT                                                 210.0 : START DEPTH
STOP.FT                                               13522.0 : STOP DEPTH
STEP.FT                                                   0.5 : STEP BETWEEN DEPTHS
NULL.                                                 -999.25 : NULL VALUE
LOC.                                                      UNK : LOCATION 
SRVC.                                                     UNK : SERVICE COMPANY
#___________________________________________________________________________________________________ 
~CURVE INFORMATION 
# MNEM.UNIT           : CURVE DESCRIPTION 
#-----.-----          : ----------------------------- 
 DEPT.FT               : MEASURED DEPTH 
 CALI.IN               : CALIPER (CAL - CAL) 
 GR.API                : GAMMA RAY (GR) 
 DT.US/FT              : SONIC DELTA TRANSIT TIME (DT) 
 RESS.OHMM             : SHALLOW INDUCTION RESISTIVITY (ILS - ILS) 
 RESD.OHMM             : DEEP INDUCTION RESISTIVITY (ILD - ILD) 
 DPHI.V/V              : DENSITY POROSITY (DPHI) 
 NPHI.V/V              : NEUTRON POROSITY (NPHI) 
 RHOB.G/CC             : BULK DENSITY (RHOB) 
 #___________________________________________________________________________________________________ 
~A         DEPT           CALI             GR             DT           RESS           RESD           DPHI           NPHI           RHOB
# ...
        10889.0          9.610         58.913         67.840         36.778         45.653        0.20177        0.10779         2.4983
        10889.5          9.265         49.206         64.830         37.163         45.534        0.13079        0.09235         2.5301
        10890.0          9.170         39.499         63.998         37.548         45.415        0.06340        0.09069         2.5539
        10890.5          9.172         34.367         63.129         37.932         46.387        0.06213        0.09090         2.5737
        10891.0          9.173         35.101         62.261         41.286         58.715        0.05579        0.09110         2.5303
        10891.5          9.175         36.739         61.392         45.468         98.513        0.04851        0.09072         2.4869
        10892.0          9.177         40.388         61.045         14.433         15.907        0.04324        0.08927         2.4420
        10892.5          9.179         44.037         60.994         27.071         36.784        0.07413        0.08782         2.4684
        10893.0          9.181         47.685         60.111         43.976         60.592        0.10501        0.10803         2.5136
        10893.5          9.183         51.334         59.136         42.909         58.795        0.12136        0.12828         2.5588
        10894.0          9.185         54.382         58.160         41.843         54.220        0.09496        0.10638         2.5577
        10894.5          9.187         54.840         58.686         40.776         49.646        0.06855        0.08449         2.5448
        10895.0          9.188         55.297         59.767         41.473         50.456        0.05025        0.06706         2.5320
        10895.5          9.190         62.717         60.847         42.287         51.323        0.04887        0.07116         2.5337
        10896.0          9.192         72.381         62.752         43.102         52.393        0.05931        0.07750         2.5477
        10896.5          9.194         82.044         64.958         43.917         46.302        0.07545        0.09671         2.5617
        10897.0          9.196         92.046         67.163         34.214         37.288        0.07352        0.11592         2.5757
        10897.5          9.198         94.922         69.042         21.395         28.273        0.05815        0.13513         2.4615
        10898.0          9.200         94.412         75.825         12.712         19.259        0.04278        0.16157         2.2974
        10898.5          9.202         94.022         76.265          8.620         11.567        0.09265        0.19394         2.4236
        10899.0          9.286         94.021         71.991         18.642         14.444        0.20322        0.22631         2.5497
        10899.5          9.463         94.020         66.764         19.115         20.392        0.17085        0.25869         2.5939
        10900.0          9.626         89.619         66.947         20.629         21.666        0.10029        0.29106         2.5500
        10900.5          9.464         88.818         69.343         23.052         20.480        0.03017        0.28777         2.5061
        10901.0          9.529         93.096         71.738         17.655         15.290        0.05765        0.24432         2.4622
        10901.5          9.672        100.133         71.449         11.610         12.557        0.11754        0.21709         2.4184
        10902.0          9.816        100.123         68.368          9.260          9.824        0.14525        0.20161         2.3745
        10902.5          9.960         80.332         68.335         13.143         46.982        0.17151        0.18871         2.3903
        10903.0         10.104         57.849         67.314        175.594        196.060        0.19777        0.19411         2.5098
        10903.5         10.229         43.690         63.077        543.335        613.597        0.15308        0.19952         2.6293
        10904.0          9.899         38.714         58.841        214.626        463.434        0.07843        0.17088         2.6520
        10904.5          9.416         38.893         57.196        201.840        313.271        0.00703        0.09826         2.6297
        10905.0          9.021         39.072         56.386        189.053        256.236       -0.01501        0.04688         2.6074
        10905.5          9.011         39.251         56.951        180.204        264.602        0.00462        0.05636         2.6027
        10906.0          9.001         40.766         57.858        173.781        241.425        0.02530        0.07859         2.6296
        10906.5          8.991         57.405         66.360        167.358        223.727        0.01151        0.10082         2.6539
        10907.0          8.981         82.109         73.296        160.935        206.693       -0.00500        0.12305         2.6781
        10907.5          8.971        102.887         75.649         68.867         75.619       -0.02150        0.15491         2.6808
        10908.0          8.961        110.550         76.399         16.723         24.495       -0.02690        0.18470         2.6589
        10908.5          8.951        107.010         76.004         17.647         20.739       -0.02755        0.19713         2.6369
        10909.0          8.941        103.737         75.800         49.009         26.858       -0.00135        0.19804         2.6149
        10909.5          8.931        100.465         75.360         80.654         65.909        0.02485        0.17110         2.6053
        10910.0          8.921         98.884         73.192        112.299        123.494        0.02520        0.15545         2.6053
        10910.5          8.911         98.374         71.025        129.287        169.885        0.02433        0.15365         2.6053
        10911.0          8.902         97.864         70.653        115.714        152.652        0.02638        0.15185         2.6053
        10911.5          8.892         95.243         70.805        102.141        135.419        0.02840        0.14819         2.6053
        10912.0          8.882         88.541         69.971         97.041        121.555        0.02637        0.14150         2.6053
        10912.5          8.872         78.570         66.860         97.039        121.553        0.02536        0.13490         2.6053
        10913.0          8.862         54.494         63.750         97.037        121.550        0.02566        0.11177         2.6070
        10913.5          8.852         40.582         59.684         96.412        119.903        0.01434        0.09091         2.6256
        10914.0          8.842         22.847         55.646         93.186         94.410       -0.00414        0.07006         2.6571
        10914.5          8.853         17.219         53.449         89.960         96.222       -0.02261        0.04985         2.6886
        10915.0          8.881         14.971         52.598         87.574        105.078       -0.03353        0.03945         2.7201
        10915.5          8.903         15.843         52.566        147.865        149.114       -0.04425        0.03929         2.7354
        10916.0          8.926         22.192         56.944        132.210        126.487       -0.06195        0.03914         2.7270
        10916.5          8.948         29.554         61.771         79.670         65.993       -0.05177        0.03899         2.6170
        10917.0          8.970         39.572         66.597         27.131         16.555       -0.02472        0.03883         2.6267
        10917.5          8.992         62.765         68.103         13.441         14.615        0.00234        0.04070         2.6363
        10918.0          9.015         85.958         69.980         14.854         18.513        0.01971        0.07186         2.6460
