###############################################
##         ENVERUS                           ##
##         ESS - Open Hole                   ##
##         PERMIAN / DELAWARE                ##
##         Nov 02 2023  V4.0                 ##
##         42-301-31112-00-00                ##
###############################################
## Copyright 2017-2023  ENVERUS.  All Rights Reserved. 
## Confidential - Property of ENVERUS, use governed by terms and 
## conditions found within the existing Information Services Subscription Agreement 
## (as may be amended, the “ISSA”) between Customer and ENVERUS. 
## 
~VERSION INFORMATION
# MNEM.UNIT                               DATA : DESCRIPTION OF MNEMONIC
#-----.-----     ----------------------------- : -----------------------------
VERS.                                     2.00 : CWLS LOG ASCII STANDARD - VERSION 2.00
WRAP.                                       NO : MULTIPLE LINES PER DEPTH STEP
VEND.                                  ENVERUS : VENDOR
TYPE.                          ESS - OPEN HOLE : ENVERUS ESSENTIAL CURVES – ACCESSIBLE THROUGH ENVERUS PRISM(TM)
DOC.                                  31879965 : ENVERUS HEADER RAW DOCUMENT ID
#___________________________________________________________________________________________________ 
~WELL INFORMATION 
# p11foxtE5QnwhaJbtzBz2LJF4p4dkL7jzyXNzohJvMqLCglFSJK87xuVm3WB3m+8huK6qzS+fp5X73xeHrMy5w== 
# MNEM.UNIT                                              DATA : DESCRIPTION OF MNEMONIC 
#-----.-----                    ----------------------------- : ----------------------------- 
CNTY.                                                  LOVING : COUNTY 
STATE.                                                  TEXAS : STATE 
CNTRY.                                                    USA : COUNTRY 
API.                                             42-301-31112 : API (10 Digit) 
API_14.                                    42-301-31112-00-00 : API (14 Digits) 
API_14_std.                                 42-301-31112-0000 : API (14 Digits Standard) 
UWI.                                           42301311120000 : UNIQUE WELL ID 
WELL.                                                    JR 1 : WELL NAME
STRT.FT                                                3102.0 : START DEPTH
STOP.FT                                               15993.0 : STOP DEPTH
STEP.FT                                                   0.5 : STEP BETWEEN DEPTHS
NULL.                                                 -999.25 : NULL VALUE
LOC.                                                      UNK : LOCATION 
SRVC.                                                     UNK : SERVICE COMPANY
#___________________________________________________________________________________________________ 
~CURVE INFORMATION 
# MNEM.UNIT           : CURVE DESCRIPTION 
#-----.-----          : ----------------------------- 
 DEPT.FT               : MEASURED DEPTH 
 CALI.IN               : CALIPER (CAL - CAL) 
 GR.API                : GAMMA RAY (GR) 
 DT.US/FT              : SONIC DELTA TRANSIT TIME (DT) 
 #___________________________________________________________________________________________________ 
~A         DEPT           CALI             GR             DT
# ...
         4950.0         15.397         27.060        131.418
         4950.5         15.410         28.244        160.025
         4951.0         15.430         28.681        160.025
         4951.5         15.455         29.118        119.969
         4952.0         15.480         28.889         84.967
         4952.5         15.505         28.192         63.626
         4953.0         15.560         27.495         79.538
         4953.5         15.629         27.393         99.517
         4954.0         15.697         29.354         85.079
         4954.5         15.766         31.314         80.424
         4955.0         15.834         33.274         77.608
         4955.5         15.902         34.238         77.494
         4956.0         15.927         35.009         77.856
         4956.5         15.943         36.338         78.521
         4957.0         15.959         38.294         79.185
         4957.5         15.975         39.839         79.481
         4958.0         15.992         39.548         79.012
         4958.5         16.008         39.258         78.543
         4959.0         16.002         38.934         78.634
         4959.5         15.996         37.724         78.936
         4960.0         15.990         36.514         79.238
         4960.5         15.984         35.304         79.540
         4961.0         15.978         34.095         79.842
         4961.5         15.972         33.724         80.144
         4962.0         15.965         34.642         79.479
         4962.5         15.959         36.767         77.869
         4963.0         15.953         38.329         77.603
         4963.5         15.947         38.797         77.810
         4964.0         15.941         37.865         78.017
         4964.5         15.935         35.937         78.224
         4965.0         15.933         33.623         78.431
         4965.5         15.938         31.309         77.871
         4966.0         15.942         30.263         76.492
         4966.5         15.947         29.808         63.025
         4967.0         15.946         30.094         50.742
         4967.5         15.922         30.740         55.866
         4968.0         15.899         31.823         66.994
         4968.5         15.875         32.992         78.123
         4969.0         15.851         34.162         74.085
         4969.5         15.827         34.607         66.159
         4970.0         15.804         33.520         68.721
         4970.5         15.780         32.433         82.861
         4971.0         15.760         31.148         99.923
         4971.5         15.763         32.179        100.024
         4972.0         15.766         33.662        103.736
         4972.5         15.769         34.435        109.872
         4973.0         15.773         34.024        112.674
         4973.5         15.776         33.613        118.858
         4974.0         15.771         33.202        144.958
         4974.5         15.744         32.792        159.397
         4975.0         15.718         32.868        158.189
         4975.5         15.691         34.667        148.601
         4976.0         15.665         39.931        151.715
         4976.5         15.638         45.194        159.688
         4977.0         15.612         50.332        159.733
         4977.5         15.586         55.381        159.777
         4978.0         15.559         59.149        158.221
         4978.5         15.533         56.713        134.809
         4979.0         15.506         51.807         99.377
         4979.5         15.480         46.972         85.342
         4980.0         15.453         42.981         97.228
         4980.5         15.427         42.198        130.318
         4981.0         15.401         41.563        101.091
         4981.5         15.374         39.742         66.535
         4982.0         15.348         36.789         44.296
         4982.5         15.333         34.536         37.806
         4983.0         15.324         36.307         37.989
         4983.5         15.315         40.193         40.799
         4984.0         15.307         43.106         37.965
         4984.5         15.298         40.825         42.540
         4985.0         15.289         35.836         53.742
         4985.5         15.280         30.848         64.823
         4986.0         15.269         28.578         75.712
         4986.5         15.258         27.939         86.601
         4987.0         15.247         28.769         86.262
         4987.5         15.235         30.875         83.212
         4988.0         15.224         32.980         80.161
         4988.5         15.211         34.908         85.041
         4989.0         15.198         36.733         95.572
         4989.5         15.185         38.557         96.130
         4990.0         15.172         38.752         83.437
         4990.5         15.159         36.294         73.763
         4991.0         15.146         33.482         72.628
         4991.5         15.130         31.327         71.693
         4992.0         15.115         29.745         70.577
         4992.5         15.100         28.920         69.461
         4993.0         15.085         29.738         68.764
         4993.5         15.069         30.557         69.092
         4994.0         15.054         31.375         69.420
         4994.5         15.039         32.193         69.034
         4995.0         15.024         32.513         67.945
         4995.5         15.008         32.164         66.857
         4996.0         14.993         31.285         65.768
         4996.5         14.980         29.325         65.074
         4997.0         14.967         27.949         64.877
         4997.5         14.953         27.976         81.091
         4998.0         14.940         29.490         93.219
         4998.5         14.927         31.646         94.180
         4999.0         14.914         36.840         88.216
         4999.5         14.900         40.738         68.587
         5000.0         14.887         44.204         68.137
         5000.5         14.874         47.670         67.688
         5001.0         14.860         48.989         66.589
         5001.5         14.847         43.181         64.767
         5002.0         14.842         35.672         62.534
         5002.5         14.844         32.241         61.274
         5003.0         14.845         30.252         61.396
         5003.5         14.847         30.121         63.105
         5004.0         14.849         29.522         64.815
         5004.5         14.850         28.924         66.218
         5005.0         14.852         29.862         67.695
         5005.5         14.854         31.542         69.644
         5006.0         14.855         35.283         71.593
         5006.5         14.857         39.658         71.612
         5007.0         14.859         45.255         70.594
         5007.5         14.860         50.828         69.577
         5008.0         14.862         50.544         67.579
         5008.5         14.864         43.303         65.481
         5009.0         14.865         36.317         63.382
         5009.5         14.867         31.806         61.284
         5010.0         14.869         33.364         61.514
         5010.5         14.870         38.780         63.101
         5011.0         14.872         44.240         64.687
         5011.5         14.874         49.700         65.517
         5012.0         14.875         52.091         65.385
         5012.5         14.877         52.740         65.254
         5013.0         14.878         51.842         65.192
         5013.5         14.877         51.443         65.261
         5014.0         14.875         51.889         65.330
         5014.5         14.873         52.336         65.088
         5015.0         14.872         52.153         64.388
         5015.5         14.870         50.537         63.687
