###############################################
##         ENVERUS                           ##
##         ESS - Open Hole                   ##
##         PERMIAN / DELAWARE                ##
##         Nov 04 2023  V4.0                 ##
##         42-389-31270-00-00                ##
###############################################
## Copyright 2017-2023  ENVERUS.  All Rights Reserved. 
## Confidential - Property of ENVERUS, use governed by terms and 
## conditions found within the existing Information Services Subscription Agreement 
## (as may be amended, the “ISSA”) between Customer and ENVERUS. 
## 
~VERSION INFORMATION
# MNEM.UNIT                               DATA : DESCRIPTION OF MNEMONIC
#-----.-----     ----------------------------- : -----------------------------
VERS.                                     2.00 : CWLS LOG ASCII STANDARD - VERSION 2.00
WRAP.                                       NO : MULTIPLE LINES PER DEPTH STEP
VEND.                                  ENVERUS : VENDOR
TYPE.                          ESS - OPEN HOLE : ENVERUS ESSENTIAL CURVES – ACCESSIBLE THROUGH ENVERUS PRISM(TM)
DOC.                                  31950282 : ENVERUS HEADER RAW DOCUMENT ID
#___________________________________________________________________________________________________ 
~WELL INFORMATION 
# 0CODbT4LMl4UGLa7W4QP9cEC157HhgZEtdKI2U+cm8ET/zLKkJfEe4mvdgudHboWMGmWziBYTrzgVEWtCsCjWg== 
# MNEM.UNIT                                              DATA : DESCRIPTION OF MNEMONIC 
#-----.-----                    ----------------------------- : ----------------------------- 
CNTY.                                                  REEVES : COUNTY 
STATE.                                                  TEXAS : STATE 
CNTRY.                                                    USA : COUNTRY 
API.                                             42-389-31270 : API (10 Digit) 
API_14.                                    42-389-31270-00-00 : API (14 Digits) 
API_14_std.                                 42-389-31270-0000 : API (14 Digits Standard) 
UWI.                                           42389312700000 : UNIQUE WELL ID 
WELL.                                        FORTUNE UNIT  2R : WELL NAME
STRT.FT                                                3825.0 : START DEPTH
STOP.FT                                               13654.0 : STOP DEPTH
STEP.FT                                                   0.5 : STEP BETWEEN DEPTHS
NULL.                                                 -999.25 : NULL VALUE
COMP.                          SANDRIDGE EXPL. AND PROD.  LLC : COMPANY 
DATE.                                             19-AUG-2004 : LOG DATE
#___________________________________________________________________________________________________ 
~CURVE INFORMATION 
# MNEM.UNIT           : CURVE DESCRIPTION 
#-----.-----          : ----------------------------- 
 DEPT.FT               : MEASURED DEPTH 
 CALI__B.IN            : CALIPER (CAL - CAL) 
 GR__B.API             : GAMMA RAY (GR) 
 DT__B.US/FT           : SONIC DELTA TRANSIT TIME (DT) 
 #___________________________________________________________________________________________________ 
~A         DEPT        CALI__B          GR__B          DT__B
# ...
         4485.0         11.132         54.259         63.425
         4485.5         11.106         53.726         61.620
         4486.0         11.081         50.318         59.816
         4486.5         11.055         46.428         58.164
         4487.0         11.030         42.538         59.817
         4487.5         11.004         38.648         61.471
         4488.0         10.993         36.454         63.124
         4488.5         10.997         44.244         64.777
         4489.0         11.001         56.805         66.430
         4489.5         11.004         60.480         67.367
         4490.0         11.008         59.697         67.492
         4490.5         11.012         58.914         67.616
         4491.0         11.015         58.130         67.741
         4491.5         11.019         57.347         67.866
         4492.0         11.023         56.564         67.990
         4492.5         11.026         55.780         68.338
         4493.0         11.024         54.997         68.712
         4493.5         11.014         66.966         69.085
         4494.0         11.010         71.876         69.459
         4494.5         11.010         75.496         69.887
         4495.0         11.010         77.178         70.723
         4495.5         11.010         78.860         71.559
         4496.0         11.010         80.541         72.395
         4496.5         11.010         82.223         73.231
         4497.0         11.010        136.213         74.066
         4497.5         11.009        136.061         72.346
         4498.0         11.009        135.909         68.490
         4498.5         11.009        119.536         68.304
         4499.0         11.006        100.440         68.304
         4499.5         11.002         93.185         68.304
         4500.0         10.998         96.523         68.305
         4500.5         10.995         99.861         68.154
         4501.0         10.991        102.368         67.285
         4501.5         10.987        101.189         66.415
         4502.0         10.984        100.011         65.546
         4502.5         10.980         93.294         64.676
         4503.0         10.976         81.255         63.807
         4503.5         10.972         69.217         64.270
         4504.0         11.011         57.179         65.656
         4504.5         11.059         46.770         67.043
         4505.0         11.106         39.036         68.429
         4505.5         11.154         44.223         69.815
         4506.0         11.202         49.409         71.201
         4506.5         11.250         63.070         72.587
         4507.0         11.297         63.069         73.686
         4507.5         11.345         63.069         74.422
         4508.0         11.393         63.068         75.157
         4508.5         11.441         63.068         75.893
         4509.0         11.492         63.067         76.628
         4509.5         11.543         63.066         77.364
         4510.0         11.594         56.621         78.099
         4510.5         11.645         47.586         78.835
         4511.0         11.696         41.457         77.920
         4511.5         11.747         37.631         75.296
         4512.0         11.767         39.608         72.672
         4512.5         11.782         41.586         70.048
         4513.0         11.797         43.564         70.256
         4513.5         11.813         45.542         73.423
         4514.0         11.828         47.520         76.589
         4514.5         11.843         47.201         79.098
         4515.0         11.858         45.742         80.262
         4515.5         11.873         44.283         81.427
         4516.0         11.888         42.824         81.797
         4516.5         11.903         44.207         82.121
         4517.0         11.918         45.773         82.445
         4517.5         11.934         47.339         82.769
         4518.0         11.949         48.406         86.934
         4518.5         11.964         45.127         91.217
         4519.0         11.979         41.849         95.499
         4519.5         11.994         38.570         94.759
         4520.0         12.009         35.291         92.769
         4520.5         12.017         36.223         90.779
         4521.0         12.021         37.560         88.789
         4521.5         12.025         38.897         86.799
         4522.0         12.029         40.233         85.133
         4522.5         12.033         41.570         84.582
         4523.0         12.037         43.488         84.032
         4523.5         12.041         45.413         83.481
         4524.0         12.045         47.337         82.931
         4524.5         12.049         49.261         82.380
         4525.0         12.054         51.185         80.982
         4525.5         12.060         48.716         79.128
         4526.0         12.067         41.636         77.273
         4526.5         12.073         37.890         75.418
         4527.0         12.079         37.956         76.866
         4527.5         12.086         38.021         80.141
         4528.0         12.092         38.087         83.416
         4528.5         12.099         38.169         84.977
         4529.0         12.105         38.345         84.808
         4529.5         12.111         38.520         84.638
         4530.0         12.118         38.696         84.469
         4530.5         12.124         38.872         84.299
         4531.0         12.130         39.169         84.129
         4531.5         12.137         39.783         83.960
         4532.0         12.143         40.397         83.790
         4532.5         12.146         41.011         83.621
         4533.0         12.148         41.625         76.253
         4533.5         12.151         42.239         75.602
         4534.0         12.153         42.853         74.951
         4534.5         12.156         41.697         74.301
         4535.0         12.158         39.972         73.650
         4535.5         12.160         38.068         73.188
         4536.0         12.163         34.593         74.106
         4536.5         12.165         32.898         75.023
         4537.0         12.167         32.738         75.941
         4537.5         12.170         32.579         76.858
         4538.0         12.172         32.419         77.775
         4538.5         12.175         32.259         78.693
         4539.0         12.177         32.330         79.610
         4539.5         12.179         33.747         77.746
         4540.0         12.178         35.164         75.861
         4540.5         12.170         36.581         73.975
         4541.0         12.162         37.263         72.089
         4541.5         12.154         36.311         70.796
         4542.0         12.147         35.359         72.623
         4542.5         12.139         34.407         74.449
         4543.0         12.131         33.455         76.250
         4543.5         12.123         41.626         76.161
         4544.0         12.116         44.486         76.073
         4544.5         12.108         44.561         75.984
         4545.0         12.100         44.637         75.895
         4545.5         12.092         44.712         75.807
         4546.0         12.085         44.787         75.962
         4546.5         12.077         44.862         76.430
         4547.0         12.069         44.937         76.898
         4547.5         12.049         46.733         77.005
         4548.0         12.028         47.647         76.099
         4548.5         12.007         46.109         75.193
         4549.0         11.986         44.570         74.287
         4549.5         11.964         43.031         73.382
         4550.0         11.943         44.140         70.900
         4550.5         11.922         45.328         66.515
