###############################################
##         ENVERUS                           ##
##         ESS - Open Hole                   ##
##         PERMIAN / DELAWARE                ##
##         Nov 04 2023  V4.0                 ##
##         42-389-32353-00-00                ##
###############################################
## Copyright 2017-2023  ENVERUS.  All Rights Reserved. 
## Confidential - Property of ENVERUS, use governed by terms and 
## conditions found within the existing Information Services Subscription Agreement 
## (as may be amended, the “ISSA”) between Customer and ENVERUS. 
## 
~VERSION INFORMATION
# MNEM.UNIT                               DATA : DESCRIPTION OF MNEMONIC
#-----.-----     ----------------------------- : -----------------------------
VERS.                                     2.00 : CWLS LOG ASCII STANDARD - VERSION 2.00
WRAP.                                       NO : MULTIPLE LINES PER DEPTH STEP
VEND.                                  ENVERUS : VENDOR
TYPE.                          ESS - OPEN HOLE : ENVERUS ESSENTIAL CURVES – ACCESSIBLE THROUGH ENVERUS PRISM(TM)
DOC.                                  31816014 : ENVERUS HEADER RAW DOCUMENT ID
#___________________________________________________________________________________________________ 
~WELL INFORMATION 
# N6wmpYeOPIEODBGNmaSz+o1WStwpnSM+Mr70h4S2k9wmNhpeTZrfoFyYX6I24xyp8IiB7B51j2C/wpla6NseZQ== 
# MNEM.UNIT                                              DATA : DESCRIPTION OF MNEMONIC 
#-----.-----                    ----------------------------- : ----------------------------- 
CNTY.                                                  REEVES : COUNTY 
STATE.                                                  TEXAS : STATE 
CNTRY.                                                    USA : COUNTRY 
API.                                             42-389-32353 : API (10 Digit) 
API_14.                                    42-389-32353-00-00 : API (14 Digits) 
API_14_std.                                 42-389-32353-0000 : API (14 Digits Standard) 
UWI.                                           42389323530000 : UNIQUE WELL ID 
WELL.                                             DORNFIELD 1 : WELL NAME
STRT.FT                                                 210.0 : START DEPTH
STOP.FT                                               13522.0 : STOP DEPTH
STEP.FT                                                   0.5 : STEP BETWEEN DEPTHS
NULL.                                                 -999.25 : NULL VALUE
LOC.                                                      UNK : LOCATION 
SRVC.                                                     UNK : SERVICE COMPANY
#___________________________________________________________________________________________________ 
~CURVE INFORMATION 
# MNEM.UNIT           : CURVE DESCRIPTION 
#-----.-----          : ----------------------------- 
 DEPT.FT               : MEASURED DEPTH 
 CALI.IN               : CALIPER (CAL - CAL) 
 GR.API                : GAMMA RAY (GR) 
 DT.US/FT              : SONIC DELTA TRANSIT TIME (DT) 
 RESS.OHMM             : SHALLOW INDUCTION RESISTIVITY (ILS - ILS) 
 RESD.OHMM             : DEEP INDUCTION RESISTIVITY (ILD - ILD) 
 DPHI.V/V              : DENSITY POROSITY (DPHI) 
 NPHI.V/V              : NEUTRON POROSITY (NPHI) 
 RHOB.G/CC             : BULK DENSITY (RHOB) 
 #___________________________________________________________________________________________________ 
~A         DEPT           CALI             GR             DT           RESS           RESD           DPHI           NPHI           RHOB
# ...
         8322.5          9.937         88.276         71.671         38.185         36.908        0.02967        0.19135         2.6191
         8323.0          9.899         87.110         70.890         38.542         37.401        0.03298        0.18787         2.6112
         8323.5          9.868         86.917         69.593         35.162         35.099        0.02123        0.18337         2.6355
         8324.0          9.836         83.677         68.296         37.511         38.356        0.00268        0.17876         2.6778
         8324.5          9.805         78.030         67.892         59.646         56.471       -0.01587        0.17415         2.7071
         8325.0          9.774         72.383         68.058         81.781         74.585       -0.03152        0.16765         2.7003
         8325.5          9.758         71.739         68.225         61.758         58.162       -0.03456        0.15246         2.6820
         8326.0          9.767         79.092         69.319         38.449         39.754       -0.00200        0.16112         2.6568
         8326.5          9.787         86.444         70.529         29.668         28.354        0.03173        0.16901         2.6316
         8327.0          9.807         91.649         71.739         31.384         31.927        0.04913        0.17035         2.6064
         8327.5          9.826         89.900         72.286         32.455         30.683        0.04839        0.16225         2.5812
         8328.0          9.846         90.024         71.540         28.597         27.494        0.04470        0.16221         2.5989
         8328.5          9.866         92.022         70.762         24.738         24.305        0.03872        0.16561         2.6233
         8329.0          9.886         94.020         69.984         20.879         21.115        0.01816        0.16901         2.6478
         8329.5          9.905         90.240         69.207         23.377         19.355        0.00037        0.16214         2.6723
         8330.0          9.925         85.494         69.252         26.037         20.611       -0.01182        0.14968         2.6458
         8330.5          9.945         82.730         69.594         26.276         23.125        0.01053        0.15039         2.6260
         8331.0          9.964         85.428         69.705         24.083         23.074        0.03389        0.16015         2.6062
         8331.5          9.981         89.359         69.739         21.890         21.785        0.04927        0.16992         2.5864
         8332.0          9.994         90.549         69.250         22.604         22.948        0.04603        0.17968         2.5967
         8332.5         10.008         86.335         68.299         25.261         26.187        0.03539        0.18163         2.6106
         8333.0         10.021         81.331         67.347         28.223         27.934        0.02476        0.15206         2.6245
         8333.5         10.035         76.825         67.300         28.912         28.690        0.00715        0.13725         2.6384
         8334.0         10.031         81.510         67.531         29.224         29.446        0.00492        0.14494         2.6407
         8334.5          9.989         88.795         68.601         29.536         30.202        0.01197        0.15647         2.6375
         8335.0          9.946         96.081         69.672         36.461         35.900        0.01902        0.16799         2.6319
         8335.5          9.904         99.427         70.742         39.940         40.340        0.02607        0.16959         2.6264
         8336.0          9.869        102.501         71.673         33.608         33.118        0.02042        0.16784         2.6230
         8336.5          9.901        103.378         72.367         24.962         25.897        0.01102        0.17018         2.6341
         8337.0          9.933        103.518         72.699         17.305         18.727        0.01400        0.17953         2.6167
         8337.5          9.965        103.451         72.591         23.686         20.419        0.02803        0.18888         2.6167
         8338.0          9.998        100.770         72.508         30.068         25.054        0.02919        0.18372         2.6199
         8338.5         10.030         98.089         72.425         36.449         34.393        0.02742        0.17188         2.6220
         8339.0         10.062         96.446         72.532         34.330         35.611        0.02270        0.16004         2.6220
         8339.5         10.094        100.783         72.729         28.319         28.604        0.01898        0.16604         2.6170
         8340.0         10.126        105.120         72.925         22.309         21.597        0.02101        0.17354         2.6119
         8340.5         10.158        107.383         73.078         20.678         21.511        0.02564        0.17616         2.6069
         8341.0         10.190        102.200         72.883         24.670         25.207        0.03136        0.17820         2.6018
         8341.5         10.223         96.762         72.661         28.661         28.904        0.02874        0.18024         2.5967
         8342.0         10.255         94.316         72.954         32.652         32.600        0.03604        0.18394         2.5942
         8342.5         10.287         96.062         73.748         28.043         29.420        0.04536        0.18933         2.6043
         8343.0         10.281        101.295         74.542         23.032         23.733        0.04568        0.19473         2.6145
         8343.5         10.263        106.528         75.117         25.565         24.916        0.03723        0.20013         2.6190
         8344.0         10.246        107.013         74.687         29.941         28.678        0.02764        0.20552         2.6218
         8344.5         10.228        102.609         73.192         27.191         30.462        0.02308        0.20061         2.6247
         8345.0         10.211         96.234         71.697         28.128         29.579        0.02139        0.18006         2.6275
         8345.5         10.193         89.858         70.202         35.807         33.885        0.01899        0.15950         2.6421
         8346.0         10.176         79.044         68.707         40.112         41.452        0.00990        0.13895         2.6597
         8346.5         10.158         69.818         67.212         42.046         42.931       -0.00269        0.13114         2.6654
         8347.0         10.141         65.955         66.266         43.979         41.802       -0.00710        0.12371         2.6654
         8347.5         10.123         65.117         66.030         35.123         36.772       -0.00439        0.12644         2.6675
         8348.0         10.109         67.071         65.795         28.190         31.742       -0.00168        0.13079         2.6682
         8348.5         10.097         69.026         65.583         25.808         26.712       -0.00440        0.13575         2.6629
         8349.0         10.086         69.397         65.450         23.601         23.385       -0.00515        0.13946         2.6491
         8349.5         10.074         67.861         65.316         21.394         21.241       -0.00363        0.13801         2.6354
         8350.0         10.062         66.316         65.183         20.871         21.011        0.00486        0.13656         2.6216
         8350.5         10.050         64.738         64.824         20.761         22.645        0.01849        0.12471         2.6160
         8351.0         10.039         59.382         63.900         33.759         21.433        0.02851        0.11042         2.6215
         8351.5         10.027         54.026         62.976         55.477         44.542        0.02769        0.09613         2.6270
