###############################################
##         ENVERUS                           ##
##         ESS - Open Hole                   ##
##         PERMIAN / DELAWARE                ##
##         Nov 04 2023  V4.0                 ##
##         42-389-30283-00-00                ##
###############################################
## Copyright 2017-2023  ENVERUS.  All Rights Reserved. 
## Confidential - Property of ENVERUS, use governed by terms and 
## conditions found within the existing Information Services Subscription Agreement 
## (as may be amended, the “ISSA”) between Customer and ENVERUS. 
## 
~VERSION INFORMATION
# MNEM.UNIT                               DATA : DESCRIPTION OF MNEMONIC
#-----.-----     ----------------------------- : -----------------------------
VERS.                                     2.00 : CWLS LOG ASCII STANDARD - VERSION 2.00
WRAP.                                       NO : MULTIPLE LINES PER DEPTH STEP
VEND.                                  ENVERUS : VENDOR
TYPE.                          ESS - OPEN HOLE : ENVERUS ESSENTIAL CURVES – ACCESSIBLE THROUGH ENVERUS PRISM(TM)
DOC.                                  32052778 : ENVERUS HEADER RAW DOCUMENT ID
#___________________________________________________________________________________________________ 
~WELL INFORMATION 
# CKTmoz7OsKELnwE/IP0i4B9qEmEewtam1JWnvb6ghWZsYWfxLv+2EOc67unJ6Yof0W+RqImtxqI23GomxkzDLA== 
# MNEM.UNIT                                              DATA : DESCRIPTION OF MNEMONIC 
#-----.-----                    ----------------------------- : ----------------------------- 
CNTY.                                                  REEVES : COUNTY 
STATE.                                                  TEXAS : STATE 
CNTRY.                                                    USA : COUNTRY 
API.                                             42-389-30283 : API (10 Digit) 
API_14.                                    42-389-30283-00-00 : API (14 Digits) 
API_14_std.                                 42-389-30283-0000 : API (14 Digits Standard) 
UWI.                                           42389302830000 : UNIQUE WELL ID 
WELL.                       RANDOLPH  A. T.  ET AL-STATE  1 L : WELL NAME
STRT.FT                                                 155.0 : START DEPTH
STOP.FT                                               15740.0 : STOP DEPTH
STEP.FT                                                   0.5 : STEP BETWEEN DEPTHS
NULL.                                                 -999.25 : NULL VALUE
COMP.                                     RIO PETROLEUM  INC. : COMPANY
#___________________________________________________________________________________________________ 
~CURVE INFORMATION 
# MNEM.UNIT           : CURVE DESCRIPTION 
#-----.-----          : ----------------------------- 
 DEPT.FT               : MEASURED DEPTH 
 CALI__A.IN            : CALIPER (CAL - CAL) 
 GR__A.API             : GAMMA RAY (GR) 
 SP__A.MV              : SPONTANEOUS POTENTIAL (SP) 
 DT__A.US/FT           : SONIC DELTA TRANSIT TIME (DT) 
 RESD__A.OHMM          : DEEP INDUCTION RESISTIVITY (ILD - ILD) 
 NPHI__A.V/V           : NEUTRON POROSITY (NPH - NPH) 
 #___________________________________________________________________________________________________ 
~A         DEPT        CALI__A          GR__A          SP__A          DT__A        RESD__A        NPHI__A
# ...
        10909.0         11.546         71.796        -45.382         85.221          6.143     -999.25000
        10909.5         11.532         69.608        -45.234         86.886          6.284     -999.25000
        10910.0         11.518         67.419        -45.086         88.551          6.426     -999.25000
        10910.5         11.504         65.231        -44.935         87.636          6.568     -999.25000
        10911.0         11.490         63.042        -44.784         86.325          6.670     -999.25000
        10911.5         11.476         60.854        -44.633         82.010          6.560     -999.25000
        10912.0         11.461         58.666        -44.481         76.217          6.451     -999.25000
        10912.5         11.447         57.846        -44.330         72.038          6.341     -999.25000
        10913.0         11.433         65.637        -44.179         73.824          6.232     -999.25000
        10913.5         11.419         73.429        -44.028         78.713          6.123     -999.25000
        10914.0         11.405         76.700        -44.238         85.289          6.013     -999.25000
        10914.5         11.391         76.466        -44.557         91.866          5.904     -999.25000
        10915.0         11.377         77.916        -44.877         93.778          5.828     -999.25000
        10915.5         11.372         79.367        -45.197         92.536          5.802     -999.25000
        10916.0         11.372         76.726        -45.516         89.679          5.776     -999.25000
        10916.5         11.373         67.227        -45.836         85.107          5.750     -999.25000
        10917.0         11.373         59.472        -46.155         77.245          5.724     -999.25000
        10917.5         11.374         65.908        -46.475         75.271          5.699     -999.25000
        10918.0         11.374         72.344        -46.795         76.852          5.598     -999.25000
        10918.5         11.374         78.781        -47.114         83.429          5.373     -999.25000
        10919.0         11.375         85.217        -47.434         91.220          5.147     -999.25000
        10919.5         11.375         84.131        -47.753         94.040          4.961     -999.25000
        10920.0         11.376         82.871        -48.073         90.041          4.786     -999.25000
        10920.5         11.376         84.624        -48.393         88.492          4.610     -999.25000
        10921.0         11.367         85.796        -48.712         86.145          4.435     -999.25000
        10921.5         11.351         82.348        -49.032         90.101          4.496     -999.25000
        10922.0         11.335         78.900        -48.580         97.985          4.642     -999.25000
        10922.5         11.327         75.452        -48.114        105.828          4.863     -999.25000
        10923.0         11.327         72.004        -47.648        109.482          5.437     -999.25000
        10923.5         11.328         68.556        -47.182        101.947          6.012     -999.25000
        10924.0         11.328         65.108        -46.717         94.413          6.587     -999.25000
        10924.5         11.328         61.660        -46.251         75.465          7.376     -999.25000
        10925.0         11.176         59.384        -45.931         72.347          8.107     -999.25000
        10925.5         11.024         59.387        -45.664         70.197          8.135     -999.25000
        10926.0         10.872         63.629        -45.397         73.354          8.163     -999.25000
        10926.5         10.757         70.089        -45.130         78.064          8.191     -999.25000
        10927.0         10.799         76.548        -44.863         83.131          8.114     -999.25000
        10927.5         10.841         83.008        -44.596         85.553          7.316     -999.25000
        10928.0         10.883         80.294        -44.329         87.449          6.519     -999.25000
        10928.5         10.925         75.930        -44.063         86.563          6.133     -999.25000
        10929.0         10.979         71.566        -43.796         85.677          5.863     -999.25000
        10929.5         11.033         70.588        -43.529         85.563          5.593     -999.25000
        10930.0         11.087         72.013        -43.262         87.266          5.324     -999.25000
        10930.5         11.168         73.439        -43.511         88.970          5.081     -999.25000
        10931.0         11.262         74.788        -43.892         88.050          4.874     -999.25000
        10931.5         11.355         74.570        -44.274         86.999          4.667     -999.25000
        10932.0         11.435         74.352        -44.655         87.113          4.459     -999.25000
        10932.5         11.428         75.011        -45.036         87.630          4.578     -999.25000
        10933.0         11.420         76.480        -45.418         88.146          4.850     -999.25000
        10933.5         11.413         76.964        -45.799         88.113          5.122     -999.25000
        10934.0         11.357         74.150        -46.180         85.721          5.394     -999.25000
        10934.5         11.292         71.336        -46.562         83.329          5.666     -999.25000
        10935.0         11.226         68.522        -46.943         80.936          5.939     -999.25000
        10935.5         11.160         67.336        -47.283         77.962          6.245     -999.25000
        10936.0         11.095         69.021        -47.560         77.339          6.563     -999.25000
        10936.5         11.161         70.705        -47.837         80.195          6.882     -999.25000
        10937.0         11.250         73.848        -48.114         83.131          7.200     -999.25000
        10937.5         11.339         77.212        -48.390         88.476          7.174     -999.25000
        10938.0         11.428         80.577        -48.550         93.820          7.042     -999.25000
        10938.5         11.517         78.655        -48.194         96.273          6.910     -999.25000
        10939.0         11.606         75.347        -47.839         91.803          6.778     -999.25000
        10939.5         11.647         75.238        -47.484         85.988          6.649     -999.25000
        10940.0         11.564         75.685        -47.129         84.057          6.524     -999.25000
        10940.5         11.501         76.132        -46.774         85.920          6.398     -999.25000
        10941.0         11.555         72.790        -46.419         87.783          6.273     -999.25000
        10941.5         11.609         67.879        -46.064         86.742          6.148     -999.25000
        10942.0         11.595         62.967        -45.709         85.336          6.023     -999.25000
        10942.5         11.563         66.684        -45.354         83.931          5.897     -999.25000
        10943.0         11.531         71.746        -44.998         82.526          5.772     -999.25000
        10943.5         11.499         76.809        -44.643         82.124          5.727     -999.25000
        10944.0         11.467         80.547        -45.552         82.713          5.803     -999.25000
        10944.5         11.435         79.591        -46.596         84.694          5.879     -999.25000
        10945.0         11.403         78.635        -47.483         88.246          6.028     -999.25000
        10945.5         11.371         79.407        -47.312         91.799          6.393     -999.25000
        10946.0         11.389         80.393        -47.142         92.818          6.758     -999.25000
        10946.5         11.795         81.378        -46.972         92.483          7.124     -999.25000
