#--------------------------------------------------#
#-------------------ENVERUS, INC.------------------#
#------------------WWW.ENVERUS.COM-----------------#
#------------------COPYRIGHT 2020------------------#
#--------------------------------------------------#
#THIS FILE MAY BE USED ONLY IN ACCORDANCE WITH A CURRENT SUBSCRIPTION AGREEMENT BETWEEN
#THE USER AND ENVERUS, INC. NO PART OF THIS FILE MAY BE REPRODUCED, USED, COPIED,
#MODIFIED, PROPAGATED, OR DISTRIBUTED EXCEPT IN ACCORDANCE WITH THE SUBSCRIPTION
#AGREEMENT. UNAUTHORIZED USE OR DISTRIBUTION OF ALL OR ANY PART OF THIS FILE MAY VIOLATE
#COPYRIGHT, TRADEMARK, AND/OR OTHER LAWS AND IS SUBJECT TO CIVIL AS WELL AS CRIMINAL
#SANCTIONS.
#--------------------------------------------------#
#THIS FILE IS PROVIDED "AS-IS" AND ALL WARRANTIES ARE EXPRESSLY DISCLAIMED, WHETHER
#EXPRESS, ORAL, IMPLIED, STATUTORY OR OTHERWISE, INCLUDING ANY IMPLIED WARRANTY OF FITNESS
#FOR A PARTICULAR PURPOSE, MERCHANTABILITY, TITLE OR NON-INFRINGEMENT, AND ANY WARRANTIES
#ARISING BY VIRTUE OF CUSTOM OF TRADE OR COURSE OF DEALING.  FURTHER, ENVERUS, INC.
#AND ITS LICENSORS DO NOT REPRESENT OR WARRANT THAT THIS FILE WILL MEET USER'S
#REQUIREMENTS OR ARE SUITABLE FOR USER'S NEEDS OR THAT THE DATA OR RESULTS PROVIDED IN
#CONJUNCTION THEREWITH ARE CORRECT, ACCURATE, TIMELY OR RELIABLE. THESE DISCLAIMERS SHALL
#APPLY REGARDLESS OF ANY FAILURE OF ESSENTIAL PURPOSE OF ANY LIMITED REMEDY.  SOME
#JURISDICTIONS DO NOT ALLOW THE EXCLUSION OF CERTAIN WARRANTIES SO SOME OF THE ABOVE
#EXCLUSIONS MAY NOT APPLY. IN NO EVENT SHALL ENVERUS, INC. OR ANY OF ITS AFFILIATES
#BE LIABLE UNDER ANY LEGAL THEORY, WHETHER IN TORT (INCLUDING WITHOUT LIMITATION
#NEGLIGENCE), CONTRACT, STRICT LIABILITY, STATUTORY OR OTHERWISE, FOR ANY SPECIAL,
#INCIDENTAL, CONSEQUENTIAL, EXEMPLARY, PUNITIVE OR INDIRECT DAMAGE OF ANY KIND, INCLUDING
#WITHOUT LIMITATION LOSS OF REVENUE, PROFITS, GOODWILL, USE, AND/OR DATA OR THE COST OF
#PROCUREMENT OF SUBSTITUTE GOODS OR SERVICES, EVEN IF APPRISED OF THE POSSIBILITY OF SUCH
#DAMAGES IN ADVANCE.
#--------------------------------------------------#

~VERSION INFORMATION
VERS. 2.0 : CWLS LOG ASCII STANDARD - VERSION 2.0
WRAP.  NO : ONE LINE PER DEPTH STEP
~WELL INFORMATION
#MNEMONIC     .UNIT              VALUE :DESCRIPTION
STRT       .FT                145 :START DEPTH
STOP       .FT                15608 :STOP DEPTH
STEP       .FT                   0.500 :STEP
NULL       .                  -999.250 :NULL
UWI        .              42389304120000 :UNIQUE WELL ID
API        .              42389304120000 :API NUMBER
COMP       .         BTA OIL PRODUCERS :COMPANY
WELL       .        7607 JV-P ORLA  1 :WELL
DATE       .                            :LOG DATE
~CURVE INFORMATION
#MNEMONIC     .UNIT      API CODE :CURVE DESCRIPTION
DEPTH       .FT                      :MEASURED DEPTH
DT.US/FT        UNKNOWN   :DT
CAL.INCH        UNKNOWN   :CAL
GR.API        UNKNOWN   :GR
~A    DEPTH    DT    CAL    GR
# ...
 8825     68.658   13.628   40.387
 8825.5     69.649   13.608   39.089
 8826     70.636   13.587   40.395
 8826.5     68.289   13.567   41.7
 8827     65.942   13.546   43.005
 8827.5     63.594   13.526   44.311
 8828     62.349   13.506   45.616
 8828.5     63.837   13.485   44.716
 8829     68.018   13.465   43.556
 8829.5     72.2   13.444   43.047
 8830     73.858   13.424   48.355
 8830.5     75.103   13.403   53.663
 8831     74.814   13.383   57.716
 8831.5     72.658   13.363   60.368
 8832     70.502   13.342   61.899
 8832.5     68.346   13.339   61.034
 8833     67.714   13.342   57.904
 8833.5     68.493   13.344   53.553
 8834     68.15   13.347   49.201
 8834.5     67.638   13.35   49.282
 8835     68.974   13.352   50.72
 8835.5     70.998   13.355   52.024
 8836     70.773   13.358   50.165
 8836.5     66.927   13.36   48.306
 8837     60.115   13.363   46.447
 8837.5     54.733   13.365   40.747
 8838     54.297   13.368   35.329
 8838.5     56.443   13.371   32.013
 8839     61.181   13.373   28.697
 8839.5     65.918   13.376   25.896
 8840     69.507   13.378   32.534
 8840.5     71.014   13.381   39.172
 8841     71.036   13.384   45.3
 8841.5     70.258   13.386   49.334
 8842     69.48   13.389   53.368
 8842.5     68.702   13.391   52.893
 8843     68.153   13.394   51.315
 8843.5     68.259   13.397   49.738
 8844     68.365   13.399   48.481
 8844.5     67.983   13.402   48.938
 8845     67.147   13.404   49.396
 8845.5     66.311   13.407   49.853
 8846     65.855   13.41   49.527
 8846.5     65.856   13.412   47.435
 8847     65.858   13.415   45.343
 8847.5     63.509   13.419   43.251
 8848     60.483   13.424   41.544
 8848.5     57.531   13.429   40.524
 8849     54.579   13.434   39.503
 8849.5     55.349   13.438   38.482
 8850     59.5   13.443   37.462
 8850.5     63.651   13.448   36.598
 8851     67.802   13.453   38.124
 8851.5     71.777   13.457   41.899
 8852     72.809   13.462   48.688
 8852.5     73.841   13.467   55.478
 8853     75.815   13.471   61.191
 8853.5     74.468   13.476   64.608
 8854     72.782   13.481   68.024
 8854.5     71.386   13.486   67.436
 8855     69.484   13.49   66.465
 8855.5     65.084   13.495   61.795
 8856     65.119   13.5   55.405
 8856.5     65.363   13.504   51.056
 8857     68.029   13.509   50.906
 8857.5     71.552   13.514   50.755
 8858     69.006   13.519   51.229
 8858.5     65.045   13.523   51.824
 8859     60.102   13.528   52.42
 8859.5     57.12   13.533   51.223
 8860     56.041   13.538   45.124
 8860.5     60.716   13.542   39.875
 8861     65.391   13.547   37.803
 8861.5     70.067   13.552   35.732
 8862     73.04   13.556   42.478
 8862.5     73.799   13.561   48.027
 8863     71.598   13.566   51.231
 8863.5     68.395   13.571   54.435
 8864     65.192   13.575   53.568
 8864.5     62.526   13.58   51.189
 8865     60.37   13.585   48.241
 8865.5     58.819   13.589   44.639
 8866     59.259   13.594   41.538
 8866.5     61.328   13.599   40.796
 8867     67.841   13.604   41.211
 8867.5     73.845   13.608   45.525
 8868     74.941   13.611   49.839
 8868.5     72.631   13.609   53.891
 8869     59.902   13.607   57.753
 8869.5     57.425   13.605   55.894
 8870     59.107   13.603   48.638
 8870.5     64.774   13.601   46.567
 8871     70.442   13.6   44.496
 8871.5     73.059   13.598   48.78
 8872     71.178   13.596   53.163
 8872.5     66.052   13.594   57.547
 8873     60.926   13.592   55.482
 8873.5     59.382   13.59   51.848
 8874     59.092   13.588   48.213
 8874.5     59.142   13.586   48.523
 8875     65.781   13.585   49.127
 8875.5     72.421   13.583   52.65
 8876     74.897   13.581   56.174
 8876.5     75.9   13.579   59.697
 8877     73.381   13.577   63.22
 8877.5     70.861   13.575   66.743
 8878     68.342   13.573   64.784
 8878.5     65.822   13.572   62.514
 8879     66.828   13.57   60.244
 8879.5     70.163   13.568   57.973
 8880     73.497   13.566   61.068
 8880.5     75.993   13.564   64.211
 8881     73.171   13.562   67.353
 8881.5     70.348   13.56   68.848
 8882     67.525   13.558   65.096
 8882.5     67.189   13.557   61.344
 8883     67.907   13.555   57.592
 8883.5     68.625   13.553   53.84
 8884     68.183   13.551   52.794
 8884.5     66.117   13.549   51.931
 8885     64.05   13.547   51.067
 8885.5     61.983   13.545   49.209
 8886     59.916   13.544   46.675
 8886.5     57.867   13.542   44.14
 8887     60.69   13.54   41.605
 8887.5     63.513   13.538   42.199
 8888     66.335   13.536   44.638
 8888.5     68.683   13.534   47.077
 8889     67.227   13.532   49.515
 8889.5     65.772   13.53   51.954
 8890     66.226   13.529   52.833
 8890.5     67.275   13.527   52.183
 8891     68.044   13.525   51.533
 8891.5     68.355   13.523   51.332
 8892     67.679   13.521   53.359
 8892.5     66.7   13.519   55.385
 8893     67.362   13.517   57.412
 8893.5     67.363   13.516   57.829
 8894     68.662   13.514   57.366
 8894.5     69.41   13.512   56.904
 8895     69.071   13.51   56.441
 8895.5     68.731   13.508   55.979
 8896     68.857   13.506   57.357
 8896.5     69.831   13.504   58.873
 8897     70.805   13.502   60.389
 8897.5     71.779   13.501   61.905
 8898     70.8   13.499   63.422
 8898.5     65.682   13.497   60.001
 8899     62.852   13.495   55.005
 8899.5     61.258   13.493   50.009
 8900     59.36   13.491   45.013
 8900.5     57.447   13.489   40.017
 8901     55.535   13.488   35.021
 8901.5     53.622   13.486   31.375
 8902     52.761   13.484   28.429
 8902.5     53.373   13.482   27.396
 8903     53.985   13.48   26.456
 8903.5     55.419   13.478   25.516
 8904     58.842   13.476   27.95
 8904.5     62.265   13.474   30.818
 8905     63.453   13.473   33.686
 8905.5     60.109   13.471   36.554
 8906     55.917   13.469   39.422
 8906.5     54.933   13.467   44.327
 8907     58.316   13.465   40.456
 8907.5     61.698   13.463   36.585
 8908     63.57   13.461   35.476
 8908.5     63.301   13.46   38.34
 8909     58.342   13.458   41.204
 8909.5     53.618   13.456   44.068
 8910     53.459   13.454   39.309
 8910.5     54.055   13.452   33.867
 8911     54.651   13.45   30.514
 8911.5     55.247   13.448   27.457
 8912     55.529   13.446   27.924
 8912.5     54.487   13.445   28.869
 8913     53.445   13.443   29.814
 8913.5     55.432   13.441   30.238
 8914     58.173   13.439   30.585
 8914.5     60.914   13.437   30.933
 8915     58.126   13.436   32.911
 8915.5     55.129   13.439   35.194
 8916     53.016   13.441   37.478
 8916.5     52.561   13.443   36.195
 8917     56.509   13.445   34.386
 8917.5     61.633   13.447   32.577
 8918     65.985   13.45   32.515
 8918.5     66.202   13.452   34.239
 8919     63.007   13.454   35.962
 8919.5     59.813   13.456   37.686
 8920     56.618   13.458   38.717
 8920.5     54.626   13.461   35.815
 8921     55.339   13.463   32.913
 8921.5     58.491   13.465   31.341
 8922     61.643   13.467   32.795
 8922.5     64.796   13.47   34.25
 8923     67.579   13.472   38.971
 8923.5     65.369   13.474   44.249
 8924     61.706   13.476   43.421
 8924.5     58.043   13.478   40.602
 8925     57.458   13.481   37.784
 8925.5     60.794   13.483   35.286
 8926     65.253   13.485   37.746
 8926.5     69.711   13.487   41.154
 8927     72.811   13.49   49.065
 8927.5     73.717   13.492   56.977
 8928     74.174   13.494   62.399
 8928.5     74.321   13.496   67.283
 8929     75.155   13.498   65.773
 8929.5     75.032   13.501   64.264
 8930     74.52   13.503   62.755
 8930.5     71.16   13.505   61.245
 8931     65.204   13.507   59.402
 8931.5     65.206   13.509   56.595
 8932     66.503   13.512   53.789
 8932.5     69.885   13.514   54.722
 8933     73.355   13.516   57.252
 8933.5     73.14   13.518   59.783
 8934     72.334   13.521   61.166
 8934.5     72.055   13.523   62.142
 8935     71.777   13.525   60.678
 8935.5     71.498   13.527   57.212
 8936     70.212   13.529   53.746
 8936.5     67.839   13.532   50.28
