#--------------------------------------------------#
#-------------------ENVERUS, INC.------------------#
#------------------WWW.ENVERUS.COM-----------------#
#------------------COPYRIGHT 2020------------------#
#--------------------------------------------------#
#THIS FILE MAY BE USED ONLY IN ACCORDANCE WITH A CURRENT SUBSCRIPTION AGREEMENT BETWEEN
#THE USER AND ENVERUS, INC. NO PART OF THIS FILE MAY BE REPRODUCED, USED, COPIED,
#MODIFIED, PROPAGATED, OR DISTRIBUTED EXCEPT IN ACCORDANCE WITH THE SUBSCRIPTION
#AGREEMENT. UNAUTHORIZED USE OR DISTRIBUTION OF ALL OR ANY PART OF THIS FILE MAY VIOLATE
#COPYRIGHT, TRADEMARK, AND/OR OTHER LAWS AND IS SUBJECT TO CIVIL AS WELL AS CRIMINAL
#SANCTIONS.
#--------------------------------------------------#
#THIS FILE IS PROVIDED "AS-IS" AND ALL WARRANTIES ARE EXPRESSLY DISCLAIMED, WHETHER
#EXPRESS, ORAL, IMPLIED, STATUTORY OR OTHERWISE, INCLUDING ANY IMPLIED WARRANTY OF FITNESS
#FOR A PARTICULAR PURPOSE, MERCHANTABILITY, TITLE OR NON-INFRINGEMENT, AND ANY WARRANTIES
#ARISING BY VIRTUE OF CUSTOM OF TRADE OR COURSE OF DEALING.  FURTHER, ENVERUS, INC.
#AND ITS LICENSORS DO NOT REPRESENT OR WARRANT THAT THIS FILE WILL MEET USER'S
#REQUIREMENTS OR ARE SUITABLE FOR USER'S NEEDS OR THAT THE DATA OR RESULTS PROVIDED IN
#CONJUNCTION THEREWITH ARE CORRECT, ACCURATE, TIMELY OR RELIABLE. THESE DISCLAIMERS SHALL
#APPLY REGARDLESS OF ANY FAILURE OF ESSENTIAL PURPOSE OF ANY LIMITED REMEDY.  SOME
#JURISDICTIONS DO NOT ALLOW THE EXCLUSION OF CERTAIN WARRANTIES SO SOME OF THE ABOVE
#EXCLUSIONS MAY NOT APPLY. IN NO EVENT SHALL ENVERUS, INC. OR ANY OF ITS AFFILIATES
#BE LIABLE UNDER ANY LEGAL THEORY, WHETHER IN TORT (INCLUDING WITHOUT LIMITATION
#NEGLIGENCE), CONTRACT, STRICT LIABILITY, STATUTORY OR OTHERWISE, FOR ANY SPECIAL,
#INCIDENTAL, CONSEQUENTIAL, EXEMPLARY, PUNITIVE OR INDIRECT DAMAGE OF ANY KIND, INCLUDING
#WITHOUT LIMITATION LOSS OF REVENUE, PROFITS, GOODWILL, USE, AND/OR DATA OR THE COST OF
#PROCUREMENT OF SUBSTITUTE GOODS OR SERVICES, EVEN IF APPRISED OF THE POSSIBILITY OF SUCH
#DAMAGES IN ADVANCE.
#--------------------------------------------------#

~VERSION INFORMATION
VERS. 2.0 : CWLS LOG ASCII STANDARD - VERSION 2.0
WRAP.  NO : ONE LINE PER DEPTH STEP
~WELL INFORMATION
#MNEMONIC     .UNIT              VALUE :DESCRIPTION
STRT       .FT                47 :START DEPTH
STOP       .FT                15730 :STOP DEPTH
STEP       .FT                   0.500 :STEP
NULL       .                  -999.250 :NULL
UWI        .              42389303580000 :UNIQUE WELL ID
API        .              42389303580000 :API NUMBER
COMP       .         CIMAREX ENERGY CO. OF COLORADO :COMPANY
WELL       .        REEVES  AZ  FEE  1 :WELL
DATE       .                08-JAN-2006 :LOG DATE
~CURVE INFORMATION
#MNEMONIC     .UNIT      API CODE :CURVE DESCRIPTION
DEPTH       .FT                      :MEASURED DEPTH
NEUT.API        UNKNOWN   :NEUT
GR.API        UNKNOWN   :GR
DT.US/FT        UNKNOWN   :DT
CAL.INCH        UNKNOWN   :CAL
~A    DEPTH    NEUT    GR    DT    CAL
# ...
 6513.5     -999.250   54.634   64.544   12.429
 6514     -999.250   55.756   65.395   12.443
 6514.5     -999.250   56.878   66.245   12.458
 6515     -999.250   58   66.102   12.472
 6515.5     -999.250   59.076   65.512   12.486
 6516     -999.250   60.08   64.923   12.501
 6516.5     -999.250   61.084   64.334   12.515
 6517     -999.250   62.088   63.745   12.525
 6517.5     -999.250   63.092   63.24   12.524
 6518     -999.250   64.096   62.948   12.524
 6518.5     -999.250   65.1   62.657   12.523
 6519     -999.250   66.104   62.366   12.522
 6519.5     -999.250   67.109   62.075   12.521
 6520     -999.250   68.113   62.061   12.521
 6520.5     -999.250   68.622   62.08   12.52
 6521     -999.250   68.022   62.098   12.519
 6521.5     -999.250   67.422   62.117   12.518
 6522     -999.250   66.823   62.135   12.518
 6522.5     -999.250   66.223   62.491   12.517
 6523     -999.250   65.623   63.183   12.516
 6523.5     -999.250   65.023   63.876   12.515
 6524     -999.250   64.423   64.39   12.514
 6524.5     -999.250   63.339   63.791   12.514
 6525     -999.250   61.258   63.191   12.513
 6525.5     -999.250   59.177   62.591   12.512
 6526     -999.250   57.096   59.057   12.511
 6526.5     -999.250   55.015   60.093   12.511
 6527     -999.250   54.729   61.081   12.523
 6527.5     -999.250   55.197   61.211   12.544
 6528     -999.250   55.665   61.341   12.565
 6528.5     -999.250   56.133   61.47   12.585
 6529     -999.250   56.6   61.596   12.606
 6529.5     -999.250   57.068   61.281   12.627
 6530     -999.250   57.536   60.966   12.648
 6530.5     -999.250   58.012   60.65   12.669
 6531     -999.250   58.538   60.802   12.69
 6531.5     -999.250   59.064   62.066   12.711
 6532     -999.250   59.59   62.733   12.732
 6532.5     -999.250   60.116   61.896   12.753
 6533     -999.250   62.723   61.059   12.774
 6533.5     -999.250   65.441   60.223   12.789
 6534     -999.250   68.16   59.826   12.753
 6534.5     -999.250   70.878   60.953   12.717
 6535     -999.250   73.059   62.08   12.681
 6535.5     -999.250   75.065   61.671   12.646
 6536     -999.250   77.07   61.043   12.61
 6536.5     -999.250   79.075   60.415   12.574
 6537     -999.250   81.08   59.786   12.538
 6537.5     -999.250   80.7   59.158   12.502
 6538     -999.250   79.383   59.209   12.466
 6538.5     -999.250   78.065   60.04   12.43
 6539     -999.250   76.748   60.87   12.428
 6539.5     -999.250   75.431   61.701   12.429
 6540     -999.250   74.114   61.1   12.43
 6540.5     -999.250   73.41   60.071   12.43
 6541     -999.250   73.563   60.423   12.431
 6541.5     -999.250   73.716   61.895   12.432
 6542     -999.250   72.717   61.909   12.433
 6542.5     -999.250   70.463   61.924   12.434
 6543     -999.250   68.208   61.938   12.434
 6543.5     -999.250   66.547   61.953   12.435
 6544     -999.250   64.913   61.967   12.436
 6544.5     -999.250   63.278   61.982   12.437
 6545     -999.250   61.643   62.816   12.437
 6545.5     -999.250   60.009   64.079   12.438
 6546     -999.250   58.601   64.107   12.439
 6546.5     -999.250   59.996   63.45   12.44
 6547     -999.250   61.392   62.793   12.44
 6547.5     -999.250   62.788   62.136   12.441
 6548     -999.250   64.184   61.698   12.442
 6548.5     -999.250   65.58   61.279   12.443
 6549     -999.250   66.976   60.859   12.444
 6549.5     -999.250   73.161   61.065   12.444
 6550     -999.250   80.698   61.353   12.445
 6550.5     -999.250   88.235   61.64   12.446
 6551     -999.250   95.772   61.928   12.447
 6551.5     -999.250   97.155   62.422   12.447
 6552     -999.250   94.31   62.954   12.448
 6552.5     -999.250   91.466   63.486   12.449
 6553     -999.250   88.621   64.019   12.45
 6553.5     -999.250   85.776   63.637   12.45
 6554     -999.250   82.932   62.229   12.451
 6554.5     -999.250   83.839   60.822   12.452
 6555     -999.250   92.506   54.198   12.453
 6555.5     -999.250   101.173   55.643   12.454
 6556     -999.250   109.84   57.089   12.454
 6556.5     -999.250   118.507   58.535   12.455
 6557     -999.250   120.395   59.98   12.456
 6557.5     -999.250   119.182   61.243   12.457
 6558     -999.250   117.969   62.19   12.457
 6558.5     -999.250   116.757   61.333   12.458
 6559     -999.250   115.544   59.654   12.459
 6559.5     -999.250   111.622   57.974   12.46
 6560     -999.250   106.212   62.466   12.46
 6560.5     -999.250   100.803   65.452   12.461
 6561     -999.250   95.394   64.788   12.462
 6561.5     -999.250   89.984   64.125   12.463
 6562     -999.250   84.575   62.819   12.464
 6562.5     -999.250   79.166   60.822   12.464
 6563     -999.250   73.756   61.839   12.465
 6563.5     -999.250   69.628   62.856   12.466
 6564     -999.250   69.806   63.455   12.467
 6564.5     -999.250   69.984   62.651   12.467
 6565     -999.250   70.162   61.846   12.468
 6565.5     -999.250   70.34   61.042   12.469
 6566     -999.250   70.518   60.238   12.47
 6566.5     -999.250   70.695   59.434   12.47
 6567     -999.250   70.873   60.474   12.471
 6567.5     -999.250   70.433   61.537   12.472
 6568     -999.250   69.692   60.229   12.473
 6568.5     -999.250   68.951   58.921   12.474
 6569     -999.250   68.21   57.612   12.474
 6569.5     -999.250   67.469   57.82   12.475
 6570     -999.250   66.728   60.202   12.478
 6570.5     -999.250   78.616   61.077   12.482
 6571     -999.250   93.794   59.773   12.485
 6571.5     -999.250   108.973   58.47   12.488
 6572     -999.250   123.654   57.166   12.492
 6572.5     -999.250   126.532   57.798   12.495
 6573     -999.250   129.409   62.197   12.498
 6573.5     -999.250   132.287   66.529   12.502
 6574     -999.250   130.511   68.386   12.505
 6574.5     -999.250   126.607   70.243   12.508
 6575     -999.250   122.704   70.637   12.512
 6575.5     -999.250   119.201   70.364   12.515
 6576     -999.250   116.542   70.09   12.518
 6576.5     -999.250   113.883   69.817   12.522
 6577     -999.250   111.223   69.544   12.525
 6577.5     -999.250   108.564   68.687   12.528
 6578     -999.250   105.904   67.48   12.531
 6578.5     -999.250   103.245   66.819   12.535
 6579     -999.250   100.585   67.791   12.538
 6579.5     -999.250   97.664   68.762   12.541
 6580     -999.250   94.658   69.733   12.545
 6580.5     -999.250   91.653   70.705   12.548
 6581     -999.250   88.647   68.19   12.551
 6581.5     -999.250   94.422   66.896   12.545
 6582     -999.250   100.446   67.115   12.518
 6582.5     -999.250   106.469   67.334   12.491
 6583     -999.250   110.327   67.694   12.464
 6583.5     -999.250   112.885   68.822   12.437
 6584     -999.250   115.443   69.95   12.41
 6584.5     -999.250   118   69.8   12.383
 6585     -999.250   120.558   69.346   12.356
 6585.5     -999.250   123.116   68.892   12.329
 6586     -999.250   125.673   68.803   12.329
 6586.5     -999.250   127.962   68.826   12.332
 6587     -999.250   127.027   68.849   12.334
 6587.5     -999.250   126.092   68.873   12.337
 6588     -999.250   125.157   68.558   12.34
 6588.5     -999.250   124.222   67.702   12.343
 6589     -999.250   121.367   66.846   12.345
 6589.5     -999.250   118.244   65.991   12.348
 6590     -999.250   115.122   65.542   12.351
 6590.5     -999.250   111.999   65.3   12.354
 6591     -999.250   108.877   65.059   12.357
 6591.5     -999.250   105.754   64.818   12.359
 6592     -999.250   102.632   64.576   12.362
 6592.5     -999.250   99.509   64.335   12.365
 6593     -999.250   96.471   64.77   12.368
 6593.5     -999.250   88.874   65.259   12.37
 6594     -999.250   81.278   65.748   12.373
 6594.5     -999.250   73.681   64.712   12.376
 6595     -999.250   66.084   63.505   12.379
 6595.5     -999.250   58.488   62.64   12.382
 6596     -999.250   57.909   62.084   12.384
 6596.5     -999.250   57.363   61.528   12.387
 6597     -999.250   56.818   60.972   12.39
 6597.5     -999.250   56.273   60.616   12.393
 6598     -999.250   55.728   61.592   12.396
 6598.5     -999.250   55.183   62.568   12.398
