###############################################
##         ENVERUS                           ##
##         ESS - Open Hole                   ##
##         PERMIAN / DELAWARE                ##
##         Nov 04 2023  V4.0                 ##
##         42-389-30422-00-00                ##
###############################################
## Copyright 2017-2023  ENVERUS.  All Rights Reserved. 
## Confidential - Property of ENVERUS, use governed by terms and 
## conditions found within the existing Information Services Subscription Agreement 
## (as may be amended, the “ISSA”) between Customer and ENVERUS. 
## 
~VERSION INFORMATION
# MNEM.UNIT                               DATA : DESCRIPTION OF MNEMONIC
#-----.-----     ----------------------------- : -----------------------------
VERS.                                     2.00 : CWLS LOG ASCII STANDARD - VERSION 2.00
WRAP.                                       NO : MULTIPLE LINES PER DEPTH STEP
VEND.                                  ENVERUS : VENDOR
TYPE.                          ESS - OPEN HOLE : ENVERUS ESSENTIAL CURVES – ACCESSIBLE THROUGH ENVERUS PRISM(TM)
DOC.                                  31749874 : ENVERUS HEADER RAW DOCUMENT ID
#___________________________________________________________________________________________________ 
~WELL INFORMATION 
# u82sU1u0B8de5w9HEAjaYOtqLlVzfD+KUeD2ZoqivGgiUzwSeb1LYInaR9MNeJxDUIxxjb7EPbXz9g+KH10l6Q== 
# MNEM.UNIT                                              DATA : DESCRIPTION OF MNEMONIC 
#-----.-----                    ----------------------------- : ----------------------------- 
CNTY.                                                  REEVES : COUNTY 
STATE.                                                  TEXAS : STATE 
CNTRY.                                                    USA : COUNTRY 
API.                                             42-389-30422 : API (10 Digit) 
API_14.                                    42-389-30422-00-00 : API (14 Digits) 
API_14_std.                                 42-389-30422-0000 : API (14 Digits Standard) 
UWI.                                           42389304220000 : UNIQUE WELL ID 
WELL.                                    BECKHAM  AGNES 26  1 : WELL NAME
STRT.FT                                                  89.0 : START DEPTH
STOP.FT                                               15719.0 : STOP DEPTH
STEP.FT                                                   0.5 : STEP BETWEEN DEPTHS
NULL.                                                 -999.25 : NULL VALUE
COMP.                                     WALSH & WATTS  INC. : COMPANY
#___________________________________________________________________________________________________ 
~CURVE INFORMATION 
# MNEM.UNIT           : CURVE DESCRIPTION 
#-----.-----          : ----------------------------- 
 DEPT.FT               : MEASURED DEPTH 
 CALI.IN               : CALIPER (CAL - CAL) 
 GR.API                : GAMMA RAY (GR) 
 DT.US/FT              : SONIC DELTA TRANSIT TIME (DT) 
 #___________________________________________________________________________________________________ 
~A         DEPT           CALI             GR             DT
# ...
         8273.0         12.421         51.004         69.741
         8273.5         12.417         51.177         67.704
         8274.0         12.413         55.283         65.666
         8274.5         12.421         59.389         63.629
         8275.0         12.438         63.495         63.690
         8275.5         12.455         67.601         65.207
         8276.0         12.472         71.707         66.725
         8276.5         12.489         73.540         68.243
         8277.0         12.507         69.484         68.419
         8277.5         12.524         65.428         66.671
         8278.0         12.541         61.372         64.922
         8278.5         12.558         57.316         63.174
         8279.0         12.575         53.260         61.425
         8279.5         12.575         49.204         59.676
         8280.0         12.568         45.632         57.928
         8280.5         12.562         47.750         58.750
         8281.0         12.555         49.869         60.014
         8281.5         12.549         51.987         61.278
         8282.0         12.542         54.106         62.542
         8282.5         12.536         56.225         63.806
         8283.0         12.529         58.343         64.715
         8283.5         12.522         60.462         65.233
         8284.0         12.516         62.581         65.751
         8284.5         12.509         64.699         66.269
         8285.0         12.504         65.321         66.787
         8285.5         12.503         65.727         67.305
         8286.0         12.501         66.134         67.823
         8286.5         12.499         66.541         67.515
         8287.0         12.498         66.948         67.125
         8287.5         12.496         66.067         66.736
         8288.0         12.495         62.851         66.347
         8288.5         12.493         58.423         65.958
         8289.0         12.492         53.930         65.569
         8289.5         12.490         49.437         65.179
         8290.0         12.489         44.944         64.065
         8290.5         12.487         40.450         62.711
         8291.0         12.486         35.957         61.357
         8291.5         12.484         37.632         60.002
         8292.0         12.482         40.301         58.648
         8292.5         12.481         42.970         57.293
         8293.0         12.479         45.639         59.262
         8293.5         12.478         48.308         62.102
         8294.0         12.476         50.977         64.145
         8294.5         12.475         53.646         64.993
         8295.0         12.473         56.315         65.841
         8295.5         12.472         58.280         66.689
         8296.0         12.470         58.766         67.536
         8296.5         12.469         59.253         68.384
         8297.0         12.467         59.740         68.488
         8297.5         12.465         60.226         67.603
         8298.0         12.464         60.713         66.718
         8298.5         12.462         61.200         65.832
         8299.0         12.461         42.190         64.947
         8299.5         12.459         41.475         64.062
         8300.0         12.458         40.760         63.177
         8300.5         12.456         40.045         62.292
         8301.0         12.455         41.073         61.406
         8301.5         12.453         43.003         60.521
         8302.0         12.452         44.934         60.745
         8302.5         12.450         46.865         61.107
         8303.0         12.449         48.680         61.469
         8303.5         12.447         49.298         61.831
         8304.0         12.445         49.917         62.194
         8304.5         12.444         50.535         62.556
         8305.0         12.442         51.651         62.918
         8305.5         12.441         56.517         63.280
         8306.0         12.439         61.382         64.461
         8306.5         12.438         66.247         66.356
         8307.0         12.436         66.753         68.251
         8307.5         12.435         60.775         70.146
         8308.0         12.433         54.797         69.820
         8308.5         12.432         48.820         65.373
         8309.0         12.430         42.842         60.926
         8309.5         12.428         36.864         56.681
         8310.0         12.427         30.887         53.216
         8310.5         12.425         24.909         52.951
         8311.0         12.424         24.166         52.686
         8311.5         12.422         26.526         52.421
         8312.0         12.421         28.886         52.156
         8312.5         12.419         31.246         51.891
         8313.0         12.418         33.606         52.127
         8313.5         12.416         35.966         54.020
         8314.0         12.415         38.326         55.913
         8314.5         12.413         40.686         57.807
         8315.0         12.412         43.046         59.769
         8315.5         12.410         45.406         63.197
         8316.0         12.408         47.766         66.624
         8316.5         12.407         50.125         69.863
         8317.0         12.405         52.485         69.463
         8317.5         12.404         54.845         69.063
         8318.0         12.402         56.699         68.663
         8318.5         12.401         57.215         68.263
         8319.0         12.399         57.731         67.863
         8319.5         12.398         57.975         67.463
         8320.0         12.396         55.976         67.063
         8320.5         12.395         53.977         63.384
         8321.0         12.393         51.977         59.941
         8321.5         12.391         49.978         61.385
         8322.0         12.394         48.825         62.829
         8322.5         12.397         49.095         64.274
         8323.0         12.400         49.364         65.718
         8323.5         12.403         49.634         67.162
         8324.0         12.406         49.903         68.607
         8324.5         12.409         50.173         70.051
         8325.0         12.412         50.442         71.495
         8325.5         12.414         50.712         67.449
         8326.0         12.417         50.981         61.550
         8326.5         12.420         51.251         63.085
         8327.0         12.423         52.173         64.853
         8327.5         12.426         53.597         66.622
         8328.0         12.429         55.020         68.390
         8328.5         12.432         56.444         70.159
         8329.0         12.435         57.867         71.928
         8329.5         12.437         59.291         70.411
         8330.0         12.440         60.714         68.868
         8330.5         12.443         60.305         67.324
         8331.0         12.446         53.315         65.781
         8331.5         12.449         46.325         64.237
         8332.0         12.452         39.928         62.694
         8332.5         12.455         41.330         62.551
         8333.0         12.458         42.732         64.172
         8333.5         12.462         44.135         65.794
         8334.0         12.467         45.537         67.415
         8334.5         12.473         46.940         68.058
         8335.0         12.479         48.342         68.537
         8335.5         12.484         49.745         69.015
         8336.0         12.490         51.842         69.494
         8336.5         12.496         55.421         69.973
         8337.0         12.501         58.999         69.508
         8337.5         12.507         62.578         68.041
         8338.0         12.513         66.156         66.575
         8338.5         12.518         64.347         65.108
