#--------------------------------------------------#
#-------------------ENVERUS, INC.------------------#
#------------------WWW.ENVERUS.COM-----------------#
#------------------COPYRIGHT 2020------------------#
#--------------------------------------------------#
#THIS FILE MAY BE USED ONLY IN ACCORDANCE WITH A CURRENT SUBSCRIPTION AGREEMENT BETWEEN
#THE USER AND ENVERUS, INC. NO PART OF THIS FILE MAY BE REPRODUCED, USED, COPIED,
#MODIFIED, PROPAGATED, OR DISTRIBUTED EXCEPT IN ACCORDANCE WITH THE SUBSCRIPTION
#AGREEMENT. UNAUTHORIZED USE OR DISTRIBUTION OF ALL OR ANY PART OF THIS FILE MAY VIOLATE
#COPYRIGHT, TRADEMARK, AND/OR OTHER LAWS AND IS SUBJECT TO CIVIL AS WELL AS CRIMINAL
#SANCTIONS.
#--------------------------------------------------#
#THIS FILE IS PROVIDED "AS-IS" AND ALL WARRANTIES ARE EXPRESSLY DISCLAIMED, WHETHER
#EXPRESS, ORAL, IMPLIED, STATUTORY OR OTHERWISE, INCLUDING ANY IMPLIED WARRANTY OF FITNESS
#FOR A PARTICULAR PURPOSE, MERCHANTABILITY, TITLE OR NON-INFRINGEMENT, AND ANY WARRANTIES
#ARISING BY VIRTUE OF CUSTOM OF TRADE OR COURSE OF DEALING.  FURTHER, ENVERUS, INC.
#AND ITS LICENSORS DO NOT REPRESENT OR WARRANT THAT THIS FILE WILL MEET USER'S
#REQUIREMENTS OR ARE SUITABLE FOR USER'S NEEDS OR THAT THE DATA OR RESULTS PROVIDED IN
#CONJUNCTION THEREWITH ARE CORRECT, ACCURATE, TIMELY OR RELIABLE. THESE DISCLAIMERS SHALL
#APPLY REGARDLESS OF ANY FAILURE OF ESSENTIAL PURPOSE OF ANY LIMITED REMEDY.  SOME
#JURISDICTIONS DO NOT ALLOW THE EXCLUSION OF CERTAIN WARRANTIES SO SOME OF THE ABOVE
#EXCLUSIONS MAY NOT APPLY. IN NO EVENT SHALL ENVERUS, INC. OR ANY OF ITS AFFILIATES
#BE LIABLE UNDER ANY LEGAL THEORY, WHETHER IN TORT (INCLUDING WITHOUT LIMITATION
#NEGLIGENCE), CONTRACT, STRICT LIABILITY, STATUTORY OR OTHERWISE, FOR ANY SPECIAL,
#INCIDENTAL, CONSEQUENTIAL, EXEMPLARY, PUNITIVE OR INDIRECT DAMAGE OF ANY KIND, INCLUDING
#WITHOUT LIMITATION LOSS OF REVENUE, PROFITS, GOODWILL, USE, AND/OR DATA OR THE COST OF
#PROCUREMENT OF SUBSTITUTE GOODS OR SERVICES, EVEN IF APPRISED OF THE POSSIBILITY OF SUCH
#DAMAGES IN ADVANCE.
#--------------------------------------------------#

~VERSION INFORMATION
VERS. 2.0 : CWLS LOG ASCII STANDARD - VERSION 2.0
WRAP.  NO : ONE LINE PER DEPTH STEP
~WELL INFORMATION
#MNEMONIC     .UNIT              VALUE :DESCRIPTION
STRT       .FT                0 :START DEPTH
STOP       .FT                13134 :STOP DEPTH
STEP       .FT                   0.500 :STEP
NULL       .                  -999.250 :NULL
UWI        .              42389303540000 :UNIQUE WELL ID
API        .              42389303540000 :API NUMBER
COMP       .         SMC OIL & GAS  INC. :COMPANY
WELL       .        TIFFANY STATE  1 :WELL
DATE       .                18-OCT-1995 :LOG DATE
~CURVE INFORMATION
#MNEMONIC     .UNIT      API CODE :CURVE DESCRIPTION
DEPTH       .FT                      :MEASURED DEPTH
DT.US/FT        UNKNOWN   :DT
CAL.INCH        UNKNOWN   :CAL
GR.API        UNKNOWN   :GR
~A    DEPTH    DT    CAL    GR
# ...
 3425.5     74.314   11.251   59.791
 3426     75.052   11.269   57.372
 3426.5     76.432   11.286   54.953
 3427     76.42   11.304   52.534
 3427.5     75.719   11.321   50.115
 3428     74.989   11.339   47.696
 3428.5     74.217   11.343   45.277
 3429     73.874   11.341   43.812
 3429.5     77.008   11.339   44.019
 3430     81.33   11.338   44.226
 3430.5     85.647   11.336   44.433
 3431     86.28   11.334   44.64
 3431.5     86.687   11.332   44.814
 3432     84.788   11.33   44.956
 3432.5     82.89   11.329   45.098
 3433     81.179   11.327   45.759
 3433.5     80.654   11.327   46.648
 3434     80.129   11.328   48.498
 3434.5     79.605   11.33   50.854
 3435     79.101   11.332   53.211
 3435.5     79.359   11.333   54.62
 3436     79.616   11.335   54.03
 3436.5     79.873   11.336   53.441
 3437     80.131   11.338   52.008
 3437.5     80.388   11.339   50.509
 3438     80.645   11.341   49.01
 3438.5     80.903   11.343   47.511
 3439     81.22   11.344   46.012
 3439.5     81.67   11.346   45.54
 3440     82.056   11.347   46.525
 3440.5     82.396   11.349   47.366
 3441     82.737   11.35   47.962
 3441.5     82.225   11.352   49.355
 3442     81.499   11.354   52.287
 3442.5     80.279   11.355   55.22
 3443     79.002   11.357   58.153
 3443.5     80.834   11.358   56.343
 3444     82.992   11.36   52.992
 3444.5     85.15   11.361   47.586
 3445     87.108   11.363   42.18
 3445.5     88.052   11.365   37.095
 3446     86.973   11.366   37.681
 3446.5     86.173   11.368   38.267
 3447     85.923   11.369   38.853
 3447.5     85.672   11.371   39.44
 3448     85.431   11.372   39.183
 3448.5     85.204   11.374   38.337
 3449     84.978   11.376   37.491
 3449.5     84.751   11.377   36.646
 3450     84.641   11.379   35.8
 3450.5     87.266   11.38   35.303
 3451     89.892   11.382   34.882
 3451.5     93.252   11.383   34.462
 3452     92.538   11.385   34.041
 3452.5     88.499   11.387   33.611
 3453     86.072   11.388   32.658
 3453.5     85.567   11.39   31.706
 3454     85.061   11.391   30.753
 3454.5     86.062   11.393   29.8
 3455     88.747   11.394   28.848
 3455.5     91.431   11.396   27.895
 3456     94.115   11.397   28.149
 3456.5     94.4   11.399   29.002
 3457     94.521   11.401   29.855
 3457.5     94.643   11.402   30.708
 3458     94.673   11.404   31.561
 3458.5     91.904   11.405   32.414
 3459     89.135   11.407   33.267
 3459.5     84.29   11.408   34.12
 3460     78.651   11.41   34.974
 3460.5     78.41   11.412   35.877
 3461     79.671   11.413   36.802
 3461.5     81.558   11.415   37.727
 3462     86.187   11.416   38.03
 3462.5     86.082   11.418   37.525
 3463     85.338   11.419   37.02
 3463.5     84.857   11.421   36.515
 3464     85.332   11.423   37.498
 3464.5     86.395   11.424   40.371
 3465     88.062   11.426   43.245
 3465.5     86.517   11.427   46.622
 3466     84.67   11.429   56.196
 3466.5     82.822   11.43   58.84
 3467     81.677   11.432   57.995
 3467.5     81.023   11.434   56.833
 3468     78.998   11.435   54.856
 3468.5     77.298   11.437   52.879
 3469     79.882   11.438   47.295
 3469.5     82.711   11.44   41.459
 3470     85.232   11.441   37.416
 3470.5     86.74   11.443   36.783
 3471     87.056   11.445   36.151
 3471.5     87.372   11.435   35.909
 3472     87.174   11.422   37.804
 3472.5     85.548   11.408   39.7
 3473     82.402   11.395   41.596
 3473.5     83.527   11.381   43.469
 3474     84.651   11.368   43.148
 3474.5     85.566   11.356   42.828
 3475     84.58   11.356   42.507
 3475.5     83.593   11.355   42.186
 3476     82.607   11.355   42.999
 3476.5     84.193   11.355   44.553
 3477     86.696   11.354   46.108
 3477.5     85.751   11.354   47.663
 3478     84.805   11.353   49.044
 3478.5     83.886   11.353   48.113
 3479     85.305   11.353   47.181
 3479.5     89.246   11.352   43.061
 3480     90.129   11.352   38.786
 3480.5     90.84   11.351   39.569
 3481     91.212   11.351   40.351
 3481.5     89.451   11.351   41.134
 3482     87.569   11.35   41.917
 3482.5     89.427   11.35   41.825
 3483     89.027   11.349   39.836
 3483.5     88.628   11.349   37.846
 3484     88.228   11.349   37.685
 3484.5     87.828   11.348   38.852
 3485     87.309   11.348   40.019
 3485.5     85.981   11.347   41.476
 3486     84.093   11.347   43.608
 3486.5     82.161   11.347   45.156
 3487     80.228   11.346   44.651
 3487.5     78.435   11.346   44.146
 3488     77.773   11.345   43.641
 3488.5     77.083   11.345   44.423
 3489     77.181   11.345   49.624
 3489.5     77.452   11.344   54.826
 3490     77.723   11.344   58.566
 3490.5     78.273   11.343   54.918
 3491     79.378   11.343   51.27
 3491.5     80.483   11.343   47.621
 3492     81.588   11.342   45.365
 3492.5     82.693   11.342   45.663
 3493     83.797   11.341   45.601
 3493.5     85.805   11.341   44.809
 3494     85.165   11.341   44.016
 3494.5     84.525   11.34   43.224
 3495     83.885   11.34   42.431
 3495.5     83.245   11.339   41.639
 3496     82.759   11.339   40.846
 3496.5     82.68   11.339   46.005
 3497     82.729   11.338   47.666
 3497.5     83.775   11.338   47.349
 3498     84.821   11.337   47.031
 3498.5     85.867   11.337   46.714
 3499     86.958   11.337   46.396
 3499.5     87.394   11.336   46.079
 3500     86.958   11.336   45.762
 3500.5     86.522   11.335   45.444
 3501     86.086   11.335   45.127
 3501.5     85.61   11.335   44.809
 3502     84.448   11.335   44.492
 3502.5     83.287   11.335   47.899
 3503     82.125   11.336   52.049
 3503.5     80.964   11.336   56.199
 3504     81.303   11.336   54.312
 3504.5     82.256   11.336   51.131
 3505     83.301   11.336   47.949
 3505.5     85.717   11.336   44.768
 3506     89.802   11.336   41.587
 3506.5     90.123   11.336   38.405
 3507     90.095   11.336   35.224
 3507.5     89.379   11.336   37.651
 3508     88.663   11.336   40.587
 3508.5     87.948   11.336   43.522
 3509     87.45   11.337   43.054
 3509.5     87.137   11.337   42.463
 3510     87.061   11.337   41.873
 3510.5     87.455   11.337   41.283
 3511     87.85   11.337   40.879
 3511.5     88.244   11.337   41.33
 3512     88.503   11.337   41.781
 3512.5     88.126   11.337   42.232
 3513     87.749   11.337   42.683
 3513.5     87.372   11.337   43.55
 3514     86.994   11.337   44.579
 3514.5     86.305   11.337   45.608
 3515     85.093   11.337   46.637
 3515.5     83.882   11.338   47.31
 3516     83.217   11.338   46.703
 3516.5     82.924   11.338   46.096
 3517     82.925   11.338   45.488
 3517.5     83.379   11.338   44.881
 3518     83.832   11.338   44.274
 3518.5     83.551   11.338   43.962
 3519     82.847   11.338   44.606
 3519.5     81.709   11.338   45.249
 3520     80.415   11.338   45.893
 3520.5     79.713   11.338   46.899
 3521     79.224   11.338   49.676
 3521.5     78.735   11.339   52.452
 3522     79.028   11.339   55.229
 3522.5     78.33   11.339   58.006
 3523     76.861   11.339   60.782
 3523.5     75.778   11.339   63.559
 3524     75.563   11.339   63.379
 3524.5     75.348   11.339   62.704
 3525     75.133   11.339   62.029
 3525.5     74.917   11.339   61.353
 3526     74.702   11.339   60.941
 3526.5     74.487   11.339   63.809
 3527     74.272   11.339   66.677
 3527.5     74.12   11.34   69.09
 3528     74.12   11.34   68.265
 3528.5     74.12   11.34   67.441
 3529     74.12   11.34   66.616
 3529.5     74.12   11.34   64.038
 3530     74.334   11.34   61.354
 3530.5     74.676   11.34   58.669
 3531     75.106   11.34   55.985
 3531.5     75.536   11.34   53.301
 3532     76.595   11.34   50.617
 3532.5     78.339   11.34   47.932
 3533     80.083   11.34   45.248
 3533.5     81.827   11.34   46.164
 3534     81.091   11.341   47.81
 3534.5     79.375   11.341   49.455
 3535     77.659   11.341   50.066
 3535.5     75.944   11.341   49.745
 3536     74.235   11.341   49.424
 3536.5     75.279   11.341   49.103
 3537     77.35   11.341   48.959
 3537.5     79.422   11.341   50.116
