#--------------------------------------------------#
#-------------------ENVERUS, INC.------------------#
#------------------WWW.ENVERUS.COM-----------------#
#------------------COPYRIGHT 2020------------------#
#--------------------------------------------------#
#THIS FILE MAY BE USED ONLY IN ACCORDANCE WITH A CURRENT SUBSCRIPTION AGREEMENT BETWEEN
#THE USER AND ENVERUS, INC. NO PART OF THIS FILE MAY BE REPRODUCED, USED, COPIED,
#MODIFIED, PROPAGATED, OR DISTRIBUTED EXCEPT IN ACCORDANCE WITH THE SUBSCRIPTION
#AGREEMENT. UNAUTHORIZED USE OR DISTRIBUTION OF ALL OR ANY PART OF THIS FILE MAY VIOLATE
#COPYRIGHT, TRADEMARK, AND/OR OTHER LAWS AND IS SUBJECT TO CIVIL AS WELL AS CRIMINAL
#SANCTIONS.
#--------------------------------------------------#
#THIS FILE IS PROVIDED "AS-IS" AND ALL WARRANTIES ARE EXPRESSLY DISCLAIMED, WHETHER
#EXPRESS, ORAL, IMPLIED, STATUTORY OR OTHERWISE, INCLUDING ANY IMPLIED WARRANTY OF FITNESS
#FOR A PARTICULAR PURPOSE, MERCHANTABILITY, TITLE OR NON-INFRINGEMENT, AND ANY WARRANTIES
#ARISING BY VIRTUE OF CUSTOM OF TRADE OR COURSE OF DEALING.  FURTHER, ENVERUS, INC.
#AND ITS LICENSORS DO NOT REPRESENT OR WARRANT THAT THIS FILE WILL MEET USER'S
#REQUIREMENTS OR ARE SUITABLE FOR USER'S NEEDS OR THAT THE DATA OR RESULTS PROVIDED IN
#CONJUNCTION THEREWITH ARE CORRECT, ACCURATE, TIMELY OR RELIABLE. THESE DISCLAIMERS SHALL
#APPLY REGARDLESS OF ANY FAILURE OF ESSENTIAL PURPOSE OF ANY LIMITED REMEDY.  SOME
#JURISDICTIONS DO NOT ALLOW THE EXCLUSION OF CERTAIN WARRANTIES SO SOME OF THE ABOVE
#EXCLUSIONS MAY NOT APPLY. IN NO EVENT SHALL ENVERUS, INC. OR ANY OF ITS AFFILIATES
#BE LIABLE UNDER ANY LEGAL THEORY, WHETHER IN TORT (INCLUDING WITHOUT LIMITATION
#NEGLIGENCE), CONTRACT, STRICT LIABILITY, STATUTORY OR OTHERWISE, FOR ANY SPECIAL,
#INCIDENTAL, CONSEQUENTIAL, EXEMPLARY, PUNITIVE OR INDIRECT DAMAGE OF ANY KIND, INCLUDING
#WITHOUT LIMITATION LOSS OF REVENUE, PROFITS, GOODWILL, USE, AND/OR DATA OR THE COST OF
#PROCUREMENT OF SUBSTITUTE GOODS OR SERVICES, EVEN IF APPRISED OF THE POSSIBILITY OF SUCH
#DAMAGES IN ADVANCE.
#--------------------------------------------------#

~VERSION INFORMATION
VERS. 2.0 : CWLS LOG ASCII STANDARD - VERSION 2.0
WRAP. NO : ONE LINE PER DEPTH STEP
~WELL INFORMATION
#MNEMONIC     .UNIT              VALUE :DESCRIPTION
STRT       .FT                2834.00000 :START DEPTH
STOP       .FT                7010.00000 :STOP DEPTH
STEP       .FT                0.50000 :STEP
NULL       .                -999.25000 :NULL VALUE
UWI       .                42389304120000 :UNIQUE WELL ID
API       .                42389304120000 :API NUMBER
COMP       .                 :COMPANY
WELL       .                 :WELL
FLD       .                 :FIELD
LOC       .                 :LOCATION
CNTY       .                 :COUNTY
STAT       .                 :STATE
CTRY       .                 :COUNTRY
SRVC       .                 :SERVICE COMPANY
DATE       .                 :DATE
~CURVE INFORMATION
#MNEMONIC     .UNIT      API CODE :CURVE DESCRIPTION
DEPTH       .FT                      :MEASURED DEPTH
CAL       .IN        UNKNOWN   :CAL
DT       .US/FT        UNKNOWN   :DT
GR       .GAPI        UNKNOWN   :GR
~A    DEPTH    CAL    DT    GR
# ...
4826.50000    14.99905    62.61570    31.99714
4827.00000    15.00225    63.00526    32.24485
4827.50000    15.00546    63.44138    34.28348
4828.00000    15.00866    65.06540    35.29447
4828.50000    15.00467    66.68942    36.18178
4829.00000    14.98738    68.31343    37.06909
4829.50000    14.97008    69.93745    37.95640
4830.00000    14.95279    71.56147    38.84370
4830.50000    14.93549    73.18549    39.24768
4831.00000    14.91820    72.08655    39.27936
4831.50000    14.90090    69.02204    39.31104
4832.00000    14.88361    65.95754    39.34273
4832.50000    14.86631    62.89303    39.37441
4833.00000    14.84902    62.94471    39.40609
4833.50000    14.83172    63.81911    39.43778
4834.00000    14.81443    64.69352    39.46946
4834.50000    14.79713    65.56793    39.50115
4835.00000    14.77984    66.44234    39.53283
4835.50000    14.76254    67.31674    39.56451
4836.00000    14.74525    68.19115    38.46047
4836.50000    14.72795    69.06556    36.92446
4837.00000    14.71066    69.93997    35.38846
4837.50000    14.69336    69.59835    33.85245
4838.00000    14.67607    68.85050    32.31644
4838.50000    14.65877    68.10265    30.78044
4839.00000    14.64148    67.73070    29.24443
4839.50000    14.62418    71.48306    27.70842
4840.00000    14.60689    75.23542    27.60457
4840.50000    14.58959    76.91704    27.86108
4841.00000    14.57230    76.17836    28.11759
4841.50000    14.55500    75.43969    28.37410
4842.00000    14.53771    74.70101    28.63061
4842.50000    14.52041    73.96234    28.88712
4843.00000    14.50312    73.22367    30.55457
4843.50000    14.48583    72.48499    32.28847
4844.00000    14.46853    71.74632    34.02236
4844.50000    14.45124    70.22883    35.75626
4845.00000    14.43394    68.19565    35.45433
4845.50000    14.41665    66.16247    33.70646
4846.00000    14.39935    64.12930    31.95859
4846.50000    14.38206    63.37500    30.21072
4847.00000    14.36476    63.35653    28.46285
4847.50000    14.34747    63.33806    29.36192
4848.00000    14.33017    63.31959    30.53418
4848.50000    14.31288    63.30112    31.70643
4849.00000    14.29558    63.28265    32.87868
4849.50000    14.26204    63.26418    34.05093
4850.00000    14.22307    63.24571    35.22318
4850.50000    14.18410    63.22725    36.39543
4851.00000    14.14512    66.15224    37.56768
4851.50000    14.10615    62.77746    38.92724
4852.00000    14.06718    59.40267    40.46668
4852.50000    14.02820    56.02789    42.00611
4853.00000    13.98923    52.78339    43.54555
4853.50000    13.95026    54.42118    45.08499
4854.00000    13.91128    56.05897    46.62442
4854.50000    13.87231    57.69677    48.73925
4855.00000    13.83333    59.33456    51.88667
4855.50000    13.79436    60.97235    55.03408
4856.00000    13.75539    62.61014    58.18150
4856.50000    13.71641    64.24793    61.31147
4857.00000    13.68633    65.88572    64.24019
4857.50000    13.66646    67.52352    67.16890
4858.00000    13.64660    68.91284    70.09761
4858.50000    13.62673    67.28460    73.02633
4859.00000    13.60687    65.65637    75.95504
4859.50000    13.58700    64.02813    78.65347
4860.00000    13.56714    62.39989    77.56959
4860.50000    13.54727    60.76995    76.48571
4861.00000    13.52741    59.06849    75.40184
4861.50000    13.50754    57.36703    73.39208
4862.00000    13.48768    55.66557    69.79355
4862.50000    13.46781    53.96411    66.19502
4863.00000    13.44795    52.26266    62.59648
4863.50000    13.42809    50.56120    58.99795
4864.00000    13.40822    48.85974    55.39942
4864.50000    13.39399    47.15828    51.80089
4865.00000    13.39167    46.56376    48.20236
4865.50000    13.38936    46.01114    44.60383
4866.00000    13.38704    45.45851    41.00529
4866.50000    13.38472    44.90589    38.50626
4867.00000    13.38241    44.35326    39.69058
4867.50000    13.38010    43.80064    40.87490
4868.00000    13.37778    43.24802    42.05922
4868.50000    13.37546    42.69539    43.24355
4869.00000    13.37315    44.05994    44.42787
4869.50000    13.37083    47.36115    46.83295
4870.00000    13.36852    50.66235    50.58752
4870.50000    13.38092    53.96355    52.88649
4871.00000    13.40690    57.26476    52.51827
4871.50000    13.43288    60.56596    52.15005
4872.00000    13.45886    60.94160    51.78182
4872.50000    13.48484    60.48632    51.41360
4873.00000    13.51082    60.03104    51.04537
4873.50000    13.53680    59.57576    50.67715
4874.00000    13.56278    59.71583    50.14070
4874.50000    13.58876    60.39028    47.45974
4875.00000    13.61474    61.06474    44.77877
4875.50000    13.64072    61.73920    42.09781
4876.00000    13.66670    62.41366    39.41684
4876.50000    13.69268    63.08812    36.73587
4877.00000    13.71866    63.76257    34.05491
4877.50000    13.74464    63.89780    31.37394
4878.00000    13.77062    63.92077    29.84990
4878.50000    13.79660    63.94373    29.54288
4879.00000    13.82259    63.96669    29.23586
4879.50000    13.84857    63.98966    28.92884
4880.00000    13.87455    64.01262    28.62183
4880.50000    13.90053    64.03559    28.49114
4881.00000    13.94641    48.20061    28.54407
4881.50000    13.99523    38.11698    28.59701
4882.00000    14.04405    47.62621    28.64995
4882.50000    14.09287    57.13543    28.70289
4883.00000    14.14170    66.64466    28.75582
4883.50000    14.19052    70.35324    28.80876
4884.00000    14.23934    70.88285    28.97298
4884.50000    14.28816    71.41246    29.18070
4885.00000    14.33699    71.94207    29.38842
4885.50000    14.38581    72.47168    29.59614
4886.00000    14.43463    73.00129    29.80385
4886.50000    14.46528    72.94085    30.01157
4887.00000    14.46098    72.40105    30.21929
4887.50000    14.45668    71.86125    30.29772
4888.00000    14.45238    71.32144    30.25466
4888.50000    14.44808    70.78164    30.21160
4889.00000    14.44378    70.24184    30.16853
4889.50000    14.43947    69.70204    30.12547
4890.00000    14.43517    69.16224    30.08241
4890.50000    14.43087    68.62244    30.03935
4891.00000    14.42657    68.08263    29.99629
4891.50000    14.42227    67.54283    29.95322
4892.00000    14.41797    67.00303    29.91215
4892.50000    14.41366    69.53174    29.96515
4893.00000    14.40936    70.38618    30.01815
4893.50000    14.40506    70.21963    30.07115
4894.00000    14.40076    70.05309    30.12415
4894.50000    14.39646    69.88654    30.17716
4895.00000    14.39216    69.71999    30.23016
4895.50000    14.38785    69.55344    30.37456
4896.00000    14.38355    69.38690    30.79463
4896.50000    14.37925    69.22035    31.21469
4897.00000    14.37495    69.05380    31.63476
4897.50000    14.37065    68.88726    32.05483
4898.00000    14.37195    68.64269    32.47490
4898.50000    14.39009    68.39662    32.89496
4899.00000    14.40823    68.15055    33.31503
4899.50000    14.42637    67.90448    33.73510
4900.00000    14.44451    67.65840    33.70636
4900.50000    14.46266    67.41233    33.50627
4901.00000    14.48080    67.16626    33.30619
4901.50000    14.49894    66.92019    33.10610
4902.00000    14.51708    66.67412    32.90602
4902.50000    14.53522    66.42804    32.70593
4903.00000    14.55336    66.18197    32.50585
4903.50000    14.57151    66.27432    32.30576
4904.00000    14.58965    67.89775    32.10568
4904.50000    14.60779    69.52119    31.90560
4905.00000    14.62593    71.14462    31.70551
4905.50000    14.64407    71.04338    31.50543
4906.00000    14.66221    70.21036    31.30534
4906.50000    14.68036    69.37735    31.10526
4907.00000    14.69850    68.54433    30.90517
4907.50000    14.71664    67.71131    30.78192
4908.00000    14.73478    66.87830    30.82843
4908.50000    14.75292    66.04528    30.87493
4909.00000    14.77106    65.21226    30.92144
4909.50000    14.78920    64.37925    30.96794
4910.00000    14.80735    64.96231    31.01445
4910.50000    14.82549    65.91724    31.06095
4911.00000    14.84363    66.87218    31.10746
4911.50000    14.86177    67.61451    30.98330
