#--------------------------------------------------#
#-------------------ENVERUS, INC.------------------#
#------------------WWW.ENVERUS.COM-----------------#
#------------------COPYRIGHT 2020------------------#
#--------------------------------------------------#
#THIS FILE MAY BE USED ONLY IN ACCORDANCE WITH A CURRENT SUBSCRIPTION AGREEMENT BETWEEN
#THE USER AND ENVERUS, INC. NO PART OF THIS FILE MAY BE REPRODUCED, USED, COPIED,
#MODIFIED, PROPAGATED, OR DISTRIBUTED EXCEPT IN ACCORDANCE WITH THE SUBSCRIPTION
#AGREEMENT. UNAUTHORIZED USE OR DISTRIBUTION OF ALL OR ANY PART OF THIS FILE MAY VIOLATE
#COPYRIGHT, TRADEMARK, AND/OR OTHER LAWS AND IS SUBJECT TO CIVIL AS WELL AS CRIMINAL
#SANCTIONS.
#--------------------------------------------------#
#THIS FILE IS PROVIDED "AS-IS" AND ALL WARRANTIES ARE EXPRESSLY DISCLAIMED, WHETHER
#EXPRESS, ORAL, IMPLIED, STATUTORY OR OTHERWISE, INCLUDING ANY IMPLIED WARRANTY OF FITNESS
#FOR A PARTICULAR PURPOSE, MERCHANTABILITY, TITLE OR NON-INFRINGEMENT, AND ANY WARRANTIES
#ARISING BY VIRTUE OF CUSTOM OF TRADE OR COURSE OF DEALING.  FURTHER, ENVERUS, INC.
#AND ITS LICENSORS DO NOT REPRESENT OR WARRANT THAT THIS FILE WILL MEET USER'S
#REQUIREMENTS OR ARE SUITABLE FOR USER'S NEEDS OR THAT THE DATA OR RESULTS PROVIDED IN
#CONJUNCTION THEREWITH ARE CORRECT, ACCURATE, TIMELY OR RELIABLE. THESE DISCLAIMERS SHALL
#APPLY REGARDLESS OF ANY FAILURE OF ESSENTIAL PURPOSE OF ANY LIMITED REMEDY.  SOME
#JURISDICTIONS DO NOT ALLOW THE EXCLUSION OF CERTAIN WARRANTIES SO SOME OF THE ABOVE
#EXCLUSIONS MAY NOT APPLY. IN NO EVENT SHALL ENVERUS, INC. OR ANY OF ITS AFFILIATES
#BE LIABLE UNDER ANY LEGAL THEORY, WHETHER IN TORT (INCLUDING WITHOUT LIMITATION
#NEGLIGENCE), CONTRACT, STRICT LIABILITY, STATUTORY OR OTHERWISE, FOR ANY SPECIAL,
#INCIDENTAL, CONSEQUENTIAL, EXEMPLARY, PUNITIVE OR INDIRECT DAMAGE OF ANY KIND, INCLUDING
#WITHOUT LIMITATION LOSS OF REVENUE, PROFITS, GOODWILL, USE, AND/OR DATA OR THE COST OF
#PROCUREMENT OF SUBSTITUTE GOODS OR SERVICES, EVEN IF APPRISED OF THE POSSIBILITY OF SUCH
#DAMAGES IN ADVANCE.
#--------------------------------------------------#

~VERSION INFORMATION
VERS. 2.0 : CWLS LOG ASCII STANDARD - VERSION 2.0
WRAP.  NO : ONE LINE PER DEPTH STEP
~WELL INFORMATION
#MNEMONIC     .UNIT              VALUE :DESCRIPTION
STRT       .FT                0 :START DEPTH
STOP       .FT                15770 :STOP DEPTH
STEP       .FT                   0.500 :STEP
NULL       .                  -999.250 :NULL
UWI        .              42389309020000 :UNIQUE WELL ID
API        .              42389309020000 :API NUMBER
COMP       .         WALSH & WATTS  INC. :COMPANY
WELL       .        SABRE  1WS :WELL
DATE       .                28-JAN-1987 :LOG DATE
~CURVE INFORMATION
#MNEMONIC     .UNIT      API CODE :CURVE DESCRIPTION
DEPTH       .FT                      :MEASURED DEPTH
CAL.INCH        UNKNOWN   :CAL
DT.US/FT        UNKNOWN   :DT
GR.API        UNKNOWN   :GR
~A    DEPTH    CAL    DT    GR
# ...
 14659     8.406   90.577   98.856
 14659.5     8.406   92.598   101.541
 14660     8.407   94.128   103.955
 14660.5     8.407   95.455   104.788
 14661     8.407   95.943   105.621
 14661.5     8.407   95.723   105.615
 14662     8.407   95.503   105.258
 14662.5     8.408   95.284   104.9
 14663     8.408   95.064   103.884
 14663.5     8.408   94.847   101.494
 14664     8.408   94.633   100.208
 14664.5     8.408   94.418   100.21
 14665     8.409   94.204   100.629
 14665.5     8.409   93.491   101.965
 14666     8.409   92.453   103.018
 14666.5     8.409   92.227   102.799
 14667     8.409   92.344   100.914
 14667.5     8.41   91.688   97.17
 14668     8.41   91.033   95.572
 14668.5     8.41   89.466   93.974
 14669     8.41   86.761   90.61
 14669.5     8.41   85.725   87.223
 14670     8.411   85.667   85.915
 14670.5     8.411   86.082   86.338
 14671     8.411   86.091   87.185
 14671.5     8.411   85.912   88.033
 14672     8.411   85.733   87.917
 14672.5     8.412   85.554   86.609
 14673     8.412   84.928   85.302
 14673.5     8.412   84.853   85.394
 14674     8.412   85.371   86.547
 14674.5     8.412   86.495   89.915
 14675     8.413   88.251   92.707
 14675.5     8.413   89.776   94.34
 14676     8.413   90.715   95.974
 14676.5     8.413   91.653   98.354
 14677     8.413   91.461   101.234
 14677.5     8.414   89.896   101.655
 14678     8.414   88.332   99.484
 14678.5     8.414   88.117   94.826
 14679     8.414   90.505   88.667
 14679.5     8.414   91.056   87.516
 14680     8.415   91.381   88.349
 14680.5     8.415   90.545   88.308
 14681     8.415   89.709   85.966
 14681.5     8.415   88.872   85.313
 14682     8.415   88.778   85.316
 14682.5     8.416   89.529   85.318
 14683     8.416   89.888   90.554
 14683.5     8.416   89.565   92.293
 14684     8.416   89.242   92.927
 14684.5     8.416   89.439   93.562
 14685     8.417   89.683   94.196
 14685.5     8.417   91.177   94.831
 14686     8.417   92.865   95.465
 14686.5     8.417   91.458   96.347
 14687     8.417   91.91   97.68
 14687.5     8.418   91.999   99.013
 14688     8.418   91.772   100.333
 14688.5     8.418   91.544   99.243
 14689     8.418   91.316   98.423
 14689.5     8.419   91.952   99.088
 14690     8.419   91.978   98.409
 14690.5     8.419   90.368   94.879
 14691     8.419   88.484   91.35
 14691.5     8.419   87.411   87.82
 14692     8.42   87.247   88.904
 14692.5     8.42   89.447   90.622
 14693     8.42   90.233   91.268
 14693.5     8.42   91.02   91.565
 14694     8.42   91.806   91.861
 14694.5     8.421   92.357   94.929
 14695     8.421   92.646   98.006
 14695.5     8.421   92.936   98.239
 14696     8.421   93.512   98.11
 14696.5     8.421   94.355   97.981
 14697     8.422   94.957   98.775
 14697.5     8.422   95.559   99.774
 14698     8.422   96.161   100.143
 14698.5     8.422   96.763   99.489
 14699     8.422   97.188   98.835
 14699.5     8.423   97.53   100.207
 14700     8.423   97.645   101.471
 14700.5     8.423   96.559   99.834
 14701     8.423   95.473   99.805
 14701.5     8.423   94.945   100.048
 14702     8.424   94.824   100.291
 14702.5     8.424   95.043   99.961
 14703     8.424   95.356   99.026
 14703.5     8.424   95.163   98.09
 14704     8.424   94.773   97.154
 14704.5     8.425   94.306   96.883
 14705     8.425   94.594   99.874
 14705.5     8.425   95.035   102.865
 14706     8.425   95.446   104.29
 14706.5     8.425   95.503   103.855
 14707     8.426   95.56   103.419
 14707.5     8.426   96.038   105.131
 14708     8.426   96.699   107.815
 14708.5     8.426   96.909   107.193
 14709     8.426   97.057   106.032
 14709.5     8.427   96.815   101.977
 14710     8.427   96.572   97.922
 14710.5     8.427   96.612   99.86
 14711     8.427   96.981   103.061
 14711.5     8.427   97.35   102.329
 14712     8.427   96.98   96.119
 14712.5     8.426   96.557   89.908
 14713     8.426   96.423   88.552
 14713.5     8.426   96.399   93.035
 14714     8.426   96.376   96.586
 14714.5     8.426   96.576   98.934
 14715     8.426   96.949   100.886
 14715.5     8.426   97.321   102.072
 14716     8.426   97.694   103.258
 14716.5     8.425   98.066   104.444
 14717     8.425   98.439   105.629
 14717.5     8.425   98.649   106.815
 14718     8.425   98.749   105.753
 14718.5     8.425   98.848   104.314
 14719     8.425   98.948   102.875
 14719.5     8.425   98.849   103.722
 14720     8.425   98.381   105.28
 14720.5     8.425   98.434   103.372
 14721     8.424   98.486   101.238
 14721.5     8.424   98.826   99.104
 14722     8.424   99.481   98.591
 14722.5     8.424   99.602   99.542
 14723     8.424   99.388   100.494
 14723.5     8.424   98.783   101.445
 14724     8.424   97.922   102.112
 14724.5     8.424   97.261   101.95
 14725     8.423   96.861   101.788
 14725.5     8.423   96.462   102.515
 14726     8.423   96.349   103.468
 14726.5     8.423   96.471   103.937
 14727     8.423   96.592   104.16
 14727.5     8.423   96.714   102.797
 14728     8.423   96.835   101.097
 14728.5     8.423   96.956   99.398
 14729     8.422   97.186   102.234
 14729.5     8.422   97.473   106.758
 14730     8.422   97.76   106.231
 14730.5     8.422   97.766   105.358
 14731     8.422   97.743   103.976
 14731.5     8.422   97.719   99.923
 14732     8.422   97.808   95.869
 14732.5     8.422   97.934   95.896
 14733     8.422   98.016   96.087
 14733.5     8.421   98.051   99.765
 14734     8.421   98.086   104.223
 14734.5     8.421   98.121   105.548
 14735     8.421   98.215   105.683
 14735.5     8.421   98.393   105.817
 14736     8.421   98.571   107.642
 14736.5     8.421   98.749   109.694
 14737     8.421   98.927   108.179
 14737.5     8.42   99.057   106.665
 14738     8.42   98.965   105.151
 14738.5     8.42   98.873   103.637
 14739     8.42   98.775   102.123
 14739.5     8.42   98.484   99.711
 14740     8.42   98.192   94.933
 14740.5     8.42   98.361   94.185
 14741     8.42   98.64   93.436
 14741.5     8.42   98.919   95.621
 14742     8.419   99.198   100.935
 14742.5     8.419   98.914   105.824
 14743     8.419   98.379   107.834
 14743.5     8.419   97.989   109.844
 14744     8.419   97.989   109.122
 14744.5     8.419   97.988   107.442
 14745     8.419   97.88   106.473
 14745.5     8.419   97.556   106.036
 14746     8.418   97.232   105.599
 14746.5     8.418   97.475   104.312
 14747     8.418   97.788   102.817
 14747.5     8.418   97.671   102.843
 14748     8.418   97.464   103.732
 14748.5     8.418   97.257   103.55
 14749     8.418   97.262   103.112
 14749.5     8.418   97.359   102.752
 14750     8.417   97.456   104.221
 14750.5     8.417   96.53   105.69
 14751     8.417   96.058   107.159
 14751.5     8.417   95.675   100.606
 14752     8.417   96.039   94.619
 14752.5     8.417   97.259   94.886
 14753     8.417   97.098   97.871
 14753.5     8.417   96.937   103.03
 14754     8.417   96.776   108.19
 14754.5     8.416   96.615   113.349
 14755     8.416   96.454   115.331
 14755.5     8.416   96.293   110.35
 14756     8.416   96.323   102.976
 14756.5     8.416   96.415   100.9
 14757     8.416   96.508   103.59
 14757.5     8.416   96.601   106.28
 14758     8.416   96.961   106.606
 14758.5     8.415   97.328   105.084
 14759     8.415   97.328   104.757
 14759.5     8.415   97.327   104.43
 14760     8.415   97.281   107.276
 14760.5     8.415   96.91   105.754
 14761     8.415   96.539   103.703
 14761.5     8.415   96.176   101.654
 14762     8.415   96.175   99.605
 14762.5     8.415   96.216   98.41
 14763     8.414   96.409   97.924
 14763.5     8.414   96.603   99.26
 14764     8.414   96.732   100.596
 14764.5     8.414   96.667   101.933
 14765     8.414   96.604   102.161
 14765.5     8.414   96.793   102.367
 14766     8.414   96.982   102.573
 14766.5     8.414   97.171   102.779
 14767     8.413   97.36   104.335
 14767.5     8.413   95.291   105.309
 14768     8.413   91.699   103.514
 14768.5     8.413   91.424   101.718
 14769     8.413   92.907   103.174
