###############################################
##         ENVERUS                           ##
##         ESS - Open Hole                   ##
##         PERMIAN / DELAWARE                ##
##         Nov 04 2023  V4.0                 ##
##         42-389-30424-00-00                ##
###############################################
## Copyright 2017-2023  ENVERUS.  All Rights Reserved. 
## Confidential - Property of ENVERUS, use governed by terms and 
## conditions found within the existing Information Services Subscription Agreement 
## (as may be amended, the “ISSA”) between Customer and ENVERUS. 
## 
~VERSION INFORMATION
# MNEM.UNIT                               DATA : DESCRIPTION OF MNEMONIC
#-----.-----     ----------------------------- : -----------------------------
VERS.                                     2.00 : CWLS LOG ASCII STANDARD - VERSION 2.00
WRAP.                                       NO : MULTIPLE LINES PER DEPTH STEP
VEND.                                  ENVERUS : VENDOR
TYPE.                          ESS - OPEN HOLE : ENVERUS ESSENTIAL CURVES – ACCESSIBLE THROUGH ENVERUS PRISM(TM)
DOC.                                  32008121 : ENVERUS HEADER RAW DOCUMENT ID
#___________________________________________________________________________________________________ 
~WELL INFORMATION 
# BBd8zmUYmd+wUdICSlYDIOWaOe8iOeA0ELK9EhSbx74Kr6OX4zJxS/eo6cO6KK5SWMTSkVzaKbU2EBBfROvOKA== 
# MNEM.UNIT                                              DATA : DESCRIPTION OF MNEMONIC 
#-----.-----                    ----------------------------- : ----------------------------- 
CNTY.                                                  REEVES : COUNTY 
STATE.                                                  TEXAS : STATE 
CNTRY.                                                    USA : COUNTRY 
API.                                             42-389-30424 : API (10 Digit) 
API_14.                                    42-389-30424-00-00 : API (14 Digits) 
API_14_std.                                 42-389-30424-0000 : API (14 Digits Standard) 
UWI.                                           42389304240000 : UNIQUE WELL ID 
WELL.                                      LEWELLING STATE  1 : WELL NAME
STRT.FT                                                   7.0 : START DEPTH
STOP.FT                                               15912.0 : STOP DEPTH
STEP.FT                                                   0.5 : STEP BETWEEN DEPTHS
NULL.                                                 -999.25 : NULL VALUE
COMP.                           PENN VIRGINIA OIL & GAS CORP. : COMPANY 
DATE.                                             14-AUG-1976 : LOG DATE
#___________________________________________________________________________________________________ 
~CURVE INFORMATION 
# MNEM.UNIT           : CURVE DESCRIPTION 
#-----.-----          : ----------------------------- 
 DEPT.FT               : MEASURED DEPTH 
 CALI__A.IN            : CALIPER (CAL - CAL) 
 GR__A.API             : GAMMA RAY (GR) 
 DT__A.US/FT           : SONIC DELTA TRANSIT TIME (DT) 
 DPHI__A.V/V           : DENSITY POROSITY (DPHI) 
 NPHI__A.V/V           : NEUTRON POROSITY (NPHI) 
 #___________________________________________________________________________________________________ 
~A         DEPT        CALI__A          GR__A          DT__A        DPHI__A        NPHI__A
# ...
         4495.0         13.469         35.325         77.464     -999.25000        0.24657
         4495.5         13.469         37.634         78.723     -999.25000        0.26970
         4496.0         13.469         39.665         79.480     -999.25000        0.28778
         4496.5         13.469         41.574         79.679     -999.25000        0.28668
         4497.0         13.469         43.268         79.076     -999.25000        0.25553
         4497.5         13.469         41.965         77.824     -999.25000        0.22721
         4498.0         13.469         39.452         76.216     -999.25000        0.21031
         4498.5         13.468         36.934         74.968     -999.25000        0.20971
         4499.0         13.468         35.548         75.336     -999.25000        0.21576
         4499.5         13.468         35.547         75.704     -999.25000        0.21903
         4500.0         13.470         38.860         76.071     -999.25000        0.21262
         4500.5         13.476         42.380         75.570     -999.25000        0.20796
         4501.0         13.482         43.964         74.850     -999.25000        0.21459
         4501.5         13.488         44.818         74.130     -999.25000        0.22122
         4502.0         13.495         45.672         73.410     -999.25000        0.22324
         4502.5         13.501         44.945         72.691     -999.25000        0.22348
         4503.0         13.507         42.425         71.971     -999.25000        0.24685
         4503.5         13.513         39.905         71.926     -999.25000        0.26959
         4504.0         13.519         36.305         73.869     -999.25000        0.28908
         4504.5         13.525         32.617         78.176     -999.25000        0.25664
         4505.0         13.532         28.928         79.780     -999.25000        0.22050
         4505.5         13.538         27.997         77.198     -999.25000        0.17955
         4506.0         13.544         27.129         74.615     -999.25000        0.13958
         4506.5         13.550         26.262         69.811     -999.25000        0.11243
         4507.0         13.556         29.198         65.113     -999.25000        0.12500
         4507.5         13.562         33.338         64.570     -999.25000        0.16026
         4508.0         13.569         37.478         69.122     -999.25000        0.18830
         4508.5         13.575         37.817         73.674     -999.25000        0.21286
         4509.0         13.581         37.573         77.084     -999.25000        0.21909
         4509.5         13.587         37.329         79.441     -999.25000        0.22455
         4510.0         13.593         36.512         78.900     -999.25000        0.22553
         4510.5         13.600         34.898         79.238     -999.25000        0.22651
         4511.0         13.606         33.284         79.577     -999.25000        0.23607
         4511.5         13.612         31.670         79.438     -999.25000        0.25179
         4512.0         13.618         30.056         79.005     -999.25000        0.26721
         4512.5         13.624         28.442         78.571     -999.25000        0.25992
         4513.0         13.631         26.828         78.137     -999.25000        0.25044
         4513.5         13.637         25.603         77.886     -999.25000        0.25338
         4514.0         13.643         26.371         77.794     -999.25000        0.26425
         4514.5         13.649         27.140         78.494     -999.25000        0.28853
         4515.0         13.655         27.909         79.690     -999.25000        0.29535
         4515.5         13.662         28.677         80.886     -999.25000        0.28058
         4516.0         13.649         29.446         82.082     -999.25000        0.26275
         4516.5         13.614         30.214         82.697     -999.25000        0.24755
         4517.0         13.579         33.095         82.315     -999.25000        0.23903
         4517.5         13.544         37.104         80.822     -999.25000        0.23149
         4518.0         13.509         41.112         79.016     -999.25000        0.22417
         4518.5         13.475         44.425         77.290     -999.25000        0.22274
         4519.0         13.440         46.243         75.865     -999.25000        0.22701
         4519.5         13.417         50.474         74.440     -999.25000        0.24834
         4520.0         13.406         55.365         74.040     -999.25000        0.26161
         4520.5         13.395         60.256         73.677     -999.25000        0.25495
         4521.0         13.384         60.338         73.388     -999.25000        0.23835
         4521.5         13.373         57.872         73.099     -999.25000        0.22325
         4522.0         13.362         51.284         72.810     -999.25000        0.21583
         4522.5         13.351         44.515         72.857     -999.25000        0.20911
         4523.0         13.337         43.834         73.522     -999.25000        0.21177
         4523.5         13.310         43.833         74.109     -999.25000        0.21073
         4524.0         13.283         43.771         74.161     -999.25000        0.20503
         4524.5         13.255         43.122         74.213     -999.25000        0.18892
         4525.0         13.228         42.473         73.870     -999.25000        0.18422
         4525.5         13.201         39.953         73.452     -999.25000        0.18599
         4526.0         13.174         37.321         73.035     -999.25000        0.18193
         4526.5         13.146         35.108         72.064     -999.25000        0.15819
         4527.0         13.119         33.520         70.890     -999.25000        0.13180
         4527.5         13.098         31.932         69.557     -999.25000        0.10428
         4528.0         13.095         31.064         67.879     -999.25000        0.08880
         4528.5         13.092         31.207         66.201     -999.25000        0.09330
         4529.0         13.088         33.876         65.489     -999.25000        0.10334
         4529.5         13.085         39.375         66.076     -999.25000        0.10919
         4530.0         13.082         44.875         66.669     -999.25000        0.11433
         4530.5         13.078         50.374         67.980     -999.25000        0.13553
         4531.0         13.075         54.692         69.292     -999.25000        0.15134
         4531.5         13.072         57.380         70.603     -999.25000        0.16485
         4532.0         13.069         57.339         71.465     -999.25000        0.17318
         4532.5         13.065         55.889         72.185     -999.25000        0.18151
         4533.0         13.062         52.313         72.265     -999.25000        0.18758
         4533.5         13.059         48.240         71.797     -999.25000        0.18258
         4534.0         13.067         47.915         71.329     -999.25000        0.16842
         4534.5         13.089         47.590         70.862     -999.25000        0.14747
         4535.0         13.110         47.265         70.394     -999.25000        0.15157
         4535.5         13.131         42.870         69.927     -999.25000        0.15833
         4536.0         13.153         35.968         69.459     -999.25000        0.16454
         4536.5         13.174         31.381         69.459     -999.25000        0.16525
         4537.0         13.196         30.947         69.643     -999.25000        0.17579
         4537.5         13.217         30.666         69.827     -999.25000        0.18789
         4538.0         13.239         30.594         69.644     -999.25000        0.18922
         4538.5         13.255         30.521         69.088     -999.25000        0.16787
