###############################################
##         ENVERUS                           ##
##         ESS - Open Hole                   ##
##         PERMIAN / DELAWARE                ##
##         Nov 04 2023  V4.0                 ##
##         42-389-32730-00-00                ##
###############################################
## Copyright 2017-2023  ENVERUS.  All Rights Reserved. 
## Confidential - Property of ENVERUS, use governed by terms and 
## conditions found within the existing Information Services Subscription Agreement 
## (as may be amended, the “ISSA”) between Customer and ENVERUS. 
## 
~VERSION INFORMATION
# MNEM.UNIT                               DATA : DESCRIPTION OF MNEMONIC
#-----.-----     ----------------------------- : -----------------------------
VERS.                                     2.00 : CWLS LOG ASCII STANDARD - VERSION 2.00
WRAP.                                       NO : MULTIPLE LINES PER DEPTH STEP
VEND.                                  ENVERUS : VENDOR
TYPE.                          ESS - OPEN HOLE : ENVERUS ESSENTIAL CURVES – ACCESSIBLE THROUGH ENVERUS PRISM(TM)
DOC.                                  19552736 : ENVERUS HEADER RAW DOCUMENT ID
#___________________________________________________________________________________________________ 
~WELL INFORMATION 
# Emv0q1Fc4UOVqi1FEPTQ50pHgS2U6oO6A9wxQf5ozJtTAVTQXtUhuyCOytio7eHVwvke0CQF/LYkoyLsbhUTsQ== 
# MNEM.UNIT                                              DATA : DESCRIPTION OF MNEMONIC 
#-----.-----                    ----------------------------- : ----------------------------- 
CNTY.                                                  REEVES : COUNTY 
STATE.                                                  TEXAS : STATE 
CNTRY.                                                    USA : COUNTRY 
API.                                             42-389-32730 : API (10 Digit) 
API_14.                                    42-389-32730-00-00 : API (14 Digits) 
API_14_std.                                 42-389-32730-0000 : API (14 Digits Standard) 
UWI.                                           42389327300000 : UNIQUE WELL ID 
WELL.                                  BIG SKY 55 - 16 NO. 1H : WELL NAME
STRT.FT                                                3850.0 : START DEPTH
STOP.FT                                               12070.5 : STOP DEPTH
STEP.FT                                                   0.5 : STEP BETWEEN DEPTHS
NULL.                                                 -999.25 : NULL VALUE
COMP.                                      CIMAREX ENERGY CO. : COMPANY 
FLD.                                                  WILDCAT : FIELD 
SRVC.                                             HALLIBURTON : SERVICE COMPANY 
DATE.                                              03/23/2011 : DATE 
TVD.                                                       NO : TVD FLAG 
WSTA.                                                     LOC : WELL STATUS
#___________________________________________________________________________________________________ 
~PARAMETER INFORMATION 
# MNEM.UNIT                                              DATA : DESCRIPTION OF MNEMONIC 
#-----.-----                    ----------------------------- : ----------------------------- 
RUN.                                                      ONE : RUN NUMBER 
PDAT.                                                      GL : PERMANENT DATUM 
EPD.FT                                              2996.0000 : ELEVATION OF PERM. DATUM 
LMF.                                            KELLY BUSHING : LOG MEASURED FROM 
EKB.FT                                              3021.0000 : ELEVATION OF KELLY BUSHING 
DF.FT                                               3020.0000 : ELEVATION OF DERRICK FLOOR 
GL.FT                                               2996.0000 : ELEVATION OF GROUND LEVEL 
TD.FT                                              12100.0000 : TOTAL DEPTH 
CSGD.FT                                                  3861 : CASING BOTTOM (DRILLER) 1 
CSGL.FT                                                  3855 : CASING BOTTOM (LOGGER) 1 
MUD.                                                    BRINE : DRILLING FLUID TYPE 
MUDV.CP                                               36.0000 : DRILLING FLUID VISCOSITY 
MUDD.LB/USG                                           10.1000 : DRILLING FLUID DENSITY 
PH.                                                   10.0000 : DRILLING FLUID PH 
MUDS.                                                FLOWLINE : MUD SAMPLE SOURCE 
RM.OHMM                                                0.0600 : RESISTIVITY OF MUD SAMPLE 
RMT.DEGF                                              75.0000 : MUD SAMPLE TEMPERATURE 
RMF.OHMM                                               0.0400 : MUD FILTRATE RESISTIVITY 
RMFT.DEGF                                             75.0000 : MUD FILTRATE SAMPLE TEMPERATURE 
RMC.OHMM                                               0.0600 : MUD CAKE RESISTIVITY 
RMCT.DEGF                                             75.0000 : MUD CAKE SAMPLE TEMPERATURE 
RMB.OHMM                                               0.0240 : MUD RESISTIVITY AT BHT 
TMAX.DEGF                                            200.0000 : BOTTOM HOLE TEMPERATURE
#___________________________________________________________________________________________________ 
~CURVE INFORMATION 
# MNEM.UNIT           : CURVE DESCRIPTION 
#-----.-----          : ----------------------------- 
 DEPT.FT               : MEASURED DEPTH 
 GR.API                : GAMMA RAY (GAMMA RAY) 
 DT.US/FT              : SONIC DELTA TRANSIT TIME (DELTA T) 
 RESD_LL.OHMM          : DEEP LATEROLOG (LLD - DEEP LATEROLOG) 
 DPHI.V/V              : DENSITY POROSITY (DENSITY POROSITY) 
 NPHI.V/V              : NEUTRON POROSITY (NEUTRON POROSITY) 
 #___________________________________________________________________________________________________ 
~A         DEPT             GR             DT        RESD_LL           DPHI           NPHI
# ...
        10890.0         47.527         78.375        61.2640        0.10300        0.16300
        10890.5         47.063         77.800        62.4770        0.09600        0.16200
        10891.0         45.045         75.996        70.7050        0.09700        0.16100
        10891.5         40.717         72.885        85.8750        0.09700        0.15700
        10892.0         36.409         69.753        71.4250        0.08600        0.14100
        10892.5         32.013         67.819        56.0800        0.06800        0.12400
        10893.0         30.950         69.410        44.0310        0.05200        0.11500
        10893.5         33.272         71.445        41.7950        0.06100        0.12400
        10894.0         34.832         72.447        45.2430        0.07700        0.13200
        10894.5         34.400         71.540        54.8850        0.08600        0.13500
        10895.0         32.493         70.601        67.6220        0.06300        0.11900
        10895.5         31.896         72.043        65.0870        0.04900        0.10300
        10896.0         34.772         74.164        62.1290        0.06700        0.12200
        10896.5         37.727         76.285        60.5330        0.08800        0.14100
        10897.0         40.528         77.012        69.1810        0.10300        0.15900
        10897.5         42.112         77.455        74.3040        0.11000        0.14900
        10898.0         43.634         78.611        63.9770        0.11400        0.15200
        10898.5         45.164         79.619        53.9910        0.11900        0.15600
        10899.0         46.441         80.189        49.4100        0.12300        0.16100
        10899.5         44.766         80.120        62.8090        0.12800        0.15900
        10900.0         43.093         79.421        73.0280        0.12600        0.15100
        10900.5         41.435         78.657        84.1370        0.11800        0.14100
        10901.0         39.734         78.054       107.3110        0.11000        0.13900
        10901.5         38.224         77.389       143.3960        0.11000        0.13800
        10902.0         36.648         76.724       191.4160        0.11300        0.13700
        10902.5         36.377         76.012       250.0250        0.11600        0.13700
        10903.0         36.479         75.752       282.0980        0.11800        0.13900
        10903.5         36.588         75.473       316.5180        0.11800        0.13400
        10904.0         36.397         74.918       343.3040        0.11500        0.12900
        10904.5         36.557         73.404       372.5840        0.11200        0.12300
        10905.0         36.840         70.822       407.2490        0.10900        0.10800
        10905.5         33.582         66.925       139.4480        0.09800        0.09100
        10906.0         30.107         63.530        41.7130        0.05900        0.07500
        10906.5         27.188         61.944        27.1840        0.00000        0.06600
        10907.0         27.209         67.238        23.2170       -0.00200        0.08800
        10907.5         31.070         71.802        21.9340        0.03600        0.11800
        10908.0         37.474         75.640        23.9000        0.07400        0.14700
        10908.5         43.894         78.028        24.9590        0.10900        0.16600
        10909.0         49.010         78.412        22.1560        0.11800        0.17000
        10909.5         50.644         77.816        20.3740        0.11500        0.17400
        10910.0         48.570         74.954        18.5680        0.09400        0.17700
        10910.5         43.201         70.115        15.6650        0.04900        0.17600
        10911.0         38.204         67.836        11.9800        0.00400        0.16000
        10911.5         38.143         67.836        10.1530       -0.00200        0.14100
        10912.0         40.005         71.122         9.9180        0.01200        0.15800
        10912.5         41.877         73.412        12.0320        0.02700        0.17600
        10913.0         43.732         75.105        16.1540        0.02200        0.16400
        10913.5         45.067         76.479        22.0430        0.04100        0.16100
        10914.0         44.404         77.552        30.1190        0.07300        0.16700
        10914.5         43.474         77.936        41.1450        0.10000        0.16200
        10915.0         42.610         77.621        56.2080        0.11300        0.14500
        10915.5         43.355         76.954        60.0350        0.10900        0.13600
        10916.0         44.136         75.932        65.3810        0.10500        0.13400
        10916.5         43.065         74.088        74.0100        0.10300        0.13200
        10917.0         41.562         73.140        57.2060        0.09700        0.13200
        10917.5         41.319         73.227        44.2300        0.08700        0.13000
        10918.0         42.250         74.197        48.4010        0.07800        0.13200
        10918.5         42.911         75.363        61.2530        0.08200        0.14500
        10919.0         43.212         76.613        89.4360        0.09800        0.14600
        10919.5         43.220         76.059       133.8690        0.11600        0.13700
        10920.0         43.221         75.440       133.8690        0.10800        0.12700
        10920.5         43.194         75.191       120.9320        0.09900        0.12000
        10921.0         44.484         75.882       111.4880        0.09100        0.11800
        10921.5         46.163         77.630        99.7340        0.09800        0.13300
        10922.0         47.836         78.909        89.2190        0.10500        0.14600
        10922.5         49.353         79.873        81.3300        0.11100        0.15600
        10923.0         50.642         79.859        85.8650        0.11500        0.16600
        10923.5         52.785         79.345        89.9450        0.10500        0.17600
        10924.0         52.723         78.813        94.2710        0.09400        0.17300
        10924.5         52.527         78.285        81.4200        0.08400        0.16100
        10925.0         54.541         79.018        67.6220        0.07500        0.15500
        10925.5         58.234         81.543        56.1630        0.08300        0.16500
        10926.0         63.431         81.978        51.2680        0.09900        0.17500
        10926.5         63.483         81.773        52.8400        0.11000        0.18300
        10927.0         61.345         80.287        69.1250        0.11000        0.18000
        10927.5         58.638         78.657        94.2710        0.10100        0.16600
        10928.0         55.959         76.399        54.3430        0.09100        0.15300
        10928.5         53.277         74.772        31.6110        0.08200        0.15100
        10929.0         50.800         74.917        18.4300        0.07200        0.14900
        10929.5         51.107         76.777        11.0790        0.06300        0.14800
        10930.0         52.868         79.476         9.4600        0.06600        0.15100
        10930.5         54.643         82.253         8.1420        0.07500        0.21500
        10931.0         56.543         84.093         7.5190        0.08200        0.22000
        10931.5         58.426         84.068         9.2270        0.08100        0.21500
        10932.0         59.816         83.091        10.6050        0.07800        0.20900
        10932.5         59.789         82.183        12.1950        0.07300        0.20300
        10933.0         59.803         81.543        13.8160        0.07200        0.20000
        10933.5         60.515         81.896        13.5930        0.07900        0.20100
