###############################################
##         ENVERUS                           ##
##         ESS - Open Hole                   ##
##         PERMIAN / DELAWARE                ##
##         Nov 04 2023  V4.0                 ##
##         42-389-32421-01-00                ##
###############################################
## Copyright 2017-2023  ENVERUS.  All Rights Reserved. 
## Confidential - Property of ENVERUS, use governed by terms and 
## conditions found within the existing Information Services Subscription Agreement 
## (as may be amended, the “ISSA”) between Customer and ENVERUS. 
## 
~VERSION INFORMATION
# MNEM.UNIT                               DATA : DESCRIPTION OF MNEMONIC
#-----.-----     ----------------------------- : -----------------------------
VERS.                                     2.00 : CWLS LOG ASCII STANDARD - VERSION 2.00
WRAP.                                       NO : MULTIPLE LINES PER DEPTH STEP
VEND.                                  ENVERUS : VENDOR
TYPE.                          ESS - OPEN HOLE : ENVERUS ESSENTIAL CURVES – ACCESSIBLE THROUGH ENVERUS PRISM(TM)
DOC.                                  51226874 : ENVERUS HEADER RAW DOCUMENT ID
#___________________________________________________________________________________________________ 
~WELL INFORMATION 
# Tb73rb1SL3MkDZoC3l18/hn1AqNnLhXquKbAWMIBLpWCEGQs+cUq/9XFz1I3dh1trdNBSXyPtAuUBW0L3ONtkQ== 
# MNEM.UNIT                                              DATA : DESCRIPTION OF MNEMONIC 
#-----.-----                    ----------------------------- : ----------------------------- 
CNTY.                                                  REEVES : COUNTY 
STATE.                                                  TEXAS : STATE 
CNTRY.                                                    USA : COUNTRY 
API.                                             42-389-32421 : API (10 Digit) 
API_14.                                    42-389-32421-01-00 : API (14 Digits) 
API_14_std.                                 42-389-32421-0100 : API (14 Digits Standard) 
UWI.                                           42389324210100 : UNIQUE WELL ID 
WELL.                                      ARMSTRONG STATE  1 : WELL NAME
STRT.FT                                                 182.0 : START DEPTH
STOP.FT                                               14775.0 : STOP DEPTH
STEP.FT                                                   0.5 : STEP BETWEEN DEPTHS
NULL.                                                 -999.25 : NULL VALUE
PREV_UWI.                                      42389324210000 : UNIQUE WELL ID 
PREV_API.                                      42389324210000 : API NUMBER 
COMP.                                    STALEY OPERATING CO. : COMPANY 
DATE.                                             26-JUN-2006 : LOG DATE
#___________________________________________________________________________________________________ 
~CURVE INFORMATION 
# MNEM.UNIT           : CURVE DESCRIPTION 
#-----.-----          : ----------------------------- 
 DEPT.FT               : MEASURED DEPTH 
 CALI__A.IN            : CALIPER (CAL - CAL) 
 GR__A.API             : GAMMA RAY (GR) 
 DT__A.US/FT           : SONIC DELTA TRANSIT TIME (DT) 
 DPHI__A.V/V           : DENSITY POROSITY (DPHI) 
 NPHI__A.V/V           : NEUTRON POROSITY (NPHI) 
 RHOB__A.G/CC          : BULK DENSITY (RHOB) 
 #___________________________________________________________________________________________________ 
~A         DEPT        CALI__A          GR__A          DT__A        DPHI__A        NPHI__A        RHOB__A
# ...
         7098.0         10.336         72.174         67.723        0.10150        0.11730         2.5390
         7098.5         10.340         70.369         68.007        0.09872        0.11653         2.5400
         7099.0         10.353         70.919         68.291        0.10292        0.11670         2.5340
         7099.5         10.367         71.823         68.574        0.10940        0.11768         2.5290
         7100.0         10.380         73.033         68.858        0.11589        0.11955         2.5230
         7100.5         10.394         71.632         69.283        0.12059        0.12143         2.5180
         7101.0         10.408         57.666         69.988        0.11708        0.11467         2.5120
         7101.5         10.421         50.093         66.893        0.09955        0.09141         2.5190
         7102.0         10.435         31.275         63.434        0.07928        0.06614         2.5530
         7102.5         10.441         23.656         60.050        0.06590        0.04444         2.5880
         7103.0         10.441         20.639         57.276        0.06184        0.03342         2.6230
         7103.5         10.441         19.194         57.075        0.05699        0.02663         2.6570
         7104.0         10.441         21.772         56.875        0.04732        0.02574         2.6400
         7104.5         10.421         24.616         57.223        0.03581        0.03503         2.6050
         7105.0         10.383         38.255         58.941        0.02782        0.04707         2.5710
         7105.5         10.345         54.003         60.659        0.05043        0.06528         2.5370
         7106.0         10.308         70.757         65.066        0.09481        0.10973         2.5020
         7106.5         10.301        102.219         72.888        0.13151        0.15200         2.4850
         7107.0         10.306        106.566         78.370        0.13105        0.19067         2.4830
         7107.5         10.311        131.424         79.776        0.13454        0.20881         2.5030
         7108.0         10.310        158.939         81.181        0.13047        0.21107         2.5230
         7108.5         10.308        165.749         82.587        0.11642        0.20670         2.5430
         7109.0         10.307        156.253         82.406        0.08702        0.20136         2.5640
         7109.5         10.305        139.212         80.911        0.07507        0.19042         2.5840
         7110.0         10.303        125.220         79.051        0.08316        0.18364         2.5780
         7110.5         10.301         99.567         76.081        0.08911        0.17685         2.5690
         7111.0         10.299         94.355         73.111        0.09426        0.17006         2.5610
         7111.5         10.299         93.635         71.825        0.09026        0.14280         2.5550
         7112.0         10.303        102.163         71.701        0.10877        0.13561         2.5560
         7112.5         10.307        113.325         75.433        0.14348        0.14453         2.5000
         7113.0         10.310        130.273         79.166        0.16979        0.19440         2.4350
         7113.5         10.314        142.755         80.916        0.17208        0.22461         2.4900
         7114.0         10.318        144.047         81.734        0.11933        0.22489         2.5460
         7114.5         10.322        143.594         81.730        0.09545        0.21803         2.6010
         7115.0         10.325        137.723         80.525        0.04420        0.21116         2.6560
         7115.5         10.326        131.509         79.319        0.03302        0.20430         2.6550
         7116.0         10.327        126.407         78.114        0.02437        0.19952         2.6360
         7116.5         10.327        118.238         78.723        0.03216        0.20617         2.6170
         7117.0         10.327        117.914         79.406        0.05232        0.21723         2.6000
         7117.5         10.327        120.607         80.088        0.06354        0.21653         2.6040
         7118.0         10.331        119.866         80.770        0.05877        0.21139         2.6090
         7118.5         10.335        107.858         76.948        0.05923        0.17724         2.6140
         7119.0         10.338         73.736         70.544        0.06521        0.14309         2.6040
         7119.5         10.342         51.965         60.306        0.07106        0.10895         2.5880
         7120.0         10.346         42.717         59.389        0.06451        0.07744         2.6090
         7120.5         10.349         45.274         59.876        0.05223        0.05239         2.5990
         7121.0         10.353         57.937         61.306        0.06369        0.05038         2.5710
         7121.5         10.357         71.387         62.735        0.08433        0.08761         2.5440
         7122.0         10.360         83.688         65.376        0.10756        0.13092         2.5170
         7122.5         10.364         97.018         69.111        0.11827        0.15316         2.5090
         7123.0         10.368        104.912         70.561        0.12389        0.16712         2.5070
         7123.5         10.371        113.229         73.166        0.12190        0.18183         2.5100
         7124.0         10.375        125.252         77.770        0.11685        0.20277         2.5370
         7124.5         10.379        132.512         82.373        0.09580        0.22279         2.5630
         7125.0         10.382        139.452         82.311        0.06857        0.22212         2.5950
         7125.5         10.398        136.744         81.402        0.03610        0.21735         2.6600
         7126.0         10.426        131.187         80.493        0.00856        0.21245         2.7240
         7126.5         10.455        128.106         80.915       -0.03527        0.22158         2.7800
         7127.0         10.483        134.353         81.922       -0.03958        0.23095         2.7470
         7127.5         10.512        149.546         82.928       -0.01766        0.23499         2.7130
         7128.0         10.541        150.920         80.195        0.01132        0.22430         2.6930
         7128.5         10.529        141.349         76.798        0.01202        0.18660         2.6850
         7129.0         10.514        129.177         75.315        0.02673        0.15962         2.6770
         7129.5         10.500        125.118         75.524        0.06395        0.15466         2.6410
         7130.0         10.485        120.588         75.733        0.09624        0.15960         2.5850
         7130.5         10.471        110.864         75.627        0.10563        0.15810         2.5330
         7131.0         10.456         92.697         72.960        0.09708        0.15526         2.5370
         7131.5         10.468         83.611         70.293        0.09707        0.15432         2.5410
         7132.0         10.479         88.947         67.625        0.09774        0.15590         2.5450
         7132.5         10.491        104.518         66.875        0.09428        0.16176         2.5490
         7133.0         10.503        115.446         69.609        0.08905        0.17758         2.5530
         7133.5         10.514        128.491         72.145        0.06658        0.19341         2.5740
         7134.0         10.526        132.970         74.680        0.05446        0.20314         2.5980
         7134.5         10.538        133.599         75.906        0.03991        0.19676         2.6220
         7135.0         10.549        130.532         75.157        0.02397        0.19193         2.6450
         7135.5         10.549        126.067         74.407        0.02401        0.19917         2.6690
