#--------------------------------------------------#
#-------------------ENVERUS, INC.------------------#
#------------------WWW.ENVERUS.COM-----------------#
#------------------COPYRIGHT 2020------------------#
#--------------------------------------------------#
#THIS FILE MAY BE USED ONLY IN ACCORDANCE WITH A CURRENT SUBSCRIPTION AGREEMENT BETWEEN
#THE USER AND ENVERUS, INC. NO PART OF THIS FILE MAY BE REPRODUCED, USED, COPIED,
#MODIFIED, PROPAGATED, OR DISTRIBUTED EXCEPT IN ACCORDANCE WITH THE SUBSCRIPTION
#AGREEMENT. UNAUTHORIZED USE OR DISTRIBUTION OF ALL OR ANY PART OF THIS FILE MAY VIOLATE
#COPYRIGHT, TRADEMARK, AND/OR OTHER LAWS AND IS SUBJECT TO CIVIL AS WELL AS CRIMINAL
#SANCTIONS.
#--------------------------------------------------#
#THIS FILE IS PROVIDED "AS-IS" AND ALL WARRANTIES ARE EXPRESSLY DISCLAIMED, WHETHER
#EXPRESS, ORAL, IMPLIED, STATUTORY OR OTHERWISE, INCLUDING ANY IMPLIED WARRANTY OF FITNESS
#FOR A PARTICULAR PURPOSE, MERCHANTABILITY, TITLE OR NON-INFRINGEMENT, AND ANY WARRANTIES
#ARISING BY VIRTUE OF CUSTOM OF TRADE OR COURSE OF DEALING.  FURTHER, ENVERUS, INC.
#AND ITS LICENSORS DO NOT REPRESENT OR WARRANT THAT THIS FILE WILL MEET USER'S
#REQUIREMENTS OR ARE SUITABLE FOR USER'S NEEDS OR THAT THE DATA OR RESULTS PROVIDED IN
#CONJUNCTION THEREWITH ARE CORRECT, ACCURATE, TIMELY OR RELIABLE. THESE DISCLAIMERS SHALL
#APPLY REGARDLESS OF ANY FAILURE OF ESSENTIAL PURPOSE OF ANY LIMITED REMEDY.  SOME
#JURISDICTIONS DO NOT ALLOW THE EXCLUSION OF CERTAIN WARRANTIES SO SOME OF THE ABOVE
#EXCLUSIONS MAY NOT APPLY. IN NO EVENT SHALL ENVERUS, INC. OR ANY OF ITS AFFILIATES
#BE LIABLE UNDER ANY LEGAL THEORY, WHETHER IN TORT (INCLUDING WITHOUT LIMITATION
#NEGLIGENCE), CONTRACT, STRICT LIABILITY, STATUTORY OR OTHERWISE, FOR ANY SPECIAL,
#INCIDENTAL, CONSEQUENTIAL, EXEMPLARY, PUNITIVE OR INDIRECT DAMAGE OF ANY KIND, INCLUDING
#WITHOUT LIMITATION LOSS OF REVENUE, PROFITS, GOODWILL, USE, AND/OR DATA OR THE COST OF
#PROCUREMENT OF SUBSTITUTE GOODS OR SERVICES, EVEN IF APPRISED OF THE POSSIBILITY OF SUCH
#DAMAGES IN ADVANCE.
#--------------------------------------------------#

~VERSION INFORMATION
VERS. 2.0 : CWLS LOG ASCII STANDARD - VERSION 2.0
WRAP.  NO : ONE LINE PER DEPTH STEP
~WELL INFORMATION
#MNEMONIC     .UNIT              VALUE :DESCRIPTION
STRT       .FT                0 :START DEPTH
STOP       .FT                15761 :STOP DEPTH
STEP       .FT                   0.500 :STEP
NULL       .                  -999.250 :NULL
UWI        .              42389302550000 :UNIQUE WELL ID
API        .              42389302550000 :API NUMBER
COMP       .         COASTAL STATES GAS PROD. CO. :COMPANY
WELL       .        CHAPMAN  MCGUIRE & WYNNE  3B :WELL
DATE       .                            :LOG DATE
~CURVE INFORMATION
#MNEMONIC     .UNIT      API CODE :CURVE DESCRIPTION
DEPTH       .FT                      :MEASURED DEPTH
GR.API        UNKNOWN   :GR
DT.US/FT        UNKNOWN   :DT
CAL.INCH        UNKNOWN   :CAL
~A    DEPTH    GR    DT    CAL
# ...
 9559     62.103   73.035   13.455
 9559.5     57.016   67.929   13.421
 9560     51.929   63.186   13.386
 9560.5     47.661   61.377   13.352
 9561     50.789   62.353   13.318
 9561.5     55.631   66.211   13.306
 9562     61.184   74.105   13.335
 9562.5     68.273   77.312   13.363
 9563     72.006   78.495   13.385
 9563.5     72.007   76.804   13.39
 9564     68.554   77.376   13.395
 9564.5     68.569   78.014   13.4
 9565     68.748   77.854   13.452
 9565.5     68.928   78.32   13.512
 9566     66.265   79.214   13.571
 9566.5     63.126   76.275   13.631
 9567     60.622   72.313   13.65
 9567.5     58.625   72.038   13.624
 9568     58.289   72.428   13.597
 9568.5     59.838   72.135   13.57
 9569     61.386   72.087   13.544
 9569.5     59.233   71.251   13.517
 9570     56.942   69.745   13.49
 9570.5     57.031   71.377   13.51
 9571     61.697   73.774   13.533
 9571.5     66.363   76.215   13.555
 9572     67.617   77.793   13.562
 9572.5     68.02   78.031   13.565
 9573     69.183   77.763   13.568
 9573.5     70.637   77.619   13.572
 9574     71.547   77.576   13.575
 9574.5     70.713   76.247   13.572
 9575     70.357   75.375   13.566
 9575.5     70.044   75.908   13.56
 9576     67.386   76.441   13.573
 9576.5     68.417   77.466   13.588
 9577     70.028   77.892   13.603
 9577.5     68.375   72.874   13.593
 9578     65.873   69.811   13.551
 9578.5     63.37   70.013   13.509
 9579     61.61   70.494   13.468
 9579.5     62.185   72.844   13.511
 9580     58.342   70.173   13.592
 9580.5     55.153   66.516   13.608
 9581     52.615   64.118   13.603
 9581.5     52.776   64.898   13.598
 9582     56.37   69.641   13.606
 9582.5     59.964   73.452   13.641
 9583     64.873   76.073   13.675
 9583.5     66.08   75.858   13.71
 9584     65.731   75.301   13.745
 9584.5     62.907   75.084   13.771
 9585     60.084   75.181   13.779
 9585.5     57.26   74.918   13.786
 9586     56.965   74.907   13.793
 9586.5     57.636   75.777   13.801
 9587     58.306   75.906   13.808
 9587.5     58.976   75.853   13.815
 9588     58.719   75.531   13.822
 9588.5     53.54   70.745   13.83
 9589     48.361   64.072   13.837
 9589.5     43.03   60.366   13.844
 9590     37.612   56.659   13.852
 9590.5     34.735   55.813   13.866
 9591     38.097   57.382   13.905
 9591.5     43.066   60.434   13.944
 9592     46.388   65.544   13.984
 9592.5     49.71   71.179   14.023
 9593     53.033   73.534   14.062
 9593.5     53.041   74.252   14.101
 9594     52.92   74.28   14.14
 9594.5     53.97   74.307   14.179
 9595     55.581   74.335   14.218
 9595.5     57.192   74.52   14.257
 9596     60.709   75.401   14.296
 9596.5     60.518   76.76   14.33
 9597     59.33   76.881   14.339
 9597.5     57.713   75.937   14.348
 9598     53.03   74.148   14.357
 9598.5     48.346   72.641   14.366
 9599     44.638   72.641   14.375
 9599.5     43.116   72.641   14.384
 9600     43.313   72.641   14.394
 9600.5     43.816   72.52   14.403
 9601     44.318   72.496   14.412
 9601.5     44.821   72.764   14.421
 9602     45.324   72.948   14.43
 9602.5     48.238   73.131   14.432
 9603     51.52   73.315   14.43
 9603.5     54.803   73.498   14.428
 9604     58.006   73.608   14.426
 9604.5     61.148   73.696   14.424
 9605     62.54   73.783   14.421
 9605.5     63.21   73.871   14.419
 9606     63.481   73.958   14.417
 9606.5     62.314   74.211   14.415
 9607     61.497   74.828   14.414
 9607.5     61.236   75.445   14.412
 9608     61.237   75.415   14.41
 9608.5     59.705   75.381   14.409
 9609     52.897   75.347   14.407
 9609.5     46.09   74.482   14.406
 9610     44.657   73.495   14.404
 9610.5     45.586   72.71   14.402
 9611     46.514   72.417   14.401
 9611.5     50.362   73.217   14.399
 9612     52.926   74.358   14.397
 9612.5     54.216   74.938   14.396
 9613     53.454   74.597   14.394
 9613.5     51.247   73.476   14.393
 9614     48.258   72.759   14.391
 9614.5     45.701   72.745   14.389
 9615     45.804   72.401   14.388
 9615.5     45.908   72.298   14.386
 9616     47.41   73.061   14.385
 9616.5     50.702   72.973   14.383
 9617     53.802   73.01   14.381
 9617.5     54.041   73.645   14.38
 9618     52.045   73.888   14.378
 9618.5     49.843   74.162   14.376
 9619     44.514   74.126   14.375
 9619.5     44.181   73.854   14.373
 9620     45.656   74.031   14.372
 9620.5     48.685   74.459   14.37
 9621     49.449   73.94   14.368
 9621.5     49.922   73.421   14.367
 9622     50.395   73.442   14.36
 9622.5     52.827   74.671   14.344
 9623     57.346   75.901   14.329
 9623.5     58.401   77.715   14.313
 9624     57.132   77.482   14.298
 9624.5     52.953   75.067   14.282
 9625     48.775   72.647   14.267
 9625.5     47.311   72.881   14.251
 9626     48.249   73.114   14.235
 9626.5     48.291   73.348   14.22
 9627     47.265   73.386   14.204
 9627.5     46.24   73.159   14.189
 9628     44.901   73.067   14.173
 9628.5     43.458   72.974   14.158
 9629     42.403   73.36   14.142
 9629.5     42.525   73.878   14.127
 9630     42.647   73.471   14.111
 9630.5     42.77   72.528   14.095
 9631     42.892   71.782   14.08
 9631.5     43.179   71.163   14.064
 9632     43.545   71.599   14.049
 9632.5     43.91   71.998   14.033
 9633     44.276   72.25   14.018
 9633.5     45.007   72.502   14.002
 9634     48.714   74.147   13.986
 9634.5     53.756   75.921   13.971
 9635     60.367   77.68   13.955
 9635.5     63.021   77.728   13.94
 9636     64.811   77.592   13.924
 9636.5     66.601   77.955   13.906
 9637     68.391   78.319   13.884
 9637.5     72.918   80.699   13.861
 9638     80.291   84.457   13.838
 9638.5     83.174   88.076   13.816
 9639     83.068   88.658   13.793
 9639.5     75.633   86.085   13.77
 9640     63.902   69.993   13.748
 9640.5     52.17   66.376   13.725
 9641     46.914   64.234   13.702
 9641.5     49.978   67.824   13.68
 9642     56.895   74.829   13.667
 9642.5     67.042   79.416   13.661
 9643     73.235   81.891   13.654
 9643.5     77.926   83.076   13.648
 9644     80.262   82.844   13.642
 9644.5     76.505   81.6   13.635
 9645     70.266   78.873   13.629
 9645.5     63.876   75.732   13.623
 9646     57.71   69.301   13.616
 9646.5     53.163   64.641   13.61
 9647     55.273   63.945   13.604
 9647.5     59.659   64.758   13.598
 9648     64.149   68.49   13.591
 9648.5     70.306   74.352   13.585
 9649     76.464   77.449   13.579
 9649.5     79.163   76.757   13.572
 9650     80.447   78.833   13.568
 9650.5     78.451   78.741   13.576
 9651     77.662   79.84   13.583
 9651.5     77.32   80.659   13.591
 9652     75.854   79.797   13.598
 9652.5     75.636   79.119   13.606
 9653     77.69   78.195   13.614
 9653.5     79.744   77.094   13.621
 9654     81.799   78.501   13.629
 9654.5     81.947   78.968   13.636
 9655     77.423   78.073   13.644
 9655.5     69.822   74.462   13.652
 9656     61.548   68.419   13.659
 9656.5     53.275   63.012   13.667
 9657     53.518   59.68   13.674
 9657.5     61.248   64.568   13.682
 9658     74.11   71.965   13.69
 9658.5     86.647   77.492   13.692
 9659     96.719   82.915   13.694
 9659.5     104.029   82.179   13.696
 9660     103.301   81.285   13.698
 9660.5     102.574   82.012   13.7
 9661     97.968   81.77   13.702
 9661.5     92.325   80.725   13.704
 9662     87.266   78.526   13.706
 9662.5     82.853   75.341   13.708
 9663     81.228   74.753   13.71
 9663.5     81.563   74.554   13.713
 9664     85.695   73.463   13.715
 9664.5     84.781   77.614   13.717
 9665     76.385   89.877   13.719
 9665.5     67.678   79.328   13.721
 9666     62.14   71.502   13.723
 9666.5     61.007   72.316   13.725
 9667     63.998   74.165   13.727
 9667.5     68.234   78.195   13.729
 9668     74.253   82.035   13.731
 9668.5     76.87   81.124   13.733
 9669     75.009   79.088   13.735
 9669.5     71.472   75.871   13.738
 9670     66.203   73.236   13.74
 9670.5     59.968   70.601   13.742
 9671     53.364   68.757   13.745
