#--------------------------------------------------#
#-------------------ENVERUS, INC.------------------#
#------------------WWW.ENVERUS.COM-----------------#
#------------------COPYRIGHT 2020------------------#
#--------------------------------------------------#
#THIS FILE MAY BE USED ONLY IN ACCORDANCE WITH A CURRENT SUBSCRIPTION AGREEMENT BETWEEN
#THE USER AND ENVERUS, INC. NO PART OF THIS FILE MAY BE REPRODUCED, USED, COPIED,
#MODIFIED, PROPAGATED, OR DISTRIBUTED EXCEPT IN ACCORDANCE WITH THE SUBSCRIPTION
#AGREEMENT. UNAUTHORIZED USE OR DISTRIBUTION OF ALL OR ANY PART OF THIS FILE MAY VIOLATE
#COPYRIGHT, TRADEMARK, AND/OR OTHER LAWS AND IS SUBJECT TO CIVIL AS WELL AS CRIMINAL
#SANCTIONS.
#--------------------------------------------------#
#THIS FILE IS PROVIDED "AS-IS" AND ALL WARRANTIES ARE EXPRESSLY DISCLAIMED, WHETHER
#EXPRESS, ORAL, IMPLIED, STATUTORY OR OTHERWISE, INCLUDING ANY IMPLIED WARRANTY OF FITNESS
#FOR A PARTICULAR PURPOSE, MERCHANTABILITY, TITLE OR NON-INFRINGEMENT, AND ANY WARRANTIES
#ARISING BY VIRTUE OF CUSTOM OF TRADE OR COURSE OF DEALING.  FURTHER, ENVERUS, INC.
#AND ITS LICENSORS DO NOT REPRESENT OR WARRANT THAT THIS FILE WILL MEET USER'S
#REQUIREMENTS OR ARE SUITABLE FOR USER'S NEEDS OR THAT THE DATA OR RESULTS PROVIDED IN
#CONJUNCTION THEREWITH ARE CORRECT, ACCURATE, TIMELY OR RELIABLE. THESE DISCLAIMERS SHALL
#APPLY REGARDLESS OF ANY FAILURE OF ESSENTIAL PURPOSE OF ANY LIMITED REMEDY.  SOME
#JURISDICTIONS DO NOT ALLOW THE EXCLUSION OF CERTAIN WARRANTIES SO SOME OF THE ABOVE
#EXCLUSIONS MAY NOT APPLY. IN NO EVENT SHALL ENVERUS, INC. OR ANY OF ITS AFFILIATES
#BE LIABLE UNDER ANY LEGAL THEORY, WHETHER IN TORT (INCLUDING WITHOUT LIMITATION
#NEGLIGENCE), CONTRACT, STRICT LIABILITY, STATUTORY OR OTHERWISE, FOR ANY SPECIAL,
#INCIDENTAL, CONSEQUENTIAL, EXEMPLARY, PUNITIVE OR INDIRECT DAMAGE OF ANY KIND, INCLUDING
#WITHOUT LIMITATION LOSS OF REVENUE, PROFITS, GOODWILL, USE, AND/OR DATA OR THE COST OF
#PROCUREMENT OF SUBSTITUTE GOODS OR SERVICES, EVEN IF APPRISED OF THE POSSIBILITY OF SUCH
#DAMAGES IN ADVANCE.
#--------------------------------------------------#

~VERSION INFORMATION
VERS. 2.0 : CWLS LOG ASCII STANDARD - VERSION 2.0
WRAP.  NO : ONE LINE PER DEPTH STEP
~WELL INFORMATION
#MNEMONIC     .UNIT              VALUE :DESCRIPTION
STRT       .FT                0 :START DEPTH
STOP       .FT                3396 :STOP DEPTH
STEP       .FT                   0.500 :STEP
NULL       .                  -999.250 :NULL
UWI        .              42389305140000 :UNIQUE WELL ID
API        .              42389305140000 :API NUMBER
COMP       .         SLEDGE BROS. OIL CO. :COMPANY
WELL       .        BOLLINGER  5 :WELL
DATE       .                            :LOG DATE
~CURVE INFORMATION
#MNEMONIC     .UNIT      API CODE :CURVE DESCRIPTION
DEPTH       .FT                      :MEASURED DEPTH
ILS.OHM        UNKNOWN   :ILS
GR.API        UNKNOWN   :GR
DT.US/FT        UNKNOWN   :DT
CAL.INCH        UNKNOWN   :CAL
ILD.OHM        UNKNOWN   :ILD
~A    DEPTH    ILS    GR    DT    CAL    ILD
# ...
 3277     13.502   99.61   72.34   6.551   8.979
 3277.5     10.966   85.519   71.741   6.55   7.645
 3278     10.899   79.373   71.001   6.549   7.773
 3278.5     11.521   76.592   69.805   6.547   8.712
 3279     12.33   79.226   68.874   6.546   9.651
 3279.5     12.688   86.316   68.573   6.545   9.938
 3280     12.728   99.369   68.718   6.543   10.008
 3280.5     12.691   109.086   69.866   6.543   11.405
 3281     13.254   114.411   71.199   6.545   12.054
 3281.5     12.861   111.668   71.39   6.546   11.413
 3282     11.794   100.556   72.209   6.548   9.612
 3282.5     10.487   85.601   72.007   6.55   7.81
 3283     9.131   75.992   71.674   6.551   6.822
 3283.5     8.779   73.489   71.32   6.553   6.809
 3284     8.892   74.775   69.868   6.554   6.933
 3284.5     8.716   76.575   70.126   6.556   6.522
 3285     8.335   77.287   70.474   6.558   6.134
 3285.5     7.809   77.998   71.425   6.559   5.874
 3286     7.284   78.009   72.375   6.561   5.648
 3286.5     7.341   76.539   72.494   6.562   5.49
 3287     7.652   75.428   72.425   6.564   6.07
 3287.5     7.963   76.027   72.075   6.566   6.651
 3288     8.109   78.492   71.725   6.567   7.117
 3288.5     8.093   80.285   71.709   6.569   7.072
 3289     8.078   80.282   71.752   6.57   7.028
 3289.5     7.859   80.001   71.914   6.57   6.965
 3290     7.532   79.544   72.318   6.571   6.734
 3290.5     7.231   78.442   72.824   6.571   6.571
 3291     6.97   76.782   73.138   6.571   6.446
 3291.5     6.868   76.276   73.212   6.572   6.32
 3292     6.796   76.35   73.431   6.572   6.145
 3292.5     6.418   75.185   74.139   6.572   5.695
 3293     5.912   74.714   75.423   6.573   5.245
 3293.5     5.608   75.268   76.401   6.573   4.795
 3294     5.468   75.822   77.379   6.573   4.721
 3294.5     5.41   75.973   78.357   6.574   4.722
 3295     5.424   75.591   79.164   6.574   4.928
 3295.5     5.448   73.223   79.844   6.574   5.192
 3296     5.473   70.192   80.534   6.575   5.209
 3296.5     5.212   65.767   81.855   6.575   5.21
 3297     4.951   62.058   84.699   6.575   4.753
 3297.5     4.649   58.922   86.615   6.576   4.233
 3298     4.344   55.753   88.52   6.576   3.77
 3298.5     4.039   52.097   87.822   6.577   3.983
 3299     4.773   48.44   84.673   6.577   5.261
 3299.5     6.175   47.354   78.217   6.577   6.97
 3300     7.403   47.014   71.761   6.578   8.805
 3300.5     7.45   46.675   68.643   6.578   8.289
 3301     6.542   45.454   69.905   6.578   6.931
 3301.5     5.209   44.207   75.254   6.579   5.647
 3302     4.018   44.037   81.447   6.579   4.364
 3302.5     3.789   45.034   83.555   6.58   3.712
 3303     3.615   46.03   84.001   6.58   3.603
 3303.5     3.553   46.818   84.952   6.581   3.493
 3304     3.492   47.549   85.202   6.582   3.384
 3304.5     3.352   50.27   85.845   6.582   3.232
 3305     3.106   56.027   87.206   6.583   3.018
 3305.5     3.084   62.591   87.485   6.584   3.003
 3306     3.185   66.151   85.112   6.584   3.149
 3306.5     3.532   68.323   82.707   6.585   3.779
 3307     3.91   68.305   80.567   6.586   4.263
 3307.5     4.034   65.583   80.556   6.586   4.281
 3308     3.943   62.861   81.598   6.587   4.007
 3308.5     3.69   60.138   82.529   6.588   3.746
 3309     3.437   59.412   82.313   6.588   3.485
 3309.5     3.255   59.232   81.427   6.589   3.262
 3310     3.212   57.936   80.394   6.59   3.299
 3310.5     3.19   55.531   79.652   6.59   3.335
 3311     3.25   53.126   80.282   6.591   3.4
 3311.5     3.31   52.565   81.695   6.592   3.5
 3312     3.351   52.871   83.283   6.593   3.525
 3312.5     3.246   54.925   84.238   6.593   3.369
 3313     3.16   56.979   84.1   6.594   3.16
 3313.5     3.074   59.407   83.636   6.595   2.95
 3314     3.002   62.147   82.976   6.595   2.844
 3314.5     2.99   62.762   82.174   6.596   2.851
 3315     2.979   62.378   81.427   6.597   2.859
 3315.5     2.967   64.027   81.134   6.597   2.866
 3316     2.956   65.864   80.841   6.598   2.84
 3316.5     2.944   67.559   80.452   6.599   2.789
 3317     2.942   69.063   80.012   6.599   2.738
 3317.5     2.951   70.566   79.376   6.6   2.894
 3318     3.023   68.581   78.346   6.601   3.077
 3318.5     3.14   65.577   77.407   6.601   3.26
 3319     3.211   62.054   77.279   6.602   3.187
 3319.5     3.193   62.396   77.563   6.602   3.059
 3320     3.175   64.919   78.326   6.602   2.93
 3320.5     3.183   65.766   78.589   6.602   2.821
 3321     3.234   62.898   78.591   6.601   2.883
 3321.5     3.286   60.031   78.592   6.601   2.945
 3322     3.326   58.277   78.593   6.601   3.006
 3322.5     3.385   59.492   78.593   6.601   3.068
 3323     3.551   61.202   78.67   6.6   3.044
 3323.5     3.591   62.912   79.133   6.6   2.882
 3324     3.6   64.623   79.597   6.6   2.971
 3324.5     3.679   66.333   80.81   6.6   3.139
 3325     3.916   66.838   81.68   6.599   3.457
 3325.5     4.361   68.433   81.26   6.599   4.28
 3326     4.867   73.4   80.592   6.599   5.36
 3326.5     5.703   77.399   78.157   6.599   6.421
 3327     6.635   80.428   76.731   6.598   7.425
 3327.5     7.829   80.153   75.393   6.598   8.429
 3328     8.833   75.751   74.515   6.598   8.909
 3328.5     8.595   71.348   73.638   6.598   8.472
 3329     7.801   67.222   73.128   6.598   7.414
 3329.5     7.183   66.243   73.272   6.597   6.371
 3330     6.59   67.019   73.386   6.597   5.652
 3330.5     6.285   68.521   73.496   6.597   5.438
 3331     6.683   70.606   73.361   6.597   5.945
 3331.5     7.287   73.201   73.17   6.596   6.452
 3332     7.781   75.796   73.134   6.596   6.958
 3332.5     8.208   77.568   72.926   6.596   7.186
 3333     8.419   76.754   72.532   6.596   7.342
 3333.5     8.63   75.94   71.963   6.595   7.747
 3334     9.067   75.574   71.131   6.595   8.152
 3334.5     10.092   79.032   70.706   6.595   10.106
 3335     11.455   85.173   71.217   6.595   12.373
 3335.5     13.072   93.541   71.728   6.594   13.914
 3336     14.015   94.218   72.247   6.594   13.593
 3336.5     12.805   84.966   72.509   6.594   12.028
 3337     11.385   71.956   71.892   6.594   10.275
 3337.5     10.046   61.512   71.591   6.594   8.523
 3338     8.706   62.427   71.689   6.593   7.107
 3338.5     7.367   66.136   71.91   6.593   6.135
 3339     6.968   69.389   72.628   6.591   5.538
 3339.5     6.934   70.286   72.682   6.59   5.653
 3340     7.143   70.283   72.737   6.589   5.769
 3340.5     7.352   69.645   72.878   6.588   5.884
 3341     7.401   68.708   73.136   6.586   5.928
 3341.5     7.286   67.857   73.394   6.585   5.881
 3342     7.171   67.94   73.652   6.584   5.835
 3342.5     7.194   68.538   73.738   6.582   5.922
 3343     7.296   70.319   73.68   6.581   6.013
 3343.5     7.398   73.247   73.376   6.58   6.104
 3344     7.5   76.176   72.97   6.578   6.191
 3344.5     7.504   79.104   72.647   6.577   6.229
 3345     7.504   80.017   72.746   6.576   6.267
 3345.5     7.505   80.273   72.845   6.574   6.304
 3346     7.877   81.236   72.689   6.577   7.482
 3346.5     8.678   84.46   72.531   6.58   8.872
 3347     9.929   87.845   72.373   6.584   9.736
 3347.5     10.328   87.498   72.214   6.587   10.105
 3348     9.688   84.33   72.374   6.591   9.359
 3348.5     8.711   76.661   73.274   6.594   7.412
 3349     7.682   68.992   74.463   6.597   5.836
 3349.5     6.561   63.633   75.653   6.601   4.804
 3350     5.439   62.895   76.843   6.596   4.151
 3350.5     5.116   65.021   78.361   6.571   3.848
 3351     4.841   67.148   79.446   6.546   3.546
 3351.5     4.583   67.721   78.832   6.52   3.338
 3352     4.518   67.123   78.783   6.495   3.502
 3352.5     4.7   66.561   77.508   6.495   3.742
 3353     4.913   66.422   76.104   6.496   4.004
 3353.5     5.126   66.149   76.103   6.498   4.111
 3354     5.198   64.758   76.001   6.5   4.207
 3354.5     5.261   63.368   75.703   6.501   4.302
 3355     5.325   62.101   75.88   6.503   4.401
 3355.5     5.403   61.999   75.501   6.504   4.62
