#--------------------------------------------------#
#-------------------ENVERUS, INC.------------------#
#------------------WWW.ENVERUS.COM-----------------#
#------------------COPYRIGHT 2020------------------#
#--------------------------------------------------#
#THIS FILE MAY BE USED ONLY IN ACCORDANCE WITH A CURRENT SUBSCRIPTION AGREEMENT BETWEEN
#THE USER AND ENVERUS, INC. NO PART OF THIS FILE MAY BE REPRODUCED, USED, COPIED,
#MODIFIED, PROPAGATED, OR DISTRIBUTED EXCEPT IN ACCORDANCE WITH THE SUBSCRIPTION
#AGREEMENT. UNAUTHORIZED USE OR DISTRIBUTION OF ALL OR ANY PART OF THIS FILE MAY VIOLATE
#COPYRIGHT, TRADEMARK, AND/OR OTHER LAWS AND IS SUBJECT TO CIVIL AS WELL AS CRIMINAL
#SANCTIONS.
#--------------------------------------------------#
#THIS FILE IS PROVIDED "AS-IS" AND ALL WARRANTIES ARE EXPRESSLY DISCLAIMED, WHETHER
#EXPRESS, ORAL, IMPLIED, STATUTORY OR OTHERWISE, INCLUDING ANY IMPLIED WARRANTY OF FITNESS
#FOR A PARTICULAR PURPOSE, MERCHANTABILITY, TITLE OR NON-INFRINGEMENT, AND ANY WARRANTIES
#ARISING BY VIRTUE OF CUSTOM OF TRADE OR COURSE OF DEALING.  FURTHER, ENVERUS, INC.
#AND ITS LICENSORS DO NOT REPRESENT OR WARRANT THAT THIS FILE WILL MEET USER'S
#REQUIREMENTS OR ARE SUITABLE FOR USER'S NEEDS OR THAT THE DATA OR RESULTS PROVIDED IN
#CONJUNCTION THEREWITH ARE CORRECT, ACCURATE, TIMELY OR RELIABLE. THESE DISCLAIMERS SHALL
#APPLY REGARDLESS OF ANY FAILURE OF ESSENTIAL PURPOSE OF ANY LIMITED REMEDY.  SOME
#JURISDICTIONS DO NOT ALLOW THE EXCLUSION OF CERTAIN WARRANTIES SO SOME OF THE ABOVE
#EXCLUSIONS MAY NOT APPLY. IN NO EVENT SHALL ENVERUS, INC. OR ANY OF ITS AFFILIATES
#BE LIABLE UNDER ANY LEGAL THEORY, WHETHER IN TORT (INCLUDING WITHOUT LIMITATION
#NEGLIGENCE), CONTRACT, STRICT LIABILITY, STATUTORY OR OTHERWISE, FOR ANY SPECIAL,
#INCIDENTAL, CONSEQUENTIAL, EXEMPLARY, PUNITIVE OR INDIRECT DAMAGE OF ANY KIND, INCLUDING
#WITHOUT LIMITATION LOSS OF REVENUE, PROFITS, GOODWILL, USE, AND/OR DATA OR THE COST OF
#PROCUREMENT OF SUBSTITUTE GOODS OR SERVICES, EVEN IF APPRISED OF THE POSSIBILITY OF SUCH
#DAMAGES IN ADVANCE.
#--------------------------------------------------#

~VERSION INFORMATION
VERS. 2.0 : CWLS LOG ASCII STANDARD - VERSION 2.0
WRAP.  NO : ONE LINE PER DEPTH STEP
~WELL INFORMATION
#MNEMONIC     .UNIT              VALUE :DESCRIPTION
STRT       .FT                24 :START DEPTH
STOP       .FT                5035 :STOP DEPTH
STEP       .FT                   0.500 :STEP
NULL       .                  -999.250 :NULL
UWI        .              42389314500000 :UNIQUE WELL ID
API        .              42389314500000 :API NUMBER
COMP       .         SLEDGE BROS. OIL CO. :COMPANY
WELL       .        ELIZABETH MITCHELL  1 :WELL
DATE       .                18-DEC-1983 :LOG DATE
~CURVE INFORMATION
#MNEMONIC     .UNIT      API CODE :CURVE DESCRIPTION
DEPTH       .FT                      :MEASURED DEPTH
CAL.INCH        UNKNOWN   :CAL
DT.US/FT        UNKNOWN   :DT
GR.API        UNKNOWN   :GR
~A    DEPTH    CAL    DT    GR
# ...
 1671.5     9.904   52.875   6.628
 1672     9.898   52.878   7.312
 1672.5     9.891   52.713   6.909
 1673     9.885   52.491   6.485
 1673.5     9.879   52.269   6.062
 1674     9.873   52.047   7.47
 1674.5     9.867   52.395   8.151
 1675     9.86   53.036   7.695
 1675.5     9.854   53.577   7.239
 1676     9.848   54.118   6.783
 1676.5     9.842   54.561   6.326
 1677     9.835   54.097   5.87
 1677.5     9.837   53.634   5.414
 1678     9.856   53.136   4.958
 1678.5     9.876   52.601   4.502
 1679     9.873   52.067   4.045
 1679.5     9.858   51.532   3.589
 1680     9.843   51.25   4.238
 1680.5     9.828   51.216   4.926
 1681     9.814   51.181   5.615
 1681.5     9.799   51.147   6.304
 1682     9.786   51.333   6.992
 1682.5     9.784   51.696   7.681
 1683     9.782   52.059   8.37
 1683.5     9.78   52.421   8.977
 1684     9.778   52.784   7.744
 1684.5     9.776   52.558   6.511
 1685     9.774   52.206   5.277
 1685.5     9.772   51.854   4.044
 1686     9.77   51.502   2.81
 1686.5     9.769   51.226   1.577
 1687     9.767   51.351   3.256
 1687.5     9.765   51.475   5.285
 1688     9.763   51.599   7.315
 1688.5     9.761   51.723   9.344
 1689     9.759   51.847   9.533
 1689.5     9.757   51.971   8.476
 1690     9.755   52.095   7.42
 1690.5     9.753   52.19   6.365
 1691     9.786   52.106   6.692
 1691.5     9.83   52.022   7.019
 1692     9.874   51.937   7.346
 1692.5     9.918   51.853   7.673
 1693     9.925   51.769   8.422
 1693.5     9.919   51.802   9.295
 1694     9.913   51.932   10.169
 1694.5     9.907   52.062   10.807
 1695     9.901   52.193   9.889
 1695.5     9.895   52.323   8.972
 1696     9.888   52.37   8.055
 1696.5     9.882   52.092   7.48
 1697     9.876   51.814   8.447
 1697.5     9.87   51.537   9.414
 1698     9.876   51.272   10.381
 1698.5     9.909   51.322   11.348
 1699     9.942   51.372   12.315
 1699.5     9.975   51.421   12.841
 1700     10.007   52.153   12.469
 1700.5     10.04   52.932   12.097
 1701     10.073   53.538   11.724
 1701.5     10.106   53.598   11.352
 1702     10.138   53.658   10.98
 1702.5     10.171   53.718   10.607
 1703     10.204   53.778   10.953
 1703.5     10.236   54.549   11.39
 1704     10.269   55.334   11.827
 1704.5     10.292   56.12   11.468
 1705     10.3   56.906   10.758
 1705.5     10.309   57.092   10.048
 1706     10.317   57.241   9.338
 1706.5     10.326   57.204   8.628
 1707     10.334   56.691   7.918
 1707.5     10.343   56.177   7.208
 1708     10.351   55.12   6.498
 1708.5     10.36   53.758   5.788
 1709     10.368   52.396   5.078
 1709.5     10.382   52.51   5.635
 1710     10.397   52.794   6.717
 1710.5     10.412   53.079   7.798
 1711     10.428   53.363   7.486
 1711.5     10.443   53.648   6.734
 1712     10.458   53.247   5.982
 1712.5     10.473   52.626   5.23
 1713     10.488   52.104   4.479
 1713.5     10.503   51.856   4.04
 1714     10.519   51.801   3.992
 1714.5     10.531   51.746   3.944
 1715     10.543   51.691   3.896
 1715.5     10.555   51.636   3.848
 1716     10.567   51.581   4.003
 1716.5     10.579   51.526   4.286
 1717     10.591   51.251   4.569
 1717.5     10.603   50.935   4.853
 1718     10.615   50.619   5.136
 1718.5     10.626   50.552   5.42
 1719     10.628   50.748   5.703
 1719.5     10.63   50.944   4.857
 1720     10.632   51.141   3.929
 1720.5     10.634   51.337   3.001
 1721     10.636   51.404   2.072
 1721.5     10.638   50.991   1.144
 1722     10.64   50.578   1.469
 1722.5     10.642   50.623   2.428
 1723     10.644   50.927   3.386
 1723.5     10.646   51.24   4.345
 1724     10.648   51.7   5.304
 1724.5     10.65   52.16   6.263
 1725     10.652   52.62   7.221
 1725.5     10.649   53.09   8.18
 1726     10.635   53.629   9.139
 1726.5     10.62   54.168   10.097
 1727     10.606   54.708   11.056
 1727.5     10.592   55.247   12.015
 1728     10.578   55.786   12.973
 1728.5     10.563   56.325   13.932
 1729     10.549   55.976   14.891
 1729.5     10.535   55.368   15.849
 1730     10.52   54.761   16.808
 1730.5     10.506   53.843   17.767
 1731     10.492   52.576   16.317
 1731.5     10.479   52.596   14.136
 1732     10.475   52.616   11.955
 1732.5     10.471   52.619   9.933
 1733     10.466   52.614   10.546
 1733.5     10.462   52.609   11.16
 1734     10.458   52.604   11.774
 1734.5     10.454   52.599   12.388
 1735     10.45   52.594   13.002
 1735.5     10.446   52.491   13.062
 1736     10.441   52.257   11.999
 1736.5     10.437   52.024   10.937
 1737     10.433   51.834   9.874
 1737.5     10.429   51.932   8.908
 1738     10.425   52.029   9.108
 1738.5     10.421   52.146   9.307
 1739     10.417   52.589   9.507
 1739.5     10.412   53.032   9.707
 1740     10.408   53.475   9.906
 1740.5     10.404   53.918   9.989
 1741     10.4   54.072   9.292
 1741.5     10.396   54.128   8.595
 1742     10.392   54.172   7.898
 1742.5     10.388   53.856   7.201
 1743     10.383   53.539   6.505
 1743.5     10.379   53.223   5.916
 1744     10.376   53.17   6.055
 1744.5     10.382   53.241   6.194
 1745     10.388   53.313   6.332
 1745.5     10.394   53.384   6.471
 1746     10.4   53.413   6.61
 1746.5     10.406   53.387   6.749
 1747     10.412   53.361   6.887
 1747.5     10.418   53.334   7.026
 1748     10.424   53.308   8.931
 1748.5     10.43   53.282   11.387
 1749     10.436   53.255   13.843
 1749.5     10.442   53.019   16.299
 1750     10.448   52.704   18.755
 1750.5     10.454   52.389   20.23
 1751     10.46   52.074   17.138
 1751.5     10.466   51.759   14.046
 1752     10.472   51.444   10.955
 1752.5     10.478   51.129   7.863
 1753     10.487   50.814   4.771
 1753.5     10.503   50.643   4.525
 1754     10.519   50.516   6.674
 1754.5     10.534   50.389   8.822
 1755     10.55   50.262   10.971
 1755.5     10.565   50.135   13.12
 1756     10.581   50.053   15.269
 1756.5     10.596   50.278   17.418
 1757     10.612   50.503   17.288
 1757.5     10.628   50.729   14.886
 1758     10.643   50.954   12.483
 1758.5     10.659   51.179   10.081
 1759     10.674   50.972   7.679
 1759.5     10.69   50.706   5.276
 1760     10.705   50.44   3.17
 1760.5     10.743   49.971   5.278
 1761     10.816   50.199   7.386
 1761.5     10.889   52.614   9.494
 1762     10.961   55.31   11.602
 1762.5     10.959   58.414   13.71
 1763     10.935   58.174   15.818
 1763.5     10.911   56.696   17.926
 1764     10.888   55.219   20.034
 1764.5     10.864   53.741   13.48
 1765     10.857   52.263   5.677
 1765.5     10.871   51.812   4.985
 1766     10.886   51.867   4.895
 1766.5     10.901   51.922   4.804
 1767     10.915   51.977   4.713
 1767.5     10.93   52.032   4.623
 1768     10.944   52.087   4.532
 1768.5     10.959   52.141   4.441
 1769     10.973   52.196   4.351
 1769.5     10.988   52.251   4.26
 1770     11.003   52.236   4.466
 1770.5     11.017   52.099   4.681
 1771     11.024   51.963   4.896
 1771.5     11.025   51.826   5.111
 1772     11.025   51.69   5.326
 1772.5     11.026   51.618   5.541
 1773     11.026   51.999   5.756
 1773.5     11.026   52.38   5.971
 1774     11.027   52.291   6.186
 1774.5     11.027   52.173   6.401
 1775     11.028   52.054   6.617
 1775.5     11.028   51.936   6.832
 1776     11.028   51.91   7.047
 1776.5     11.029   51.892   7.262
 1777     11.029   51.874   7.477
 1777.5     11.03   51.856   6.893
 1778     11.03   51.808   6.24
 1778.5     11.03   51.642   5.587
 1779     11.022   51.477   6.639
 1779.5     10.989   51.312   8.94
 1780     10.957   51.183   11.241
 1780.5     10.924   51.261   13.542
 1781     10.891   51.339   14.927
 1781.5     10.859   51.417   13.446
 1782     10.826   51.427   11.964
 1782.5     10.793   51.27   10.483
 1783     10.761   51.112   10.259
 1783.5     10.728   51.317   10.539
 1784     10.695   51.439   10.82
 1784.5     10.663   51.32   11.1
 1785     10.63   51.202   11.381
 1785.5     10.597   51.083   9.647
 1786     10.554   50.965   7.405
 1786.5     10.506   50.846   6.85
