###############################################
##         ENVERUS                           ##
##         ESS - Open Hole                   ##
##         PERMIAN / DELAWARE                ##
##         Nov 02 2023  V4.0                 ##
##         42-301-31112-00-00                ##
###############################################
## Copyright 2017-2023  ENVERUS.  All Rights Reserved. 
## Confidential - Property of ENVERUS, use governed by terms and 
## conditions found within the existing Information Services Subscription Agreement 
## (as may be amended, the “ISSA”) between Customer and ENVERUS. 
## 
~VERSION INFORMATION
# MNEM.UNIT                               DATA : DESCRIPTION OF MNEMONIC
#-----.-----     ----------------------------- : -----------------------------
VERS.                                     2.00 : CWLS LOG ASCII STANDARD - VERSION 2.00
WRAP.                                       NO : MULTIPLE LINES PER DEPTH STEP
VEND.                                  ENVERUS : VENDOR
TYPE.                          ESS - OPEN HOLE : ENVERUS ESSENTIAL CURVES – ACCESSIBLE THROUGH ENVERUS PRISM(TM)
DOC.                                  31879965 : ENVERUS HEADER RAW DOCUMENT ID
#___________________________________________________________________________________________________ 
~WELL INFORMATION 
# p11foxtE5QnwhaJbtzBz2LJF4p4dkL7jzyXNzohJvMqLCglFSJK87xuVm3WB3m+8huK6qzS+fp5X73xeHrMy5w== 
# MNEM.UNIT                                              DATA : DESCRIPTION OF MNEMONIC 
#-----.-----                    ----------------------------- : ----------------------------- 
CNTY.                                                  LOVING : COUNTY 
STATE.                                                  TEXAS : STATE 
CNTRY.                                                    USA : COUNTRY 
API.                                             42-301-31112 : API (10 Digit) 
API_14.                                    42-301-31112-00-00 : API (14 Digits) 
API_14_std.                                 42-301-31112-0000 : API (14 Digits Standard) 
UWI.                                           42301311120000 : UNIQUE WELL ID 
WELL.                                                    JR 1 : WELL NAME
STRT.FT                                                3102.0 : START DEPTH
STOP.FT                                               15993.0 : STOP DEPTH
STEP.FT                                                   0.5 : STEP BETWEEN DEPTHS
NULL.                                                 -999.25 : NULL VALUE
LOC.                                                      UNK : LOCATION 
SRVC.                                                     UNK : SERVICE COMPANY
#___________________________________________________________________________________________________ 
~CURVE INFORMATION 
# MNEM.UNIT           : CURVE DESCRIPTION 
#-----.-----          : ----------------------------- 
 DEPT.FT               : MEASURED DEPTH 
 CALI.IN               : CALIPER (CAL - CAL) 
 GR.API                : GAMMA RAY (GR) 
 DT.US/FT              : SONIC DELTA TRANSIT TIME (DT) 
 #___________________________________________________________________________________________________ 
~A         DEPT           CALI             GR             DT
# ...
        15906.0       -999.250         50.502         59.263
        15906.5       -999.250         52.745         60.232
        15907.0       -999.250         63.892         61.202
        15907.5       -999.250         75.053         62.172
        15908.0       -999.250         83.166         63.141
        15908.5       -999.250         83.586         63.963
        15909.0       -999.250         77.997         62.758
        15909.5       -999.250         71.622         60.531
        15910.0       -999.250         57.695         58.305
        15910.5       -999.250         44.360         56.078
        15911.0       -999.250         41.055         53.851
        15911.5       -999.250         40.161         54.145
        15912.0       -999.250         42.025         54.574
        15912.5       -999.250         50.907         57.691
        15913.0       -999.250         60.309         61.072
        15913.5       -999.250         65.496         61.003
        15914.0       -999.250         60.787         59.828
        15914.5       -999.250         48.803         57.883
        15915.0       -999.250         36.819         55.939
        15915.5       -999.250         25.699         53.995
        15916.0       -999.250         18.224         52.051
        15916.5       -999.250         17.263         51.683
        15917.0       -999.250         19.975         51.688
        15917.5       -999.250         22.837         52.498
        15918.0       -999.250         25.700         53.307
        15918.5       -999.250         28.767         54.116
        15919.0       -999.250         33.375         55.015
        15919.5       -999.250         37.970         56.001
        15920.0       -999.250         39.916         56.987
        15920.5       -999.250         41.863         57.974
        15921.0       -999.250         44.428         58.960
        15921.5       -999.250         51.489         59.946
        15922.0       -999.250         64.207         60.933
        15922.5       -999.250         76.924         61.919
        15923.0       -999.250         82.684         62.905
        15923.5       -999.250         75.442         63.067
        15924.0       -999.250         59.550         62.084
        15924.5       -999.250         46.065         60.045
        15925.0       -999.250         34.350         58.006
        15925.5       -999.250         27.366         55.967
        15926.0       -999.250         25.850         53.931
        15926.5       -999.250         24.039         53.621
        15927.0       -999.250         21.791         53.311
        15927.5       -999.250         21.289         53.158
        15928.0       -999.250         23.114         53.324
        15928.5       -999.250         26.080         53.452
        15929.0       -999.250         29.045         53.579
        15929.5       -999.250         35.956         54.392
        15930.0       -999.250         49.159         55.788
        15930.5       -999.250         65.569         57.185
        15931.0       -999.250         75.837         58.581
        15931.5       -999.250         82.879         59.928
        15932.0       -999.250         89.152         60.937
        15932.5       -999.250         95.277         60.965
        15933.0       -999.250        100.372         60.843
        15933.5       -999.250        103.409         60.720
        15934.0       -999.250        106.446         60.598
        15934.5       -999.250        109.483         60.475
        15935.0       -999.250        115.803         60.353
        15935.5       -999.250        124.031         60.338
        15936.0       -999.250        124.510         60.338
        15936.5       -999.250        116.565         60.338
        15937.0       -999.250        101.343         60.338
        15937.5       -999.250         89.473         60.338
        15938.0       -999.250         81.730         60.338
        15938.5       -999.250         80.485         60.338
        15939.0       -999.250         83.419         60.337
        15939.5       -999.250         86.463         60.337
        15940.0       -999.250         85.781         60.337
        15940.5       -999.250         83.604         60.337
        15941.0       -999.250         82.145         60.337
        15941.5       -999.250         83.537         60.333
        15942.0       -999.250         81.463         60.290
        15942.5       -999.250         65.859         60.248
        15943.0       -999.250         49.445         60.206
        15943.5       -999.250         35.636         60.223
        15944.0       -999.250         33.560         60.273
        15944.5       -999.250         31.484         60.324
        15945.0       -999.250         28.184         60.374
        15945.5       -999.250         23.931         60.424
        15946.0       -999.250         19.678         60.474
        15946.5       -999.250         16.611         60.451
        15947.0       -999.250         16.471         60.410
        15947.5       -999.250         17.126         60.370
        15948.0       -999.250         17.831         60.334
        15948.5       -999.250         18.535         60.317
        15949.0       -999.250         20.000         60.300
        15949.5       -999.250         23.841       -999.250
        15950.0       -999.250         35.989       -999.250
        15950.5       -999.250         48.495       -999.250
        15951.0       -999.250         59.440       -999.250
        15951.5       -999.250         54.395       -999.250
        15952.0       -999.250         44.015       -999.250
        15952.5       -999.250         28.170       -999.250
        15953.0       -999.250         16.998       -999.250
        15953.5       -999.250         12.201       -999.250
        15954.0       -999.250         12.563       -999.250
        15954.5       -999.250         14.884       -999.250
        15955.0       -999.250         17.204       -999.250
        15955.5       -999.250         18.329       -999.250
        15956.0       -999.250         16.323       -999.250
        15956.5       -999.250         13.833       -999.250
        15957.0       -999.250         12.634       -999.250
        15957.5       -999.250         13.190       -999.250
        15958.0       -999.250         15.093       -999.250
        15958.5       -999.250         16.231       -999.250
        15959.0       -999.250         16.577       -999.250
        15959.5       -999.250         17.027       -999.250
        15960.0       -999.250         18.283       -999.250
        15960.5       -999.250         19.540       -999.250
        15961.0       -999.250         20.193       -999.250
        15961.5       -999.250         20.445       -999.250
        15962.0       -999.250         20.330       -999.250
        15962.5       -999.250         18.936       -999.250
        15963.0       -999.250         17.286       -999.250
        15963.5       -999.250         15.636       -999.250
        15964.0       -999.250         14.282       -999.250
        15964.5       -999.250         14.023       -999.250
        15965.0       -999.250         15.422       -999.250
        15965.5       -999.250         16.914       -999.250
        15966.0       -999.250         17.523       -999.250
        15966.5       -999.250         16.357       -999.250
        15967.0       -999.250         16.724       -999.250
        15967.5       -999.250         17.475       -999.250
        15968.0       -999.250         17.281       -999.250
        15968.5       -999.250         16.205       -999.250
        15969.0       -999.250         16.507       -999.250
        15969.5       -999.250         18.044       -999.250
        15970.0       -999.250         20.303       -999.250
        15970.5       -999.250         23.616       -999.250
        15971.0       -999.250         29.100       -999.250
        15971.5       -999.250         34.585       -999.250
