#--------------------------------------------------#
#-------------------ENVERUS, INC.------------------#
#------------------WWW.ENVERUS.COM-----------------#
#------------------COPYRIGHT 2020------------------#
#--------------------------------------------------#
#THIS FILE MAY BE USED ONLY IN ACCORDANCE WITH A CURRENT SUBSCRIPTION AGREEMENT BETWEEN
#THE USER AND ENVERUS, INC. NO PART OF THIS FILE MAY BE REPRODUCED, USED, COPIED,
#MODIFIED, PROPAGATED, OR DISTRIBUTED EXCEPT IN ACCORDANCE WITH THE SUBSCRIPTION
#AGREEMENT. UNAUTHORIZED USE OR DISTRIBUTION OF ALL OR ANY PART OF THIS FILE MAY VIOLATE
#COPYRIGHT, TRADEMARK, AND/OR OTHER LAWS AND IS SUBJECT TO CIVIL AS WELL AS CRIMINAL
#SANCTIONS.
#--------------------------------------------------#
#THIS FILE IS PROVIDED "AS-IS" AND ALL WARRANTIES ARE EXPRESSLY DISCLAIMED, WHETHER
#EXPRESS, ORAL, IMPLIED, STATUTORY OR OTHERWISE, INCLUDING ANY IMPLIED WARRANTY OF FITNESS
#FOR A PARTICULAR PURPOSE, MERCHANTABILITY, TITLE OR NON-INFRINGEMENT, AND ANY WARRANTIES
#ARISING BY VIRTUE OF CUSTOM OF TRADE OR COURSE OF DEALING.  FURTHER, ENVERUS, INC.
#AND ITS LICENSORS DO NOT REPRESENT OR WARRANT THAT THIS FILE WILL MEET USER'S
#REQUIREMENTS OR ARE SUITABLE FOR USER'S NEEDS OR THAT THE DATA OR RESULTS PROVIDED IN
#CONJUNCTION THEREWITH ARE CORRECT, ACCURATE, TIMELY OR RELIABLE. THESE DISCLAIMERS SHALL
#APPLY REGARDLESS OF ANY FAILURE OF ESSENTIAL PURPOSE OF ANY LIMITED REMEDY.  SOME
#JURISDICTIONS DO NOT ALLOW THE EXCLUSION OF CERTAIN WARRANTIES SO SOME OF THE ABOVE
#EXCLUSIONS MAY NOT APPLY. IN NO EVENT SHALL ENVERUS, INC. OR ANY OF ITS AFFILIATES
#BE LIABLE UNDER ANY LEGAL THEORY, WHETHER IN TORT (INCLUDING WITHOUT LIMITATION
#NEGLIGENCE), CONTRACT, STRICT LIABILITY, STATUTORY OR OTHERWISE, FOR ANY SPECIAL,
#INCIDENTAL, CONSEQUENTIAL, EXEMPLARY, PUNITIVE OR INDIRECT DAMAGE OF ANY KIND, INCLUDING
#WITHOUT LIMITATION LOSS OF REVENUE, PROFITS, GOODWILL, USE, AND/OR DATA OR THE COST OF
#PROCUREMENT OF SUBSTITUTE GOODS OR SERVICES, EVEN IF APPRISED OF THE POSSIBILITY OF SUCH
#DAMAGES IN ADVANCE.
#--------------------------------------------------#

# EXPORTED FROM DI TRANSFORM
# DI TRANSFORM - A PRODUCT OF DRILLINGINFO, INC. - WWW.DRILLINGINFO.COM
#
~VERSION INFORMATION
 VERS.        2.0 : LAS ASCII STANDARD - VERSION 2.0
 WRAP.         NO : ONE LINE PER DEPTH STEP

~WELL INFORMATION
#MNEM.UNIT       DATA TYPE       INFORMATION
#---------       ---------       -----------
 STRT.FT          3310 : START DEPTH
 STOP.FT         11910 : STOP DEPTH
 STEP.FT           0.5 : STEP LENGTH
 NULL.         -999.25 : NULL VALUE
 UWI.   42389328760000 : UNIQUE WELL ID
 API.   42389328760000 : WELL IDENTIFIER
 COMP.                 : COMPANY
 WELL.          DRD_55 : WELL NAME
 FLD.                  : FIELD NAME
 LOC.                  : WELL LOCATION
 CNTY.                 : COUNTY
 STAT.                 : STATE OR PROVINCE
 CTRY.                 : COUNTRY
 SRVC.                 : SERVICE COMPANY
 DATE.                 : DATE

~CURVE INFORMATION
#MNEM.UNIT       API CODE       CURVE DESCRIPTION
#---------       --------       -----------------
 DEPT.FT        : <MEASURED DEPTH>
 CAL.IN         : CALIPER
 DT.US/FT       : SONIC
 GR.GAPI        : GAMMA RAY
 ILD.OHMM       : DEEP RESISTIVITY
 ILS.OHMM       : SHALLOW RESISTIVITY

~PARAMETER INFORMATION
#MNEM.UNIT       VALUE       DESCRIPTION
#---------       -----       -----------
 EKB.FT      3168.5 : ELEVATION ABOVE MSL

~A       DEPT         CAL          DT          GR         ILD         ILS
# ...
       4454.5      9.6255     70.3858     87.0184     17.8544     14.7616
         4455      9.6255     69.6585     85.2731     19.0981     15.1066
       4455.5      9.6255     70.1164     84.2629     18.5092     14.8412
         4456      9.6557     70.3858     85.6034     17.6211     13.8609
       4456.5      9.6255     70.3858     86.0558      15.333      12.711
         4457      9.6643     71.4448     86.6534     10.8326      9.8599
       4457.5      9.6623     73.4919     86.5789      8.9304      7.6423
         4458      9.6623     75.4489      70.353      7.8112      6.1572
       4458.5      9.6623     77.0684     61.6189      6.1526      5.1093
         4459      9.6638     78.3403     60.3586      5.4936       4.514
       4459.5      9.6653     79.6121     59.1168      4.8126      3.9817
         4460      9.6891     82.3656     57.0143      4.3076      3.5035
       4460.5      9.7052     85.2146     55.4939      4.0414      3.4318
         4461      9.7052     88.0635     53.2658      3.9279       3.395
       4461.5      9.7052     88.9925     50.0627      3.7477      3.2735
         4462      9.7052     89.6287     49.4657      3.5758      3.1079
       4462.5      9.7052     89.8913      50.986      3.4316      2.9885
         4463      9.7052     90.5714     51.3944      3.4316      2.9885
       4463.5      9.7052     88.3421     51.3944      3.3689      2.9885
         4464      9.7052     88.0571      51.992      3.3689       2.993
       4464.5      9.7052     86.6857     52.5896      3.3689       3.005
         4465      9.7052     86.2286     51.9698      3.3072      2.9431
       4465.5      9.7052     85.4428     51.7419      3.2122      2.7908
         4466      9.7052     85.3143      53.636      3.2544      2.7779
       4466.5      9.7052     84.9074     55.9779       3.464      2.8919
         4467      9.7052      83.954      54.127      3.7319      3.1043
       4467.5      9.7052     83.0006     53.0425      4.2961      3.4155
         4468      9.7052     82.1143     60.5731      4.9713      3.9376
       4468.5      9.7052     80.9188     70.3338      5.7589      4.5387
         4469      9.7052     78.6934     75.8964      6.1946      5.0757
       4469.5      9.7052     78.1886     72.7469      5.8754      4.7038
         4470      9.7052      78.412     63.8785      5.1113      3.8821
       4470.5      9.7052     78.9612     57.0515      4.4819      3.3748
         4471      9.7052     80.2857     55.5777      4.2381      3.2544
       4471.5      9.7052     80.8592     56.2415      4.3712      3.3397
         4472      9.7052     80.2857     57.3705      4.5815      3.4979
       4472.5      9.7052     79.8286     57.3705      4.7139      3.6501
         4473      9.7052     79.8286     57.3705      4.8731      3.6849
       4473.5      9.7052     79.8286     58.2257      5.0834      3.8068
         4474      9.7052     79.8286      62.148      5.1505      3.9471
       4474.5      9.7052     80.7429     66.1859      5.3442      3.9689
         4475      9.7052     80.2857     67.5299      5.1582      3.9363
       4475.5      9.7052     79.8286     65.4815      5.0134      3.8386
         4476      9.7052     79.3714     62.1467       4.784      3.5141
       4476.5      9.7052     77.7252     60.9562      4.6491      3.4156
         4477      9.7052     77.0857     59.7035      4.5183        3.32
       4477.5      9.7052     77.2421     58.1831      4.4435      3.1892
         4478      9.7052     77.0857     56.6627      4.3475      3.0558
       4478.5      9.7052     77.9741     57.2083      4.1481      2.9949
         4479      9.7052     79.3714     58.7287      3.9578      2.9206
       4479.5      9.7052     80.2857     58.6752      3.8466      2.8338
         4480      9.7052     80.2857     57.7525      3.6702      2.7868
       4480.5      9.7052     81.6571     55.6628       3.627      2.7728
         4481      9.7052     81.6571     54.1141      3.6642      2.7589
       4481.5      9.7052     81.6571     53.1873       3.627      2.7613
         4482      9.7052     81.6571     54.7036      3.6946      2.7892
       4482.5      9.7052     82.4013     54.9314      3.6946      2.8174
         4483      9.7052     82.7025      53.411      3.6946      2.8459
       4483.5      9.7052     83.0286      51.992      3.6946      2.8531
         4484      9.7052     82.5714     53.0162      3.6946      2.8567
       4484.5      9.7052     82.1143     55.5101      3.7123      2.8603
         4485      9.7052     82.1143     57.2522      3.7634      2.9336
       4485.5       9.745     82.1143     58.5657      3.8335      3.0271
         4486       9.745     81.6571     57.4361      3.8971      3.0489
       4486.5       9.745        81.2     55.9157      3.9365      3.0709
         4487       9.745        81.2     54.9801      4.0518      3.1119
       4487.5       9.745        81.2     55.2925      4.1674      3.1843
         4488       9.745     80.7429     56.7729      4.2041      3.2583
       4488.5       9.745     80.2857     57.7356      4.2824      3.3209
         4489       9.745     80.2857     59.8536      4.3748       3.377
       4489.5       9.745     80.2857      61.374      4.4435      3.4183
         4490       9.745     80.2857     61.1016      4.4435      3.4386
       4490.5       9.745     79.8286     60.4856      4.3795      3.4617
         4491       9.745     79.8286     58.3676      4.3622      3.4614
       4491.5      9.7101     79.7519     57.3705      4.3622      3.4048
         4492      9.7052     79.4872      56.522      4.4435      3.4183
       4492.5      9.6653     80.2857     55.5777      4.5233      3.5634
         4493      9.6451     79.8286     56.4789      4.7409      3.8546
       4493.5      9.5836     79.8286     57.9993      4.9687       4.099
         4494       9.506     79.8286     59.5197      5.0563      4.0125
       4494.5      9.4661     79.8286     60.9562      4.9639      3.9823
         4495      9.4661      80.179      60.034      4.9017      3.9524
       4495.5      9.4661     80.6753     58.4291       4.764      3.9247
         4496      9.4661     80.7429     57.3705      4.6965      3.9168
       4496.5      9.4661     81.7875     57.1811      4.6106      3.8809
         4497      9.4661     81.4898     56.1753       4.455      3.6536
       4497.5      9.4661     81.4898     55.8198      4.3622      3.6217
         4498      9.4661     81.1476     56.7426      4.4435      3.7561
       4498.5      9.4661     80.6846     57.9681      4.4843      3.7218
         4499      9.4661     80.4443     56.7505      4.6997      3.8931
       4499.5      9.4661     79.8282     55.2301      5.1002      4.2549
         4500      9.4661     78.9022     58.4923      5.6163      4.7202
       4500.5      9.4661     78.6826     64.7505      6.1024      5.2384
         4501      9.4661     77.3503     69.8773      7.0043      5.8156
       4501.5      9.4661     76.5749     72.3927      7.5555      6.2577
         4502      9.4661      75.845     76.2576      7.9188      6.4564
       4502.5      9.4661     75.1151     77.6892      8.1706      6.6541
         4503      9.4661     74.3851     79.2345      8.3833      6.8686
       4503.5      9.4661     73.6206     81.2358      8.6254       7.164
         4504      9.4661     72.5906     80.6773      8.9605      7.6337
       4504.5      9.4661     71.8863      79.156      8.9605      7.8691
         4505      9.4661     72.2004     74.5012      8.8676      7.7185
       4505.5      9.4661     73.2815     66.6004      7.9889      7.1473
         4506      9.4661     74.3626     58.1021      7.4981       6.448
       4506.5      9.4741     75.4436      56.892      7.2874       6.233
         4507       9.506     76.5247     58.4124      6.9531      6.2474
       4507.5       9.506     77.4241     57.7963      6.5128      6.0185
         4508       9.506     77.5884     57.8675      6.4077      5.6244
       4508.5       9.506     77.2767     61.2569       6.841      5.6665
