#--------------------------------------------------#
#-------------------ENVERUS, INC.------------------#
#------------------WWW.ENVERUS.COM-----------------#
#------------------COPYRIGHT 2020------------------#
#--------------------------------------------------#
#THIS FILE MAY BE USED ONLY IN ACCORDANCE WITH A CURRENT SUBSCRIPTION AGREEMENT BETWEEN
#THE USER AND ENVERUS, INC. NO PART OF THIS FILE MAY BE REPRODUCED, USED, COPIED,
#MODIFIED, PROPAGATED, OR DISTRIBUTED EXCEPT IN ACCORDANCE WITH THE SUBSCRIPTION
#AGREEMENT. UNAUTHORIZED USE OR DISTRIBUTION OF ALL OR ANY PART OF THIS FILE MAY VIOLATE
#COPYRIGHT, TRADEMARK, AND/OR OTHER LAWS AND IS SUBJECT TO CIVIL AS WELL AS CRIMINAL
#SANCTIONS.
#--------------------------------------------------#
#THIS FILE IS PROVIDED "AS-IS" AND ALL WARRANTIES ARE EXPRESSLY DISCLAIMED, WHETHER
#EXPRESS, ORAL, IMPLIED, STATUTORY OR OTHERWISE, INCLUDING ANY IMPLIED WARRANTY OF FITNESS
#FOR A PARTICULAR PURPOSE, MERCHANTABILITY, TITLE OR NON-INFRINGEMENT, AND ANY WARRANTIES
#ARISING BY VIRTUE OF CUSTOM OF TRADE OR COURSE OF DEALING.  FURTHER, ENVERUS, INC.
#AND ITS LICENSORS DO NOT REPRESENT OR WARRANT THAT THIS FILE WILL MEET USER'S
#REQUIREMENTS OR ARE SUITABLE FOR USER'S NEEDS OR THAT THE DATA OR RESULTS PROVIDED IN
#CONJUNCTION THEREWITH ARE CORRECT, ACCURATE, TIMELY OR RELIABLE. THESE DISCLAIMERS SHALL
#APPLY REGARDLESS OF ANY FAILURE OF ESSENTIAL PURPOSE OF ANY LIMITED REMEDY.  SOME
#JURISDICTIONS DO NOT ALLOW THE EXCLUSION OF CERTAIN WARRANTIES SO SOME OF THE ABOVE
#EXCLUSIONS MAY NOT APPLY. IN NO EVENT SHALL ENVERUS, INC. OR ANY OF ITS AFFILIATES
#BE LIABLE UNDER ANY LEGAL THEORY, WHETHER IN TORT (INCLUDING WITHOUT LIMITATION
#NEGLIGENCE), CONTRACT, STRICT LIABILITY, STATUTORY OR OTHERWISE, FOR ANY SPECIAL,
#INCIDENTAL, CONSEQUENTIAL, EXEMPLARY, PUNITIVE OR INDIRECT DAMAGE OF ANY KIND, INCLUDING
#WITHOUT LIMITATION LOSS OF REVENUE, PROFITS, GOODWILL, USE, AND/OR DATA OR THE COST OF
#PROCUREMENT OF SUBSTITUTE GOODS OR SERVICES, EVEN IF APPRISED OF THE POSSIBILITY OF SUCH
#DAMAGES IN ADVANCE.
#--------------------------------------------------#

~VERSION INFORMATION
VERS. 2.0 : CWLS LOG ASCII STANDARD - VERSION 2.0
WRAP.  NO : ONE LINE PER DEPTH STEP
~WELL INFORMATION
#MNEMONIC     .UNIT              VALUE :DESCRIPTION
STRT       .FT                0 :START DEPTH
STOP       .FT                15761 :STOP DEPTH
STEP       .FT                   0.500 :STEP
NULL       .                  -999.250 :NULL
UWI        .              42389302550000 :UNIQUE WELL ID
API        .              42389302550000 :API NUMBER
COMP       .         COASTAL STATES GAS PROD. CO. :COMPANY
WELL       .        CHAPMAN  MCGUIRE & WYNNE  3B :WELL
DATE       .                            :LOG DATE
~CURVE INFORMATION
#MNEMONIC     .UNIT      API CODE :CURVE DESCRIPTION
DEPTH       .FT                      :MEASURED DEPTH
GR.API        UNKNOWN   :GR
DT.US/FT        UNKNOWN   :DT
CAL.INCH        UNKNOWN   :CAL
~A    DEPTH    GR    DT    CAL
# ...
 12634.5     50.567   58.572   -999.250
 12635     51.61   63.802   -999.250
 12635.5     52.353   67.027   -999.250
 12636     53.095   68.225   -999.250
 12636.5     54.095   68.104   -999.250
 12637     56.629   64.926   -999.250
 12637.5     59.164   64.298   -999.250
 12638     61.517   65.611   -999.250
 12638.5     63.849   66.939   -999.250
 12639     66.182   66.271   -999.250
 12639.5     64.654   65.145   -999.250
 12640     62.244   63.592   -999.250
 12640.5     57.359   60.759   -999.250
 12641     51.512   60.975   -999.250
 12641.5     49.194   61.772   -999.250
 12642     49.443   63.881   -999.250
 12642.5     52.113   66.318   -999.250
 12643     54.784   67.842   -999.250
 12643.5     57.454   69.45   -999.250
 12644     60.124   69.549   -999.250
 12644.5     60.767   68.482   -999.250
 12645     59.086   64.602   -999.250
 12645.5     55.52   60.484   -999.250
 12646     50.143   57.32   -999.250
 12646.5     46.583   55.241   -999.250
 12647     44.973   54.909   -999.250
 12647.5     45.364   56.302   -999.250
 12648     45.755   57.695   -999.250
 12648.5     47.244   60.157   -999.250
 12649     50.639   62.421   -999.250
 12649.5     54.033   62.802   -999.250
 12650     56.251   63.824   -999.250
 12650.5     55.396   61.785   -999.250
 12651     51.51   60.463   -999.250
 12651.5     47.214   60.657   -999.250
 12652     48.501   59.5   -999.250
 12652.5     52.763   60.816   -999.250
 12653     56.715   64.666   -999.250
 12653.5     58.452   65.622   -999.250
 12654     60.188   66.332   -999.250
 12654.5     58.042   64.781   -999.250
 12655     55.362   63.099   -999.250
 12655.5     57.548   63.804   -999.250
 12656     62.39   63.752   -999.250
 12656.5     67.232   66.045   -999.250
 12657     68.054   68.306   -999.250
 12657.5     65.642   67.603   -999.250
 12658     63.231   70.318   -999.250
 12658.5     60.875   70.318   -999.250
 12659     58.734   66.142   -999.250
 12659.5     56.593   64.511   -999.250
 12660     52.856   60.892   -999.250
 12660.5     48.408   58.843   -999.250
 12661     48.265   60.358   -999.250
 12661.5     49.627   61.874   -999.250
 12662     50.99   63.41   -999.250
 12662.5     50.707   63.854   -999.250
 12663     49.571   63.21   -999.250
 12663.5     48.435   62.567   -999.250
 12664     47.299   61.745   -999.250
 12664.5     45.711   60.726   -999.250
 12665     42.17   59.683   -999.250
 12665.5     38.629   58.334   -999.250
 12666     36.824   56.984   -999.250
 12666.5     37.627   56.676   -999.250
 12667     38.43   56.988   -999.250
 12667.5     39.234   57.768   -999.250
 12668     40.038   58.242   -999.250
 12668.5     39.713   57.77   -999.250
 12669     39.287   57.671   -999.250
 12669.5     38.862   58.287   -999.250
 12670     38.436   58.336   -999.250
 12670.5     38.947   57.938   -999.250
 12671     39.818   57.347   -999.250
 12671.5     40.689   58.286   -999.250
 12672     41.56   60.891   -999.250
 12672.5     41.586   61.521   -999.250
 12673     38.985   62.168   -999.250
 12673.5     37.059   59.702   -999.250
 12674     36.794   54.937   -999.250
 12674.5     36.528   53.331   -999.250
 12675     36.262   52.817   -999.250
 12675.5     34.002   52.662   -999.250
 12676     34.425   52.622   -999.250
 12676.5     35.613   52.688   -999.250
 12677     37.557   52.487   -999.250
 12677.5     39.501   54.107   -999.250
 12678     41.47   55.743   -999.250
 12678.5     43.911   57.379   -999.250
 12679     46.399   59.005   -999.250
 12679.5     49.39   60.629   -999.250
 12680     52.38   62.44   -999.250
 12680.5     54.062   63.321   -999.250
 12681     52.408   62.901   -999.250
 12681.5     50.755   62.482   -999.250
 12682     49.766   61.44   -999.250
 12682.5     51.305   59.127   -999.250
 12683     52.843   61   -999.250
 12683.5     54.381   60.883   -999.250
 12684     55.919   59.847   -999.250
 12684.5     59.383   60.873   -999.250
 12685     63.572   61.899   -999.250
 12685.5     67.761   64.159   -999.250
 12686     71.95   67.957   -999.250
 12686.5     69.017   71.242   -999.250
 12687     64.233   69.599   -999.250
 12687.5     59.449   65.905   -999.250
 12688     53.287   59.608   -999.250
 12688.5     49.479   55.382   -999.250
 12689     51.261   57.955   -999.250
 12689.5     53.043   60.529   -999.250
 12690     54.825   61.85   -999.250
 12690.5     51.544   61.584   -999.250
 12691     48.132   60.206   -999.250
 12691.5     44.72   59.103   -999.250
 12692     46.723   59.279   -999.250
 12692.5     48.084   60.386   -999.250
 12693     48.265   61.494   -999.250
 12693.5     47.828   62.601   -999.250
 12694     47.26   63.403   -999.250
 12694.5     46.691   63.376   -999.250
 12695     46.123   63.348   -999.250
 12695.5     47.631   63.19   -999.250
 12696     50.362   62.57   -999.250
 12696.5     52.545   63.022   -999.250
 12697     50.151   63.35   -999.250
 12697.5     47.757   62.451   -999.250
 12698     45.363   60.704   -999.250
 12698.5     42.969   58.349   -999.250
 12699     41.768   55.94   -999.250
 12699.5     42.686   55.767   -999.250
 12700     46.21   57.76   -999.250
 12700.5     53.655   61.546   -999.250
 12701     61.099   64.776   -999.250
 12701.5     68.544   67.252   -999.250
 12702     69.792   69.694   -999.250
 12702.5     68.858   68.962   -999.250
 12703     66.993   68.139   -999.250
 12703.5     64.208   67.671   -999.250
 12704     61.424   66.019   -999.250
 12704.5     58.177   64.367   -999.250
 12705     55.788   62.715   -999.250
 12705.5     55.657   62.956   -999.250
 12706     55.205   62.745   -999.250
 12706.5     50.909   61.089   -999.250
 12707     46.613   59.316   -999.250
 12707.5     43.816   56.773   -999.250
 12708     42.152   55.127   -999.250
 12708.5     40.739   56.051   -999.250
 12709     43.705   56.974   -999.250
 12709.5     46.671   58.2   -999.250
 12710     47.036   59.554   -999.250
 12710.5     45.091   58.812   -999.250
 12711     43.146   57.483   -999.250
 12711.5     41.925   56.485   -999.250
 12712     43.566   56.683   -999.250
 12712.5     46.45   57.747   -999.250
 12713     49.335   58.812   -999.250
 12713.5     52.335   59.021   -999.250
 12714     55.363   62.325   -999.250
 12714.5     58.39   65.867   -999.250
 12715     61.418   65.724   -999.250
 12715.5     64.445   67.038   -999.250
 12716     64.338   65.956   -999.250
 12716.5     64.454   62.888   -999.250
 12717     65.22   63.588   -999.250
 12717.5     63.374   62.547   -999.250
 12718     60.306   59.328   -999.250
 12718.5     54.035   56.329   -999.250
 12719     52.196   55.447   -999.250
 12719.5     58.942   58.197   -999.250
 12720     63.471   62.622   -999.250
 12720.5     66.825   66.391   -999.250
 12721     65.403   67.864   -999.250
 12721.5     61.847   67.886   -999.250
 12722     59.399   67.165   -999.250
 12722.5     56.841   65.566   -999.250
 12723     52.549   62.715   -999.250
 12723.5     48.399   59.45   -999.250
 12724     44.257   59.406   -999.250
 12724.5     48.368   61.368   -999.250
 12725     52.527   62.171   -999.250
 12725.5     55.135   61.731   -999.250
 12726     50.95   58.078   -999.250
 12726.5     46.766   54.946   -999.250
 12727     46.286   57.435   -999.250
 12727.5     51.423   61.161   -999.250
 12728     56.561   64.48   -999.250
 12728.5     59.038   65.397   -999.250
 12729     55.529   66.248   -999.250
 12729.5     52.02   63.408   -999.250
 12730     47.62   60.605   -999.250
 12730.5     40.635   59.175   -999.250
 12731     35.576   55.197   -999.250
 12731.5     32.464   54.416   -999.250
 12732     38.681   56.39   -999.250
 12732.5     42.204   58.363   -999.250
 12733     42.886   58.062   -999.250
 12733.5     43.569   57.172   -999.250
 12734     45.76   56.815   -999.250
 12734.5     50.146   56.48   -999.250
 12735     54.532   60.056   -999.250
 12735.5     53.641   66.726   -999.250
 12736     52.035   67.498   -999.250
 12736.5     48.278   67.574   -999.250
 12737     43.34   65.176   -999.250
 12737.5     38.403   60.218   -999.250
