###############################################
##         ENVERUS                           ##
##         ESS - Open Hole                   ##
##         PERMIAN / DELAWARE                ##
##         Nov 04 2023  V4.0                 ##
##         42-389-32353-00-00                ##
###############################################
## Copyright 2017-2023  ENVERUS.  All Rights Reserved. 
## Confidential - Property of ENVERUS, use governed by terms and 
## conditions found within the existing Information Services Subscription Agreement 
## (as may be amended, the “ISSA”) between Customer and ENVERUS. 
## 
~VERSION INFORMATION
# MNEM.UNIT                               DATA : DESCRIPTION OF MNEMONIC
#-----.-----     ----------------------------- : -----------------------------
VERS.                                     2.00 : CWLS LOG ASCII STANDARD - VERSION 2.00
WRAP.                                       NO : MULTIPLE LINES PER DEPTH STEP
VEND.                                  ENVERUS : VENDOR
TYPE.                          ESS - OPEN HOLE : ENVERUS ESSENTIAL CURVES – ACCESSIBLE THROUGH ENVERUS PRISM(TM)
DOC.                                  31816014 : ENVERUS HEADER RAW DOCUMENT ID
#___________________________________________________________________________________________________ 
~WELL INFORMATION 
# N6wmpYeOPIEODBGNmaSz+o1WStwpnSM+Mr70h4S2k9wmNhpeTZrfoFyYX6I24xyp8IiB7B51j2C/wpla6NseZQ== 
# MNEM.UNIT                                              DATA : DESCRIPTION OF MNEMONIC 
#-----.-----                    ----------------------------- : ----------------------------- 
CNTY.                                                  REEVES : COUNTY 
STATE.                                                  TEXAS : STATE 
CNTRY.                                                    USA : COUNTRY 
API.                                             42-389-32353 : API (10 Digit) 
API_14.                                    42-389-32353-00-00 : API (14 Digits) 
API_14_std.                                 42-389-32353-0000 : API (14 Digits Standard) 
UWI.                                           42389323530000 : UNIQUE WELL ID 
WELL.                                             DORNFIELD 1 : WELL NAME
STRT.FT                                                 210.0 : START DEPTH
STOP.FT                                               13522.0 : STOP DEPTH
STEP.FT                                                   0.5 : STEP BETWEEN DEPTHS
NULL.                                                 -999.25 : NULL VALUE
LOC.                                                      UNK : LOCATION 
SRVC.                                                     UNK : SERVICE COMPANY
#___________________________________________________________________________________________________ 
~CURVE INFORMATION 
# MNEM.UNIT           : CURVE DESCRIPTION 
#-----.-----          : ----------------------------- 
 DEPT.FT               : MEASURED DEPTH 
 CALI.IN               : CALIPER (CAL - CAL) 
 GR.API                : GAMMA RAY (GR) 
 DT.US/FT              : SONIC DELTA TRANSIT TIME (DT) 
 RESS.OHMM             : SHALLOW INDUCTION RESISTIVITY (ILS - ILS) 
 RESD.OHMM             : DEEP INDUCTION RESISTIVITY (ILD - ILD) 
 DPHI.V/V              : DENSITY POROSITY (DPHI) 
 NPHI.V/V              : NEUTRON POROSITY (NPHI) 
 RHOB.G/CC             : BULK DENSITY (RHOB) 
 #___________________________________________________________________________________________________ 
~A         DEPT           CALI             GR             DT           RESS           RESD           DPHI           NPHI           RHOB
# ...
        12187.0          9.063        148.878         71.449         10.427         10.256        0.09429        0.23801         2.4960
        12187.5          9.123        140.198         71.984          9.804         10.098        0.11333        0.25716         2.5068
        12188.0          9.105        126.250         71.740         16.949         10.677        0.11813        0.27632         2.5048
        12188.5          9.081        117.127         71.496         24.243         20.094        0.08501        0.26876         2.4915
        12189.0          9.057        114.101         71.252         31.536         37.026        0.04045        0.25143         2.4782
        12189.5          9.033        114.016         71.240         44.759         33.995        0.03012        0.23410         2.4649
        12190.0          9.009        115.343         76.029         12.601         22.908        0.07389        0.21676         2.5546
        12190.5          8.985        117.931         79.047          8.490         11.822        0.12711        0.21883         2.5246
        12191.0          9.007        120.519         80.201         10.159          8.943        0.15659        0.23583         2.4945
        12191.5          9.041        123.107         81.354         11.827         11.046        0.13598        0.25284         2.4645
        12192.0          9.075        125.695         82.039         13.496         13.150        0.09968        0.26984         2.4344
        12192.5          9.109        126.742         82.343         13.445         12.126        0.07516        0.28684         2.4044
        12193.0          9.112        122.863         82.560         11.044          9.807        0.09639        0.30133         2.4432
        12193.5          9.092        117.016         82.647          8.642          8.244        0.11761        0.30703         2.4881
        12194.0          9.072        111.170         81.075         10.367         10.364        0.13883        0.31041         2.5329
        12194.5          9.051        105.324         77.722         13.812         12.484        0.08241        0.31006         2.4431
        12195.0          9.031         99.362         74.368         30.292         17.771        0.02733        0.30598         2.4999
        12195.5          9.011         89.183         71.012         29.767         32.034       -0.02519        0.29520         2.5678
        12196.0          8.990         91.708         67.663         24.720         24.774       -0.00845        0.26252         2.6356
        12196.5          8.970        106.102         67.183         19.674         17.514        0.02461        0.23619         2.6976
        12197.0          8.950        120.497         67.669         15.827         11.169        0.05367        0.22346         2.6636
        12197.5          8.946        129.959         68.154         14.182         10.988        0.06998        0.23940         2.6296
        12198.0          8.946        137.020         68.144         12.538         10.807        0.08376        0.26104         2.5956
        12198.5          8.946        143.746         68.207         10.893         10.625        0.10093        0.28268         2.5616
        12199.0          8.957        144.582         68.648          9.248          9.408        0.14062        0.30433         2.5268
        12199.5          8.973        135.903         69.090          7.604          7.334        0.18032        0.31483         2.4888
        12200.0          8.989        122.115         68.345          9.777         10.855        0.17203        0.33322         2.4508
        12200.5          9.006        108.326         65.567         16.417         17.098        0.12233        0.34127         2.4128
        12201.0          9.022         95.621         65.408         23.057         23.342        0.07781        0.32417         2.3748
        12201.5          9.038         89.947         70.901         25.572         23.079        0.06118        0.30708         2.4048
        12202.0          9.054         94.904         76.313         17.787         16.352        0.13042        0.28999         2.5356
        12202.5          9.221        106.930         80.990         10.002          9.626        0.15703        0.27290         2.5295
        12203.0          9.427        118.955         85.668          8.642          6.887        0.17049        0.26350         2.4962
        12203.5          9.632        130.980         89.273          7.834          8.807        0.18394        0.29326         2.4629
        12204.0          9.508        135.067         92.546          9.878         10.727        0.20086        0.35664         2.4296
        12204.5          9.324        136.944         96.134         11.921         11.844        0.17289        0.34550         2.3963
        12205.0          9.139        133.512         98.369         14.183         12.778        0.12633        0.31702         2.3630
        12205.5          8.954        130.080         95.769         16.558         14.481        0.09936        0.28854         2.3804
        12206.0          8.948        126.648         93.169         18.934         17.836        0.10032        0.26007         2.4823
        12206.5          8.948        123.215         90.607         21.233         21.191        0.10660        0.22619         2.4951
        12207.0          8.949        119.783         88.807         23.450         24.545        0.11288        0.22242         2.4904
        12207.5          8.949        126.464         87.007         16.322         19.181        0.09404        0.21865         2.4857
        12208.0          8.951        136.648         84.929         17.640         14.580        0.07439        0.21445         2.4810
        12208.5          8.958        146.833         85.014         23.927         24.112        0.08750        0.21024         2.4775
        12209.0          8.964        156.932         86.146         24.599         25.149        0.10537        0.20602         2.5020
        12209.5          8.970        167.022         87.201         13.897         17.909        0.12324        0.20181         2.5266
        12210.0          8.977        172.440         87.832         14.587         12.730        0.11155        0.20818         2.5020
        12210.5          8.983        163.515         87.252         17.224         15.699        0.09111        0.22304         2.4567
        12211.0          8.989        145.889         86.133         19.861         18.669        0.08368        0.23575         2.4842
        12211.5          8.996        128.354         84.481         18.020         13.499        0.05775        0.23913         2.5117
        12212.0          9.002        116.640         83.238         10.109         10.155        0.03152        0.24507         2.5392
        12212.5          9.008        115.596         83.238          9.700         10.103        0.03104        0.26530         2.5667
        12213.0          9.015        116.106         83.231          9.489          9.421        0.03365        0.28552         2.5941
        12213.5          9.021        117.965         82.906         10.561         10.074        0.01398        0.30597         2.6079
        12214.0          9.022        120.821         82.100         11.033         11.015       -0.01392        0.30802         2.6085
        12214.5          9.022        123.677         81.294         11.284         11.956        0.00104        0.29967         2.6193
        12215.0          9.022        125.976         80.488         11.517         10.427        0.04636        0.29131         2.6484
        12215.5          9.022        122.999         79.788          3.807          5.991        0.15636        0.30010         2.5747
        12216.0          9.122        109.581         79.910          6.087          4.622        0.25062        0.34073         2.5011
