###############################################
##         ENVERUS                           ##
##         ESS - Open Hole                   ##
##         PERMIAN / DELAWARE                ##
##         Nov 04 2023  V4.0                 ##
##         42-389-32398-00-00                ##
###############################################
## Copyright 2017-2023  ENVERUS.  All Rights Reserved. 
## Confidential - Property of ENVERUS, use governed by terms and 
## conditions found within the existing Information Services Subscription Agreement 
## (as may be amended, the “ISSA”) between Customer and ENVERUS. 
## 
~VERSION INFORMATION
# MNEM.UNIT                               DATA : DESCRIPTION OF MNEMONIC
#-----.-----     ----------------------------- : -----------------------------
VERS.                                     2.00 : CWLS LOG ASCII STANDARD - VERSION 2.00
WRAP.                                       NO : MULTIPLE LINES PER DEPTH STEP
VEND.                                  ENVERUS : VENDOR
TYPE.                          ESS - OPEN HOLE : ENVERUS ESSENTIAL CURVES – ACCESSIBLE THROUGH ENVERUS PRISM(TM)
DOC.                                  31812117 : ENVERUS HEADER RAW DOCUMENT ID
#___________________________________________________________________________________________________ 
~WELL INFORMATION 
# uAwnbjLw6pKN5CeTb7gwROLhNOHLu74gercCwdGpUdKCBCGOTLsJuzWIBCYkU6KzQxtC+uHRBloynRtd0Ulspg== 
# MNEM.UNIT                                              DATA : DESCRIPTION OF MNEMONIC 
#-----.-----                    ----------------------------- : ----------------------------- 
CNTY.                                                  REEVES : COUNTY 
STATE.                                                  TEXAS : STATE 
CNTRY.                                                    USA : COUNTRY 
API.                                             42-389-32398 : API (10 Digit) 
API_14.                                    42-389-32398-00-00 : API (14 Digits) 
API_14_std.                                 42-389-32398-0000 : API (14 Digits Standard) 
UWI.                                           42389323980000 : UNIQUE WELL ID 
WELL.                                    BLOCK 58 STATE 32  1 : WELL NAME
STRT.FT                                                8311.0 : START DEPTH
STOP.FT                                               12834.0 : STOP DEPTH
STEP.FT                                                   0.5 : STEP BETWEEN DEPTHS
NULL.                                                 -999.25 : NULL VALUE
COMP.                                       SHELL WESTERN E&P : COMPANY 
DATE.                                             08-FEB-2006 : LOG DATE
#___________________________________________________________________________________________________ 
~CURVE INFORMATION 
# MNEM.UNIT           : CURVE DESCRIPTION 
#-----.-----          : ----------------------------- 
 DEPT.FT               : MEASURED DEPTH 
 CALI__B.IN            : CALIPER (CAL - CAL) 
 GR__B.API             : GAMMA RAY (GR) 
 DT__B.US/FT           : SONIC DELTA TRANSIT TIME (DT) 
 RESS__B.OHMM          : SHALLOW INDUCTION RESISTIVITY (ILS - ILS) 
 RESD__B.OHMM          : DEEP INDUCTION RESISTIVITY (ILD - ILD) 
 #___________________________________________________________________________________________________ 
~A         DEPT        CALI__B          GR__B          DT__B        RESS__B        RESD__B
# ...
         9367.0          8.273         54.520         62.406         33.825         46.138
         9367.5          8.271         49.757         62.275         34.853         45.925
         9368.0          8.269         49.846         64.986         33.148         45.711
         9368.5          8.267         55.682         69.840         29.834         41.132
         9369.0          8.265         71.240         74.693         25.156         33.838
         9369.5          8.263         94.003         77.892         21.174         26.698
         9370.0          8.260        121.519         79.584         18.484         25.282
         9370.5          8.262        140.606         80.863         16.767         23.866
         9371.0          8.265        146.902         80.811         16.960         22.450
         9371.5          8.268        149.040         79.310         19.478         24.389
         9372.0          8.271        146.852         77.011         22.019         26.199
         9372.5          8.274        135.961         75.274         22.615         25.882
         9373.0          8.277        117.341         75.341         23.926         25.566
         9373.5          8.279        105.808         75.582         27.331         27.835
         9374.0          8.282        101.212         75.708         31.924         30.714
         9374.5          8.285        102.793         75.370         33.350         33.592
         9375.0          8.288        115.769         75.032         31.826         33.892
         9375.5          8.291        119.053         75.270         31.973         33.755
         9376.0          8.294        108.306         75.567         32.521         33.618
         9376.5          8.297         94.585         75.320         34.724         35.175
         9377.0          8.300         96.797         75.074         34.434         36.837
         9377.5          8.303        105.276         74.553         33.538         38.499
         9378.0          8.306        112.188         73.873         32.341         37.809
         9378.5          8.308        108.107         73.167         30.974         36.801
         9379.0          8.311         94.653         69.170         29.387         35.792
         9379.5          8.314         75.836         65.444         26.290         32.323
         9380.0          8.317         57.068         62.248         25.007         28.417
         9380.5          8.320         56.590         61.946         32.650         37.573
         9381.0          8.323         64.800         63.547         49.153         51.559
         9381.5          8.326         93.764         69.017         40.791         50.550
         9382.0          8.329        142.759         74.058         21.258         22.333
         9382.5          8.332        189.898         76.531         16.970         18.882
         9383.0          8.335        237.589         77.853         13.912         15.431
         9383.5          8.337        246.039         79.815         12.122         14.032
         9384.0          8.340        202.764         80.778         11.294         13.382
         9384.5          8.343        159.488         79.284         14.176         19.664
         9385.0          8.346        131.493         76.400         17.422         24.828
         9385.5          8.349        106.813         73.344         20.089         25.726
         9386.0          8.352         98.693         71.702         21.087         26.624
         9386.5          8.355         95.947         69.839         22.085         28.770
         9387.0          8.358         91.282         67.217         27.173         36.493
         9387.5          8.361         81.146         64.317         40.392         56.905
         9388.0          8.363         71.009         61.416         56.511        121.677
         9388.5          8.366         60.872         58.978         73.283        186.450
         9389.0          8.369         56.056         57.770         84.963        209.225
         9389.5          8.371         54.048         56.562         95.630        203.808
         9390.0          8.354         52.040         56.082         85.074        168.579
         9390.5          8.337         50.032         56.533         57.677        111.527
         9391.0          8.321         54.252         57.654         47.058         59.428
         9391.5          8.304         58.545         60.526         40.415         64.221
         9392.0          8.287         69.713         63.943         35.420         58.150
         9392.5          8.270         85.027         66.476         27.508         42.998
         9393.0          8.260         98.608         67.991         21.625         27.846
         9393.5          8.260        105.325         68.988         18.438         21.350
         9394.0          8.260        104.891         70.304         17.134         22.471
         9394.5          8.260        102.730         70.744         16.855         23.592
         9395.0          8.260        103.968         70.573         17.415         21.299
         9395.5          8.260        116.274         70.534         16.893         18.935
         9396.0          8.260        141.512         72.140         15.588         17.631
         9396.5          8.260        205.191         74.735         13.623         15.719
         9397.0          8.260        280.512         76.792         10.354         12.635
         9397.5          8.260        266.516         76.684          8.882          9.551
         9398.0          8.260        222.492         75.708          9.686         15.812
         9398.5          8.260        178.469         72.334         17.743         23.173
         9399.0          8.260        137.399         68.697         21.440         24.557
         9399.5          8.260        101.225         65.060         21.865         25.920
         9400.0          8.260         81.305         62.894         22.817         28.131
         9400.5          8.260         76.993         62.447         26.772         34.025
         9401.0          8.260         73.347         62.347         30.625         39.919
         9401.5          8.260         70.006         62.256         34.392         45.814
         9402.0          8.260         66.812         62.241         38.160         48.027
         9402.5          8.260         68.871         62.462         36.366         47.504
         9403.0          8.260         70.930         62.580         33.482         43.458
         9403.5          8.274         72.989         62.043         30.605         39.411
         9404.0          8.296         73.652         61.094         27.727         36.521
         9404.5          8.318         70.939         60.144         29.519         34.617
         9405.0          8.340         65.474         59.253         30.184         32.714
         9405.5          8.353         60.010         58.815         26.863         28.919
         9406.0          8.352         59.395         58.992         23.585         24.084
         9406.5          8.352         63.324         59.734         23.758         23.242
         9407.0          8.351         67.253         61.300         21.714         23.475
         9407.5          8.350         72.474         62.961         21.398         23.707
         9408.0          8.350         85.125         65.950         19.756         22.872
         9408.5          8.349        112.384         70.336         16.466         18.546
         9409.0          8.348        139.643         72.936         11.665         14.219
         9409.5          8.348        213.993         75.266          9.070          9.893
         9410.0          8.347        237.533         76.303          7.766          9.575
         9410.5          8.346        200.728         76.344         11.430         13.978
