###############################################
##         ENVERUS                           ##
##         ESS - Open Hole                   ##
##         PERMIAN / DELAWARE                ##
##         Nov 04 2023  V4.0                 ##
##         42-389-30424-00-00                ##
###############################################
## Copyright 2017-2023  ENVERUS.  All Rights Reserved. 
## Confidential - Property of ENVERUS, use governed by terms and 
## conditions found within the existing Information Services Subscription Agreement 
## (as may be amended, the “ISSA”) between Customer and ENVERUS. 
## 
~VERSION INFORMATION
# MNEM.UNIT                               DATA : DESCRIPTION OF MNEMONIC
#-----.-----     ----------------------------- : -----------------------------
VERS.                                     2.00 : CWLS LOG ASCII STANDARD - VERSION 2.00
WRAP.                                       NO : MULTIPLE LINES PER DEPTH STEP
VEND.                                  ENVERUS : VENDOR
TYPE.                          ESS - OPEN HOLE : ENVERUS ESSENTIAL CURVES – ACCESSIBLE THROUGH ENVERUS PRISM(TM)
DOC.                                  32008121 : ENVERUS HEADER RAW DOCUMENT ID
#___________________________________________________________________________________________________ 
~WELL INFORMATION 
# BBd8zmUYmd+wUdICSlYDIOWaOe8iOeA0ELK9EhSbx74Kr6OX4zJxS/eo6cO6KK5SWMTSkVzaKbU2EBBfROvOKA== 
# MNEM.UNIT                                              DATA : DESCRIPTION OF MNEMONIC 
#-----.-----                    ----------------------------- : ----------------------------- 
CNTY.                                                  REEVES : COUNTY 
STATE.                                                  TEXAS : STATE 
CNTRY.                                                    USA : COUNTRY 
API.                                             42-389-30424 : API (10 Digit) 
API_14.                                    42-389-30424-00-00 : API (14 Digits) 
API_14_std.                                 42-389-30424-0000 : API (14 Digits Standard) 
UWI.                                           42389304240000 : UNIQUE WELL ID 
WELL.                                      LEWELLING STATE  1 : WELL NAME
STRT.FT                                                   7.0 : START DEPTH
STOP.FT                                               15912.0 : STOP DEPTH
STEP.FT                                                   0.5 : STEP BETWEEN DEPTHS
NULL.                                                 -999.25 : NULL VALUE
COMP.                           PENN VIRGINIA OIL & GAS CORP. : COMPANY 
DATE.                                             14-AUG-1976 : LOG DATE
#___________________________________________________________________________________________________ 
~CURVE INFORMATION 
# MNEM.UNIT           : CURVE DESCRIPTION 
#-----.-----          : ----------------------------- 
 DEPT.FT               : MEASURED DEPTH 
 CALI__A.IN            : CALIPER (CAL - CAL) 
 GR__A.API             : GAMMA RAY (GR) 
 DT__A.US/FT           : SONIC DELTA TRANSIT TIME (DT) 
 DPHI__A.V/V           : DENSITY POROSITY (DPHI) 
 NPHI__A.V/V           : NEUTRON POROSITY (NPHI) 
 #___________________________________________________________________________________________________ 
~A         DEPT        CALI__A          GR__A          DT__A        DPHI__A        NPHI__A
# ...
         2779.0       -999.250         10.957         56.279     -999.25000     -999.25000
         2779.5       -999.250         10.954         56.054     -999.25000     -999.25000
         2780.0       -999.250         10.952         55.919     -999.25000     -999.25000
         2780.5       -999.250         10.950         55.857     -999.25000     -999.25000
         2781.0       -999.250         10.948         55.796     -999.25000     -999.25000
         2781.5       -999.250         10.946         55.734     -999.25000     -999.25000
         2782.0       -999.250         10.944         55.719     -999.25000     -999.25000
         2782.5       -999.250         10.942         56.174     -999.25000     -999.25000
         2783.0       -999.250         10.939         57.482     -999.25000     -999.25000
         2783.5       -999.250         10.937         55.484     -999.25000     -999.25000
         2784.0       -999.250         10.935         55.957     -999.25000     -999.25000
         2784.5       -999.250         11.107         57.500     -999.25000     -999.25000
         2785.0       -999.250         11.336         63.637     -999.25000     -999.25000
         2785.5       -999.250         11.566         63.979     -999.25000     -999.25000
         2786.0       -999.250         11.795         57.137     -999.25000     -999.25000
         2786.5       -999.250         12.025         58.985     -999.25000     -999.25000
         2787.0       -999.250         12.255         65.326     -999.25000     -999.25000
         2787.5       -999.250         12.484         63.903     -999.25000     -999.25000
         2788.0       -999.250         12.714         63.713     -999.25000     -999.25000
         2788.5       -999.250         12.943         67.756     -999.25000     -999.25000
         2789.0       -999.250         13.173         68.975     -999.25000     -999.25000
         2789.5       -999.250         13.402         68.947     -999.25000     -999.25000
         2790.0       -999.250         13.632         57.787     -999.25000     -999.25000
         2790.5       -999.250         13.822         57.152     -999.25000     -999.25000
         2791.0       -999.250         13.172         56.517     -999.25000     -999.25000
         2791.5       -999.250         12.522         56.981     -999.25000     -999.25000
         2792.0       -999.250         11.872         57.761     -999.25000     -999.25000
         2792.5       -999.250         11.383         61.611     -999.25000     -999.25000
         2793.0       -999.250         11.811         56.315     -999.25000     -999.25000
         2793.5       -999.250         12.239         56.528     -999.25000     -999.25000
         2794.0       -999.250         12.668         56.926     -999.25000     -999.25000
         2794.5       -999.250         13.096         57.150     -999.25000     -999.25000
         2795.0       -999.250         13.281         56.426     -999.25000     -999.25000
         2795.5       -999.250         12.774         56.259     -999.25000     -999.25000
         2796.0       -999.250         12.268         56.451     -999.25000     -999.25000
         2796.5       -999.250         11.761         56.597     -999.25000     -999.25000
         2797.0       -999.250         11.255         56.479     -999.25000     -999.25000
         2797.5       -999.250         10.748         56.361     -999.25000     -999.25000
         2798.0       -999.250         10.511         56.244     -999.25000        0.28409
         2798.5       -999.250         10.653         56.126     -999.25000        0.27476
         2799.0       -999.250         10.794         56.008     -999.25000        0.25183
         2799.5       -999.250         10.936         55.890     -999.25000        0.24056
         2800.0       -999.250         11.078         55.827     -999.25000        0.23845
         2800.5       -999.250         11.219         55.791     -999.25000        0.28391
         2801.0       -999.250         11.361         55.755     -999.25000        0.31557
         2801.5       -999.250         11.502         55.689     -999.25000        0.34149
         2802.0       -999.250         11.644         55.586     -999.25000        0.36741
         2802.5       -999.250         11.754         55.483     -999.25000        0.38104
         2803.0       -999.250         11.844         55.383     -999.25000        0.37801
         2803.5       -999.250         11.934         55.416     -999.25000        0.37866
         2804.0       -999.250         12.024         55.449     -999.25000        0.39960
         2804.5       -999.250         12.116         55.482     -999.25000        0.44153
         2805.0       -999.250         12.244         55.389     -999.25000        0.46879
         2805.5       -999.250         12.371         55.118     -999.25000        0.47931
         2806.0       -999.250         12.498         54.846     -999.25000        0.48982
         2806.5       -999.250         12.626         54.672     -999.25000        0.48422
         2807.0       -999.250         12.753         55.008     -999.25000        0.47003
         2807.5       -999.250         12.881         55.345     -999.25000        0.43845
         2808.0       -999.250         12.877         55.489     -999.25000        0.41594
         2808.5       -999.250         12.766         55.460     -999.25000        0.41173
         2809.0       -999.250         12.655         55.431     -999.25000        0.41218
         2809.5       -999.250         12.545         55.403     -999.25000        0.41431
         2810.0       -999.250         12.924         55.374     -999.25000        0.42555
         2810.5       -999.250         13.243         55.345     -999.25000        0.42997
         2811.0       -999.250         12.942         55.379     -999.25000        0.42639
         2811.5       -999.250         12.641         55.489     -999.25000        0.41695
         2812.0       -999.250         12.340         55.600     -999.25000        0.41740
         2812.5       -999.250         12.163         55.651     -999.25000        0.43332
         2813.0       -999.250         12.913         55.503     -999.25000        0.45312
         2813.5       -999.250         13.663         55.355     -999.25000        0.48096
         2814.0       -999.250         14.413         55.206     -999.25000        0.48814
         2814.5       -999.250         14.980         55.058     -999.25000        0.49531
         2815.0       -999.250         14.812         55.035     -999.25000        0.50249
         2815.5       -999.250         14.644         55.156     -999.25000        0.50586
         2816.0       -999.250         14.477         55.277     -999.25000        0.50221
         2816.5       -999.250         14.309         55.398     -999.25000        0.49857
         2817.0       -999.250         14.141         55.520     -999.25000        0.48324
         2817.5       -999.250         13.973         55.641     -999.25000        0.45248
         2818.0       -999.250         13.805         55.663     -999.25000        0.42171
         2818.5       -999.250         13.637         55.619     -999.25000        0.40799
         2819.0       -999.250         13.469         55.575     -999.25000        0.41971
         2819.5       -999.250         13.301         55.531     -999.25000        0.44409
         2820.0       -999.250         13.133         55.487     -999.25000        0.46846
         2820.5       -999.250         12.965         55.443     -999.25000        0.46684
         2821.0       -999.250         12.940         55.399     -999.25000        0.44269
         2821.5       -999.250         13.050         55.355     -999.25000        0.41841
         2822.0       -999.250         13.160         55.333     -999.25000        0.41124
         2822.5       -999.250         13.270         55.325     -999.25000        0.44140
