###############################################
##         ENVERUS                           ##
##         ESS - Open Hole                   ##
##         PERMIAN / DELAWARE                ##
##         Nov 04 2023  V4.0                 ##
##         42-389-32421-01-00                ##
###############################################
## Copyright 2017-2023  ENVERUS.  All Rights Reserved. 
## Confidential - Property of ENVERUS, use governed by terms and 
## conditions found within the existing Information Services Subscription Agreement 
## (as may be amended, the “ISSA”) between Customer and ENVERUS. 
## 
~VERSION INFORMATION
# MNEM.UNIT                               DATA : DESCRIPTION OF MNEMONIC
#-----.-----     ----------------------------- : -----------------------------
VERS.                                     2.00 : CWLS LOG ASCII STANDARD - VERSION 2.00
WRAP.                                       NO : MULTIPLE LINES PER DEPTH STEP
VEND.                                  ENVERUS : VENDOR
TYPE.                          ESS - OPEN HOLE : ENVERUS ESSENTIAL CURVES – ACCESSIBLE THROUGH ENVERUS PRISM(TM)
DOC.                                  51226874 : ENVERUS HEADER RAW DOCUMENT ID
#___________________________________________________________________________________________________ 
~WELL INFORMATION 
# Tb73rb1SL3MkDZoC3l18/hn1AqNnLhXquKbAWMIBLpWCEGQs+cUq/9XFz1I3dh1trdNBSXyPtAuUBW0L3ONtkQ== 
# MNEM.UNIT                                              DATA : DESCRIPTION OF MNEMONIC 
#-----.-----                    ----------------------------- : ----------------------------- 
CNTY.                                                  REEVES : COUNTY 
STATE.                                                  TEXAS : STATE 
CNTRY.                                                    USA : COUNTRY 
API.                                             42-389-32421 : API (10 Digit) 
API_14.                                    42-389-32421-01-00 : API (14 Digits) 
API_14_std.                                 42-389-32421-0100 : API (14 Digits Standard) 
UWI.                                           42389324210100 : UNIQUE WELL ID 
WELL.                                      ARMSTRONG STATE  1 : WELL NAME
STRT.FT                                                 182.0 : START DEPTH
STOP.FT                                               14775.0 : STOP DEPTH
STEP.FT                                                   0.5 : STEP BETWEEN DEPTHS
NULL.                                                 -999.25 : NULL VALUE
PREV_UWI.                                      42389324210000 : UNIQUE WELL ID 
PREV_API.                                      42389324210000 : API NUMBER 
COMP.                                    STALEY OPERATING CO. : COMPANY 
DATE.                                             26-JUN-2006 : LOG DATE
#___________________________________________________________________________________________________ 
~CURVE INFORMATION 
# MNEM.UNIT           : CURVE DESCRIPTION 
#-----.-----          : ----------------------------- 
 DEPT.FT               : MEASURED DEPTH 
 CALI__A.IN            : CALIPER (CAL - CAL) 
 GR__A.API             : GAMMA RAY (GR) 
 DT__A.US/FT           : SONIC DELTA TRANSIT TIME (DT) 
 DPHI__A.V/V           : DENSITY POROSITY (DPHI) 
 NPHI__A.V/V           : NEUTRON POROSITY (NPHI) 
 RHOB__A.G/CC          : BULK DENSITY (RHOB) 
 #___________________________________________________________________________________________________ 
~A         DEPT        CALI__A          GR__A          DT__A        DPHI__A        NPHI__A        RHOB__A
# ...
        12190.0          9.174        108.942         64.527        0.00441        0.12364         2.7020
        12190.5          9.238        108.941         64.387        0.01382        0.12730         2.6930
        12191.0          9.242        108.160         63.921        0.01942        0.12924         2.6840
        12191.5          9.246        106.920         63.454        0.01756        0.12465         2.6750
        12192.0          9.250        105.681         62.987        0.00809        0.11494         2.6870
        12192.5          9.300        104.742         62.805        0.00792        0.11535         2.6980
        12193.0          9.361        105.887         63.435        0.01920        0.11904         2.6920
        12193.5          9.423        107.031         64.065        0.01780        0.12348         2.6810
        12194.0          9.321        108.242         64.695        0.02494        0.13269         2.6700
        12194.5          9.187        109.720         64.694        0.02129        0.14190         2.6740
        12195.0          9.053        111.198         64.578        0.01905        0.14737         2.6980
        12195.5          8.919        109.840         64.462        0.00357        0.14805         2.7220
        12196.0          8.957        107.065         64.345       -0.00532        0.14340         2.7170
        12196.5          9.031        104.289         64.220        0.00163        0.13717         2.7060
        12197.0          9.104        103.599         64.095        0.00857        0.13562         2.6980
        12197.5          9.178        103.598         63.922        0.00546        0.13805         2.7080
        12198.0          9.249        102.433         63.740        0.00072        0.14220         2.7120
        12198.5          9.252        100.517         63.558        0.00621        0.14384         2.7020
        12199.0          9.255         98.633         63.609        0.01959        0.13822         2.6920
        12199.5          9.259         98.990         63.760        0.02411        0.13109         2.6830
        12200.0          9.227         99.347         63.910        0.02036        0.13189         2.6730
        12200.5          9.113         99.181         63.877        0.01661        0.13934         2.6980
        12201.0          8.999         97.021         63.810        0.01088        0.14299         2.6980
        12201.5          8.900         98.855         63.743        0.00879        0.14508         2.6980
        12202.0          8.862        100.745         63.676        0.00879        0.14717         2.6990
        12202.5          8.824        104.165         63.941        0.00742        0.15021         2.6990
        12203.0          8.787        107.585         64.466        0.01322        0.15510         2.6910
        12203.5          8.843        109.027         64.991        0.02190        0.15825         2.6840
        12204.0          8.938        108.479         65.515        0.04901        0.15704         2.6470
        12204.5          9.033        107.932         66.040        0.09738        0.14157         2.5790
        12205.0          9.127        106.254         66.565        0.12271        0.13917         2.5110
        12205.5          9.194        104.537         67.089        0.12433        0.13936         2.4680
        12206.0          9.239        103.755         66.818        0.12595        0.13797         2.5150
        12206.5          9.285        104.171         66.256        0.10490        0.13659         2.5910
        12207.0          9.163        104.587         65.960        0.02294        0.13520         2.6670
        12207.5          9.040        104.652         66.006       -0.01619        0.13381         2.7430
        12208.0          8.916        102.285         66.051       -0.03061        0.13243         2.7510
        12208.5          8.749         99.918         65.904        0.00333        0.13104         2.7180
        12209.0          8.697         99.647         65.305        0.03122        0.14959         2.6850
        12209.5          8.671        102.168         64.705        0.01689        0.16835         2.6530
        12210.0          8.646        105.825         65.240        0.00257        0.17937         2.6780
        12210.5          8.648        108.498         67.279       -0.00401        0.17693         2.7030
        12211.0          8.695        110.576         67.770        0.00277        0.16993         2.7150
        12211.5          8.743        112.654         67.724        0.00924        0.17208         2.7020
        12212.0          8.791        114.024         67.679        0.01126        0.17518         2.6900
        12212.5          8.839        111.664         67.242        0.00917        0.17532         2.6920
        12213.0          8.844        104.219         66.682        0.00665        0.16932         2.6980
        12213.5          8.799         98.837         66.829        0.00413        0.15971         2.7030
        12214.0          8.753         96.175         66.977        0.00161        0.15219         2.7070
        12214.5          8.708         97.130         67.125        0.01749        0.14591         2.6740
        12215.0          8.759         98.574         67.273        0.03564        0.14602         2.6420
        12215.5          8.812        100.017         67.403        0.03967        0.15290         2.6340
        12216.0          9.157        101.460         67.494        0.02933        0.16745         2.6480
        12216.5          9.588        103.724         67.586        0.03301        0.18401         2.6540
        12217.0          9.746        106.211         67.605        0.04393        0.18631         2.6360
        12217.5          9.303        107.758         67.281        0.04953        0.18029         2.6360
        12218.0          8.860        106.511         66.957        0.03317        0.16681         2.6610
        12218.5          8.600        105.264         66.633        0.01028        0.16254         2.6860
        12219.0          8.543        104.631         66.310       -0.00245        0.15810         2.7110
        12219.5          8.485        104.236         66.201        0.00578        0.15348         2.7120
        12220.0          8.486        103.840         66.579        0.01401        0.15412         2.6990
        12220.5          8.544        103.999         66.956        0.01655        0.15674         2.6860
        12221.0          8.555        106.211         67.333        0.01659        0.15634         2.6860
        12221.5          8.545        108.424         67.375        0.01010        0.15154         2.6920
        12222.0          8.535        110.157         67.315        0.00764        0.14822         2.6970
        12222.5          8.526        107.345         66.974        0.01058        0.15398         2.7020
        12223.0          8.516        105.588         66.632        0.02407        0.15651         2.6860
        12223.5          8.506        105.869         66.291        0.03166        0.15864         2.6700
        12224.0          8.497        106.149         65.950        0.03029        0.16021         2.6560
        12224.5          8.487        106.430         65.609        0.02430        0.16218         2.6680
        12225.0          8.523        110.442         65.268        0.01831        0.16415         2.6790
        12225.5          8.619        115.189         65.571        0.01128        0.16612         2.6910
        12226.0          8.716        116.471         65.962        0.00194        0.16809         2.7030
        12226.5          8.812        117.296         66.229       -0.00131        0.16327         2.7100
        12227.0          8.908        114.927         66.230        0.00916        0.15676         2.6990
        12227.5          9.005        111.424         66.230        0.01795        0.15182         2.6880
