###############################################
##         ENVERUS                           ##
##         ESS - Open Hole                   ##
##         PERMIAN / DELAWARE                ##
##         Nov 04 2023  V4.0                 ##
##         42-389-30422-00-00                ##
###############################################
## Copyright 2017-2023  ENVERUS.  All Rights Reserved. 
## Confidential - Property of ENVERUS, use governed by terms and 
## conditions found within the existing Information Services Subscription Agreement 
## (as may be amended, the “ISSA”) between Customer and ENVERUS. 
## 
~VERSION INFORMATION
# MNEM.UNIT                               DATA : DESCRIPTION OF MNEMONIC
#-----.-----     ----------------------------- : -----------------------------
VERS.                                     2.00 : CWLS LOG ASCII STANDARD - VERSION 2.00
WRAP.                                       NO : MULTIPLE LINES PER DEPTH STEP
VEND.                                  ENVERUS : VENDOR
TYPE.                          ESS - OPEN HOLE : ENVERUS ESSENTIAL CURVES – ACCESSIBLE THROUGH ENVERUS PRISM(TM)
DOC.                                  31749874 : ENVERUS HEADER RAW DOCUMENT ID
#___________________________________________________________________________________________________ 
~WELL INFORMATION 
# u82sU1u0B8de5w9HEAjaYOtqLlVzfD+KUeD2ZoqivGgiUzwSeb1LYInaR9MNeJxDUIxxjb7EPbXz9g+KH10l6Q== 
# MNEM.UNIT                                              DATA : DESCRIPTION OF MNEMONIC 
#-----.-----                    ----------------------------- : ----------------------------- 
CNTY.                                                  REEVES : COUNTY 
STATE.                                                  TEXAS : STATE 
CNTRY.                                                    USA : COUNTRY 
API.                                             42-389-30422 : API (10 Digit) 
API_14.                                    42-389-30422-00-00 : API (14 Digits) 
API_14_std.                                 42-389-30422-0000 : API (14 Digits Standard) 
UWI.                                           42389304220000 : UNIQUE WELL ID 
WELL.                                    BECKHAM  AGNES 26  1 : WELL NAME
STRT.FT                                                  89.0 : START DEPTH
STOP.FT                                               15719.0 : STOP DEPTH
STEP.FT                                                   0.5 : STEP BETWEEN DEPTHS
NULL.                                                 -999.25 : NULL VALUE
COMP.                                     WALSH & WATTS  INC. : COMPANY
#___________________________________________________________________________________________________ 
~CURVE INFORMATION 
# MNEM.UNIT           : CURVE DESCRIPTION 
#-----.-----          : ----------------------------- 
 DEPT.FT               : MEASURED DEPTH 
 CALI.IN               : CALIPER (CAL - CAL) 
 GR.API                : GAMMA RAY (GR) 
 DT.US/FT              : SONIC DELTA TRANSIT TIME (DT) 
 #___________________________________________________________________________________________________ 
~A         DEPT           CALI             GR             DT
# ...
        14741.0          9.829         91.824         90.789
        14741.5          9.831         89.911         90.550
        14742.0          9.833         87.997         90.312
        14742.5          9.835         86.083         90.073
        14743.0          9.836         86.713         89.835
        14743.5          9.838         88.183         89.735
        14744.0          9.827         89.654         89.874
        14744.5          9.816         91.125         90.013
        14745.0          9.804         92.595         90.151
        14745.5          9.793         94.066         90.290
        14746.0          9.782         95.234         90.429
        14746.5          9.770         94.523         90.568
        14747.0          9.759         93.813         90.707
        14747.5          9.748         93.102         90.800
        14748.0          9.736         92.392         90.599
        14748.5          9.738         91.682         90.398
        14749.0          9.754         90.971         90.196
        14749.5          9.770         91.774         89.995
        14750.0          9.787         93.022         89.895
        14750.5          9.803         94.270         90.097
        14751.0          9.819         95.517         90.298
        14751.5          9.835         96.765         90.499
        14752.0          9.852         98.013         90.700
        14752.5          9.868         99.260         90.901
        14753.0          9.850        100.508         91.103
        14753.5          9.791         99.826         91.075
        14754.0          9.731         96.031         90.998
        14754.5          9.672         92.236         90.921
        14755.0          9.612         88.441         90.844
        14755.5          9.553         84.646         90.767
        14756.0          9.494         82.970         90.690
        14756.5          9.478         84.013         90.614
        14757.0          9.463         85.056         90.537
        14757.5          9.447         86.099         90.460
        14758.0          9.431         87.143         90.383
        14758.5          9.416         88.186         90.306
        14759.0          9.400         89.229         90.229
        14759.5          9.384         91.721         90.153
        14760.0          9.369         93.295         90.076
        14760.5          9.353         94.869         89.999
        14761.0          9.337         96.443         89.950
        14761.5          9.323         98.018         90.034
        14762.0          9.341         98.588         90.118
        14762.5          9.359         98.442         90.202
        14763.0          9.377         98.296         90.286
        14763.5          9.395         98.149         90.370
        14764.0          9.413         97.585         90.454
        14764.5          9.430         97.003         90.538
        14765.0          9.448         96.421         90.622
        14765.5          9.466         95.839         90.706
        14766.0          9.484         95.258         90.790
        14766.5          9.502         94.676         90.874
        14767.0          9.514         94.094         90.877
        14767.5          9.519         93.934         90.724
        14768.0          9.525         94.497         90.571
        14768.5          9.531         95.059         90.418
        14769.0          9.536         95.622         90.265
        14769.5          9.542         96.185         90.112
        14770.0          9.547         96.748         89.959
        14770.5          9.553         97.310         89.806
        14771.0          9.559         97.873         89.806
        14771.5          9.564         97.349         89.994
        14772.0          9.570         96.152         90.182
        14772.5          9.576         94.956         90.370
        14773.0          9.581         93.760         90.558
        14773.5          9.587         92.564         90.708
        14774.0          9.592         91.368         90.690
        14774.5          9.605         90.171         90.671
        14775.0          9.618         88.975         90.653
        14775.5          9.631         87.779         90.635
        14776.0          9.644         85.537         90.616
        14776.5          9.658         82.349         90.598
        14777.0          9.671         79.161         90.580
        14777.5          9.684         79.404         90.561
        14778.0          9.697         80.254         90.543
        14778.5          9.710         81.105         90.525
        14779.0          9.723         81.956         90.506
        14779.5          9.736         82.806         90.496
        14780.0          9.749         84.752         90.517
        14780.5          9.762         95.843         90.537
        14781.0          9.775        106.933         90.557
        14781.5          9.788        118.023         90.578
        14782.0          9.801        122.388         90.598
        14782.5          9.814        121.170         90.618
        14783.0          9.848        119.952         90.639
        14783.5          9.910        110.175         90.659
        14784.0          9.973         98.013         90.679
        14784.5         10.035         98.176         90.699
        14785.0         10.098        101.282         90.720
        14785.5         10.160        104.388         90.740
        14786.0         10.188        107.494         90.760
        14786.5         10.148        110.600         90.781
        14787.0         10.107        113.846         90.801
        14787.5         10.067        117.166         90.869
        14788.0         10.026        120.485         90.955
        14788.5          9.985        123.804         94.938
        14789.0          9.945        121.837         99.127
        14789.5          9.904        118.329        100.575
        14790.0          9.864        114.558        101.668
        14790.5          9.823        108.896        102.761
        14791.0          9.863        104.578        103.594
        14791.5          9.914        103.443        102.766
        14792.0          9.965        102.309        101.939
        14792.5         10.015        101.175        101.111
        14793.0         10.066        100.040        100.284
        14793.5         10.117         98.906         99.605
        14794.0         10.167         98.139         99.045
        14794.5         10.247         98.029         98.486
        14795.0         10.333         97.918         97.926
        14795.5         10.420         97.808         97.366
        14796.0         10.506         97.698         96.806
        14796.5         10.593         97.587         96.246
        14797.0         10.679         97.477         95.687
        14797.5         10.699         97.244         99.563
        14798.0         10.689         95.857         98.794
        14798.5         10.679         94.471         98.025
        14799.0         10.670         93.084         97.256
        14799.5         10.660         91.698         96.487
        14800.0         10.650         90.311         95.718
        14800.5         10.641         88.925         94.949
        14801.0         10.631         87.538         94.180
        14801.5         10.622         91.022         93.411
        14802.0         10.581         94.506         92.642
        14802.5         10.527         97.991         92.531
        14803.0         10.473        101.476         93.342
        14803.5         10.419        104.960         94.154
        14804.0         10.365        108.265         94.965
        14804.5         10.311        111.268         95.776
        14805.0         10.257        113.787         96.587
        14805.5         10.203        114.655         97.398
        14806.0         10.149        115.522         98.209
        14806.5         10.095        116.390         99.020
