#--------------------------------------------------#
#-------------------ENVERUS, INC.------------------#
#------------------WWW.ENVERUS.COM-----------------#
#------------------COPYRIGHT 2020------------------#
#--------------------------------------------------#
#THIS FILE MAY BE USED ONLY IN ACCORDANCE WITH A CURRENT SUBSCRIPTION AGREEMENT BETWEEN
#THE USER AND ENVERUS, INC. NO PART OF THIS FILE MAY BE REPRODUCED, USED, COPIED,
#MODIFIED, PROPAGATED, OR DISTRIBUTED EXCEPT IN ACCORDANCE WITH THE SUBSCRIPTION
#AGREEMENT. UNAUTHORIZED USE OR DISTRIBUTION OF ALL OR ANY PART OF THIS FILE MAY VIOLATE
#COPYRIGHT, TRADEMARK, AND/OR OTHER LAWS AND IS SUBJECT TO CIVIL AS WELL AS CRIMINAL
#SANCTIONS.
#--------------------------------------------------#
#THIS FILE IS PROVIDED "AS-IS" AND ALL WARRANTIES ARE EXPRESSLY DISCLAIMED, WHETHER
#EXPRESS, ORAL, IMPLIED, STATUTORY OR OTHERWISE, INCLUDING ANY IMPLIED WARRANTY OF FITNESS
#FOR A PARTICULAR PURPOSE, MERCHANTABILITY, TITLE OR NON-INFRINGEMENT, AND ANY WARRANTIES
#ARISING BY VIRTUE OF CUSTOM OF TRADE OR COURSE OF DEALING.  FURTHER, ENVERUS, INC.
#AND ITS LICENSORS DO NOT REPRESENT OR WARRANT THAT THIS FILE WILL MEET USER'S
#REQUIREMENTS OR ARE SUITABLE FOR USER'S NEEDS OR THAT THE DATA OR RESULTS PROVIDED IN
#CONJUNCTION THEREWITH ARE CORRECT, ACCURATE, TIMELY OR RELIABLE. THESE DISCLAIMERS SHALL
#APPLY REGARDLESS OF ANY FAILURE OF ESSENTIAL PURPOSE OF ANY LIMITED REMEDY.  SOME
#JURISDICTIONS DO NOT ALLOW THE EXCLUSION OF CERTAIN WARRANTIES SO SOME OF THE ABOVE
#EXCLUSIONS MAY NOT APPLY. IN NO EVENT SHALL ENVERUS, INC. OR ANY OF ITS AFFILIATES
#BE LIABLE UNDER ANY LEGAL THEORY, WHETHER IN TORT (INCLUDING WITHOUT LIMITATION
#NEGLIGENCE), CONTRACT, STRICT LIABILITY, STATUTORY OR OTHERWISE, FOR ANY SPECIAL,
#INCIDENTAL, CONSEQUENTIAL, EXEMPLARY, PUNITIVE OR INDIRECT DAMAGE OF ANY KIND, INCLUDING
#WITHOUT LIMITATION LOSS OF REVENUE, PROFITS, GOODWILL, USE, AND/OR DATA OR THE COST OF
#PROCUREMENT OF SUBSTITUTE GOODS OR SERVICES, EVEN IF APPRISED OF THE POSSIBILITY OF SUCH
#DAMAGES IN ADVANCE.
#--------------------------------------------------#

~VERSION INFORMATION
VERS. 2.0 : CWLS LOG ASCII STANDARD - VERSION 2.0
WRAP.  NO : ONE LINE PER DEPTH STEP
~WELL INFORMATION
#MNEMONIC     .UNIT              VALUE :DESCRIPTION
STRT       .FT                0 :START DEPTH
STOP       .FT                15770 :STOP DEPTH
STEP       .FT                   0.500 :STEP
NULL       .                  -999.250 :NULL
UWI        .              42389309020000 :UNIQUE WELL ID
API        .              42389309020000 :API NUMBER
COMP       .         WALSH & WATTS  INC. :COMPANY
WELL       .        SABRE  1WS :WELL
DATE       .                28-JAN-1987 :LOG DATE
~CURVE INFORMATION
#MNEMONIC     .UNIT      API CODE :CURVE DESCRIPTION
DEPTH       .FT                      :MEASURED DEPTH
CAL.INCH        UNKNOWN   :CAL
DT.US/FT        UNKNOWN   :DT
GR.API        UNKNOWN   :GR
~A    DEPTH    CAL    DT    GR
# ...
 9403.5     12.736   72.42   74.024
 9404     12.735   72.034   74.524
 9404.5     12.733   72.455   75.025
 9405     12.732   73.086   70.541
 9405.5     12.731   73.718   65.706
 9406     12.73   73.715   61.508
 9406.5     12.729   70.816   64.597
 9407     12.728   70.076   67.686
 9407.5     12.727   71.439   70.398
 9408     12.726   72.803   71.539
 9408.5     12.725   74.167   72.68
 9409     12.724   74.97   73.82
 9409.5     12.723   74.998   73.689
 9410     12.721   75.025   70.122
 9410.5     12.72   73.614   65.901
 9411     12.719   70.205   64.569
 9411.5     12.718   67.9   66.753
 9412     12.717   66.984   72.49
 9412.5     12.716   68.144   78.753
 9413     12.715   71.432   84.056
 9413.5     12.714   74.72   87.119
 9414     12.713   75.916   85.37
 9414.5     12.712   77.804   78.306
 9415     12.717   79.386   71.792
 9415.5     12.721   76.575   66.356
 9416     12.726   73.764   60.921
 9416.5     12.73   70.952   57.635
 9417     12.735   69.57   58.049
 9417.5     12.74   69.571   60.341
 9418     12.744   69.293   62.67
 9418.5     12.749   68.743   64.999
 9419     12.753   68.603   65.938
 9419.5     12.758   66.804   63.923
 9420     12.763   67.016   62.075
 9420.5     12.767   66.922   60.632
 9421     12.772   66.174   59.422
 9421.5     12.776   67.634   58.847
 9422     12.781   69.095   56.052
 9422.5     12.786   70.555   54.323
 9423     12.79   70.675   58.932
 9423.5     12.795   70.32   62.473
 9424     12.8   70.734   64.052
 9424.5     12.804   71.121   65.423
 9425     12.809   70.674   68.568
 9425.5     12.813   70.226   72.795
 9426     12.818   69.779   73.579
 9426.5     12.823   70.83   74.363
 9427     12.827   72.35   75.353
 9427.5     12.831   73.424   76.783
 9428     12.835   73.969   79.235
 9428.5     12.839   74.514   81.147
 9429     12.842   75.059   78.139
 9429.5     12.846   75.603   75.131
 9430     12.85   70.83   72.123
 9430.5     12.853   68.979   69.115
 9431     12.857   69.567   73.458
 9431.5     12.861   72.136   80.892
 9432     12.864   74.706   85.264
 9432.5     12.868   76.167   86.343
 9433     12.872   76.062   86.477
 9433.5     12.875   77.136   88.216
 9434     12.879   78.319   86.728
 9434.5     12.883   78.46   81.805
 9435     12.886   77.711   72.718
 9435.5     12.89   75.259   63.631
 9436     12.894   71.756   54.544
 9436.5     12.898   66.974   52.75
 9437     12.901   62.808   57.786
 9437.5     12.905   62.817   63.807
 9438     12.909   65.769   68.601
 9438.5     12.912   69.831   71.028
 9439     12.916   72.721   72.511
 9439.5     12.92   73.141   73.225
 9440     12.916   73.485   71.974
 9440.5     12.91   73.829   68.379
 9441     12.903   73.387   64.479
 9441.5     12.897   73.313   64.567
 9442     12.891   73.7   69.732
 9442.5     12.885   74.654   78.809
 9443     12.879   75.716   74.169
 9443.5     12.872   75.631   67.11
 9444     12.866   74.897   62.924
 9444.5     12.86   72.678   63.385
 9445     12.854   69.25   67.159
 9445.5     12.847   68.586   70.933
 9446     12.841   69.269   73.245
 9446.5     12.835   71.026   72.347
 9447     12.829   72.784   71.449
 9447.5     12.823   73.545   70.551
 9448     12.816   74.28   69.653
 9448.5     12.81   73.321   66.919
 9449     12.804   71.016   66.122
 9449.5     12.798   69.016   66.117
 9450     12.792   69.063   66.716
 9450.5     12.785   69.67   67.807
 9451     12.779   71.414   69.333
 9451.5     12.773   72.814   70.858
 9452     12.767   73.07   72.383
 9452.5     12.761   73.388   73.743
 9453     12.754   73.706   70.543
 9453.5     12.748   74.024   67.057
 9454     12.742   74.144   61.969
 9454.5     12.736   73.502   57.397
 9455     12.733   66.844   58.093
 9455.5     12.731   65.175   62.639
 9456     12.729   64.977   68.799
 9456.5     12.727   65.862   74.959
 9457     12.725   68.431   78.17
 9457.5     12.723   72.867   77.502
 9458     12.721   72.778   76.684
 9458.5     12.719   72.688   75.865
 9459     12.717   72.883   71.878
 9459.5     12.715   74.002   68.049
 9460     12.712   73.985   64.481
 9460.5     12.71   72.615   60.912
 9461     12.708   71.776   64.921
 9461.5     12.706   72.55   69.703
 9462     12.704   73.363   69.499
 9462.5     12.702   74.177   62.776
 9463     12.7   72.13   55.229
 9463.5     12.698   68.611   44.019
 9464     12.696   65.091   41.898
 9464.5     12.694   60.108   47.607
 9465     12.692   59.832   59.753
 9465.5     12.69   63.132   65.091
 9466     12.688   66.431   66.02
 9466.5     12.686   69.824   65.567
 9467     12.684   72.584   65.794
 9467.5     12.682   72.68   67.358
 9468     12.68   72.777   68.812
 9468.5     12.678   73.384   61.33
 9469     12.676   73.728   52.271
 9469.5     12.673   72.729   49.782
 9470     12.671   72.278   48.658
 9470.5     12.669   72.303   50.354
 9471     12.667   73.193   51.497
 9471.5     12.665   73.083   51.703
 9472     12.663   72.957   55.883
 9472.5     12.661   72.971   63.056
 9473     12.659   73.131   75.07
 9473.5     12.657   75.604   76.16
 9474     12.655   77.658   69.644
 9474.5     12.653   77.595   61.291
 9475     12.651   75.857   52.938
 9475.5     12.649   73.736   52.875
 9476     12.647   71.63   53.62
 9476.5     12.645   71.631   56.703
 9477     12.643   71.632   60.036
 9477.5     12.641   71.7   63.369
 9478     12.639   71.955   66.251
 9478.5     12.637   72.21   67.268
 9479     12.634   72.274   68.284
 9479.5     12.632   72.848   69.301
 9480     12.63   73.61   70.154
 9480.5     12.628   74.372   68.686
 9481     12.626   70.052   64.939
 9481.5     12.624   70.053   69.649
 9482     12.622   72.31   76.99
 9482.5     12.62   75.805   84.33
 9483     12.618   79.061   84.424
 9483.5     12.616   79.389   72.854
 9484     12.614   78.062   61.162
 9484.5     12.612   76.736   49.469
 9485     12.611   74.522   47.556
 9485.5     12.609   72.256   45.894
 9486     12.607   71.148   45.057
 9486.5     12.606   71.091   46.48
 9487     12.604   71.035   48.772
 9487.5     12.602   70.68   50.673
 9488     12.6   70.241   52.112
 9488.5     12.599   70.151   51.777
 9489     12.597   70.152   51.443
 9489.5     12.595   69.954   50.504
 9490     12.594   69.59   47.905
 9490.5     12.592   66.313   45.199
 9491     12.59   62.349   42.404
 9491.5     12.588   58.417   42.392
 9492     12.587   61.351   43.768
 9492.5     12.585   65.091   59.988
 9493     12.583   68.831   67.743
 9493.5     12.582   72.572   73.838
 9494     12.58   75.593   79.825
 9494.5     12.578   76.051   84.86
 9495     12.577   76.508   87.755
 9495.5     12.575   76.287   92.063
 9496     12.573   77.332   96.281
 9496.5     12.571   78.913   99.926
 9497     12.57   80.494   100.431
 9497.5     12.568   80.242   97.456
 9498     12.566   75.428   89.543
 9498.5     12.565   73.606   78.27
 9499     12.563   73.407   71.977
 9499.5     12.561   67.856   66.51
 9500     12.56   67.654   62.006
 9500.5     12.558   67.452   63.996
 9501     12.556   67.483   71.536
 9501.5     12.554   70.767   79.076
 9502     12.553   74.622   85.902
 9502.5     12.551   77.848   92.182
 9503     12.549   78.408   96.041
 9503.5     12.548   78.968   96.339
 9504     12.546   79.528   87.169
 9504.5     12.544   75.542   76.159
 9505     12.543   71.501   73.99
 9505.5     12.541   70.625   79.017
 9506     12.539   71.991   84.625
 9506.5     12.537   73.739   83.573
 9507     12.536   75.488   75.544
 9507.5     12.534   72.696   65.969
 9508     12.532   69.801   63.21
 9508.5     12.531   68.604   62.871
 9509     12.529   70.673   71.693
 9509.5     12.527   72.742   80.244
 9510     12.526   73.228   82.107
 9510.5     12.524   73.832   83.97
 9511     12.522   74.619   85.755
 9511.5     12.52   74.823   82.589
 9512     12.523   76.47   75.467
 9512.5     12.53   76.076   66.183
 9513     12.536   72.509   57.144
 9513.5     12.543   69.17   52.504
 9514     12.549   65.832   47.866
 9514.5     12.556   60.758   52.632
 9515     12.562   59.884   57.397
 9515.5     12.569   61.405   60.004
