#--------------------------------------------------#
#-------------------ENVERUS, INC.------------------#
#------------------WWW.ENVERUS.COM-----------------#
#------------------COPYRIGHT 2020------------------#
#--------------------------------------------------#
#THIS FILE MAY BE USED ONLY IN ACCORDANCE WITH A CURRENT SUBSCRIPTION AGREEMENT BETWEEN
#THE USER AND ENVERUS, INC. NO PART OF THIS FILE MAY BE REPRODUCED, USED, COPIED,
#MODIFIED, PROPAGATED, OR DISTRIBUTED EXCEPT IN ACCORDANCE WITH THE SUBSCRIPTION
#AGREEMENT. UNAUTHORIZED USE OR DISTRIBUTION OF ALL OR ANY PART OF THIS FILE MAY VIOLATE
#COPYRIGHT, TRADEMARK, AND/OR OTHER LAWS AND IS SUBJECT TO CIVIL AS WELL AS CRIMINAL
#SANCTIONS.
#--------------------------------------------------#
#THIS FILE IS PROVIDED "AS-IS" AND ALL WARRANTIES ARE EXPRESSLY DISCLAIMED, WHETHER
#EXPRESS, ORAL, IMPLIED, STATUTORY OR OTHERWISE, INCLUDING ANY IMPLIED WARRANTY OF FITNESS
#FOR A PARTICULAR PURPOSE, MERCHANTABILITY, TITLE OR NON-INFRINGEMENT, AND ANY WARRANTIES
#ARISING BY VIRTUE OF CUSTOM OF TRADE OR COURSE OF DEALING.  FURTHER, ENVERUS, INC.
#AND ITS LICENSORS DO NOT REPRESENT OR WARRANT THAT THIS FILE WILL MEET USER'S
#REQUIREMENTS OR ARE SUITABLE FOR USER'S NEEDS OR THAT THE DATA OR RESULTS PROVIDED IN
#CONJUNCTION THEREWITH ARE CORRECT, ACCURATE, TIMELY OR RELIABLE. THESE DISCLAIMERS SHALL
#APPLY REGARDLESS OF ANY FAILURE OF ESSENTIAL PURPOSE OF ANY LIMITED REMEDY.  SOME
#JURISDICTIONS DO NOT ALLOW THE EXCLUSION OF CERTAIN WARRANTIES SO SOME OF THE ABOVE
#EXCLUSIONS MAY NOT APPLY. IN NO EVENT SHALL ENVERUS, INC. OR ANY OF ITS AFFILIATES
#BE LIABLE UNDER ANY LEGAL THEORY, WHETHER IN TORT (INCLUDING WITHOUT LIMITATION
#NEGLIGENCE), CONTRACT, STRICT LIABILITY, STATUTORY OR OTHERWISE, FOR ANY SPECIAL,
#INCIDENTAL, CONSEQUENTIAL, EXEMPLARY, PUNITIVE OR INDIRECT DAMAGE OF ANY KIND, INCLUDING
#WITHOUT LIMITATION LOSS OF REVENUE, PROFITS, GOODWILL, USE, AND/OR DATA OR THE COST OF
#PROCUREMENT OF SUBSTITUTE GOODS OR SERVICES, EVEN IF APPRISED OF THE POSSIBILITY OF SUCH
#DAMAGES IN ADVANCE.
#--------------------------------------------------#

~VERSION INFORMATION
VERS. 2.0 : CWLS LOG ASCII STANDARD - VERSION 2.0
WRAP.  NO : ONE LINE PER DEPTH STEP
~WELL INFORMATION
#MNEMONIC     .UNIT              VALUE :DESCRIPTION
STRT       .FT                0 :START DEPTH
STOP       .FT                15770 :STOP DEPTH
STEP       .FT                   0.500 :STEP
NULL       .                  -999.250 :NULL
UWI        .              42389309020000 :UNIQUE WELL ID
API        .              42389309020000 :API NUMBER
COMP       .         WALSH & WATTS  INC. :COMPANY
WELL       .        SABRE  1WS :WELL
DATE       .                28-JAN-1987 :LOG DATE
~CURVE INFORMATION
#MNEMONIC     .UNIT      API CODE :CURVE DESCRIPTION
DEPTH       .FT                      :MEASURED DEPTH
CAL.INCH        UNKNOWN   :CAL
DT.US/FT        UNKNOWN   :DT
GR.API        UNKNOWN   :GR
~A    DEPTH    CAL    DT    GR
# ...
 3122     13.418   71.123   47.739
 3122.5     13.43   71.601   49.284
 3123     13.441   71.322   54.329
 3123.5     13.453   71.295   66.511
 3124     13.465   71.373   83.986
 3124.5     13.476   72.783   89.932
 3125     13.488   74.727   90.577
 3125.5     13.5   74.953   90.598
 3126     13.512   74.833   89.319
 3126.5     13.523   73.533   86.204
 3127     13.535   74.96   81.313
 3127.5     13.547   75.399   72.535
 3128     13.559   74.657   65.665
 3128.5     13.57   73.448   61.846
 3129     13.582   73.082   58.937
 3129.5     13.594   72.3   56.762
 3130     13.606   71.302   54.467
 3130.5     13.617   70.358   54.472
 3131     13.629   70.448   55.964
 3131.5     13.641   71.485   57.727
 3132     13.652   72.942   59.491
 3132.5     13.664   73.671   59.871
 3133     13.676   73.486   58.785
 3133.5     13.688   73.301   57.699
 3134     13.699   73.335   55.199
 3134.5     13.711   73.925   52.719
 3135     13.723   74.468   52.577
 3135.5     13.738   74.413   54.139
 3136     13.757   74.359   54.329
 3136.5     13.775   74.304   51.77
 3137     13.794   75.526   49.21
 3137.5     13.812   76.863   46.651
 3138     13.831   77.744   44.091
 3138.5     13.849   78.564   41.797
 3139     13.868   79.302   41.298
 3139.5     13.886   79.242   40.996
 3140     13.905   79.183   41.001
 3140.5     13.923   75.637   41.006
 3141     13.942   74.095   41.635
 3141.5     13.96   73.48   44.3
 3142     13.979   73.419   46.635
 3142.5     13.997   73.646   46.074
 3143     14.016   75.035   45.513
 3143.5     14.034   76.425   44.952
 3144     14.053   76.761   48.894
 3144.5     14.071   77.077   49.945
 3145     14.09   77.416   46.638
 3145.5     14.108   80.374   43.362
 3146     14.127   81.806   42.809
 3146.5     14.145   82.486   43.284
 3147     14.164   81.503   44.344
 3147.5     14.181   79.798   44.296
 3148     14.198   79.594   43.441
 3148.5     14.215   79.538   42.585
 3149     14.232   79.376   44.704
 3149.5     14.249   79.213   47.64
 3150     14.266   77.817   47.929
 3150.5     14.283   76.74   45.244
 3151     14.3   76.415   42.56
 3151.5     14.317   76.562   40.282
 3152     14.334   77.141   45.053
 3152.5     14.351   76.816   47.756
 3153     14.368   75.787   47.911
 3153.5     14.385   75.01   48.066
 3154     14.402   75.168   48.59
 3154.5     14.419   75.326   50.578
 3155     14.436   75.905   53.685
 3155.5     14.453   76.631   54.754
 3156     14.47   77.139   53.987
 3156.5     14.487   77.257   54.201
 3157     14.504   77.844   57.262
 3157.5     14.521   78.434   57.704
 3158     14.538   78.623   54.429
 3158.5     14.555   78.648   50.941
 3159     14.572   78.229   47.182
 3159.5     14.589   78.429   46.673
 3160     14.606   78.669   46.971
 3160.5     14.623   78.91   47.295
 3161     14.64   79.15   45.124
 3161.5     14.657   84.396   42.628
 3162     14.674   86.204   40.132
 3162.5     14.691   88.013   38.923
 3163     14.708   89.821   40.755
 3163.5     14.725   90.087   42.587
 3164     14.743   90.29   41.899
 3164.5     14.759   89.817   39.497
 3165     14.772   87.176   35.377
 3165.5     14.785   88.78   31.258
 3166     14.799   87.245   31.409
 3166.5     14.812   86.635   34.264
 3167     14.825   88.16   35.727
 3167.5     14.839   88.375   35.574
 3168     14.852   87.04   35.421
 3168.5     14.865   84.226   35.268
 3169     14.879   80.586   35.279
 3169.5     14.892   79.371   35.649
 3170     14.905   79.623   36.018
 3170.5     14.919   83.375   36.388
 3171     14.932   86.734   36.757
 3171.5     14.945   87.974   37.127
 3172     14.959   86.626   37.496
 3172.5     14.972   85.224   37.909
 3173     14.985   83.734   38.662
 3173.5     14.999   83.641   39.484
 3174     15.012   84.353   41.297
 3174.5     15.025   84.352   43.109
 3175     15.039   84.618   42.864
 3175.5     15.052   84.954   42.354
 3176     15.065   85.29   41.844
 3176.5     15.063   85.362   41.366
 3177     15.06   85.39   43.41
 3177.5     15.057   83.728   48.919
 3178     15.054   81.326   49.065
 3178.5     15.051   79.619   47.675
 3179     15.048   78.936   44.889
 3179.5     15.045   79.774   42.71
 3180     15.042   83.836   42.715
 3180.5     15.04   84.612   43.194
 3181     15.037   85.12   44.668
 3181.5     15.034   84.387   46.143
 3182     15.031   84.085   46.001
 3182.5     15.028   84.084   45.435
 3183     15.025   84.082   45.556
 3183.5     15.022   85.519   45.774
 3184     15.019   85.934   45.016
 3184.5     15.016   87.103   44.039
 3185     15.013   87.05   43.369
 3185.5     15.01   86.998   43.232
 3186     15.007   86.945   43.956
 3186.5     15.004   86.892   44.866
 3187     15.001   86.523   45.766
 3187.5     14.987   85.582   46.666
 3188     14.97   84.823   47.566
 3188.5     14.954   84.164   46.102
 3189     14.938   84.489   45.042
 3189.5     14.921   85.543   45.645
 3190     14.905   85.521   46.247
 3190.5     14.889   85.49   43.457
 3191     14.873   84.464   40.244
 3191.5     14.856   83.968   39.99
 3192     14.84   83.823   40.921
 3192.5     14.824   84.138   41.852
 3193     14.807   84.29   42.783
 3193.5     14.791   85.131   42.912
 3194     14.775   86.058   42.113
 3194.5     14.758   86.215   41.366
 3195     14.742   86.519   43.297
 3195.5     14.726   87.741   45.227
 3196     14.709   86.315   47.158
 3196.5     14.693   84.692   45.927
 3197     14.677   83.928   43.131
 3197.5     14.66   83.827   40.055
 3198     14.642   83.631   39.895
 3198.5     14.624   81.984   42.266
 3199     14.606   79.7   45.187
 3199.5     14.587   79.619   48.107
 3200     14.569   80.392   49.872
 3200.5     14.551   80.44   50.259
 3201     14.533   80.488   51.593
 3201.5     14.514   80.701   53.254
 3202     14.496   84.236   54.914
 3202.5     14.478   82.769   56.382
 3203     14.46   80.634   53.553
 3203.5     14.441   78.499   50.724
 3204     14.423   76.581   48.738
 3204.5     14.405   76.58   48.519
 3205     14.387   77.025   49.239
 3205.5     14.368   77.414   51.262
 3206     14.35   77.729   54.183
 3206.5     14.332   78.399   57.104
 3207     14.314   77.692   59.214
 3207.5     14.295   77.518   59.345
 3208     14.277   77.517   59.165
 3208.5     14.259   77.853   58.75
 3209     14.241   78.385   58.335
 3209.5     14.222   78.636   58.326
 3210     14.23   77.548   54.136
 3210.5     14.242   76.546   47.014
 3211     14.254   75.632   43.876
 3211.5     14.266   74.38   42.84
 3212     14.278   77.785   42.032
 3212.5     14.29   80.284   40.958
 3213     14.302   82.652   37.49
 3213.5     14.314   83.625   35.26
 3214     14.326   80.058   35.043
 3214.5     14.338   79.732   41.3
 3215     14.349   80.525   47.557
 3215.5     14.329   81.536   48.57
 3216     14.308   83.704   49.776
 3216.5     14.287   83.959   53.685
 3217     14.266   83.13   56.415
 3217.5     14.245   83.743   56.21
 3218     14.224   81.891   52.951
 3218.5     14.203   79.5   49.691
 3219     14.182   79.776   46.432
 3219.5     14.161   81.112   43.356
 3220     14.139   79.282   43.93
 3220.5     14.118   79.386   45.444
 3221     14.097   79.491   47.861
 3221.5     14.076   80.281   51.234
 3222     14.055   80.831   55.507
 3222.5     14.034   80.711   58.216
 3223     14.013   80.591   58.658
 3223.5     13.992   80.471   58.16
 3224     13.971   77.349   56.374
 3224.5     13.95   76.606   51.673
 3225     13.929   74.98   48.207
 3225.5     13.908   73.537   45.829
 3226     13.887   73.129   48.371
 3226.5     13.865   74.022   53.976
 3227     13.844   74.521   59.58
 3227.5     13.823   74.573   58.433
 3228     13.802   74.663   56.99
 3228.5     13.781   75.076   55.546
 3229     13.76   75.365   55.321
 3229.5     13.739   74.938   55.432
 3230     13.74   74.196   55.543
 3230.5     13.742   73.837   55.654
 3231     13.745   73.834   52.956
 3231.5     13.748   75.242   48.755
 3232     13.75   76.076   46.732
 3232.5     13.753   75.655   50.96
 3233     13.756   75.209   55.188
 3233.5     13.759   74.54   54.967
 3234     13.761   73.846   52.53
