#--------------------------------------------------#
#-------------------ENVERUS, INC.------------------#
#------------------WWW.ENVERUS.COM-----------------#
#------------------COPYRIGHT 2020------------------#
#--------------------------------------------------#
#THIS FILE MAY BE USED ONLY IN ACCORDANCE WITH A CURRENT SUBSCRIPTION AGREEMENT BETWEEN
#THE USER AND ENVERUS, INC. NO PART OF THIS FILE MAY BE REPRODUCED, USED, COPIED,
#MODIFIED, PROPAGATED, OR DISTRIBUTED EXCEPT IN ACCORDANCE WITH THE SUBSCRIPTION
#AGREEMENT. UNAUTHORIZED USE OR DISTRIBUTION OF ALL OR ANY PART OF THIS FILE MAY VIOLATE
#COPYRIGHT, TRADEMARK, AND/OR OTHER LAWS AND IS SUBJECT TO CIVIL AS WELL AS CRIMINAL
#SANCTIONS.
#--------------------------------------------------#
#THIS FILE IS PROVIDED "AS-IS" AND ALL WARRANTIES ARE EXPRESSLY DISCLAIMED, WHETHER
#EXPRESS, ORAL, IMPLIED, STATUTORY OR OTHERWISE, INCLUDING ANY IMPLIED WARRANTY OF FITNESS
#FOR A PARTICULAR PURPOSE, MERCHANTABILITY, TITLE OR NON-INFRINGEMENT, AND ANY WARRANTIES
#ARISING BY VIRTUE OF CUSTOM OF TRADE OR COURSE OF DEALING.  FURTHER, ENVERUS, INC.
#AND ITS LICENSORS DO NOT REPRESENT OR WARRANT THAT THIS FILE WILL MEET USER'S
#REQUIREMENTS OR ARE SUITABLE FOR USER'S NEEDS OR THAT THE DATA OR RESULTS PROVIDED IN
#CONJUNCTION THEREWITH ARE CORRECT, ACCURATE, TIMELY OR RELIABLE. THESE DISCLAIMERS SHALL
#APPLY REGARDLESS OF ANY FAILURE OF ESSENTIAL PURPOSE OF ANY LIMITED REMEDY.  SOME
#JURISDICTIONS DO NOT ALLOW THE EXCLUSION OF CERTAIN WARRANTIES SO SOME OF THE ABOVE
#EXCLUSIONS MAY NOT APPLY. IN NO EVENT SHALL ENVERUS, INC. OR ANY OF ITS AFFILIATES
#BE LIABLE UNDER ANY LEGAL THEORY, WHETHER IN TORT (INCLUDING WITHOUT LIMITATION
#NEGLIGENCE), CONTRACT, STRICT LIABILITY, STATUTORY OR OTHERWISE, FOR ANY SPECIAL,
#INCIDENTAL, CONSEQUENTIAL, EXEMPLARY, PUNITIVE OR INDIRECT DAMAGE OF ANY KIND, INCLUDING
#WITHOUT LIMITATION LOSS OF REVENUE, PROFITS, GOODWILL, USE, AND/OR DATA OR THE COST OF
#PROCUREMENT OF SUBSTITUTE GOODS OR SERVICES, EVEN IF APPRISED OF THE POSSIBILITY OF SUCH
#DAMAGES IN ADVANCE.
#--------------------------------------------------#

~VERSION INFORMATION
VERS. 2.0 : CWLS LOG ASCII STANDARD - VERSION 2.0
WRAP. NO : ONE LINE PER DEPTH STEP
~WELL INFORMATION
#MNEMONIC     .UNIT              VALUE :DESCRIPTION
STRT       .FT                2834.00000 :START DEPTH
STOP       .FT                7010.00000 :STOP DEPTH
STEP       .FT                0.50000 :STEP
NULL       .                -999.25000 :NULL VALUE
UWI       .                42389304120000 :UNIQUE WELL ID
API       .                42389304120000 :API NUMBER
COMP       .                 :COMPANY
WELL       .                 :WELL
FLD       .                 :FIELD
LOC       .                 :LOCATION
CNTY       .                 :COUNTY
STAT       .                 :STATE
CTRY       .                 :COUNTRY
SRVC       .                 :SERVICE COMPANY
DATE       .                 :DATE
~CURVE INFORMATION
#MNEMONIC     .UNIT      API CODE :CURVE DESCRIPTION
DEPTH       .FT                      :MEASURED DEPTH
CAL       .IN        UNKNOWN   :CAL
DT       .US/FT        UNKNOWN   :DT
GR       .GAPI        UNKNOWN   :GR
~A    DEPTH    CAL    DT    GR
# ...
6963.00000    13.23574    105.13047    71.97267
6963.50000    13.25493    104.87404    73.12321
6964.00000    13.25612    104.61762    73.94091
6964.50000    13.25218    104.36120    72.80276
6965.00000    13.24824    104.10478    71.66462
6965.50000    13.24431    102.86986    70.52647
6966.00000    13.24037    100.00727    69.38833
6966.50000    13.23643    97.24706    68.54529
6967.00000    13.23249    100.47834    69.57703
6967.50000    13.22855    103.70963    70.60877
6968.00000    13.22461    106.94091    71.64051
6968.50000    13.22067    110.17220    72.67224
6969.00000    13.21674    113.40348    73.70398
6969.50000    13.21280    114.28417    74.73572
6970.00000    13.20886    114.34587    75.76746
6970.50000    13.20492    114.40756    76.79919
6971.00000    13.20098    114.46926    77.83093
6971.50000    13.19704    114.53096    78.86267
6972.00000    13.19311    114.59265    79.89441
6972.50000    13.18917    114.65435    80.92615
6973.00000    13.18523    114.71605    81.25657
6973.50000    13.18129    114.77774    79.41617
6974.00000    13.17735    114.83944    77.57577
6974.50000    13.17341    114.90114    75.73536
6975.00000    13.16948    114.96284    74.34243
6975.50000    13.16112    115.02453    76.42813
6976.00000    13.15097    114.39265    78.51384
6976.50000    13.14081    113.36802    80.59954
6977.00000    13.13066    112.34339    82.68524
6977.50000    13.12050    111.28961    84.77094
6978.00000    13.11035    109.29851    86.85665
6978.50000    13.10019    107.30742    88.94235
6979.00000    13.09004    105.31633    91.02806
6979.50000    13.07988    103.32524    93.11376
6980.00000    13.06973    101.33415    95.18054
6980.50000    13.05957    101.00879    85.13971
6981.00000    13.04941    101.70014    75.09888
6981.50000    13.03926    102.39149    65.05805
6982.00000    13.02910    103.08285    65.41421
6982.50000    13.01895    103.77420    66.05260
6983.00000    13.01043    104.46555    66.69098
6983.50000    13.01504    105.15690    68.16783
6984.00000    13.01965    105.84826    70.89110
6984.50000    13.02426    107.65449    73.61437
6985.00000    13.02886    109.91566    76.33764
6985.50000    13.03347    112.17683    79.06091
6986.00000    13.03808    114.43801    81.78417
6986.50000    13.04269    114.73058    84.50744
6987.00000    13.04730    111.69889    87.23071
6987.50000    13.05191    108.66720    89.95398
6988.00000    13.05651    105.63551    92.67725
6988.50000    13.06112    102.60382    92.72778
6989.00000    13.06573    99.57213    87.91794
6989.50000    13.07034    101.06104    83.10809
6990.00000    13.07495    102.40368    78.29825
6990.50000    13.07956    101.80828    73.48840
6991.00000    13.08417    101.21289    68.67856
6991.50000    13.08877    100.61749    69.24788
6992.00000    13.09338    100.02209    72.51614
6992.50000    13.09799    99.42670    75.78440
6993.00000    13.10260    98.83131    79.05266
6993.50000    13.10721    98.23591    82.32092
6994.00000    13.11181    97.64051    85.58918
6994.50000    13.11642    97.04512    88.85743
6995.00000    13.12103    96.44972    92.12569
6995.50000    13.12564    95.85433    92.95767
6996.00000    13.13025    95.65629    90.28900
6996.50000    13.13486    96.31251    87.62033
6997.00000    13.13946    96.96873    85.76944
6997.50000    13.14407    97.62495    84.39195
6998.00000    13.14868    98.28117    83.01445
6998.50000    13.15329    98.93739    81.63696
6999.00000    13.15790    96.39726    80.25947
6999.50000    13.16251    92.35338    78.88197
7000.00000    13.16712    88.30950    76.37899
7000.50000    13.17172    -999.25000    73.39738
7001.00000    13.17633    -999.25000    70.41576
7001.50000    13.18094    -999.25000    67.43415
7002.00000    13.18555    -999.25000    64.45254
7002.50000    13.18729    -999.25000    61.47092
7003.00000    13.16047    -999.25000    59.85433
7003.50000    13.13366    -999.25000    63.65503
7004.00000    13.10685    -999.25000    67.45573
7004.50000    13.08004    -999.25000    71.25642
7005.00000    13.05322    -999.25000    75.05712
7005.50000    13.02641    -999.25000    78.85781
7006.00000    12.99960    -999.25000    82.65851
7006.50000    12.97278    -999.25000    86.45921
7007.00000    12.94597    -999.25000    86.08855
7007.50000    12.91916    -999.25000    84.99590
7008.00000    12.89234    -999.25000    83.90326
7008.50000    12.86553    -999.25000    82.81061
7009.00000    12.83872    -999.25000    81.71797
7009.50000    -999.25000    -999.25000    80.62532
7010.00000    -999.25000    -999.25000    80.65849
