###############################################
##         ENVERUS                           ##
##         ESS - Open Hole                   ##
##         PERMIAN / DELAWARE                ##
##         Nov 04 2023  V4.0                 ##
##         42-389-30424-00-00                ##
###############################################
## Copyright 2017-2023  ENVERUS.  All Rights Reserved. 
## Confidential - Property of ENVERUS, use governed by terms and 
## conditions found within the existing Information Services Subscription Agreement 
## (as may be amended, the “ISSA”) between Customer and ENVERUS. 
## 
~VERSION INFORMATION
# MNEM.UNIT                               DATA : DESCRIPTION OF MNEMONIC
#-----.-----     ----------------------------- : -----------------------------
VERS.                                     2.00 : CWLS LOG ASCII STANDARD - VERSION 2.00
WRAP.                                       NO : MULTIPLE LINES PER DEPTH STEP
VEND.                                  ENVERUS : VENDOR
TYPE.                          ESS - OPEN HOLE : ENVERUS ESSENTIAL CURVES – ACCESSIBLE THROUGH ENVERUS PRISM(TM)
DOC.                                  32008121 : ENVERUS HEADER RAW DOCUMENT ID
#___________________________________________________________________________________________________ 
~WELL INFORMATION 
# BBd8zmUYmd+wUdICSlYDIOWaOe8iOeA0ELK9EhSbx74Kr6OX4zJxS/eo6cO6KK5SWMTSkVzaKbU2EBBfROvOKA== 
# MNEM.UNIT                                              DATA : DESCRIPTION OF MNEMONIC 
#-----.-----                    ----------------------------- : ----------------------------- 
CNTY.                                                  REEVES : COUNTY 
STATE.                                                  TEXAS : STATE 
CNTRY.                                                    USA : COUNTRY 
API.                                             42-389-30424 : API (10 Digit) 
API_14.                                    42-389-30424-00-00 : API (14 Digits) 
API_14_std.                                 42-389-30424-0000 : API (14 Digits Standard) 
UWI.                                           42389304240000 : UNIQUE WELL ID 
WELL.                                      LEWELLING STATE  1 : WELL NAME
STRT.FT                                                   7.0 : START DEPTH
STOP.FT                                               15912.0 : STOP DEPTH
STEP.FT                                                   0.5 : STEP BETWEEN DEPTHS
NULL.                                                 -999.25 : NULL VALUE
COMP.                           PENN VIRGINIA OIL & GAS CORP. : COMPANY 
DATE.                                             14-AUG-1976 : LOG DATE
#___________________________________________________________________________________________________ 
~CURVE INFORMATION 
# MNEM.UNIT           : CURVE DESCRIPTION 
#-----.-----          : ----------------------------- 
 DEPT.FT               : MEASURED DEPTH 
 CALI__A.IN            : CALIPER (CAL - CAL) 
 GR__A.API             : GAMMA RAY (GR) 
 DT__A.US/FT           : SONIC DELTA TRANSIT TIME (DT) 
 DPHI__A.V/V           : DENSITY POROSITY (DPHI) 
 NPHI__A.V/V           : NEUTRON POROSITY (NPHI) 
 #___________________________________________________________________________________________________ 
~A         DEPT        CALI__A          GR__A          DT__A        DPHI__A        NPHI__A
# ...
         9731.0         13.429         63.976         80.694     -999.25000     -999.25000
         9731.5         13.429         47.652         77.627     -999.25000     -999.25000
         9732.0         13.429         45.875         72.338     -999.25000     -999.25000
         9732.5         13.428         44.098         69.075     -999.25000     -999.25000
         9733.0         13.428         42.322         65.812     -999.25000     -999.25000
         9733.5         13.428         43.227         65.179     -999.25000     -999.25000
         9734.0         13.427         45.789         61.892     -999.25000     -999.25000
         9734.5         13.427         50.369         62.787     -999.25000     -999.25000
         9735.0         13.427         54.949         65.755     -999.25000     -999.25000
         9735.5         13.427         59.528         68.915     -999.25000     -999.25000
         9736.0         13.426         56.552         72.686     -999.25000     -999.25000
         9736.5         13.437         52.968         71.434     -999.25000     -999.25000
         9737.0         13.452         48.070         68.149     -999.25000     -999.25000
         9737.5         13.467         50.206         64.834     -999.25000     -999.25000
         9738.0         13.481         58.342         61.687     -999.25000     -999.25000
         9738.5         13.496         67.186         65.180     -999.25000     -999.25000
         9739.0         13.510         76.030         68.674     -999.25000     -999.25000
         9739.5         13.525         72.365         73.566     -999.25000     -999.25000
         9740.0         13.540         66.538         74.840     -999.25000     -999.25000
         9740.5         13.554         68.060         73.938     -999.25000     -999.25000
         9741.0         13.569         69.824         73.037     -999.25000     -999.25000
         9741.5         13.583         69.166         74.718     -999.25000     -999.25000
         9742.0         13.598         68.100         76.737     -999.25000     -999.25000
         9742.5         13.613         66.937         75.282     -999.25000     -999.25000
         9743.0         13.622         65.774         73.552     -999.25000     -999.25000
         9743.5         13.614         64.628         71.437     -999.25000     -999.25000
         9744.0         13.605         67.172         68.440     -999.25000     -999.25000
         9744.5         13.597         73.387         68.798     -999.25000     -999.25000
         9745.0         13.589         79.602         71.282     -999.25000     -999.25000
         9745.5         13.580         87.794         76.055     -999.25000     -999.25000
         9746.0         13.572         90.844         85.111     -999.25000     -999.25000
         9746.5         13.564         91.056         83.951     -999.25000     -999.25000
         9747.0         13.556         86.974         82.791     -999.25000     -999.25000
         9747.5         13.547         77.280         81.631     -999.25000     -999.25000
         9748.0         13.539         68.590         79.992     -999.25000     -999.25000
         9748.5         13.531         60.735         77.072     -999.25000     -999.25000
         9749.0         13.522         52.880         74.401     -999.25000     -999.25000
         9749.5         13.514         45.025         72.145     -999.25000     -999.25000
         9750.0         13.506         37.169         66.281     -999.25000     -999.25000
         9750.5         13.497         32.572         60.291     -999.25000     -999.25000
         9751.0         13.489         31.920         58.691     -999.25000     -999.25000
         9751.5         13.481         32.326         57.090     -999.25000     -999.25000
         9752.0         13.472         37.196         58.525     -999.25000     -999.25000
         9752.5         13.464         42.066         60.643     -999.25000     -999.25000
         9753.0         13.456         46.936         62.761     -999.25000     -999.25000
         9753.5         13.447         48.618         70.883     -999.25000     -999.25000
         9754.0         13.439         46.217         73.341     -999.25000     -999.25000
         9754.5         13.431         43.816         71.489     -999.25000     -999.25000
         9755.0         13.423         41.415         67.378     -999.25000     -999.25000
         9755.5         13.419         43.034         63.880     -999.25000     -999.25000
         9756.0         13.446         47.317         61.973     -999.25000     -999.25000
         9756.5         13.473         55.117         65.058     -999.25000     -999.25000
         9757.0         13.500         62.916         68.990     -999.25000     -999.25000
         9757.5         13.527         70.716         73.776     -999.25000     -999.25000
         9758.0         13.553         71.860         77.011     -999.25000     -999.25000
         9758.5         13.580         70.819         77.565     -999.25000     -999.25000
         9759.0         13.607         65.786         77.924     -999.25000     -999.25000
         9759.5         13.634         61.219         77.508     -999.25000     -999.25000
         9760.0         13.655         57.333         77.091     -999.25000     -999.25000
         9760.5         13.654         53.448         76.675     -999.25000     -999.25000
         9761.0         13.654         49.562         76.259     -999.25000     -999.25000
         9761.5         13.654         46.093         74.957     -999.25000     -999.25000
         9762.0         13.654         48.035         73.543     -999.25000     -999.25000
         9762.5         13.653         49.977         72.235     -999.25000     -999.25000
         9763.0         13.653         53.221         71.930     -999.25000     -999.25000
         9763.5         13.653         56.758         71.913     -999.25000     -999.25000
         9764.0         13.653         59.726         72.641     -999.25000     -999.25000
         9764.5         13.652         61.400         73.833     -999.25000     -999.25000
         9765.0         13.647         61.641         74.902     -999.25000     -999.25000
         9765.5         13.637         61.882         75.572     -999.25000     -999.25000
         9766.0         13.627         61.257         75.008     -999.25000     -999.25000
         9766.5         13.617         59.473         73.479     -999.25000     -999.25000
         9767.0         13.607         53.052         69.727     -999.25000     -999.25000
         9767.5         13.598         46.227         66.005     -999.25000     -999.25000
         9768.0         13.588         41.894         64.485     -999.25000     -999.25000
         9768.5         13.578         38.380         63.918     -999.25000     -999.25000
         9769.0         13.568         35.013         68.622     -999.25000     -999.25000
         9769.5         13.559         31.645         71.055     -999.25000     -999.25000
         9770.0         13.549         28.277         71.621     -999.25000     -999.25000
         9770.5         13.539         28.698         72.187     -999.25000     -999.25000
         9771.0         13.529         30.114         72.751     -999.25000     -999.25000
         9771.5         13.520         32.510         72.711     -999.25000     -999.25000
         9772.0         13.510         34.905         72.671     -999.25000     -999.25000
         9772.5         13.500         36.755         72.682     -999.25000     -999.25000
         9773.0         13.490         38.604         72.984     -999.25000     -999.25000
         9773.5         13.487         40.454         73.285     -999.25000     -999.25000
         9774.0         13.488         42.269         73.587     -999.25000     -999.25000
         9774.5         13.489         43.471         73.889     -999.25000     -999.25000
