###############################################
##         ENVERUS                           ##
##         ESS - Open Hole                   ##
##         PERMIAN / DELAWARE                ##
##         Nov 04 2023  V4.0                 ##
##         42-389-31391-00-00                ##
###############################################
## Copyright 2017-2023  ENVERUS.  All Rights Reserved. 
## Confidential - Property of ENVERUS, use governed by terms and 
## conditions found within the existing Information Services Subscription Agreement 
## (as may be amended, the “ISSA”) between Customer and ENVERUS. 
## 
~VERSION INFORMATION
# MNEM.UNIT                               DATA : DESCRIPTION OF MNEMONIC
#-----.-----     ----------------------------- : -----------------------------
VERS.                                     2.00 : CWLS LOG ASCII STANDARD - VERSION 2.00
WRAP.                                       NO : MULTIPLE LINES PER DEPTH STEP
VEND.                                  ENVERUS : VENDOR
TYPE.                          ESS - OPEN HOLE : ENVERUS ESSENTIAL CURVES – ACCESSIBLE THROUGH ENVERUS PRISM(TM)
DOC.                                  23866972 : ENVERUS HEADER RAW DOCUMENT ID
#___________________________________________________________________________________________________ 
~WELL INFORMATION 
# fYFWm3OWRd9IdMsmH1sgiJ8+yI47SyIf11h8n9fSv2EtxvNnkQHcFoeZabdKB/2nhpfFDZXLrBDJ+4Q2ZBaHeQ== 
# MNEM.UNIT                                              DATA : DESCRIPTION OF MNEMONIC 
#-----.-----                    ----------------------------- : ----------------------------- 
CNTY.                                                  REEVES : COUNTY 
STATE.                                                  TEXAS : STATE 
CNTRY.                                                    USA : COUNTRY 
API.                                             42-389-31391 : API (10 Digit) 
API_14.                                    42-389-31391-00-00 : API (14 Digits) 
API_14_std.                                 42-389-31391-0000 : API (14 Digits Standard) 
UWI.                                           42389313910000 : UNIQUE WELL ID 
WELL.                                       DIXIELAND # 3 - 1 : WELL NAME
STRT.FT                                                4000.0 : START DEPTH
STOP.FT                                               12000.0 : STOP DEPTH
STEP.FT                                                   0.5 : STEP BETWEEN DEPTHS
NULL.                                                 -999.25 : NULL VALUE
COMP.                             R. K. PETROLEUM CORPORATION : COMPANY 
FLD.                                                  WILDCAT : FIELD 
DATE.                                              08/13/2015 : DATE 
TVD.                                                       NO : TVD FLAG 
WSTA.                                                     LOC : WELL STATUS
#___________________________________________________________________________________________________ 
~PARAMETER INFORMATION 
# MNEM.UNIT                                              DATA : DESCRIPTION OF MNEMONIC 
#-----.-----                    ----------------------------- : ----------------------------- 
RUN.                                                      ONE : RUN NUMBER 
PDAT.                                                      GL : PERMANENT DATUM 
LMF.                                            KELLY BUSHING : LOG MEASURED FROM
#___________________________________________________________________________________________________ 
~CURVE INFORMATION 
# MNEM.UNIT           : CURVE DESCRIPTION 
#-----.-----          : ----------------------------- 
 DEPT.FT               : MEASURED DEPTH 
 CALI.IN               : CALIPER (CALIPER) 
 GR.API                : GAMMA RAY (GAMMA RAY) 
 DT.US/FT              : SONIC DELTA TRANSIT TIME (DELTA-T) 
 RESD.OHMM             : DEEP INDUCTION RESISTIVITY (ILD - DEEP INDUCTION STANDARD PROCESSED RESISTIVITY) 
 RESD_LL.OHMM          : DEEP LATEROLOG (LLD - LATERO-LOG DEEP (RESISTIVITY)) 
 NPHI.V/V              : NEUTRON POROSITY (NEUTRON POROSITY) 
 #___________________________________________________________________________________________________ 
~A         DEPT           CALI             GR             DT           RESD        RESD_LL           NPHI
# ...
         9320.0         12.363         26.293         55.384       -999.250       374.2183     -999.25000
         9320.5         12.426         23.346         54.638       -999.250       442.8903     -999.25000
         9321.0         12.511         21.216         53.768       -999.250       525.0532     -999.25000
         9321.5         12.625         23.061         53.768       -999.250       565.5970     -999.25000
         9322.0         12.685         24.835         54.219       -999.250       571.2269     -999.25000
         9322.5         12.740         27.760         54.614       -999.250       585.1664     -999.25000
         9323.0         12.782         30.284         55.090       -999.250       598.8834     -999.25000
         9323.5         12.811         38.406         57.991       -999.250       545.5095     -999.25000
         9324.0         12.836         45.256         60.859       -999.250       326.3084     -999.25000
         9324.5         12.862         52.304         63.726       -999.250       179.3594     -999.25000
         9325.0         12.888         60.275         66.593       -999.250        98.5871     -999.25000
         9325.5         12.913         64.604         69.519       -999.250        54.1896     -999.25000
         9326.0         12.939         74.119         70.978       -999.250        39.6859     -999.25000
         9326.5         12.964         74.193         72.558       -999.250        37.8502     -999.25000
         9327.0         12.989         74.117         74.084       -999.250        36.0994     -999.25000
         9327.5         13.020         73.311         73.500       -999.250        38.4597     -999.25000
         9328.0         13.041         70.447         71.545       -999.250        46.6188     -999.25000
         9328.5         13.075         66.367         69.610       -999.250        57.0473     -999.25000
         9329.0         13.119         62.916         68.032       -999.250        74.0811     -999.25000
         9329.5         13.249         62.989         67.718       -999.250        73.8973     -999.25000
         9330.0         13.284         67.132         68.297       -999.250        74.0337     -999.25000
         9330.5         13.339         71.824         68.826       -999.250        67.7930     -999.25000
         9331.0         13.393         76.702         69.528       -999.250        63.8401     -999.25000
         9331.5         13.441         81.255         70.374       -999.250        60.4128     -999.25000
         9332.0         13.479         80.136         70.497       -999.250        61.3544     -999.25000
         9332.5         13.508         75.867         70.499       -999.250        53.5038     -999.25000
         9333.0         13.539         71.609         70.139       -999.250        49.0323     -999.25000
         9333.5         13.541         67.331         68.813       -999.250        51.8589     -999.25000
         9334.0         13.576         63.080         67.507       -999.250        48.6915     -999.25000
         9334.5         13.601         58.596         66.016       -999.250        40.6078     -999.25000
         9335.0         13.650         57.047         65.067       -999.250        33.7451     -999.25000
         9335.5         13.692         63.951         65.866       -999.250        25.1833     -999.25000
         9336.0         13.701         67.835         67.095       -999.250        25.9879     -999.25000
         9336.5         13.701         71.130         68.324       -999.250        28.0792     -999.25000
         9337.0         13.699         73.322         68.991       -999.250        31.1928     -999.25000
         9337.5         13.699         60.860         67.700       -999.250        30.8294     -999.25000
         9338.0         13.698         50.065         66.410       -999.250        40.8549     -999.25000
         9338.5         13.696         38.751         65.120       -999.250        48.2412     -999.25000
         9339.0         13.695         38.420         63.747       -999.250        56.9457     -999.25000
         9339.5         13.694         37.667         62.065       -999.250        76.7730     -999.25000
         9340.0         13.693         42.744         59.780       -999.250        76.3617     -999.25000
         9340.5         13.692         50.663         60.654       -999.250        75.9110     -999.25000
         9341.0         13.691         58.736         63.404       -999.250        75.4630     -999.25000
         9341.5         13.689         66.141         65.431       -999.250        69.9263     -999.25000
         9342.0         13.688         71.500         71.924       -999.250        58.9388     -999.25000
         9342.5         13.687         77.397         72.085       -999.250        49.3482     -999.25000
         9343.0         13.686         74.389         71.924       -999.250        39.9239     -999.25000
         9343.5         13.685         69.734         71.200       -999.250        37.1631     -999.25000
         9344.0         13.684         66.483         70.509       -999.250        36.1814     -999.25000
         9344.5         13.682         62.023         69.818       -999.250        35.6514     -999.25000
         9345.0         13.681         58.489         68.159       -999.250        35.0088     -999.25000
         9345.5         13.680         52.852         65.763       -999.250        40.4804     -999.25000
         9346.0         13.679         52.141         63.367       -999.250        68.2389     -999.25000
         9346.5         13.678         50.618         60.970       -999.250        66.3780     -999.25000
         9347.0         13.677         50.231         59.178       -999.250        56.5652     -999.25000
         9347.5         13.676         54.728         60.588       -999.250        32.7655     -999.25000
         9348.0         13.674         60.881         63.529       -999.250        33.3244     -999.25000
         9348.5         13.673         64.846         66.469       -999.250        34.4710     -999.25000
         9349.0         13.672         68.721         67.310       -999.250        35.6904     -999.25000
         9349.5         13.671         71.513         68.115       -999.250        37.0492     -999.25000
         9350.0         13.670         73.668         69.459       -999.250        35.0298     -999.25000
         9350.5         13.669         75.357         70.803       -999.250        33.1205     -999.25000
         9351.0         13.667         77.132         71.804       -999.250        27.4765     -999.25000
         9351.5         13.666         72.646         71.443       -999.250        30.1668     -999.25000
         9352.0         13.665         63.417         68.583       -999.250        32.5576     -999.25000
         9352.5         13.664         54.399         65.291       -999.250        36.4336     -999.25000
         9353.0         13.663         46.576         62.425       -999.250        40.7709     -999.25000
         9353.5         13.662         38.906         61.463       -999.250        82.7300     -999.25000
         9354.0         13.660         36.066         58.725       -999.250        94.2883     -999.25000
         9354.5         13.659         32.933         57.976       -999.250       102.5656     -999.25000
         9355.0         13.658         30.660         57.495       -999.250       109.4880     -999.25000
         9355.5         13.657         32.596         57.255       -999.250       115.7997     -999.25000
         9356.0         13.656         38.277         57.468       -999.250       100.0784     -999.25000
         9356.5         13.655         45.102         58.758       -999.250        77.1288     -999.25000
         9357.0         13.653         51.529         60.862       -999.250        62.5114     -999.25000
         9357.5         13.652         57.832         63.026       -999.250        59.6357     -999.25000
