#--------------------------------------------------#
#-------------------ENVERUS, INC.------------------#
#------------------WWW.ENVERUS.COM-----------------#
#------------------COPYRIGHT 2020------------------#
#--------------------------------------------------#
#THIS FILE MAY BE USED ONLY IN ACCORDANCE WITH A CURRENT SUBSCRIPTION AGREEMENT BETWEEN
#THE USER AND ENVERUS, INC. NO PART OF THIS FILE MAY BE REPRODUCED, USED, COPIED,
#MODIFIED, PROPAGATED, OR DISTRIBUTED EXCEPT IN ACCORDANCE WITH THE SUBSCRIPTION
#AGREEMENT. UNAUTHORIZED USE OR DISTRIBUTION OF ALL OR ANY PART OF THIS FILE MAY VIOLATE
#COPYRIGHT, TRADEMARK, AND/OR OTHER LAWS AND IS SUBJECT TO CIVIL AS WELL AS CRIMINAL
#SANCTIONS.
#--------------------------------------------------#
#THIS FILE IS PROVIDED "AS-IS" AND ALL WARRANTIES ARE EXPRESSLY DISCLAIMED, WHETHER
#EXPRESS, ORAL, IMPLIED, STATUTORY OR OTHERWISE, INCLUDING ANY IMPLIED WARRANTY OF FITNESS
#FOR A PARTICULAR PURPOSE, MERCHANTABILITY, TITLE OR NON-INFRINGEMENT, AND ANY WARRANTIES
#ARISING BY VIRTUE OF CUSTOM OF TRADE OR COURSE OF DEALING.  FURTHER, ENVERUS, INC.
#AND ITS LICENSORS DO NOT REPRESENT OR WARRANT THAT THIS FILE WILL MEET USER'S
#REQUIREMENTS OR ARE SUITABLE FOR USER'S NEEDS OR THAT THE DATA OR RESULTS PROVIDED IN
#CONJUNCTION THEREWITH ARE CORRECT, ACCURATE, TIMELY OR RELIABLE. THESE DISCLAIMERS SHALL
#APPLY REGARDLESS OF ANY FAILURE OF ESSENTIAL PURPOSE OF ANY LIMITED REMEDY.  SOME
#JURISDICTIONS DO NOT ALLOW THE EXCLUSION OF CERTAIN WARRANTIES SO SOME OF THE ABOVE
#EXCLUSIONS MAY NOT APPLY. IN NO EVENT SHALL ENVERUS, INC. OR ANY OF ITS AFFILIATES
#BE LIABLE UNDER ANY LEGAL THEORY, WHETHER IN TORT (INCLUDING WITHOUT LIMITATION
#NEGLIGENCE), CONTRACT, STRICT LIABILITY, STATUTORY OR OTHERWISE, FOR ANY SPECIAL,
#INCIDENTAL, CONSEQUENTIAL, EXEMPLARY, PUNITIVE OR INDIRECT DAMAGE OF ANY KIND, INCLUDING
#WITHOUT LIMITATION LOSS OF REVENUE, PROFITS, GOODWILL, USE, AND/OR DATA OR THE COST OF
#PROCUREMENT OF SUBSTITUTE GOODS OR SERVICES, EVEN IF APPRISED OF THE POSSIBILITY OF SUCH
#DAMAGES IN ADVANCE.
#--------------------------------------------------#

~VERSION INFORMATION
VERS. 2.0 : CWLS LOG ASCII STANDARD - VERSION 2.0
WRAP.  NO : ONE LINE PER DEPTH STEP
~WELL INFORMATION
#MNEMONIC     .UNIT              VALUE :DESCRIPTION
STRT       .FT                0 :START DEPTH
STOP       .FT                3396 :STOP DEPTH
STEP       .FT                   0.500 :STEP
NULL       .                  -999.250 :NULL
UWI        .              42389305140000 :UNIQUE WELL ID
API        .              42389305140000 :API NUMBER
COMP       .         SLEDGE BROS. OIL CO. :COMPANY
WELL       .        BOLLINGER  5 :WELL
DATE       .                            :LOG DATE
~CURVE INFORMATION
#MNEMONIC     .UNIT      API CODE :CURVE DESCRIPTION
DEPTH       .FT                      :MEASURED DEPTH
ILS.OHM        UNKNOWN   :ILS
GR.API        UNKNOWN   :GR
DT.US/FT        UNKNOWN   :DT
CAL.INCH        UNKNOWN   :CAL
ILD.OHM        UNKNOWN   :ILD
~A    DEPTH    ILS    GR    DT    CAL    ILD
# ...
 3062     17.356   6.67   1.092   6.696   15632.065
 3062.5     73.486   7.438   6.388   6.659   15824.096
 3063     156.597   8.702   6.869   6.621   14458.629
 3063.5     297.532   9.965   7.35   6.603   14808.271
 3064     655.813   11.229   8.289   6.596   25717.74
 3064.5     1322.457   11.778   8.954   6.592   33900.539
 3065     1703.017   12.142   9.028   6.594   28956.684
 3065.5     1812.78   12.173   9.102   6.595   24012.83
 3066     1708.711   12.205   9.1   6.596   23360.535
 3066.5     1804.05   12.236   8.938   6.598   23046.791
 3067     2003.694   12.371   8.776   6.599   22547.66
 3067.5     2002.63   13.39   8.614   6.6   22048.531
 3068     2001.565   14.409   8.667   6.602   21887.438
 3068.5     2000.501   15.064   8.981   6.603   22306.787
 3069     1999.437   14.293   9.259   6.604   22726.137
 3069.5     1998.372   13.521   9.119   6.607   23145.488
 3070     1997.308   13.503   9.118   6.613   22588.863
 3070.5     1996.244   14.615   11.743   6.618   21552.896
 3071     1995.179   15.35   20.135   6.624   20516.93
 3071.5     1994.115   14.779   43.702   6.629   19480.963
 3072     1993.016   14.209   47.975   6.635   18677.32
 3072.5     1991.886   13.638   49.314   6.641   19380.525
 3073     1990.755   13.068   49.691   6.646   20083.729
 3073.5     1989.624   12.617   49.562   6.655   20786.932
 3074     1988.494   12.542   49.393   6.676   21291.719
 3074.5     1987.363   12.516   49.419   6.696   21149.006
 3075     1986.232   12.569   49.466   6.716   21006.291
 3075.5     1985.101   12.623   49.514   6.736   20805.742
 3076     1983.971   12.094   49.55   6.756   20499.916
 3076.5     1982.84   11.821   49.551   6.773   20194.088
 3077     1981.709   12.468   49.57   6.769   19888.26
 3077.5     1980.578   13.115   49.619   6.765   19582.434
 3078     1979.448   13.763   49.667   6.761   19352.211
 3078.5     1978.317   14.36   49.637   6.756   19407.854
 3079     1977.186   14.357   49.608   6.752   19463.496
 3079.5     1976.056   13.202   49.578   6.748   19519.139
 3080     1974.925   11.967   49.549   6.744   19636.494
 3080.5     1973.794   12.566   49.519   6.74   19778.576
 3081     1972.663   13.47   49.459   6.736   19920.658
 3081.5     1971.533   14.374   49.329   6.732   20062.74
 3082     1970.402   14.509   49.2   6.727   20204.822
 3082.5     1969.271   13.658   49.07   6.723   20401.957
 3083     1968.141   12.807   48.941   6.719   20878.941
 3083.5     1967.01   11.956   48.811   6.715   21355.926
 3084     1965.879   11.105   48.766   6.711   21832.91
 3084.5     1964.748   10.269   48.776   6.707   22309.895
 3085     1963.618   9.788   48.786   6.702   22786.879
 3085.5     1963.169   9.36   48.796   6.698   23263.863
 3086     1963.542   9.7   48.806   6.694   23798.695
 3086.5     1963.916   10.171   48.816   6.69   24424.943
 3087     1964.289   11.904   48.727   6.686   25051.189
 3087.5     1964.663   13.26   48.554   6.682   25262.422
 3088     1965.036   13.365   48.381   6.677   24540.887
 3088.5     1965.41   11.574   48.208   6.675   23819.354
 3089     1965.783   9.757   48.035   6.676   23109.09
 3089.5     1966.156   7.94   48.193   6.677   23320.4
 3090     1966.53   6.615   48.374   6.677   23531.711
 3090.5     1966.903   6.214   48.555   6.678   23743.021
 3091     1967.277   6.906   48.636   6.679   23747.723
 3091.5     1967.65   7.601   48.596   6.679   23673.688
 3092     1968.024   8.296   48.557   6.68   23599.652
 3092.5     1968.397   8.991   48.517   6.681   24267.975
 3093     1968.771   8.916   48.478   6.681   25355.314
 3093.5     1969.144   8.582   48.438   6.682   26442.654
 3094     1969.518   8.249   48.53   6.682   27529.996
 3094.5     1969.891   7.915   48.664   6.683   26648.668
 3095     1970.265   7.582   48.799   6.684   25658.613
 3095.5     1970.638   7.554   48.933   6.684   24668.561
 3096     1971.011   7.894   49.067   6.685   25414.725
 3096.5     1971.385   8.177   49.201   6.686   25862.275
 3097     1971.758   8.4   49.29   6.686   25496.945
 3097.5     1972.132   8.623   49.29   6.687   25443.225
 3098     1972.505   8.847   49.291   6.688   25937.227
 3098.5     1972.879   9.07   49.291   6.688   26319.795
 3099     1973.252   9.976   48.929   6.689   26453.041
 3099.5     1973.626   11.156   48.502   6.69   26586.287
 3100     1973.999   11.821   48.171   6.69   26719.533
 3100.5     1974.373   11.033   47.961   6.691   26852.779
 3101     1974.746   9.056   47.751   6.692   26986.025
 3101.5     1975.12   7.653   47.541   6.692   26410.422
 3102     1975.493   8.359   47.331   6.693   24507.027
 3102.5     1975.867   9.065   47.529   6.693   22842.469
 3103     1976.24   8.841   47.907   6.694   21784.387
 3103.5     1976.614   8.55   48.713   6.695   22067.686
 3104     1976.987   8.308   49.519   6.695   23089.721
 3104.5     1977.36   8.395   50.325   6.696   23950.842
 3105     1977.734   8.482   50.354   6.697   24811.965
 3105.5     1978.107   8.677   50.322   6.697   25305.869
 3106     1978.481   9.8   50.29   6.698   25667.988
 3106.5     1978.854   11.284   49.948   6.699   26030.107
 3107     1979.228   12.768   49.203   6.699   26717.297
 3107.5     1979.601   13.667   48.458   6.7   28413.043
 3108     1979.975   12.621   48.018   6.7   28636.188
 3108.5     1980.348   10.352   47.797   6.701   28513.711
 3109     1980.722   8.084   48.358   6.701   28275.145
 3109.5     1981.095   7.998   48.919   6.702   27940.76
 3110     1981.469   9.697   49.022   6.702   28667.947
 3110.5     1981.842   10.389   48.842   6.703   29510.848
 3111     1982.216   10.522   48.526   6.703   30353.75
 3111.5     1982.589   10.654   48.013   6.704   31196.652
 3112     1982.963   10.787   47.744   6.704   31413.719
 3112.5     1983.336   10.92   47.562   6.705   30637.615
 3113     1983.709   10.174   47.379   6.705   29861.514
 3113.5     1984.083   9.326   47.197   6.706   29085.412
 3114     1984.456   8.795   47.353   6.706   28309.309
 3114.5     1984.83   8.265   47.666   6.707   28518.967
 3115     1985.203   7.734   48.157   6.707   28894.402
 3115.5     1985.577   7.203   48.832   6.708   29269.836
 3116     1985.95   6.673   49.506   6.708   29645.27
 3116.5     1986.324   6.208   50.181   6.709   30020.703
 3117     1986.697   6.301   50.137   6.709   30396.137
 3117.5     1987.071   7.391   49.752   6.709   30618.557
 3118     1987.444   8.481   49.315   6.709   30773.279
 3118.5     1987.818   9.242   48.818   6.709   30928.002
 3119     1988.191   8.827   48.363   6.709   31082.725
 3119.5     1988.564   7.759   48.729   6.708   31237.447
 3120     1988.938   6.691   49.094   6.708   31392.17
 3120.5     1989.311   6.747   48.846   6.708   30889.387
 3121     1989.685   7.394   48.496   6.708   30147.121
 3121.5     1990.058   7.875   48.188   6.708   29404.855
 3122     1990.432   7.526   48.316   6.707   28662.592
 3122.5     1990.805   7.825   48.445   6.707   28316.502
 3123     1991.179   8.539   48.574   6.707   28543.334
 3123.5     1991.552   9.252   48.703   6.707   28770.166
 3124     1991.926   9.966   48.832   6.706   28996.998
 3124.5     1992.299   10.679   48.961   6.706   29223.83
 3125     1992.673   10.609   48.907   6.706   29450.662
 3125.5     1993.046   9.845   48.821   6.706   29677.494
 3126     1993.42   9.082   48.736   6.706   29904.326
 3126.5     1993.793   9.066   48.743   6.705   28596.826
 3127     1994.167   9.741   48.828   6.705   26919.791
 3127.5     1994.54   10.23   48.845   6.705   25242.758
 3128     1994.913   9.519   48.798   6.705   24948.805
 3128.5     1995.287   8.809   48.752   6.705   24780.777
 3129     1995.66   8.099   48.705   6.704   24678.064
 3129.5     1996.034   7.154   48.659   6.704   26268.334
 3130     1996.407   6.114   48.612   6.704   27858.605
 3130.5     1996.781   5.153   48.653   6.704   27936.586
 3131     1997.154   5.741   48.797   6.703   26916.867
 3131.5     1997.528   10.231   48.942   6.703   20200.744
 3132     1997.901   16.603   49.086   6.703   11233.361
