###############################################
##         ENVERUS                           ##
##         ESS - Open Hole                   ##
##         PERMIAN / DELAWARE                ##
##         Nov 04 2023  V4.0                 ##
##         42-389-32421-01-00                ##
###############################################
## Copyright 2017-2023  ENVERUS.  All Rights Reserved. 
## Confidential - Property of ENVERUS, use governed by terms and 
## conditions found within the existing Information Services Subscription Agreement 
## (as may be amended, the “ISSA”) between Customer and ENVERUS. 
## 
~VERSION INFORMATION
# MNEM.UNIT                               DATA : DESCRIPTION OF MNEMONIC
#-----.-----     ----------------------------- : -----------------------------
VERS.                                     2.00 : CWLS LOG ASCII STANDARD - VERSION 2.00
WRAP.                                       NO : MULTIPLE LINES PER DEPTH STEP
VEND.                                  ENVERUS : VENDOR
TYPE.                          ESS - OPEN HOLE : ENVERUS ESSENTIAL CURVES – ACCESSIBLE THROUGH ENVERUS PRISM(TM)
DOC.                                  51226874 : ENVERUS HEADER RAW DOCUMENT ID
#___________________________________________________________________________________________________ 
~WELL INFORMATION 
# Tb73rb1SL3MkDZoC3l18/hn1AqNnLhXquKbAWMIBLpWCEGQs+cUq/9XFz1I3dh1trdNBSXyPtAuUBW0L3ONtkQ== 
# MNEM.UNIT                                              DATA : DESCRIPTION OF MNEMONIC 
#-----.-----                    ----------------------------- : ----------------------------- 
CNTY.                                                  REEVES : COUNTY 
STATE.                                                  TEXAS : STATE 
CNTRY.                                                    USA : COUNTRY 
API.                                             42-389-32421 : API (10 Digit) 
API_14.                                    42-389-32421-01-00 : API (14 Digits) 
API_14_std.                                 42-389-32421-0100 : API (14 Digits Standard) 
UWI.                                           42389324210100 : UNIQUE WELL ID 
WELL.                                      ARMSTRONG STATE  1 : WELL NAME
STRT.FT                                                 182.0 : START DEPTH
STOP.FT                                               14775.0 : STOP DEPTH
STEP.FT                                                   0.5 : STEP BETWEEN DEPTHS
NULL.                                                 -999.25 : NULL VALUE
PREV_UWI.                                      42389324210000 : UNIQUE WELL ID 
PREV_API.                                      42389324210000 : API NUMBER 
COMP.                                    STALEY OPERATING CO. : COMPANY 
DATE.                                             26-JUN-2006 : LOG DATE
#___________________________________________________________________________________________________ 
~CURVE INFORMATION 
# MNEM.UNIT           : CURVE DESCRIPTION 
#-----.-----          : ----------------------------- 
 DEPT.FT               : MEASURED DEPTH 
 CALI__A.IN            : CALIPER (CAL - CAL) 
 GR__A.API             : GAMMA RAY (GR) 
 DT__A.US/FT           : SONIC DELTA TRANSIT TIME (DT) 
 DPHI__A.V/V           : DENSITY POROSITY (DPHI) 
 NPHI__A.V/V           : NEUTRON POROSITY (NPHI) 
 RHOB__A.G/CC          : BULK DENSITY (RHOB) 
 #___________________________________________________________________________________________________ 
~A         DEPT        CALI__A          GR__A          DT__A        DPHI__A        NPHI__A        RHOB__A
# ...
         8808.0          9.859         54.063         59.902        0.03417        0.07776         2.6670
         8808.5          9.872         47.421         59.218        0.03233        0.07344         2.6550
         8809.0          9.885         48.370         58.535        0.02386        0.06210         2.6530
         8809.5          9.898         53.002         60.084        0.01665        0.06679         2.6720
         8810.0          9.911         60.009         62.113        0.03052        0.08829         2.6660
         8810.5          9.924         67.016         64.141        0.04848        0.11579         2.6550
         8811.0          9.927         72.806         66.169        0.05954        0.11918         2.6440
         8811.5          9.929         70.494         65.963        0.05965        0.11669         2.6320
         8812.0          9.931         64.286         64.102        0.05887        0.10330         2.6210
         8812.5          9.934         59.473         62.242        0.04558        0.08725         2.6100
         8813.0          9.936         56.172         62.077        0.03229        0.06989         2.6340
         8813.5          9.939         65.523         64.362        0.03497        0.07024         2.6440
         8814.0          9.941         79.703         66.646        0.04805        0.09287         2.6290
         8814.5          9.944         91.734         68.931        0.06113        0.12306         2.6140
         8815.0          9.946         96.115         71.215        0.07421        0.14616         2.5990
         8815.5          9.949         98.684         71.620        0.08177        0.15432         2.5850
         8816.0          9.951         92.310         67.951        0.08611        0.14270         2.5790
         8816.5          9.953         80.362         64.282        0.06683        0.11074         2.5690
         8817.0          9.955         46.302         60.613        0.04756        0.07279         2.5790
         8817.5          9.957         39.064         56.944        0.02829        0.04348         2.6170
         8818.0          9.958         31.826         55.270        0.01093        0.03290         2.6560
         8818.5          9.960         33.076         56.812        0.00575        0.03982         2.6940
         8819.0          9.962         38.785         58.355        0.01436        0.05608         2.6980
         8819.5          9.964         46.550         59.898        0.02297        0.07235         2.6820
         8820.0          9.965         52.538         61.440        0.03158        0.07995         2.6650
         8820.5          9.967         61.767         62.983        0.03806        0.08027         2.6490
         8821.0          9.969         67.521         64.734        0.03889        0.07778         2.6460
         8821.5          9.970         64.491         63.308        0.03868        0.07528         2.6440
         8822.0          9.972         48.358         61.314        0.02646        0.06078         2.6410
         8822.5          9.974         39.705         59.320        0.01423        0.04447         2.6530
         8823.0          9.976         38.018         57.326        0.01348        0.03324         2.6660
         8823.5          9.977         46.747         59.547        0.01639        0.05058         2.6780
         8824.0          9.979         70.888         65.410        0.02198        0.08386         2.6790
         8824.5          9.981         83.014         69.606        0.04059        0.11731         2.6440
         8825.0          9.982         91.731         70.039        0.05919        0.15566         2.6090
         8825.5          9.984         90.218         69.595        0.07018        0.15444         2.5960
         8826.0          9.986         73.548         67.231        0.06461        0.13765         2.5940
         8826.5          9.988         54.690         64.862        0.04985        0.11173         2.5930
         8827.0          9.989         43.850         61.605        0.03508        0.08457         2.6150
         8827.5          9.991         36.288         58.347        0.02508        0.05757         2.6360
         8828.0          9.993         34.448         57.535        0.01847        0.04382         2.6570
         8828.5          9.995         32.609         56.783        0.01358        0.03507         2.6790
         8829.0          9.996         31.030         56.031        0.01357        0.02693         2.6820
         8829.5          9.996         34.567         56.157        0.02043        0.02683         2.6730
         8830.0          9.996         41.176         57.041        0.02750        0.04093         2.6630
         8830.5          9.996         50.993         58.653        0.03456        0.05585         2.6540
         8831.0          9.996         60.810         62.332        0.04163        0.07077         2.6450
         8831.5          9.997         69.461         66.011        0.04990        0.09159         2.6350
         8832.0          9.997         78.063         68.817        0.05969        0.11865         2.6260
         8832.5          9.997         86.666         70.554        0.06591        0.14710         2.6170
         8833.0          9.997         90.867         70.843        0.06371        0.16174         2.6070
         8833.5          9.997         89.583         69.458        0.05190        0.15582         2.6090
         8834.0          9.994         88.298         68.073        0.05111        0.14484         2.6160
         8834.5          9.989         81.227         66.688        0.05594        0.13474         2.6220
         8835.0          9.984         73.675         65.188        0.05821        0.12504         2.6170
         8835.5          9.979         58.457         63.644        0.03066        0.09502         2.6090
         8836.0          9.974         49.675         62.100        0.01281        0.06967         2.6240
         8836.5          9.969         51.441         61.779        0.01792        0.06513         2.6600
         8837.0          9.964         55.107         62.400        0.02818        0.07431         2.6830
         8837.5          9.959         56.875         63.021        0.03752        0.07685         2.6700
         8838.0          9.947         57.731         63.642        0.02663        0.07549         2.6570
         8838.5          9.936         60.185         64.853        0.01832        0.07270         2.6520
         8839.0          9.925         72.057         66.159        0.03153        0.08157         2.6660
         8839.5          9.913         83.430         67.465        0.04475        0.09909         2.6600
         8840.0          9.902         90.229         68.408        0.05434        0.11062         2.6300
         8840.5          9.891         94.364         68.912        0.05825        0.12026         2.6140
         8841.0          9.880        102.269         69.416        0.06371        0.12857         2.6060
         8841.5          9.868        110.175         71.567        0.07557        0.14282         2.5990
         8842.0          9.857        118.080         74.799        0.08743        0.15879         2.5890
         8842.5          9.846        112.612         75.075        0.09177        0.16495         2.5730
         8843.0          9.834        106.280         74.645        0.09120        0.16702         2.5570
         8843.5          9.823         97.025         72.485        0.09064        0.15642         2.5550
         8844.0          9.818         83.776         70.325        0.08648        0.14157         2.5590
         8844.5          9.819         72.245         67.712        0.07637        0.12100         2.5630
         8845.0          9.820         65.337         64.804        0.06627        0.10042         2.5780
         8845.5          9.822         60.796         62.389        0.05653        0.08231         2.5970
