#--------------------------------------------------#
#-------------------ENVERUS, INC.------------------#
#------------------WWW.ENVERUS.COM-----------------#
#------------------COPYRIGHT 2020------------------#
#--------------------------------------------------#
#THIS FILE MAY BE USED ONLY IN ACCORDANCE WITH A CURRENT SUBSCRIPTION AGREEMENT BETWEEN
#THE USER AND ENVERUS, INC. NO PART OF THIS FILE MAY BE REPRODUCED, USED, COPIED,
#MODIFIED, PROPAGATED, OR DISTRIBUTED EXCEPT IN ACCORDANCE WITH THE SUBSCRIPTION
#AGREEMENT. UNAUTHORIZED USE OR DISTRIBUTION OF ALL OR ANY PART OF THIS FILE MAY VIOLATE
#COPYRIGHT, TRADEMARK, AND/OR OTHER LAWS AND IS SUBJECT TO CIVIL AS WELL AS CRIMINAL
#SANCTIONS.
#--------------------------------------------------#
#THIS FILE IS PROVIDED "AS-IS" AND ALL WARRANTIES ARE EXPRESSLY DISCLAIMED, WHETHER
#EXPRESS, ORAL, IMPLIED, STATUTORY OR OTHERWISE, INCLUDING ANY IMPLIED WARRANTY OF FITNESS
#FOR A PARTICULAR PURPOSE, MERCHANTABILITY, TITLE OR NON-INFRINGEMENT, AND ANY WARRANTIES
#ARISING BY VIRTUE OF CUSTOM OF TRADE OR COURSE OF DEALING.  FURTHER, ENVERUS, INC.
#AND ITS LICENSORS DO NOT REPRESENT OR WARRANT THAT THIS FILE WILL MEET USER'S
#REQUIREMENTS OR ARE SUITABLE FOR USER'S NEEDS OR THAT THE DATA OR RESULTS PROVIDED IN
#CONJUNCTION THEREWITH ARE CORRECT, ACCURATE, TIMELY OR RELIABLE. THESE DISCLAIMERS SHALL
#APPLY REGARDLESS OF ANY FAILURE OF ESSENTIAL PURPOSE OF ANY LIMITED REMEDY.  SOME
#JURISDICTIONS DO NOT ALLOW THE EXCLUSION OF CERTAIN WARRANTIES SO SOME OF THE ABOVE
#EXCLUSIONS MAY NOT APPLY. IN NO EVENT SHALL ENVERUS, INC. OR ANY OF ITS AFFILIATES
#BE LIABLE UNDER ANY LEGAL THEORY, WHETHER IN TORT (INCLUDING WITHOUT LIMITATION
#NEGLIGENCE), CONTRACT, STRICT LIABILITY, STATUTORY OR OTHERWISE, FOR ANY SPECIAL,
#INCIDENTAL, CONSEQUENTIAL, EXEMPLARY, PUNITIVE OR INDIRECT DAMAGE OF ANY KIND, INCLUDING
#WITHOUT LIMITATION LOSS OF REVENUE, PROFITS, GOODWILL, USE, AND/OR DATA OR THE COST OF
#PROCUREMENT OF SUBSTITUTE GOODS OR SERVICES, EVEN IF APPRISED OF THE POSSIBILITY OF SUCH
#DAMAGES IN ADVANCE.
#--------------------------------------------------#

~VERSION INFORMATION
VERS. 2.0 : CWLS LOG ASCII STANDARD - VERSION 2.0
WRAP.  NO : ONE LINE PER DEPTH STEP
~WELL INFORMATION
#MNEMONIC     .UNIT              VALUE :DESCRIPTION
STRT       .FT                47 :START DEPTH
STOP       .FT                15730 :STOP DEPTH
STEP       .FT                   0.500 :STEP
NULL       .                  -999.250 :NULL
UWI        .              42389303580000 :UNIQUE WELL ID
API        .              42389303580000 :API NUMBER
COMP       .         CIMAREX ENERGY CO. OF COLORADO :COMPANY
WELL       .        REEVES  AZ  FEE  1 :WELL
DATE       .                08-JAN-2006 :LOG DATE
~CURVE INFORMATION
#MNEMONIC     .UNIT      API CODE :CURVE DESCRIPTION
DEPTH       .FT                      :MEASURED DEPTH
NEUT.API        UNKNOWN   :NEUT
GR.API        UNKNOWN   :GR
DT.US/FT        UNKNOWN   :DT
CAL.INCH        UNKNOWN   :CAL
~A    DEPTH    NEUT    GR    DT    CAL
# ...
 5826     -999.250   40.64   72.109   13.244
 5826.5     -999.250   40.018   72.536   13.253
 5827     -999.250   39.397   72.607   13.262
 5827.5     -999.250   38.775   72.205   13.271
 5828     -999.250   38.154   71.802   13.28
 5828.5     -999.250   38.337   71.4   13.289
 5829     -999.250   38.783   70.997   13.298
 5829.5     -999.250   39.23   71.04   13.307
 5830     -999.250   39.676   71.286   13.316
 5830.5     -999.250   40.123   71.532   13.326
 5831     -999.250   40.569   71.777   13.335
 5831.5     -999.250   40.827   72.023   13.344
 5832     -999.250   41.051   71.924   13.353
 5832.5     -999.250   41.276   71.81   13.362
 5833     -999.250   41.5   71.695   13.371
 5833.5     -999.250   41.724   71.511   13.38
 5834     -999.250   41.948   71.102   13.389
 5834.5     -999.250   41.677   70.692   13.398
 5835     -999.250   41.376   70.283   13.407
 5835.5     -999.250   41.075   69.874   13.416
 5836     -999.250   40.774   70.327   13.425
 5836.5     -999.250   40.473   70.955   13.434
 5837     -999.250   40.172   71.425   13.444
 5837.5     -999.250   39.871   70.877   13.453
 5838     -999.250   39.57   70.33   13.462
 5838.5     -999.250   39.269   69.783   13.471
 5839     -999.250   38.968   69.235   13.48
 5839.5     -999.250   39.521   68.688   13.489
 5840     -999.250   40.249   68.492   13.498
 5840.5     -999.250   40.977   68.439   13.507
 5841     -999.250   41.705   68.765   13.5
 5841.5     -999.250   42.433   69.267   13.489
 5842     -999.250   43.161   69.768   13.479
 5842.5     -999.250   43.889   70.27   13.468
 5843     -999.250   44.617   70.772   13.458
 5843.5     -999.250   44.881   70.498   13.448
 5844     -999.250   44.421   69.753   13.437
 5844.5     -999.250   43.961   69.008   13.427
 5845     -999.250   43.501   68.263   13.417
 5845.5     -999.250   43.041   67.775   13.406
 5846     -999.250   42.582   68.245   13.396
 5846.5     -999.250   42.122   68.328   13.385
 5847     -999.250   41.662   68.348   13.375
 5847.5     -999.250   41.515   68.369   13.365
 5848     -999.250   41.442   68.389   13.354
 5848.5     -999.250   41.37   68.409   13.344
 5849     -999.250   41.298   67.897   13.334
 5849.5     -999.250   41.226   67.243   13.323
 5850     -999.250   41.153   66.589   13.313
 5850.5     -999.250   41.081   65.998   13.302
 5851     -999.250   41.009   66.368   13.292
 5851.5     -999.250   40.937   66.738   13.282
 5852     -999.250   40.864   67.109   13.271
 5852.5     -999.250   40.792   67.479   13.261
 5853     -999.250   40.723   67.849   13.268
 5853.5     -999.250   41.555   68.219   13.277
 5854     -999.250   42.387   68.589   13.287
 5854.5     -999.250   43.219   68.328   13.296
 5855     -999.250   44.051   67.702   13.305
 5855.5     -999.250   44.883   67.077   13.315
 5856     -999.250   45.715   66.451   13.324
 5856.5     -999.250   46.547   67.628   13.334
 5857     -999.250   47.378   68.992   13.343
 5857.5     -999.250   47.155   68.612   13.352
 5858     -999.250   46.117   68.013   13.362
 5858.5     -999.250   45.079   67.413   13.371
 5859     -999.250   44.041   66.813   13.381
 5859.5     -999.250   43.003   67.011   13.39
 5860     -999.250   41.965   67.381   13.4
 5860.5     -999.250   41.294   67.751   13.409
 5861     -999.250   41.729   68.378   13.418
 5861.5     -999.250   42.163   71.146   13.428
 5862     -999.250   42.598   71.606   13.437
 5862.5     -999.250   43.033   71.371   13.447
 5863     -999.250   43.581   71.136   13.456
 5863.5     -999.250   44.621   70.908   13.465
 5864     -999.250   45.66   70.68   13.475
 5864.5     -999.250   46.699   70.451   13.484
 5865     -999.250   47.739   70.233   13.494
 5865.5     -999.250   48.778   70.035   13.503
 5866     -999.250   49.818   69.837   13.513
 5866.5     -999.250   50.857   69.638   13.514
 5867     -999.250   51.509   69.44   13.498
 5867.5     -999.250   50.282   69.242   13.482
 5868     -999.250   49.055   69.043   13.466
 5868.5     -999.250   47.828   69.57   13.451
 5869     -999.250   46.601   70.169   13.435
 5869.5     -999.250   46.083   70.768   13.419
 5870     -999.250   46.168   71.102   13.403
 5870.5     -999.250   46.253   70.373   13.388
 5871     -999.250   46.338   69.643   13.372
 5871.5     -999.250   46.424   68.971   13.356
 5872     -999.250   46.509   68.636   13.34
 5872.5     -999.250   46.594   68.3   13.324
 5873     -999.250   46.679   67.964   13.309
 5873.5     -999.250   46.764   67.628   13.293
 5874     -999.250   46.849   67.636   13.301
 5874.5     -999.250   46.934   68.137   13.313
 5875     -999.250   46.313   68.639   13.324
 5875.5     -999.250   45.691   69.095   13.335
 5876     -999.250   45.07   68.295   13.347
 5876.5     -999.250   44.448   67.496   13.358
 5877     -999.250   45.491   66.697   13.369
 5877.5     -999.250   46.979   66.453   13.381
 5878     -999.250   48.468   66.217   13.392
 5878.5     -999.250   49.956   66.204   13.404
 5879     -999.250   51.444   66.768   13.415
 5879.5     -999.250   52.933   67.332   13.426
 5880     -999.250   54.421   67.896   13.438
 5880.5     -999.250   55.909   67.365   13.449
 5881     -999.250   57.398   66.715   13.46
 5881.5     -999.250   58.886   66.065   13.472
 5882     -999.250   60.374   65.415   13.483
 5882.5     -999.250   61.863   65.154   13.494
 5883     -999.250   63.168   65.284   13.497
 5883.5     -999.250   63.17   65.414   13.471
 5884     -999.250   63.157   65.544   13.445
 5884.5     -999.250   62.276   65.777   13.419
 5885     -999.250   61.394   66.138   13.394
 5885.5     -999.250   60.513   66.499   13.368
 5886     -999.250   59.631   66.86   13.342
 5886.5     -999.250   58.75   67.237   13.316
 5887     -999.250   57.868   67.89   13.291
 5887.5     -999.250   56.987   68.543   13.265
 5888     -999.250   56.105   69.196   13.239
 5888.5     -999.250   57.391   69.847   13.213
 5889     -999.250   60.156   69.8   13.187
 5889.5     -999.250   62.92   69.752   13.2
 5890     -999.250   65.685   69.704   13.222
 5890.5     -999.250   68.449   69.657   13.244
 5891     -999.250   67.705   69.609   13.266
 5891.5     -999.250   63.76   69.561   13.288
 5892     -999.250   59.814   69.612   13.31
 5892.5     -999.250   55.869   69.969   13.332
 5893     -999.250   51.924   70.327   13.354
 5893.5     -999.250   47.978   70.685   13.376
 5894     -999.250   44.788   71.042   13.398
 5894.5     -999.250   42.012   71.4   13.42
 5895     -999.250   39.608   71.758   13.442
 5895.5     -999.250   39.85   72.077   13.464
 5896     -999.250   40.092   72.175   13.486
 5896.5     -999.250   40.334   72.274   13.508
 5897     -999.250   40.575   72.372   13.53
 5897.5     -999.250   40.817   72.47   13.552
 5898     -999.250   40.861   72.569   13.574
 5898.5     -999.250   40.794   72.667   13.596
 5899     -999.250   40.727   72.547   13.585
 5899.5     -999.250   40.66   72.346   13.56
 5900     -999.250   40.593   72.144   13.536
 5900.5     -999.250   40.526   71.942   13.511
 5901     -999.250   40.39   71.74   13.487
 5901.5     -999.250   40.109   70.323   13.462
 5902     -999.250   39.828   68.895   13.438
 5902.5     -999.250   39.546   67.466   13.413
 5903     -999.250   39.265   66.038   13.389
 5903.5     -999.250   38.984   65.414   13.364
 5904     -999.250   38.703   67.301   13.34
 5904.5     -999.250   38.422   69.187   13.315
 5905     -999.250   38.14   69.892   13.291
 5905.5     -999.250   37.902   69.627   13.266
 5906     -999.250   38.454   69.361   13.241
 5906.5     -999.250   39.006   69.096   13.217
 5907     -999.250   39.558   68.723   13.192
 5907.5     -999.250   40.11   67.749   13.168
 5908     -999.250   40.661   66.776   13.145
 5908.5     -999.250   41.213   65.812   13.142
 5909     -999.250   41.765   64.936   13.139
 5909.5     -999.250   43.125   64.059   13.136
 5910     -999.250   44.591   63.182   13.133
 5910.5     -999.250   46.058   64.378   13.13
 5911     -999.250   47.525   66.312   13.127
 5911.5     -999.250   48.992   65.998   13.124
