#--------------------------------------------------#
#-------------------ENVERUS, INC.------------------#
#------------------WWW.ENVERUS.COM-----------------#
#------------------COPYRIGHT 2020------------------#
#--------------------------------------------------#
#THIS FILE MAY BE USED ONLY IN ACCORDANCE WITH A CURRENT SUBSCRIPTION AGREEMENT BETWEEN
#THE USER AND ENVERUS, INC. NO PART OF THIS FILE MAY BE REPRODUCED, USED, COPIED,
#MODIFIED, PROPAGATED, OR DISTRIBUTED EXCEPT IN ACCORDANCE WITH THE SUBSCRIPTION
#AGREEMENT. UNAUTHORIZED USE OR DISTRIBUTION OF ALL OR ANY PART OF THIS FILE MAY VIOLATE
#COPYRIGHT, TRADEMARK, AND/OR OTHER LAWS AND IS SUBJECT TO CIVIL AS WELL AS CRIMINAL
#SANCTIONS.
#--------------------------------------------------#
#THIS FILE IS PROVIDED "AS-IS" AND ALL WARRANTIES ARE EXPRESSLY DISCLAIMED, WHETHER
#EXPRESS, ORAL, IMPLIED, STATUTORY OR OTHERWISE, INCLUDING ANY IMPLIED WARRANTY OF FITNESS
#FOR A PARTICULAR PURPOSE, MERCHANTABILITY, TITLE OR NON-INFRINGEMENT, AND ANY WARRANTIES
#ARISING BY VIRTUE OF CUSTOM OF TRADE OR COURSE OF DEALING.  FURTHER, ENVERUS, INC.
#AND ITS LICENSORS DO NOT REPRESENT OR WARRANT THAT THIS FILE WILL MEET USER'S
#REQUIREMENTS OR ARE SUITABLE FOR USER'S NEEDS OR THAT THE DATA OR RESULTS PROVIDED IN
#CONJUNCTION THEREWITH ARE CORRECT, ACCURATE, TIMELY OR RELIABLE. THESE DISCLAIMERS SHALL
#APPLY REGARDLESS OF ANY FAILURE OF ESSENTIAL PURPOSE OF ANY LIMITED REMEDY.  SOME
#JURISDICTIONS DO NOT ALLOW THE EXCLUSION OF CERTAIN WARRANTIES SO SOME OF THE ABOVE
#EXCLUSIONS MAY NOT APPLY. IN NO EVENT SHALL ENVERUS, INC. OR ANY OF ITS AFFILIATES
#BE LIABLE UNDER ANY LEGAL THEORY, WHETHER IN TORT (INCLUDING WITHOUT LIMITATION
#NEGLIGENCE), CONTRACT, STRICT LIABILITY, STATUTORY OR OTHERWISE, FOR ANY SPECIAL,
#INCIDENTAL, CONSEQUENTIAL, EXEMPLARY, PUNITIVE OR INDIRECT DAMAGE OF ANY KIND, INCLUDING
#WITHOUT LIMITATION LOSS OF REVENUE, PROFITS, GOODWILL, USE, AND/OR DATA OR THE COST OF
#PROCUREMENT OF SUBSTITUTE GOODS OR SERVICES, EVEN IF APPRISED OF THE POSSIBILITY OF SUCH
#DAMAGES IN ADVANCE.
#--------------------------------------------------#

# EXPORTED FROM DI TRANSFORM
# DI TRANSFORM - A PRODUCT OF DRILLINGINFO, INC. - WWW.DRILLINGINFO.COM
#
~VERSION INFORMATION
 VERS.        2.0 : LAS ASCII STANDARD - VERSION 2.0
 WRAP.         NO : ONE LINE PER DEPTH STEP

~WELL INFORMATION
#MNEM.UNIT       DATA TYPE       INFORMATION
#---------       ---------       -----------
 STRT.FT          3310 : START DEPTH
 STOP.FT         11910 : STOP DEPTH
 STEP.FT           0.5 : STEP LENGTH
 NULL.         -999.25 : NULL VALUE
 UWI.   42389328760000 : UNIQUE WELL ID
 API.   42389328760000 : WELL IDENTIFIER
 COMP.                 : COMPANY
 WELL.          DRD_55 : WELL NAME
 FLD.                  : FIELD NAME
 LOC.                  : WELL LOCATION
 CNTY.                 : COUNTY
 STAT.                 : STATE OR PROVINCE
 CTRY.                 : COUNTRY
 SRVC.                 : SERVICE COMPANY
 DATE.                 : DATE

~CURVE INFORMATION
#MNEM.UNIT       API CODE       CURVE DESCRIPTION
#---------       --------       -----------------
 DEPT.FT        : <MEASURED DEPTH>
 CAL.IN         : CALIPER
 DT.US/FT       : SONIC
 GR.GAPI        : GAMMA RAY
 ILD.OHMM       : DEEP RESISTIVITY
 ILS.OHMM       : SHALLOW RESISTIVITY

~PARAMETER INFORMATION
#MNEM.UNIT       VALUE       DESCRIPTION
#---------       -----       -----------
 EKB.FT      3168.5 : ELEVATION ABOVE MSL

~A       DEPT         CAL          DT          GR         ILD         ILS
# ...
        11267      8.1912     88.5266    140.3767      9.5166      8.2751
      11267.5      8.1912     86.5226    124.2764      9.7917      8.7882
        11268      8.1912     84.3219     95.1638     10.9262      9.1387
      11268.5      8.1912     80.8929     67.2327     15.6318     10.7212
        11269      8.1912     77.5075     57.1557      26.813      29.491
      11269.5      8.1912     74.3325     58.5486     34.6826     31.8281
        11270      8.1912     72.2734     70.7273     23.0619     21.9515
      11270.5      8.1912     72.1407     94.6194     21.7046     20.4384
        11271      8.1912     72.9249    110.0104     15.7861     14.2073
      11271.5      8.1912     74.4732    108.8756      9.2186      8.3756
        11272      8.1912     75.5826    102.1555     17.2721     10.9713
      11272.5      8.1912     74.4875     87.7227     23.7771     26.8412
        11273      8.1912      73.218     80.2835        25.7     33.1505
      11273.5      8.1912     71.7171    100.6038     26.4617     34.7707
        11274      8.1912     71.3537    121.1032     23.6733     27.7222
      11274.5      8.1912     73.5991    130.9891     14.5986      14.761
        11275      8.1912     80.6406    131.5486       9.492       9.759
      11275.5      8.1912      85.747    125.9122      9.1274       9.118
        11276      8.1912      88.333    115.8223      9.1183      8.9366
      11276.5      8.1912     88.4878    110.2021      9.2138      8.9366
        11277      8.1912     86.3669    100.0151     11.0068     11.0081
      11277.5      8.1912     78.8055      89.231     12.7194     15.8184
        11278      8.1912     77.5711     94.6074     15.8122     16.0805
      11278.5      8.1912     77.5711    111.2681     15.0868     15.1836
        11279      8.1912      77.623    125.8647     13.1728     11.9696
      11279.5      8.1912     77.7251    126.1773      8.1942     10.6154
        11280      8.1912     77.6912    123.1959     12.6151      11.536
      11280.5      8.1912     74.5265     95.7435     14.1835     19.1663
        11281      8.1912     70.6776     66.3836     28.9071     32.1068
      11281.5      8.1912     70.0258     53.1159     51.2871     43.3846
        11282      8.1912     70.2608       51.34     35.3893     43.2936
      11282.5      8.1912     76.3917     62.3719     24.0552     28.5846
        11283      8.1912     87.7714      93.414     13.3294     17.4281
      11283.5      8.1912     88.9504    123.3258     12.4423     12.8887
        11284      8.1912     88.6783    127.0045      12.039     12.2427
      11284.5      8.1912     88.4061    123.1334     11.7205     12.2655
        11285      8.1912     88.1875    121.4052     10.8227     11.7428
      11285.5      8.1912     87.2377    116.3848     10.8557     10.4621
        11286      8.1912     84.1518     103.707     11.3773     11.6073
      11286.5      8.1912     79.9676    104.8124     11.7066     11.7416
        11287      8.1912      76.944    113.0212     12.0446     11.6602
      11287.5      8.1912      75.799    113.2056     13.1792     11.6836
        11288      8.1912     75.1029     108.956     19.1301     20.3965
      11288.5      8.1912     75.2192    101.6392     25.9195     25.0509
        11289      8.1912     76.8689     108.471     28.5587     24.0043
      11289.5      8.1912     81.0267    115.2525     28.1402     23.3283
        11290      8.1912     83.6252    125.9485     27.4791      22.188
      11290.5      8.1912     84.5482    129.7103     22.6054     18.4777
        11291      8.1912     85.2286    117.9654     20.0458      16.625
      11291.5      8.1912     85.2189    100.4481     20.5322     17.8317
        11292      8.1912     83.2135     96.5743       21.52     18.3753
      11292.5      8.1912      78.315     88.3836     22.9808     19.1717
        11293      8.1912     73.5737     74.0083     28.8817     30.0438
      11293.5      8.1912     71.8075     70.0944     37.2763     39.6923
        11294      8.1912     73.0322      96.087      36.539     29.1868
      11294.5      8.1912     76.2783    112.8898     31.3282      25.891
        11295      8.1912     84.2977    123.1778     29.6916      24.569
      11295.5      8.1912      89.025    130.4703     23.7413     19.3763
        11296      8.1912      89.451    125.2783     17.6244     13.4657
      11296.5      8.1912     89.2905    118.6801      17.859     14.2752
        11297      8.1912     88.4347    116.5891     18.7171     15.0909
      11297.5      8.1912     87.9761    116.2639     19.2588     15.4297
        11298      8.1912      87.993    123.6734     20.3702     16.3837
      11298.5      8.1912     88.7469    128.6713     24.3925     24.1755
        11299      8.1912     89.2912    129.7315     28.0335     24.6604
      11299.5      8.1912     89.6356    132.2249     24.4453     22.2128
        11300      8.1912     89.6939    135.9663     23.3973     19.1615
      11300.5      8.1912     89.7522    138.0478     23.0908     19.0048
        11301      8.1912     89.8169    135.9436     21.6759     17.7914
      11301.5      8.1912     89.8849    134.4622     16.0734     15.5644
        11302      8.1912     89.5802    134.6706     13.0346      12.319
      11302.5      8.1912     88.4009    137.0234     10.8539      9.8735
        11303      8.1912     86.0782     130.487     10.3033      9.3311
      11303.5      8.1912     82.7383    113.3428     10.1964        8.88
        11304      8.1912     79.7466     81.6913     11.5165      9.2015
      11304.5      8.1912     76.4809     64.5504     20.0523     12.0081
        11305      8.1514     74.5209     60.1997     23.5658      24.924
      11305.5      8.1514       76.76     74.7614     20.1272     17.9978
        11306      8.1514     80.7527    101.7351     19.4365     16.7103
      11306.5      8.1514     83.7182    129.3588      15.774     16.3598
        11307      8.1514     84.4743    129.0986     11.8502     10.0352
      11307.5      8.1514     85.4066    124.1024     11.4613     10.7436
        11308      8.1514     86.3047    127.9783     11.6026     10.8862
      11308.5      8.1514     87.3388    137.2182      11.513     10.9175
        11309      8.1514     88.4274    143.0674     10.9845     10.7935
      11309.5      8.1514     89.9199    146.5796     10.2893     10.5036
        11310      8.1514     91.1991    154.4111     10.1861       9.751
      11310.5      8.1514     91.9113    150.5403      9.7192       9.637
        11311      8.1514     91.5821    142.2734      9.6471       9.624
      11311.5      8.1514     89.4827    134.7244      9.7706      9.4917
        11312      8.1514     84.2393    131.3359      9.6063      9.0611
      11312.5      8.1514     81.7336    127.4317     10.9188      9.5294
        11313      8.1514     79.8286    113.3964     13.1989      11.308
      11313.5      8.1514     77.3578    100.2614     14.1616     13.1915
        11314      8.1514     74.2961    102.8118     14.8611     13.2718
      11314.5      8.1514      72.693    110.2892     16.2826     13.7406
        11315      8.1514     71.3614    102.8083     22.9852     15.7956
      11315.5      8.1514     66.9985     77.3542     36.1343     27.9783
        11316      8.1514     62.7122     45.9803    162.1772     68.1481
      11316.5      8.1514     59.3626     26.5858    227.0779    178.9128
        11317      8.1514     56.0289     22.4052    250.9055    258.8967
      11317.5      8.1514     52.9534     24.7208    274.6759    283.0863
        11318      8.1514     51.6571     36.3415    510.5253    589.2974
      11318.5      8.1514     56.6425      76.776    105.1152     34.5907
        11319      8.1514     67.6643    116.9828     13.7772      11.862
      11319.5      8.1514     75.7146    132.3417     13.3522     11.4664
        11320      8.1514     82.7405    126.3398     12.2016     11.4664
      11320.5      8.1514     84.3734    121.6808      9.9811      8.9842
        11321      8.1514     86.1339    111.8065     11.6281     10.3026
