###############################################
##         ENVERUS                           ##
##         ESS - Open Hole                   ##
##         PERMIAN / DELAWARE                ##
##         Nov 04 2023  V4.0                 ##
##         42-389-32245-00-00                ##
###############################################
## Copyright 2017-2023  ENVERUS.  All Rights Reserved. 
## Confidential - Property of ENVERUS, use governed by terms and 
## conditions found within the existing Information Services Subscription Agreement 
## (as may be amended, the “ISSA”) between Customer and ENVERUS. 
## 
~VERSION INFORMATION
# MNEM.UNIT                               DATA : DESCRIPTION OF MNEMONIC
#-----.-----     ----------------------------- : -----------------------------
VERS.                                     2.00 : CWLS LOG ASCII STANDARD - VERSION 2.00
WRAP.                                       NO : MULTIPLE LINES PER DEPTH STEP
VEND.                                  ENVERUS : VENDOR
TYPE.                          ESS - OPEN HOLE : ENVERUS ESSENTIAL CURVES – ACCESSIBLE THROUGH ENVERUS PRISM(TM)
DOC.                                  24742630 : ENVERUS HEADER RAW DOCUMENT ID
#___________________________________________________________________________________________________ 
~WELL INFORMATION 
# u9Wg0OWXiPz858M7Kubpm0lpDPxjGuyhH3tqBPDGtvBYDDDqGrwiIchrhDPbdkpmsDZNCKsM7+2eKUVstoQO7Q== 
# MNEM.UNIT                                              DATA : DESCRIPTION OF MNEMONIC 
#-----.-----                    ----------------------------- : ----------------------------- 
CNTY.                                                  REEVES : COUNTY 
STATE.                                                  TEXAS : STATE 
CNTRY.                                                    USA : COUNTRY 
API.                                             42-389-32245 : API (10 Digit) 
API_14.                                    42-389-32245-00-00 : API (14 Digits) 
API_14_std.                                 42-389-32245-0000 : API (14 Digits Standard) 
UWI.                                           42389322450000 : UNIQUE WELL ID 
WELL.                          TEXAS PACIFIC LAND TRUST #25-1 : WELL NAME
STRT.FT                                                2530.0 : START DEPTH
STOP.FT                                               10610.0 : STOP DEPTH
STEP.FT                                                   0.5 : STEP BETWEEN DEPTHS
NULL.                                                 -999.25 : NULL VALUE
COMP.                                             CONOCO INC. : COMPANY 
FLD.                                            FORD WOLFCAMP : FIELD 
LOC.                                                 25-2S-58 : LOCATION 
SRVC.                                            SCHLUMBERGER : SERVICE COMPANY 
DATE.                                              03/21/2002 : DATE 
TVD.                                                       NO : TVD FLAG
#___________________________________________________________________________________________________ 
~PARAMETER INFORMATION 
# MNEM.UNIT                                              DATA : DESCRIPTION OF MNEMONIC 
#-----.-----                    ----------------------------- : ----------------------------- 
RUN.                                                      ONE : RUN NUMBER 
PDAT.                                                      GL : PERMANENT DATUM 
EPD.FT                                              2993.0000 : ELEVATION OF PERM. DATUM 
LMF.                                            KELLY BUSHING : LOG MEASURED FROM 
EKB.FT                                              3021.0000 : ELEVATION OF KELLY BUSHING 
DF.FT                                               3020.0000 : ELEVATION OF DERRICK FLOOR 
GL.FT                                               2993.0000 : ELEVATION OF GROUND LEVEL 
TD.FT                                              10610.0000 : TOTAL DEPTH 
BHT.DEGF                                               130.00 : BOTTOM HOLE TEMPERATURE 
BLI.FT                                             10610.0000 : BOTTOM LOG INTERVAL 
CSGSIZE.IN                                             9.6250 : CASING SIZE 
BITSIZE.IN                                              8.750 : BITSIZE 
CSGD.FT                                                  2642 : CASING BOTTOM (DRILLER) 1 
CSGL.FT                                                  2538 : CASING BOTTOM (LOGGER) 1 
MUD.                                                CUT BRINE : DRILLING FLUID TYPE 
MUDV.CP                                               28.0000 : DRILLING FLUID VISCOSITY 
MUDD.LB/USG                                           10.0000 : DRILLING FLUID DENSITY 
PH.                                                    8.5000 : DRILLING FLUID PH 
MUDS.                                        CIRCULATION TANK : MUD SAMPLE SOURCE 
RM.OHMM                                                0.0610 : RESISTIVITY OF MUD SAMPLE 
RMT.DEGF                                              75.0000 : MUD SAMPLE TEMPERATURE 
RMF.OHMM                                               0.0610 : MUD FILTRATE RESISTIVITY 
RMFT.DEGF                                             75.0000 : MUD FILTRATE SAMPLE TEMPERATURE
#___________________________________________________________________________________________________ 
~CURVE INFORMATION 
# MNEM.UNIT           : CURVE DESCRIPTION 
#-----.-----          : ----------------------------- 
 DEPT.FT               : MEASURED DEPTH 
 CALI.IN               : CALIPER (CALIPER) 
 GR.API                : GAMMA RAY (GAMMA RAY) 
 DT.US/FT              : SONIC DELTA TRANSIT TIME (DELTA T) 
 SPHI.V/V              : SONIC POROSITY (SONIC POROSITY) 
 #___________________________________________________________________________________________________ 
~A         DEPT           CALI             GR             DT           SPHI
# ...
         6240.0          8.750         83.610         63.620        0.11000
         6240.5          8.750         94.920         64.950        0.13000
         6241.0          8.740        108.610         67.330        0.15000
         6241.5          8.740        129.290         69.920        0.17000
         6242.0          8.740        157.600         71.810        0.18000
         6242.5          8.730        171.660         72.970        0.18000
         6243.0          8.730        157.880         72.670        0.18000
         6243.5          8.720        144.100         71.180        0.16000
         6244.0          8.720        130.320         69.180        0.15000
         6244.5          8.720        117.260         67.190        0.13000
         6245.0          8.710         95.900         65.820        0.13000
         6245.5          8.710         86.610         65.770        0.13000
         6246.0          8.710         87.060         66.630        0.13000
         6246.5          8.700         94.570         66.870        0.14000
         6247.0          8.710        100.220         66.680        0.14000
         6247.5          8.710         99.160         66.900        0.14000
         6248.0          8.710        100.170         68.140        0.15000
         6248.5          8.720        108.010         70.480        0.17000
         6249.0          8.720        122.380         72.820        0.19000
         6249.5          8.730        149.560         75.160        0.20000
         6250.0          8.730        170.280         75.840        0.19000
         6250.5          8.740        176.310         72.480        0.17000
         6251.0          8.740        162.740         69.440        0.15000
         6251.5          8.740        136.540         66.400        0.12000
         6252.0          8.750        108.840         63.360        0.09000
         6252.5          8.750         74.280         60.320        0.07000
         6253.0          8.760         52.410         57.320        0.06000
         6253.5          8.760         41.060         55.890        0.05000
         6254.0          8.770         32.280         54.480        0.04000
         6254.5          8.770         28.240         53.180        0.04000
         6255.0          8.760         24.290         52.410        0.03000
         6255.5          8.760         20.730         52.220        0.04000
         6256.0          8.760         20.780         53.050        0.04000
         6256.5          8.750         25.280         54.030        0.05000
         6257.0          8.750         31.400         55.020        0.06000
         6257.5          8.740         42.580         56.780        0.07000
         6258.0          8.740         71.040         59.700        0.09000
         6258.5          8.740         92.760         62.630        0.11000
         6259.0          8.730        114.330         65.550        0.13000
         6259.5          8.730        120.760         68.470        0.15000
         6260.0          8.730        141.130         70.930        0.18000
         6260.5          8.720        161.500         72.650        0.18000
         6261.0          8.720        182.390         72.510        0.17000
         6261.5          8.710        191.770         70.460        0.16000
         6262.0          8.710        182.330         68.340        0.14000
         6262.5          8.710        148.440         66.220        0.12000
         6263.0          8.700        117.860         64.100        0.11000
         6263.5          8.710         79.540         61.980        0.09000
         6264.0          8.720         67.750         59.860        0.07000
         6264.5          8.730         55.520         57.770        0.07000
         6265.0          8.740         48.910         58.150        0.09000
         6265.5          8.750         53.680         60.980        0.10000
         6266.0          8.760         76.320         64.950        0.12000
         6266.5          8.770        107.220         67.470        0.14000
         6267.0          8.780        114.170         69.010        0.15000
         6267.5          8.790        124.300         69.380        0.15000
         6268.0          8.800        133.010         69.020        0.15000
         6268.5          8.810        133.190         68.530        0.15000
         6269.0          8.820        125.790         68.080        0.14000
         6269.5          8.830        115.790         66.300        0.13000
         6270.0          8.840         97.310         64.660        0.12000
         6270.5          8.850         75.730         63.010        0.10000
         6271.0          8.860         61.180         61.680        0.09000
         6271.5          8.860         58.220         61.120        0.09000
         6272.0          8.870         57.870         60.970        0.09000
         6272.5          8.880         57.650         60.440        0.09000
         6273.0          8.890         56.450         59.640        0.08000
         6273.5          8.890         55.450         58.830        0.08000
         6274.0          8.900         57.820         58.460        0.09000
         6274.5          8.940         65.650         60.970        0.11000
         6275.0          8.990         75.530         63.800        0.12000
         6275.5          9.040         85.460         66.620        0.14000
         6276.0          9.070         95.660         69.440        0.15000
         6276.5          9.070         97.460         69.900        0.16000
         6277.0          9.070         98.020         70.040        0.16000
         6277.5          9.070        100.380         69.560        0.15000
         6278.0          9.070         98.760         69.070        0.15000
         6278.5          9.070         90.710         68.590        0.15000
         6279.0          9.070         82.120         68.280        0.15000
         6279.5          9.070         77.510         68.330        0.15000
         6280.0          9.070         77.920         67.950        0.14000
         6280.5          9.070         75.250         66.550        0.13000
         6281.0          9.070         67.190         65.170        0.12000
         6281.5          9.070         56.030         64.130        0.11000
         6282.0          9.070         48.990         63.580        0.11000
         6282.5          9.070         48.840         64.750        0.12000
         6283.0          9.070         54.340         65.700        0.13000
         6283.5          9.070         59.500         66.650        0.14000
         6284.0          9.070         64.600         66.970        0.13000
         6284.5          9.070         68.120         65.360        0.12000
         6285.0          9.070         63.020         63.410        0.11000
         6285.5          9.070         54.870         61.610        0.09000
         6286.0          9.070         50.810         61.040        0.10000
         6286.5          9.060         56.510         61.750        0.10000
         6287.0          9.060         68.950         63.510        0.12000
         6287.5          9.050         90.130         66.730        0.14000
         6288.0          9.050        116.160         69.770        0.16000
         6288.5          9.040        136.450         71.470        0.17000
         6289.0          9.040        157.000         71.680        0.17000
         6289.5          9.030        140.060         71.350        0.16000
         6290.0          9.040        119.310         70.880        0.17000
         6290.5          9.060         89.110         71.530        0.18000
         6291.0          9.090         74.860         73.640        0.19000
         6291.5          9.120         72.230         74.600        0.19000
         6292.0          9.140         69.660         74.050        0.18000
         6292.5          9.170         61.900         72.880        0.17000
