###############################################
##         ENVERUS                           ##
##         ESS - Open Hole                   ##
##         PERMIAN / DELAWARE                ##
##         Nov 04 2023  V4.0                 ##
##         42-389-32398-00-00                ##
###############################################
## Copyright 2017-2023  ENVERUS.  All Rights Reserved. 
## Confidential - Property of ENVERUS, use governed by terms and 
## conditions found within the existing Information Services Subscription Agreement 
## (as may be amended, the “ISSA”) between Customer and ENVERUS. 
## 
~VERSION INFORMATION
# MNEM.UNIT                               DATA : DESCRIPTION OF MNEMONIC
#-----.-----     ----------------------------- : -----------------------------
VERS.                                     2.00 : CWLS LOG ASCII STANDARD - VERSION 2.00
WRAP.                                       NO : MULTIPLE LINES PER DEPTH STEP
VEND.                                  ENVERUS : VENDOR
TYPE.                          ESS - OPEN HOLE : ENVERUS ESSENTIAL CURVES – ACCESSIBLE THROUGH ENVERUS PRISM(TM)
DOC.                                  31812117 : ENVERUS HEADER RAW DOCUMENT ID
#___________________________________________________________________________________________________ 
~WELL INFORMATION 
# uAwnbjLw6pKN5CeTb7gwROLhNOHLu74gercCwdGpUdKCBCGOTLsJuzWIBCYkU6KzQxtC+uHRBloynRtd0Ulspg== 
# MNEM.UNIT                                              DATA : DESCRIPTION OF MNEMONIC 
#-----.-----                    ----------------------------- : ----------------------------- 
CNTY.                                                  REEVES : COUNTY 
STATE.                                                  TEXAS : STATE 
CNTRY.                                                    USA : COUNTRY 
API.                                             42-389-32398 : API (10 Digit) 
API_14.                                    42-389-32398-00-00 : API (14 Digits) 
API_14_std.                                 42-389-32398-0000 : API (14 Digits Standard) 
UWI.                                           42389323980000 : UNIQUE WELL ID 
WELL.                                    BLOCK 58 STATE 32  1 : WELL NAME
STRT.FT                                                8311.0 : START DEPTH
STOP.FT                                               12834.0 : STOP DEPTH
STEP.FT                                                   0.5 : STEP BETWEEN DEPTHS
NULL.                                                 -999.25 : NULL VALUE
COMP.                                       SHELL WESTERN E&P : COMPANY 
DATE.                                             08-FEB-2006 : LOG DATE
#___________________________________________________________________________________________________ 
~CURVE INFORMATION 
# MNEM.UNIT           : CURVE DESCRIPTION 
#-----.-----          : ----------------------------- 
 DEPT.FT               : MEASURED DEPTH 
 CALI__B.IN            : CALIPER (CAL - CAL) 
 GR__B.API             : GAMMA RAY (GR) 
 DT__B.US/FT           : SONIC DELTA TRANSIT TIME (DT) 
 RESS__B.OHMM          : SHALLOW INDUCTION RESISTIVITY (ILS - ILS) 
 RESD__B.OHMM          : DEEP INDUCTION RESISTIVITY (ILD - ILD) 
 #___________________________________________________________________________________________________ 
~A         DEPT        CALI__B          GR__B          DT__B        RESS__B        RESD__B
# ...
        11655.0          8.313        189.519         80.958          7.485          7.876
        11655.5          8.315        162.633         78.644          6.766          7.321
        11656.0          8.318        143.394         76.498          6.015          6.767
        11656.5          8.318        130.211         76.566          5.591          6.213
        11657.0          8.318        124.882         77.361          5.450          5.895
        11657.5          8.318        122.171         78.709          5.773          6.170
        11658.0          8.318        119.459         81.780          6.311          6.445
        11658.5          8.318        116.748         85.754          6.381          6.429
        11659.0          8.318        125.695         90.428          5.949          5.902
        11659.5          8.318        136.865         91.849          5.478          5.375
        11660.0          8.318        151.857         92.691          5.017          5.401
        11660.5          8.317        155.946         93.221          5.356          5.529
        11661.0          8.317        154.480         92.415          5.654          5.658
        11661.5          8.317        151.998         91.193          5.654          5.780
        11662.0          8.317        149.516         89.971          5.585          5.759
        11662.5          8.317        149.742         89.599          5.535          5.737
        11663.0          8.317        154.095         90.167          5.934          5.716
        11663.5          8.317        166.045         90.701          6.532          7.129
        11664.0          8.317        182.247         91.181          7.422          8.159
        11664.5          8.317        198.448         91.637          8.434          8.764
        11665.0          8.317        201.000         92.093          8.892          8.744
        11665.5          8.317        194.326         92.801          8.716          8.570
        11666.0          8.317        184.282         93.199          8.331          8.396
        11666.5          8.317        180.639         93.170          8.187          8.223
        11667.0          8.317        185.225         92.922          8.206          8.723
        11667.5          8.317        189.811         92.527          8.618          9.443
        11668.0          8.317        194.397         91.946          8.717         10.164
        11668.5          8.317        193.389         91.306          8.600         10.234
        11669.0          8.328        181.779         90.515          8.321          9.814
        11669.5          8.342        169.220         89.543          7.977          9.393
        11670.0          8.356        162.634         88.570          7.738          9.059
        11670.5          8.370        160.055         87.597          8.217          9.180
        11671.0          8.384        157.475         86.733          8.658          9.301
        11671.5          8.398        154.896         85.906          8.658          9.422
        11672.0          8.409        158.154         85.402          9.254          9.704
        11672.5          8.406        163.215         85.307          9.882         11.417
        11673.0          8.402        168.276         85.145         10.216         11.393
        11673.5          8.399        172.547         84.641         10.023         10.716
        11674.0          8.395        163.750         84.207          9.332          9.908
        11674.5          8.392        154.952         84.072          8.416          9.100
        11675.0          8.367        143.710         84.548          7.847          8.292
        11675.5          8.337        132.345         86.629          6.948          7.484
        11676.0          8.308        136.154         89.487          5.988          6.677
        11676.5          8.307        139.962         92.019          5.553          5.880
        11677.0          8.323        143.771         92.489          5.377          5.890
        11677.5          8.339        145.013         92.767          5.368          5.901
        11678.0          8.352        145.981         93.044          5.435          5.911
        11678.5          8.344        146.949         93.332          5.507          5.921
        11679.0          8.337        147.917         93.622          5.601          5.932
        11679.5          8.329        146.535         93.912          5.798          5.942
        11680.0          8.322        144.213         94.390          5.995          6.168
        11680.5          8.317        141.891         94.930          6.435          6.684
        11681.0          8.327        140.527         95.741          6.928          7.201
        11681.5          8.337        141.818         96.254          6.928          7.478
        11682.0          8.347        150.152         96.191          7.055          7.344
        11682.5          8.357        158.146         95.913          7.197          7.211
        11683.0          8.367        162.246         95.241          7.350          7.487
        11683.5          8.377        162.463         94.448          7.571          8.248
        11684.0          8.387        161.820         93.681          7.792          8.975
        11684.5          8.397        156.557         92.931          8.014          8.833
        11685.0          8.407        153.270         92.181          8.235          8.691
        11685.5          8.417        150.989         91.432          8.456          8.632
        11686.0          8.429        152.483         89.498          8.677          9.151
        11686.5          8.482        157.637         87.923          8.898          9.669
        11687.0          8.536        164.724         87.593          9.052         10.188
        11687.5          8.589        171.810         87.690          8.959         10.005
        11688.0          8.523        174.329         87.560          8.793          9.667
        11688.5          8.442        171.533         86.715          8.609          9.329
        11689.0          8.357        162.317         84.974          8.545          8.992
        11689.5          8.273        153.101         83.745          8.927          9.068
        11690.0          8.261        144.378         83.642          8.947          9.368
        11690.5          8.264        135.941         84.550          8.875          9.535
        11691.0          8.268        129.305         86.628          7.859          8.622
        11691.5          8.271        123.650         89.752          7.088          7.708
        11692.0          8.274        124.331         93.325          6.323          6.795
        11692.5          8.276        128.352         95.711          5.983          6.273
        11693.0          8.274        144.351         97.189          5.879          6.204
        11693.5          8.271        172.362         98.314          5.938          6.135
        11694.0          8.269        200.477         98.481          6.113          6.453
        11694.5          8.267        209.426         97.567          6.562          6.864
        11695.0          8.264        205.251         95.867          6.822          7.222
        11695.5          8.262        193.328         94.731          6.997          7.245
        11696.0          8.260        181.405         93.319          7.118          7.268
        11696.5          8.258        169.482         91.141          7.078          7.291
        11697.0          8.285        157.559         87.602          7.149          7.455
        11697.5          8.314        144.980         83.255          7.488          7.784
        11698.0          8.332        131.435         82.533          8.821          9.601
        11698.5          8.331        117.890         85.203         10.541         12.615
