###############################################
##         ENVERUS                           ##
##         ESS - Open Hole                   ##
##         PERMIAN / DELAWARE                ##
##         Nov 04 2023  V4.0                 ##
##         42-389-32484-00-00                ##
###############################################
## Copyright 2017-2023  ENVERUS.  All Rights Reserved. 
## Confidential - Property of ENVERUS, use governed by terms and 
## conditions found within the existing Information Services Subscription Agreement 
## (as may be amended, the “ISSA”) between Customer and ENVERUS. 
## 
~VERSION INFORMATION
# MNEM.UNIT                               DATA : DESCRIPTION OF MNEMONIC
#-----.-----     ----------------------------- : -----------------------------
VERS.                                     2.00 : CWLS LOG ASCII STANDARD - VERSION 2.00
WRAP.                                       NO : MULTIPLE LINES PER DEPTH STEP
VEND.                                  ENVERUS : VENDOR
TYPE.                          ESS - OPEN HOLE : ENVERUS ESSENTIAL CURVES – ACCESSIBLE THROUGH ENVERUS PRISM(TM)
DOC.                                  31780441 : ENVERUS HEADER RAW DOCUMENT ID
#___________________________________________________________________________________________________ 
~WELL INFORMATION 
# aTsA/KVwhIqB1dg6n/zy22zTJjsJnyaNqg27ywuj9UrTfzbM7gscpQTlR+gOLN+9jERwUBAE6KvHEXpIT+cpyg== 
# MNEM.UNIT                                              DATA : DESCRIPTION OF MNEMONIC 
#-----.-----                    ----------------------------- : ----------------------------- 
CNTY.                                                  REEVES : COUNTY 
STATE.                                                  TEXAS : STATE 
CNTRY.                                                    USA : COUNTRY 
API.                                             42-389-32484 : API (10 Digit) 
API_14.                                    42-389-32484-00-00 : API (14 Digits) 
API_14_std.                                 42-389-32484-0000 : API (14 Digits Standard) 
UWI.                                           42389324840000 : UNIQUE WELL ID 
WELL.                                        BLK 59 ST 37  1H : WELL NAME
STRT.FT                                                 236.0 : START DEPTH
STOP.FT                                               12079.0 : STOP DEPTH
STEP.FT                                                   0.5 : STEP BETWEEN DEPTHS
NULL.                                                 -999.25 : NULL VALUE
COMP.                                       SHELL WESTERN E&P : COMPANY 
DATE.                                             05-SEP-2007 : LOG DATE
#___________________________________________________________________________________________________ 
~CURVE INFORMATION 
# MNEM.UNIT           : CURVE DESCRIPTION 
#-----.-----          : ----------------------------- 
 DEPT.FT               : MEASURED DEPTH 
 CALI.IN               : CALIPER (CAL - CAL) 
 GR.API                : GAMMA RAY (GR) 
 DT.US/FT              : SONIC DELTA TRANSIT TIME (DT) 
 DPHI.V/V              : DENSITY POROSITY (DPHI) 
 NPHI.V/V              : NEUTRON POROSITY (NPHI) 
 RHOB.G/CC             : BULK DENSITY (RHOB) 
 #___________________________________________________________________________________________________ 
~A         DEPT           CALI             GR             DT           DPHI           NPHI           RHOB
# ...
        12054.0          8.571        193.720         91.763        0.14987        0.22041         2.4340
        12054.5          8.571        195.015         91.748        0.15198        0.22359         2.4340
        12055.0          8.571        196.309         91.790        0.15367        0.22406         2.4290
        12055.5          8.571        197.604         91.832        0.15476        0.22411         2.4250
        12056.0          8.571        198.872         91.873        0.15440        0.22184         2.4200
        12056.5          8.571        198.871         91.915        0.15405        0.21956         2.4160
        12057.0          8.571        196.902         91.705        0.15344        0.21855         2.4180
        12057.5          8.571        194.681         91.302        0.15198        0.21940         2.4200
        12058.0          8.571        193.828         90.900        0.15052        0.21999         2.4220
        12058.5          8.571        195.266         91.360        0.14906        0.21970         2.4240
        12059.0          8.571        196.705         91.955        0.14805        0.21727         2.4270
        12059.5          8.570        192.358         92.550        0.14840        0.21472         2.4260
        12060.0          8.570        178.008         92.784        0.14875        0.22327         2.4240
        12060.5          8.570       -999.250         92.897        0.14910        0.22850         2.4230
        12061.0          8.570       -999.250         93.010        0.14944        0.23174         2.4210
        12061.5          8.570       -999.250         93.123        0.14979        0.23133         2.4240
        12062.0          8.570       -999.250         93.236        0.15014        0.23032         2.4260
        12062.5          8.570       -999.250         93.348        0.15265        0.22544         2.4220
        12063.0          8.570       -999.250         93.461        0.15452        0.21866         2.4180
        12063.5          8.570       -999.250         93.473        0.15207        0.21534         2.4200
        12064.0          8.569       -999.250         93.480        0.14995        0.21273         2.4270
        12064.5          8.569       -999.250         93.488        0.14814        0.21676         2.4310
        12065.0          8.568       -999.250         93.495        0.15084        0.22083         2.4250
        12065.5          8.567       -999.250         93.503        0.15479        0.22868         2.4190
        12066.0          8.566       -999.250         93.510        0.15417        0.23722         2.4190
        12066.5          8.566       -999.250         93.517        0.15417        0.24575         2.4240
        12067.0          8.565       -999.250         93.525        0.15432        0.25395         2.4300
        12067.5          8.564       -999.250         93.532        0.15470     -999.25000         2.4270
        12068.0          8.564       -999.250         93.540        0.15509     -999.25000         2.4210
        12068.5          8.563       -999.250         93.547        0.15344     -999.25000         2.4230
        12069.0          8.564       -999.250         93.555        0.14988     -999.25000         2.4270
        12069.5          8.565       -999.250         93.562        0.14768     -999.25000         2.4310
        12070.0          8.566       -999.250         93.569        0.14568     -999.25000         2.4350
        12070.5          8.566       -999.250         93.577        0.14546     -999.25000         2.4340
        12071.0          8.567       -999.250         93.584        0.14822     -999.25000         2.4290
        12071.5          8.568       -999.250         93.592        0.15115     -999.25000         2.4240
        12072.0          8.569       -999.250         93.599        0.15383     -999.25000         2.4190
        12072.5          8.569       -999.250         93.607        0.15383     -999.25000         2.4190
        12073.0          8.570       -999.250         93.614        0.15381     -999.25000         2.4190
        12073.5          8.571       -999.250         93.621        0.15363     -999.25000         2.4170
        12074.0          8.572       -999.250         93.629        0.15395     -999.25000         2.4130
        12074.5          8.572       -999.250         93.636        0.15710     -999.25000         2.4090
        12075.0          8.573       -999.250         93.644        0.15705     -999.25000         2.4100
        12075.5       -999.250       -999.250       -999.250        0.15426     -999.25000         2.4140
        12076.0       -999.250       -999.250       -999.250        0.15148     -999.25000         2.4190
        12076.5       -999.250       -999.250       -999.250        0.15370     -999.25000         2.4230
        12077.0       -999.250       -999.250       -999.250        0.16798     -999.25000         2.4280
        12077.5       -999.250       -999.250       -999.250        0.18195     -999.25000         2.3730
        12078.0       -999.250       -999.250       -999.250        0.18310     -999.25000         2.3590
        12078.5       -999.250       -999.250       -999.250     -999.25000     -999.25000         2.3740
        12079.0       -999.250       -999.250       -999.250     -999.25000     -999.25000         2.3940
