###############################################
##         ENVERUS                           ##
##         ESS - Open Hole                   ##
##         PERMIAN / DELAWARE                ##
##         Nov 04 2023  V4.0                 ##
##         42-389-30259-00-00                ##
###############################################
## Copyright 2017-2023  ENVERUS.  All Rights Reserved. 
## Confidential - Property of ENVERUS, use governed by terms and 
## conditions found within the existing Information Services Subscription Agreement 
## (as may be amended, the “ISSA”) between Customer and ENVERUS. 
## 
~VERSION INFORMATION
# MNEM.UNIT                               DATA : DESCRIPTION OF MNEMONIC
#-----.-----     ----------------------------- : -----------------------------
VERS.                                     2.00 : CWLS LOG ASCII STANDARD - VERSION 2.00
WRAP.                                       NO : MULTIPLE LINES PER DEPTH STEP
VEND.                                  ENVERUS : VENDOR
TYPE.                          ESS - OPEN HOLE : ENVERUS ESSENTIAL CURVES – ACCESSIBLE THROUGH ENVERUS PRISM(TM)
DOC.                                  32063127 : ENVERUS HEADER RAW DOCUMENT ID
#___________________________________________________________________________________________________ 
~WELL INFORMATION 
# gPsidqVjAScFWwbHY3NvrhVb9Q0dnpAvxUas8qP1mSjKWoj7hBgJ2nw/4lW9Nf69eTG+8mlPQw3CFq6Jh/Hagw== 
# MNEM.UNIT                                              DATA : DESCRIPTION OF MNEMONIC 
#-----.-----                    ----------------------------- : ----------------------------- 
CNTY.                                                  REEVES : COUNTY 
STATE.                                                  TEXAS : STATE 
CNTRY.                                                    USA : COUNTRY 
API.                                             42-389-30259 : API (10 Digit) 
API_14.                                    42-389-30259-00-00 : API (14 Digits) 
API_14_std.                                 42-389-30259-0000 : API (14 Digits Standard) 
UWI.                                           42389302590000 : UNIQUE WELL ID 
WELL.                                         FORTUNE UNIT  1 : WELL NAME
STRT.FT                                                     0 : START DEPTH
STOP.FT                                               15675.0 : STOP DEPTH
STEP.FT                                                   0.5 : STEP BETWEEN DEPTHS
NULL.                                                 -999.25 : NULL VALUE
COMP.                          SANDRIDGE EXPL. AND PROD.  LLC : COMPANY 
DATE.                                             19-FEB-2007 : LOG DATE
#___________________________________________________________________________________________________ 
~CURVE INFORMATION 
# MNEM.UNIT           : CURVE DESCRIPTION 
#-----.-----          : ----------------------------- 
 DEPT.FT               : MEASURED DEPTH 
 CALI__B.IN            : CALIPER (CAL - CAL) 
 GR__B.API             : GAMMA RAY (GR) 
 DT__B.US/FT           : SONIC DELTA TRANSIT TIME (DT) 
 #___________________________________________________________________________________________________ 
~A         DEPT        CALI__B          GR__B          DT__B
# ...
        12540.0         11.141         88.165         72.704
        12540.5         11.151         86.741         73.163
        12541.0         11.100         85.316         73.265
        12541.5         11.049         80.687         73.361
        12542.0         10.997         73.453         72.515
        12542.5         10.946         66.220         68.630
        12543.0         10.974         60.050         64.744
        12543.5         11.095         58.493         62.574
        12544.0         11.216         56.936         61.735
        12544.5         11.121         52.784         61.442
        12545.0         11.002         47.182         59.239
        12545.5         10.901         41.579         56.649
        12546.0         10.907         35.976         54.414
        12546.5         10.913         30.374         52.650
        12547.0         10.917         29.870         51.905
        12547.5         10.912         31.091         51.860
        12548.0         10.907         36.186         52.616
        12548.5         10.902         44.613         57.156
        12549.0         10.911         55.331         61.248
        12549.5         10.936         62.631         63.750
        12550.0         10.962         57.601         62.149
        12550.5         10.987         52.570         59.876
        12551.0         10.990         51.119         57.604
        12551.5         10.990         52.086         56.715
        12552.0         10.990         56.221         58.286
        12552.5         10.948         60.355         60.686
        12553.0         10.895         64.490         63.478
        12553.5         10.842         61.726         65.360
        12554.0         10.789         56.983         64.965
        12554.5         10.736         52.341         62.648
        12555.0         10.683         50.673         60.883
        12555.5         10.672         49.006         59.475
        12556.0         10.690         46.669         59.025
        12556.5         10.657         43.627         58.818
        12557.0         10.583         41.311         57.457
        12557.5         10.641         42.787         54.891
        12558.0         10.726         45.178         54.069
        12558.5         10.802         50.398         54.403
        12559.0         10.852         55.618         55.650
        12559.5         10.901         60.839         60.471
        12560.0         10.790         66.059         69.727
        12560.5         10.612         70.043         89.248
        12561.0         10.558         73.609         97.455
        12561.5         10.650         77.175        103.387
        12562.0         10.741         79.301         99.500
        12562.5         10.833         79.414         89.072
        12563.0         10.925         77.379         79.245
        12563.5         10.933         75.345         73.495
        12564.0         10.860         73.310         71.062
        12564.5         10.787         71.215         73.775
        12565.0         10.714         66.965         76.440
        12565.5         10.640         62.714         76.650
        12566.0         10.670         58.463         71.064
        12566.5         10.793         54.212         63.869
        12567.0         10.916         51.214         60.259
        12567.5         11.030         54.432         62.888
        12568.0         11.077         57.651         65.740
        12568.5         11.077         60.869         68.943
        12569.0         11.041         64.088         70.657
        12569.5         11.006         64.983         70.825
        12570.0         10.970         64.815         72.813
        12570.5         10.935         61.452         74.116
        12571.0         10.899         58.041         72.849
        12571.5         10.864         54.630         69.513
        12572.0         10.899         51.218         65.101
        12572.5         10.942         50.952         57.980
        12573.0         10.986         51.712         57.465
        12573.5         10.948         52.471         58.835
        12574.0         10.908         56.831         60.204
        12574.5         10.869         62.236         60.845
        12575.0         10.829         67.641         63.449
        12575.5         10.813         73.046         66.968
        12576.0         10.801         78.107         70.486
        12576.5         10.788         78.253         71.818
        12577.0         10.776         77.094         71.533
        12577.5         10.764         68.725         68.139
        12578.0         10.752         63.498         64.539
        12578.5         10.740         67.421         64.418
        12579.0         10.728         72.228         64.836
        12579.5         10.716         77.034         67.160
        12580.0         10.704         75.099         70.913
        12580.5         10.691         71.874         71.002
        12581.0         10.679         68.649         67.900
        12581.5         10.667         65.880         67.018
        12582.0         10.655         67.804         68.164
        12582.5         10.643         74.721         71.389
        12583.0         10.631         81.638         74.614
        12583.5         10.632         80.463         75.518
        12584.0         10.678         77.502         74.475
        12584.5         10.723         74.541         73.302
        12585.0         10.728         72.974         71.730
        12585.5         10.725         71.640         69.933
        12586.0         10.722         69.420         68.417
        12586.5         10.719         66.882         65.573
        12587.0         10.716         69.127         64.933
        12587.5         10.713         74.334         65.249
        12588.0         10.710         79.542         66.748
        12588.5         10.707         84.749         68.707
        12589.0         10.704         78.674         68.799
        12589.5         10.701         72.359         66.156
        12590.0         10.698         66.044         63.512
        12590.5         10.695         61.581         63.069
        12591.0         10.692         59.949         64.554
        12591.5         10.689         57.034         66.050
        12592.0         10.686         52.769         63.856
        12592.5         10.683         48.505         59.923
        12593.0         10.679         44.986         54.803
        12593.5         10.676         47.923         57.095
        12594.0         10.673         50.860         59.898
        12594.5         10.670         53.219         59.436
        12595.0         10.667         51.278         58.900
        12595.5         10.664         49.337         54.696
        12596.0         10.661         54.722         55.707
        12596.5         10.658         62.105         60.167
        12597.0         10.594         69.488         64.562
        12597.5         10.408         71.919         68.145
        12598.0         10.255         70.586         68.004
        12598.5         10.462         70.081         68.370
        12599.0         10.668         72.292         67.212
        12599.5         10.717         71.878         67.309
        12600.0         10.701         65.782         65.783
        12600.5         10.684         59.687         63.141
        12601.0         10.668         53.812         61.746
        12601.5         10.652         47.939         60.330
        12602.0         10.635         42.066         58.167
        12602.5         10.621         36.192         56.114
        12603.0         10.722         31.840         54.232
        12603.5         10.823         28.664         54.470
        12604.0         10.923         30.762         55.283
        12604.5         10.919         31.459         55.665
        12605.0         10.910         30.659         54.909
        12605.5         10.900         31.788         53.827
