###############################################
##         ENVERUS                           ##
##         ESS - Open Hole                   ##
##         PERMIAN / DELAWARE                ##
##         Nov 04 2023  V4.0                 ##
##         42-389-31391-00-00                ##
###############################################
## Copyright 2017-2023  ENVERUS.  All Rights Reserved. 
## Confidential - Property of ENVERUS, use governed by terms and 
## conditions found within the existing Information Services Subscription Agreement 
## (as may be amended, the “ISSA”) between Customer and ENVERUS. 
## 
~VERSION INFORMATION
# MNEM.UNIT                               DATA : DESCRIPTION OF MNEMONIC
#-----.-----     ----------------------------- : -----------------------------
VERS.                                     2.00 : CWLS LOG ASCII STANDARD - VERSION 2.00
WRAP.                                       NO : MULTIPLE LINES PER DEPTH STEP
VEND.                                  ENVERUS : VENDOR
TYPE.                          ESS - OPEN HOLE : ENVERUS ESSENTIAL CURVES – ACCESSIBLE THROUGH ENVERUS PRISM(TM)
DOC.                                  23866972 : ENVERUS HEADER RAW DOCUMENT ID
#___________________________________________________________________________________________________ 
~WELL INFORMATION 
# fYFWm3OWRd9IdMsmH1sgiJ8+yI47SyIf11h8n9fSv2EtxvNnkQHcFoeZabdKB/2nhpfFDZXLrBDJ+4Q2ZBaHeQ== 
# MNEM.UNIT                                              DATA : DESCRIPTION OF MNEMONIC 
#-----.-----                    ----------------------------- : ----------------------------- 
CNTY.                                                  REEVES : COUNTY 
STATE.                                                  TEXAS : STATE 
CNTRY.                                                    USA : COUNTRY 
API.                                             42-389-31391 : API (10 Digit) 
API_14.                                    42-389-31391-00-00 : API (14 Digits) 
API_14_std.                                 42-389-31391-0000 : API (14 Digits Standard) 
UWI.                                           42389313910000 : UNIQUE WELL ID 
WELL.                                       DIXIELAND # 3 - 1 : WELL NAME
STRT.FT                                                4000.0 : START DEPTH
STOP.FT                                               12000.0 : STOP DEPTH
STEP.FT                                                   0.5 : STEP BETWEEN DEPTHS
NULL.                                                 -999.25 : NULL VALUE
COMP.                             R. K. PETROLEUM CORPORATION : COMPANY 
FLD.                                                  WILDCAT : FIELD 
DATE.                                              08/13/2015 : DATE 
TVD.                                                       NO : TVD FLAG 
WSTA.                                                     LOC : WELL STATUS
#___________________________________________________________________________________________________ 
~PARAMETER INFORMATION 
# MNEM.UNIT                                              DATA : DESCRIPTION OF MNEMONIC 
#-----.-----                    ----------------------------- : ----------------------------- 
RUN.                                                      ONE : RUN NUMBER 
PDAT.                                                      GL : PERMANENT DATUM 
LMF.                                            KELLY BUSHING : LOG MEASURED FROM
#___________________________________________________________________________________________________ 
~CURVE INFORMATION 
# MNEM.UNIT           : CURVE DESCRIPTION 
#-----.-----          : ----------------------------- 
 DEPT.FT               : MEASURED DEPTH 
 CALI.IN               : CALIPER (CALIPER) 
 GR.API                : GAMMA RAY (GAMMA RAY) 
 DT.US/FT              : SONIC DELTA TRANSIT TIME (DELTA-T) 
 RESD.OHMM             : DEEP INDUCTION RESISTIVITY (ILD - DEEP INDUCTION STANDARD PROCESSED RESISTIVITY) 
 RESD_LL.OHMM          : DEEP LATEROLOG (LLD - LATERO-LOG DEEP (RESISTIVITY)) 
 NPHI.V/V              : NEUTRON POROSITY (NEUTRON POROSITY) 
 #___________________________________________________________________________________________________ 
~A         DEPT           CALI             GR             DT           RESD        RESD_LL           NPHI
# ...
         6128.0         13.938         72.751         68.386       -999.250        98.1564     -999.25000
         6128.5         14.032         68.532         67.461       -999.250        85.8796     -999.25000
         6129.0         14.129         64.643         66.536       -999.250        78.2208     -999.25000
         6129.5         14.210         59.976         65.912       -999.250        79.1330     -999.25000
         6130.0         14.258         58.321         65.792       -999.250        80.5566     -999.25000
         6130.5         14.323         56.472         65.733       -999.250        82.7300     -999.25000
         6131.0         14.274         54.791         65.689       -999.250        80.8393     -999.25000
         6131.5         14.356         56.768         65.536       -999.250        92.8423     -999.25000
         6132.0         13.951         64.728         66.050       -999.250       117.6642     -999.25000
         6132.5         13.922         73.733         66.571       -999.250       149.1922     -999.25000
         6133.0         13.779         82.534         67.381       -999.250       214.8046     -999.25000
         6133.5         13.739         87.856         68.199       -999.250       405.1214     -999.25000
         6134.0         13.699         88.710         72.763       -999.250       402.5678     -999.25000
         6134.5         13.698         85.712         72.886       -999.250       398.3989     -999.25000
         6135.0         13.693         83.397         72.645       -999.250       348.6658     -999.25000
         6135.5         13.655         77.855         71.147       -999.250       301.3620     -999.25000
         6136.0         13.673         77.076         70.268       -999.250       239.2175     -999.25000
         6136.5         13.686         76.538         69.806       -999.250       189.8879     -999.25000
         6137.0         13.699         76.363         69.399       -999.250       176.7464     -999.25000
         6137.5         13.700         75.969         69.639       -999.250       175.0883     -999.25000
         6138.0         13.713         75.623         68.317       -999.250       175.9228     -999.25000
         6138.5         13.728         75.305         66.393       -999.250       177.6037     -999.25000
         6139.0         13.740         74.966         66.779       -999.250       171.4324     -999.25000
         6139.5         13.739         74.651         67.114       -999.250       161.7557     -999.25000
         6140.0         13.725         74.319         66.884       -999.250       153.2538     -999.25000
         6140.5         13.712         73.957         66.537       -999.250       144.9007     -999.25000
         6141.0         13.699         74.702         66.190       -999.250       146.5204     -999.25000
         6141.5         13.694         80.917         66.591       -999.250       185.7725     -999.25000
         6142.0         13.646         88.616         67.606       -999.250       279.2373     -999.25000
         6142.5         13.632         94.493         68.638       -999.250       419.7258     -999.25000
         6143.0         13.619         92.495         69.633       -999.250       622.2009     -999.25000
         6143.5         13.620         89.996         69.876       -999.250       577.3993     -999.25000
         6144.0         13.620         87.003         69.275       -999.250       368.8687     -999.25000
         6144.5         13.620         84.035         68.660       -999.250       232.0295     -999.25000
         6145.0         13.620         81.823         68.094       -999.250       134.4672     -999.25000
         6145.5         13.620         76.466         68.127       -999.250        90.8303     -999.25000
         6146.0         13.632         75.126         68.076       -999.250        89.3492     -999.25000
         6146.5         13.647         74.512         66.766       -999.250        87.4991     -999.25000
         6147.0         13.660         73.819         66.125       -999.250        97.8780     -999.25000
         6147.5         13.649         79.219         66.901       -999.250       184.2937     -999.25000
         6148.0         13.611         76.622         68.972       -999.250       374.0696     -999.25000
         6148.5         13.572         73.124         70.033       -999.250       759.2668     -999.25000
         6149.0         13.539         69.093         68.937       -999.250      1313.6335     -999.25000
         6149.5         13.519         65.261         67.432       -999.250      1300.3110     -999.25000
         6150.0         13.500         61.514         65.926       -999.250      1277.3321     -999.25000
         6150.5         13.482         58.289         64.424       -999.250      1254.7593     -999.25000
         6151.0         13.462         59.875         62.429       -999.250      1219.0453     -999.25000
         6151.5         13.451         62.399         62.742       -999.250      1152.6012     -999.25000
         6152.0         13.426         69.738         63.379       -999.250      1091.6806     -999.25000
         6152.5         13.405         74.793         63.880       -999.250      1024.6215     -999.25000
         6153.0         13.381         76.181         64.383       -999.250       946.5898     -999.25000
         6153.5         13.380         77.728         65.180       -999.250       870.9139     -999.25000
         6154.0         13.361         79.474         66.393       -999.250       666.2142     -999.25000
         6154.5         13.336         81.064         67.618       -999.250       499.4287     -999.25000
         6155.0         13.309         82.529         69.126       -999.250       374.6825     -999.25000
         6155.5         13.299         84.243         71.388       -999.250       280.9548     -999.25000
         6156.0         13.300         80.315         70.745       -999.250       199.7658     -999.25000
         6156.5         13.300         73.337         67.661       -999.250       178.9937     -999.25000
         6157.0         13.298         66.774         64.577       -999.250       153.4636     -999.25000
         6157.5         13.311         60.075         62.545       -999.250       144.8633     -999.25000
         6158.0         13.345         56.166         62.420       -999.250       113.1428     -999.25000
         6158.5         13.440         55.577         62.112       -999.250        89.8066     -999.25000
         6159.0         13.525         55.119         61.803       -999.250        79.3610     -999.25000
         6159.5         13.617         54.258         62.665       -999.250        72.3686     -999.25000
         6160.0         13.626         54.149         63.182       -999.250        67.6016     -999.25000
         6160.5         13.641         53.981         63.491       -999.250        63.1623     -999.25000
         6161.0         13.654         53.733         63.799       -999.250        56.7005     -999.25000
         6161.5         13.661         54.688         63.988       -999.250        52.6432     -999.25000
         6162.0         13.660         57.136         64.019       -999.250        53.1801     -999.25000
         6162.5         13.660         59.069         64.050       -999.250        53.6032     -999.25000
         6163.0         13.660         60.867         64.080       -999.250        54.8484     -999.25000
         6163.5         13.660         62.715         64.108       -999.250        61.3544     -999.25000
         6164.0         13.660         64.670         64.228       -999.250        67.8975     -999.25000
         6164.5         13.660         66.591         64.310       -999.250        76.7730     -999.25000
         6165.0         13.660         68.463         64.399       -999.250        90.0699     -999.25000
         6165.5         13.658         70.182         64.562       -999.250       109.5142     -999.25000
