###############################################
##         ENVERUS                           ##
##         ESS - Open Hole                   ##
##         PERMIAN / DELAWARE                ##
##         Nov 04 2023  V4.0                 ##
##         42-389-32398-00-00                ##
###############################################
## Copyright 2017-2023  ENVERUS.  All Rights Reserved. 
## Confidential - Property of ENVERUS, use governed by terms and 
## conditions found within the existing Information Services Subscription Agreement 
## (as may be amended, the “ISSA”) between Customer and ENVERUS. 
## 
~VERSION INFORMATION
# MNEM.UNIT                               DATA : DESCRIPTION OF MNEMONIC
#-----.-----     ----------------------------- : -----------------------------
VERS.                                     2.00 : CWLS LOG ASCII STANDARD - VERSION 2.00
WRAP.                                       NO : MULTIPLE LINES PER DEPTH STEP
VEND.                                  ENVERUS : VENDOR
TYPE.                          ESS - OPEN HOLE : ENVERUS ESSENTIAL CURVES – ACCESSIBLE THROUGH ENVERUS PRISM(TM)
DOC.                                  31812117 : ENVERUS HEADER RAW DOCUMENT ID
#___________________________________________________________________________________________________ 
~WELL INFORMATION 
# uAwnbjLw6pKN5CeTb7gwROLhNOHLu74gercCwdGpUdKCBCGOTLsJuzWIBCYkU6KzQxtC+uHRBloynRtd0Ulspg== 
# MNEM.UNIT                                              DATA : DESCRIPTION OF MNEMONIC 
#-----.-----                    ----------------------------- : ----------------------------- 
CNTY.                                                  REEVES : COUNTY 
STATE.                                                  TEXAS : STATE 
CNTRY.                                                    USA : COUNTRY 
API.                                             42-389-32398 : API (10 Digit) 
API_14.                                    42-389-32398-00-00 : API (14 Digits) 
API_14_std.                                 42-389-32398-0000 : API (14 Digits Standard) 
UWI.                                           42389323980000 : UNIQUE WELL ID 
WELL.                                    BLOCK 58 STATE 32  1 : WELL NAME
STRT.FT                                                8311.0 : START DEPTH
STOP.FT                                               12834.0 : STOP DEPTH
STEP.FT                                                   0.5 : STEP BETWEEN DEPTHS
NULL.                                                 -999.25 : NULL VALUE
COMP.                                       SHELL WESTERN E&P : COMPANY 
DATE.                                             08-FEB-2006 : LOG DATE
#___________________________________________________________________________________________________ 
~CURVE INFORMATION 
# MNEM.UNIT           : CURVE DESCRIPTION 
#-----.-----          : ----------------------------- 
 DEPT.FT               : MEASURED DEPTH 
 CALI__B.IN            : CALIPER (CAL - CAL) 
 GR__B.API             : GAMMA RAY (GR) 
 DT__B.US/FT           : SONIC DELTA TRANSIT TIME (DT) 
 RESS__B.OHMM          : SHALLOW INDUCTION RESISTIVITY (ILS - ILS) 
 RESD__B.OHMM          : DEEP INDUCTION RESISTIVITY (ILD - ILD) 
 #___________________________________________________________________________________________________ 
~A         DEPT        CALI__B          GR__B          DT__B        RESS__B        RESD__B
# ...
        10511.0          8.393        110.624         75.431          8.041          8.751
        10511.5          8.393        103.710         74.702          9.081          9.350
        10512.0          8.393        103.081         73.908         10.172          9.949
        10512.5          8.393        102.554         73.114         10.370         10.910
        10513.0          8.393        102.553         71.750         10.568         11.987
        10513.5          8.393        102.553         71.772         11.050         13.064
        10514.0          8.393        102.553         71.512         11.570         14.141
        10514.5          8.393         99.220         70.493         11.948         14.103
        10515.0          8.392         95.827         67.938         11.294         12.460
        10515.5          8.392         92.433         64.413         11.414         14.295
        10516.0          8.392         89.040         61.273         13.934         17.954
        10516.5          8.392         75.407         60.500         17.022         21.612
        10517.0          8.392         59.351         59.495         19.828         25.271
        10517.5          8.392         47.126         57.795         25.295         31.307
        10518.0          8.392         42.466         55.299         35.362         39.542
        10518.5          8.392         37.834         54.503         49.919         47.778
        10519.0          8.392         43.261         56.625         64.436         51.279
        10519.5          8.392         48.689         58.148         71.731         42.720
        10520.0          8.392         64.465         60.279         54.097         33.904
        10520.5          8.392         82.616         63.164         32.647         25.088
        10521.0          8.392        100.767         69.636         16.667         16.272
        10521.5          8.392        115.805         74.945         13.871         12.729
        10522.0          8.392        120.614         78.329         11.286         11.178
        10522.5          8.392        121.596         79.375          9.536          9.627
        10523.0          8.392        119.460         79.701          8.756          8.585
        10523.5          8.392        117.324         79.831          8.678          8.490
        10524.0          8.392        118.185         79.730          8.752          8.396
        10524.5          8.392        120.270         79.661          8.752          8.301
        10525.0          8.392        121.851         79.999          8.492          8.207
        10525.5          8.392        122.983         80.090          8.233          8.633
        10526.0          8.392        126.915         79.919          8.649          9.324
        10526.5          8.392        132.302         79.730          8.832          9.265
        10527.0          8.392        131.849         79.285          8.512          9.098
        10527.5          8.392        129.623         78.743          8.337          8.932
        10528.0          8.392        125.580         78.743          8.905          9.452
        10528.5          8.392        121.537         78.893          9.473          9.997
        10529.0          8.392        123.677         79.107          9.721          9.763
        10529.5          8.392        125.039         79.073          9.486          9.467
        10530.0          8.392        121.544         78.064          8.902          9.170
        10530.5          8.392        118.049         76.632          9.072          9.764
        10531.0          8.392        112.142         75.814          9.807         10.465
        10531.5          8.392        106.175         75.801         10.160         11.166
        10532.0          8.392        104.272         76.609         10.036         11.431
        10532.5          8.392        105.409         77.641          9.702         11.608
        10533.0          8.392        111.629         78.595          9.306         11.438
        10533.5          8.392        117.849         79.395          8.798         11.241
        10534.0          8.392        119.616         79.362          8.290         11.043
        10534.5          8.392        119.024         78.995          8.362         11.065
        10535.0          8.391        115.491         78.527          8.644         11.729
        10535.5          8.390        111.957         78.058          9.203         12.279
        10536.0          8.389        111.069         77.712          9.247         12.411
        10536.5          8.388        110.984         77.710          9.292         12.116
        10537.0          8.387        110.900         77.786          8.242         11.492
        10537.5          8.387        109.741         77.434          8.152         10.953
        10538.0          8.386        108.228         75.877          8.526         11.902
        10538.5          8.385        104.528         71.330          9.019         10.986
        10539.0          8.384         94.065         68.121         10.763         12.519
        10539.5          8.383         83.601         66.807         12.826         14.810
        10540.0          8.382         73.137         66.731         16.416         17.101
        10540.5          8.381         72.039         68.007         16.573         16.256
        10541.0          8.380         79.165         70.581         13.086         12.785
        10541.5          8.379         91.891         74.893          9.671          9.314
        10542.0          8.378        104.616         78.047          8.466          6.990
        10542.5          8.377        110.362         79.010          7.920          6.901
        10543.0          8.376        113.216         79.185          7.548          6.811
        10543.5          8.376        116.070         79.360          7.175          6.773
        10544.0          8.375        118.940         79.180          7.576          6.979
        10544.5          8.374        121.825         76.795          8.244          7.185
        10545.0          8.373        122.629         74.551          8.341          7.391
        10545.5          8.372        118.158         73.660          7.731          6.882
        10546.0          8.371        110.460         73.931          7.505          6.572
        10546.5          8.370        102.761         72.684          8.959          9.879
        10547.0          8.369         99.093         70.580         10.414         13.186
        10547.5          8.368         96.203         68.272         11.282         14.411
        10548.0          8.367         93.313         67.969         11.813         13.483
        10548.5          8.366         90.961         67.574         12.343         13.353
        10549.0          8.365         91.358         67.049         13.192         15.956
        10549.5          8.365         91.755         66.524         14.713         18.559
        10550.0          8.364         92.151         66.542         16.221         21.162
        10550.5          8.363         91.666         66.655         17.089         22.694
        10551.0          8.362         90.193         66.595         17.957         22.383
        10551.5          8.361         87.644         66.455         18.825         22.072
        10552.0          8.360         85.095         66.333         22.524         25.239
        10552.5          8.359         83.179         66.137         26.016         29.092
        10553.0          8.358         82.747         64.839         26.357         30.019
        10553.5          8.357         82.315         62.921         26.893         28.259
        10554.0          8.356         81.883         60.757         28.612         27.487
        10554.5          8.355         71.801         60.100         30.332         33.536
