~Version Information
 VERS.                  2.0:   CWLS log ASCII Standard -VERSION 2.0
 WRAP.                   NO:   One line per depth step
~Well Information Block
#MNEM.UNIT     VALUE/NAME     DESCRIPTION
#---------     -----------    ---------------------------
 STRT.F              8800.0000: START DEPTH
 STOP.F             14300.0000: STOP DEPTH
 STEP.F                 0.5000: STEP DEPTH
 NULL.                 -999.25: NULL VALUE
 LOC .     336'' FSL & 729' FWL:  LOCATION
 FL6 .        API 42-389-36322:  LOCATIONLINE6
 FL4 .           ABSTRACT 3622:  LOCATIONLINE4
 FL3 .        T&P RR CO SURVEY:  LOCATIONLINE3
 FL2 .     SECTION 36, BLOCK 58 T2:  LOCATIONLINE2
 FL1 .     336'' FSL & 729' FWL:  LOCATIONLINE1
 DMF .                      KB:  DRILL MEAS FROM
 PDAT.                      GL:  PERMANENT DATUM
 CNTY.                  REEVES:  COUNTY NAME
 FLD .     FORD, WEST (WOLFCAMP):  FIELD NAME
 WELL.        AVA STATE 36 #2H:  WELL NAME
 COMP.     CAPITAN ENERGY INC.:  COMPANY
 DATE.             01-Nov-2017:  DATE
 SVCO.             Halliburton:  SERVICECONAME
 PROV.                   TEXAS:  PROVINCE
 STAT.                   TEXAS:  STATE NAME
 CTRY.           UNITED STATES:  COUNTRY NAME
 HIDE.                        :  WELLNAMEOPERAT
 BASI.                 PERMIAN:  BASIN
 UWI .            42-389-36322LAT:  UNIQUE WELL IDENTIFIER
 API .            42-389-36322LAT:  API NUMBER
 RANG.                     N/A:  RANGE
 TOWN.                     N/A:  TOWNSHIP
 SECT.                     N/A:  SECTION
 SON .               904399722:  JOB NUMBER
 SRVC.             Halliburton:  SERVICE COMPANY
 LMF .                      KB:  LOG MEASURED FROM
 EGL .ft             3011.0000:  GROUND ELEVATION
 BAP .ft                0.0000:  GL ELEV ONSHORE
 GVFD.g                 1.0000:  GRAVITY FIELD
 EKB .ft             3037.0000:  KB ELEVATION
 EDF .ft             3036.0000:  DF ELEVATION
~Curve Information Block
#MNEM.UNIT                 API CODE     Curve Description
#---------               -----------    ---------------------------
 DEPT.F                 00 000 000 000:  Depth
 CCL .V                 00 000 000 000:  Casing Collar Locator
 NPHI_OH.pu             00 000 000 000:  NPHI_OH
 NPHI_CHI.pu            00 000 000 000:  NPHI_CHI
 GR_CHI.api             00 000 000 000:  GR_CHI
 GR_OH.api              00 000 000 000:  GR_OH
 RHOB_OH.g/cc           00 000 000 000:  RHOB_OH
 RHOB_CHI.g/cc          00 000 000 000:  RHOB_CHI
 PE_CHI.b/e             00 000 000 000:  PE_CHI
 PE_OH.b/e              00 000 000 000:  PE_OH
 DTC_OH.uspf            00 000 000 000:  DTC_OH
 DTC_CHI.uspf           00 000 000 000:  DTC_CHI
 SPHI_CHI.pu            00 000 000 000:  Acou Porosity CHI
 RT10_OH.ohmm           00 000 000 000:  RT10_OH
 RT10_CHI.ohmm          00 000 000 000:  RT10_CHI
 RT30_OH.ohmm           00 000 000 000:  RT30_OH
 RT30_CHI.ohmm          00 000 000 000:  RT30_CHI
 RT90_OH.ohmm           00 000 000 000:  RT90_OH
 RT90_CHI.ohmm          00 000 000 000:  RT90_CHI
 SGF .cu                00 000 000 000:  Formation Sigma
 CRNF.NONE              00 000 000 000:  CM GrsCaptRatio
 RIN .NONE              00 000 000 000:  CM GrsInelRatio
#Other Information
#
#WARRANTY: Halliburton will use its best efforts to furnish customers with 
#accurate information and interpretations that are part of, and incident to, the services 
#provided.  However, Halliburton cannot and does not warrant the accuracy 
#or correctness of such information and interpretations.  Under no circumstances should any 
#such information or interpretation be relied upon as the sole basis for any drilling, 
#completion, production, or financial decision or any procedure involving any risk to the 
#safety of any drilling venture, drilling rig or its crew or any other third party.  The 
#Customer has full responsibility for all drilling, completion and production operation.  
#Halliburton makes no representations or warranties, either expressed or 
#implied, including, but not limited to, the implied warranties of merchantability or fitness 
#for a particular purpose, with respect to the services rendered.  In no event will 
#Halliburton be liable for failure to obtain any particular results or for 
#any damages, including, but not limited to, indirect, special or consequential damages, 
#resulting from the use of any information or interpretation provided by Halliburton.
#
~A    DEPT      CCL   NPHI_OH NPHI_CHI   GR_CHI   GR_OH   RHOB_OH RHOB_CHI  PE_CHI   PE_OH  DTC_OH  DTC_CHI SPHI_CHI RT10_OH  RT10_CHI RT30_OH  RT30_CHI RT90_OH  RT90_CHI   SGF    CRNF   RIN   
    8800.0000  0.1317 11.1000   11.1297  93.0547  81.2228  2.5481    2.5677  3.5992  3.4626 67.4444 70.9365  16.5000  36.4760  41.2053  28.8128  39.9442  35.3835  39.7132 28.5444 1.1281 1.0034
    8800.5000  0.0000 11.5600   11.2581  96.4258  81.6483  2.5570    2.5673  3.5686  3.4911 69.3731 71.6419  17.0000  31.2117  37.7012  25.3403  35.9636  30.7312  36.0512 29.3120 1.1337 1.0070
    8801.0000  0.0000 11.4200   11.4346 102.2922  79.4781  2.5671    2.5671  3.5513  3.5656 70.5874 72.3272  17.4900  28.7496  34.9912  23.5591  32.9575  28.5148  33.3078 29.3092 1.1371 1.0093
    8801.5000  0.0000 12.0200   11.9080 114.4103  79.0560  2.5759    2.5647  3.5233  3.5299 73.0552 73.2407  18.1300  25.9312  33.0689  21.5617  30.8198  25.8954  31.4620 28.0115 1.1115 1.0091
    8802.0000  0.1174 12.3900   12.1003 113.0443  85.8030  2.5651    2.5614  3.4777  3.4938 73.8983 73.4350  18.2700  25.8860  32.7192  21.5878  30.5305  26.0861  31.1935 25.7082 1.0557 1.0025
    8802.5000  0.0000 13.6900   12.5550 112.1360 100.8042  2.5290    2.5539  3.3916  3.3575 74.0397 73.6538  18.4300  29.0354  33.7710  23.9940  31.7383  29.6524  32.4213 22.7838 0.9839 0.9884
    8803.0000  0.0000 14.9500   13.0508 120.3005 116.0373  2.5062    2.5458  3.2613  3.1699 72.8812 73.5662  18.3600  32.8026  36.5613  27.1520  34.8072  34.2615  35.5067 20.2584 0.9299 0.9680
    8803.5000  0.0000 13.1400   12.6574 112.9811 111.1645  2.5259    2.5470  3.2938  3.2566 70.9159 71.6853  17.0300  40.1141  42.3361  33.3751  41.7090  43.5625  41.8020 18.4417 0.9107 0.9477
    8804.0000  0.0000  8.5400    9.9034  82.0753  85.3021  2.5706    2.5752  3.7973  3.6537 66.8902 67.8218  14.3000  56.1543  51.6077  46.8886  54.1198  65.0658  52.3935 17.7433 0.9237 0.9376
    8804.5000  0.0000  5.0900    7.0662  58.7112  59.6626  2.6215    2.6064  4.3160  4.2198 62.0051 64.4695  11.9300  76.4580  61.3254  66.0931  67.7876  95.6938  63.8042 18.1126 0.9670 0.9416
    8805.0000  0.0000  3.6600    5.7601  47.8377  42.6128  2.6638    2.6216  4.5464  4.8414 59.9179 62.8713  10.8000  82.2953  68.5586  76.7344  77.4470 108.8153  71.9166 20.0304 1.0226 0.9572
    8805.5000  0.0000  4.1100    7.0751  69.0546  37.5013  2.6655    2.6105  4.3389  5.1759 60.1745 63.3624  11.1500  66.6895  72.5277  65.4119  80.6843  89.1628  75.8021 23.2612 1.0746 0.9755
    8806.0000  0.0000  6.4500   10.0324 113.8961  54.6187  2.6197    2.5819  3.8044  4.8519 63.5952 66.3721  13.2800  49.2201  60.6842  48.0725  63.3487  64.1464  61.5227 26.0819 1.0918 0.9890
    8806.5000  0.0000 10.4900   11.8668 150.1259  86.6157  2.5639    2.5643  3.4400  4.0503 68.5360 70.5549  16.2300  32.4663  44.0983  31.3367  42.7464  40.6256  43.0886 27.0910 1.0819 0.9933
    8807.0000  0.0000 14.3000   12.7048 161.2915 110.3416  2.5226    2.5582  3.3621  3.3207 71.5695 73.5164  18.3300  24.1902  36.2277  23.2961  33.8289  29.3634  34.9081 26.4924 1.0680 0.9935
    8807.5000  0.0000 14.2000   12.3456 134.2641 114.2262  2.5092    2.5586  3.3859  3.0308 72.6634 73.1516  18.0700  24.1195  35.6353  23.0933  33.4585  28.8780  34.2413 25.8664 1.0681 0.9923
    8808.0000  0.0000 11.9300   11.5652 102.1699  97.0007  2.5359    2.5620  3.4599  3.2767 71.3279 71.6066  16.9800  27.7855  38.2305  26.2363  36.6620  32.7034  36.7907 25.6385 1.0745 0.9917
    8808.5000  0.0000  9.7200   11.3653  99.7376  76.6145  2.5751    2.5636  3.4816  3.7753 71.2732 71.0436  16.5800  34.4684  39.9705  31.4494  38.6671  39.2588  38.6128 25.7352 1.0770 0.9905
    8809.0000  0.0000  9.7000   11.2015  90.8984  76.3894  2.5850    2.5642  3.5096  3.9416 71.8149 70.7824  16.3900  44.1315  40.6242  37.6412  39.5429  47.6602  39.2933 25.7648 1.0721 0.9893
    8809.5000  0.0000 11.5500   11.6422 101.7234  89.5176  2.5672    2.5604  3.4439  3.7064 72.8578 71.4152  16.8400  44.4861  39.4159  36.1482  38.0536  44.5459  38.0957 25.2673 1.0466 0.9858
    8810.0000  0.0000 12.8500   11.9998 109.0425  99.2024  2.5502    2.5565  3.3752  3.5186 73.1454 71.8722  17.1700  47.0164  38.5406  36.4189  37.0522  44.1641  37.2875 24.2089 1.0081 0.9794
    8810.5000  0.0000 12.5800   12.2246 111.4682  98.5428  2.5481    2.5532  3.3256  3.5432 73.5992 71.9249  17.2000  56.3968  38.9047  40.9405  37.5312  49.9822  37.7887 22.7585 0.9731 0.9708
    8811.0000  0.0000 10.5600   12.0320 110.8288  91.3186  2.5586    2.5542  3.3348  3.7523 71.9299 71.0574  16.5900  70.2115  41.3543  47.8589  40.4713  59.3470  40.4951 21.3587 0.9541 0.9625
    8811.5000  0.0000  7.8800   11.3279 108.4422  82.6287  2.5716    2.5618  3.4542  4.0145 67.8603 69.3068  15.3500  87.0363  46.3851  56.4575  46.5554  71.5402  46.0527 20.6385 0.9587 0.9582
    8812.0000  0.0000  6.7700   10.0610  96.9858  70.1591  2.5913    2.5755  3.6993  4.1051 63.3160 67.2022  13.8600  98.4195  52.9891  62.7320  54.9668  80.4834  53.5017 20.6600 0.9769 0.9576
    8812.5000  0.0000  5.9700    8.4812  76.2102  53.9388  2.6268    2.5919  3.9915  4.1582 62.3677 65.6465  12.7600  91.6396  58.1122  59.8198  61.9760  75.0934  59.3125 21.4793 1.0029 0.9629
    8813.0000  0.0000  5.2500    7.8389  63.3701  46.8575  2.6516    2.5984  4.1115  4.2708 63.3964 65.4610  12.6300  70.1332  59.6934  47.9894  64.0830  57.2027  60.9111 23.1708 1.0343 0.9723
    8813.5000  0.0000  6.3500    9.1160  83.0379  55.6622  2.6351    2.5871  3.8952  4.1088 65.2173 66.4772  13.3500  47.5773  57.3019  34.3980  59.9744  38.8363  57.8012 25.3278 1.0549 0.9843
    8814.0000  0.0000  8.9300   10.2878 102.0144  75.2323  2.5940    2.5762  3.6657  3.6242 68.6713 68.1113  14.5100  35.1729  50.2625  26.3273  50.6979  28.8041  49.7338 26.8590 1.0628 0.9930
    8814.5000  0.0000 11.4700   10.7888 105.1210  90.3640  2.5613    2.5710  3.5506  3.2199 71.8155 69.6964  15.6300  29.4750  43.4084  22.6291  42.4927  24.3821  42.2095 27.3177 1.0547 0.9975
    8815.0000  0.0000 12.4800   11.2259 113.1100  96.5468  2.5440    2.5671  3.4636  3.1309 74.4688 70.9001  16.4800  29.1167  38.9470  24.1250  37.3388  26.0321  37.5234 26.8539 1.0403 0.9966
    8815.5000  0.0000 12.5900   11.7916 129.0623  98.8335  2.5378    2.5625  3.3765  3.2438 74.6011 71.8837  17.1700  30.8736  36.7130  29.3823  34.7411  32.0565  35.3117 26.1093 1.0300 0.9912
    8816.0000  0.0000 12.1400   11.9434 135.0783  89.0321  2.5447    2.5608  3.3409  3.3924 72.8943 71.8258  17.1300  31.4722  37.2557  31.4309  35.3079  34.2319  35.9326 25.4878 1.0319 0.9871
    8816.5000  0.0000 10.7900   11.4130 115.8711  71.1550  2.5698    2.5634  3.3932  3.5772 70.9838 70.5943  16.2600  29.9380  39.9922  30.4158  38.6326  32.7601  38.7764 25.4732 1.0453 0.9844
    8817.0000  0.0000  9.3000   10.2820  81.8506  69.2738  2.5902    2.5717  3.5722  3.6827 70.9515 69.1953  15.2700  28.1725  43.3373  28.7748  43.0300  30.6154  42.2912 25.9886 1.0651 0.9852
    8817.5000  0.0000  9.7200   10.1592  78.8274  77.6090  2.5846    2.5732  3.6049  3.5834 70.6903 69.1245  15.2200  24.4267  43.7903  24.8292  43.5413  26.0154  42.7204 26.9400 1.0874 0.9888
    8818.0000  0.0000 10.7900   11.0051 103.5060  81.2848  2.5828    2.5677  3.4933  3.5208 69.6565 70.2554  16.0200  24.2277  41.1677  24.6606  40.0111  25.6625  39.8808 27.5470 1.0918 0.9927
    8818.5000  0.0000 11.4800   11.4160 115.9646  90.3044  2.5778    2.5659  3.4619  3.5323 72.2467 71.3798  16.8200  27.8160  38.1519  28.3610  36.3877  29.4815  36.6835 27.4122 1.0840 0.9977
    8819.0000  0.0000 12.2900   11.9629 130.0547 103.6565  2.5402    2.5632  3.4441  3.3364 72.9505 72.7001  17.7500  33.1763  35.6549  33.8127  33.4669  35.1337  34.1465 26.5811 1.0692 1.0001
    8819.5000  0.0000 12.6700   11.8627 119.5075  97.4724  2.5244    2.5624  3.4479  3.1736 73.1723 72.4883  17.6000  35.4141  36.0543  35.9971  34.0205  37.2382  34.5480 25.3529 1.0567 0.9977
    8820.0000  0.0000 10.0900   11.3750  93.6959  76.1992  2.5641    2.5632  3.4878  3.4389 72.7319 71.3727  16.8100  32.8843  38.4076  33.2909  36.9544  34.1883  36.9346 24.7346 1.0515 0.9930
    8820.5000  0.0000  8.4600   10.9946  77.9812  72.0164  2.5988    2.5646  3.5424  3.7989 72.0293 70.4953  16.1900  29.8859  41.1544  30.1695  40.3976  30.8278  39.8759 24.4807 1.0399 0.9855
