###############################################
##         ENVERUS                           ##
##         ESS - Open Hole                   ##
##         PERMIAN / DELAWARE                ##
##         Nov 04 2023  V4.0                 ##
##         42-389-32245-00-00                ##
###############################################
## Copyright 2017-2023  ENVERUS.  All Rights Reserved. 
## Confidential - Property of ENVERUS, use governed by terms and 
## conditions found within the existing Information Services Subscription Agreement 
## (as may be amended, the “ISSA”) between Customer and ENVERUS. 
## 
~VERSION INFORMATION
# MNEM.UNIT                               DATA : DESCRIPTION OF MNEMONIC
#-----.-----     ----------------------------- : -----------------------------
VERS.                                     2.00 : CWLS LOG ASCII STANDARD - VERSION 2.00
WRAP.                                       NO : MULTIPLE LINES PER DEPTH STEP
VEND.                                  ENVERUS : VENDOR
TYPE.                          ESS - OPEN HOLE : ENVERUS ESSENTIAL CURVES – ACCESSIBLE THROUGH ENVERUS PRISM(TM)
DOC.                                  31784178 : ENVERUS HEADER RAW DOCUMENT ID
#___________________________________________________________________________________________________ 
~WELL INFORMATION 
# v5kOeJgG8V8Fdrn76qwaaSXPAkEfLGq57aawfXlCwOXh55ROPeN2VCvB7JmY2/dENYnWxxZwl4Ma/Wu+4c2YGQ== 
# MNEM.UNIT                                              DATA : DESCRIPTION OF MNEMONIC 
#-----.-----                    ----------------------------- : ----------------------------- 
CNTY.                                                  REEVES : COUNTY 
STATE.                                                  TEXAS : STATE 
CNTRY.                                                    USA : COUNTRY 
API.                                             42-389-32245 : API (10 Digit) 
API_14.                                    42-389-32245-00-00 : API (14 Digits) 
API_14_std.                                 42-389-32245-0000 : API (14 Digits Standard) 
UWI.                                           42389322450000 : UNIQUE WELL ID 
WELL.                          TEXAS PACIFIC LAND TRUST 25 1H : WELL NAME
STRT.FT                                                2519.0 : START DEPTH
STOP.FT                                               10624.0 : STOP DEPTH
STEP.FT                                                   0.5 : STEP BETWEEN DEPTHS
NULL.                                                 -999.25 : NULL VALUE
#___________________________________________________________________________________________________ 
~CURVE INFORMATION 
# MNEM.UNIT           : CURVE DESCRIPTION 
#-----.-----          : ----------------------------- 
 DEPT.FT               : MEASURED DEPTH 
 CALI__B.IN            : CALIPER (CAL - CAL) 
 GR__B.API             : GAMMA RAY (GR) 
 DT__B.US/FT           : SONIC DELTA TRANSIT TIME (DT) 
 #___________________________________________________________________________________________________ 
~A         DEPT        CALI__B          GR__B          DT__B
# ...
         8987.0         13.005         76.341         71.993
         8987.5         12.996         68.198         70.193
         8988.0         12.986         60.056         68.393
         8988.5         12.977         66.129         69.699
         8989.0         12.967         73.944         72.030
         8989.5         12.958         76.463         72.961
         8990.0         12.949         72.754         72.017
         8990.5         12.939         65.555         71.394
         8991.0         12.930         63.923         71.366
         8991.5         12.923         65.537         72.118
         8992.0         12.921         74.303         72.872
         8992.5         12.919         80.456         73.470
         8993.0         12.917         81.645         73.447
         8993.5         12.915         82.833         73.424
         8994.0         12.914         84.022         73.400
         8994.5         12.912         82.387         71.965
         8995.0         12.910         78.817         70.342
         8995.5         12.908         74.788         68.720
         8996.0         12.906         70.759         68.051
         8996.5         12.905         68.813         69.375
         8997.0         12.903         73.708         72.192
         8997.5         12.901         80.890         75.008
         8998.0         12.911         88.072         77.661
         8998.5         12.921         94.021         78.262
         8999.0         12.932         94.339         78.823
         8999.5         12.942         93.283         78.259
         9000.0         12.952         87.840         75.810
         9000.5         12.962         75.767         73.362
         9001.0         12.972         63.073         70.913
         9001.5         12.982         60.560         70.143
         9002.0         12.993         66.548         69.669
         9002.5         13.003         69.143         69.091
         9003.0         13.013         65.202         69.024
         9003.5         13.023         61.261         69.552
         9004.0         13.033         61.460         70.537
         9004.5         13.040         63.633         70.896
         9005.0         13.047         65.807         70.101
         9005.5         13.053         59.599         68.540
         9006.0         13.059         52.742         68.940
         9006.5         13.066         49.920         70.727
         9007.0         13.072         51.210         71.734
         9007.5         13.078         52.792         71.684
         9008.0         13.085         54.478         71.341
         9008.5         13.091         56.163         71.263
         9009.0         13.098         57.849         71.279
         9009.5         13.104         59.535         71.120
         9010.0         13.110         59.378         70.517
         9010.5         13.117         59.785         70.601
         9011.0         13.123         67.151         71.486
         9011.5         13.131         74.517         72.537
         9012.0         13.140         85.237         73.564
         9012.5         13.149         86.549         73.810
         9013.0         13.157         86.549         74.057
         9013.5         13.166         86.549         74.458
         9014.0         13.175         89.113         75.169
         9014.5         13.183         90.737         75.466
         9015.0         13.192         85.190         73.069
         9015.5         13.201         75.837         70.380
         9016.0         13.209         66.484         67.967
         9016.5         13.218         60.436         67.932
         9017.0         13.227         62.747         69.984
         9017.5         13.235         67.835         72.040
         9018.0         13.244         76.485         74.096
         9018.5         13.253         79.398         75.590
         9019.0         13.254         82.079         76.567
         9019.5         13.245         85.124         77.544
         9020.0         13.237         88.190         78.406
         9020.5         13.229         92.417         78.426
         9021.0         13.220         95.342         77.593
         9021.5         13.212         94.873         76.759
         9022.0         13.203         91.577         74.494
         9022.5         13.195         84.056         72.086
         9023.0         13.189         76.763         69.677
         9023.5         13.186         70.065         68.591
         9024.0         13.183         67.494         69.508
         9024.5         13.180         68.476         71.256
         9025.0         13.178         69.458         73.003
         9025.5         13.175         67.643         73.557
         9026.0         13.172         65.878         73.435
         9026.5         13.169         66.367         73.429
         9027.0         13.166         66.856         73.589
         9027.5         13.163         66.060         73.748
         9028.0         13.160         64.796         73.908
         9028.5         13.157         66.425         74.067
         9029.0         13.155         69.870         74.320
         9029.5         13.152         72.168         74.661
         9030.0         13.149         73.150         74.740
         9030.5         13.146         72.349         73.744
         9031.0         13.150         66.273         72.563
         9031.5         13.154         58.242         71.383
         9032.0         13.159         50.885         70.203
         9032.5         13.164         50.451         70.404
         9033.0         13.168         59.925         71.259
         9033.5         13.166         70.484         72.137
         9034.0         13.164         80.317         72.790
         9034.5         13.162         83.800         73.444
         9035.0         13.160         85.549         74.097
         9035.5         13.158         83.763         74.044
         9036.0         13.156         81.845         73.178
         9036.5         13.154         74.340         71.841
         9037.0         13.152         72.186         69.926
         9037.5         13.150         70.639         69.786
         9038.0         13.148         69.093         70.978
         9038.5         13.146         68.081         72.320
         9039.0         13.145         67.763         73.245
         9039.5         13.145         68.304         73.725
         9040.0         13.145         69.711         74.028
         9040.5         13.145         71.118         74.078
         9041.0         13.145         70.803         72.480
         9041.5         13.145         69.123         69.940
         9042.0         13.145         65.733         69.574
         9042.5         13.145         64.495         70.910
         9043.0         13.145         68.720         72.246
         9043.5         13.145         78.141         73.085
         9044.0         13.145         78.571         72.870
         9044.5         13.145         74.535         72.335
         9045.0         13.145         70.785         72.464
         9045.5         13.145         72.758         73.069
         9046.0         13.145         74.730         73.599
         9046.5         13.145         76.703         73.584
         9047.0         13.145         74.964         73.569
         9047.5         13.145         72.886         73.652
         9048.0         13.145         70.808         73.818
         9048.5         13.145         74.804         73.984
         9049.0         13.145         79.914         74.071
         9049.5         13.145         84.305         72.416
         9050.0         13.145         76.915         68.109
         9050.5         13.145         66.439         63.803
         9051.0         13.132         55.093         60.590
         9051.5         13.119         42.737         58.905
         9052.0         13.106         39.097         59.210
         9052.5         13.093         43.154         62.098
