###############################################
##         ENVERUS                           ##
##         ESS - Open Hole                   ##
##         PERMIAN / DELAWARE                ##
##         Nov 04 2023  V4.0                 ##
##         42-389-32484-00-00                ##
###############################################
## Copyright 2017-2023  ENVERUS.  All Rights Reserved. 
## Confidential - Property of ENVERUS, use governed by terms and 
## conditions found within the existing Information Services Subscription Agreement 
## (as may be amended, the “ISSA”) between Customer and ENVERUS. 
## 
~VERSION INFORMATION
# MNEM.UNIT                               DATA : DESCRIPTION OF MNEMONIC
#-----.-----     ----------------------------- : -----------------------------
VERS.                                     2.00 : CWLS LOG ASCII STANDARD - VERSION 2.00
WRAP.                                       NO : MULTIPLE LINES PER DEPTH STEP
VEND.                                  ENVERUS : VENDOR
TYPE.                          ESS - OPEN HOLE : ENVERUS ESSENTIAL CURVES – ACCESSIBLE THROUGH ENVERUS PRISM(TM)
DOC.                                  31780441 : ENVERUS HEADER RAW DOCUMENT ID
#___________________________________________________________________________________________________ 
~WELL INFORMATION 
# aTsA/KVwhIqB1dg6n/zy22zTJjsJnyaNqg27ywuj9UrTfzbM7gscpQTlR+gOLN+9jERwUBAE6KvHEXpIT+cpyg== 
# MNEM.UNIT                                              DATA : DESCRIPTION OF MNEMONIC 
#-----.-----                    ----------------------------- : ----------------------------- 
CNTY.                                                  REEVES : COUNTY 
STATE.                                                  TEXAS : STATE 
CNTRY.                                                    USA : COUNTRY 
API.                                             42-389-32484 : API (10 Digit) 
API_14.                                    42-389-32484-00-00 : API (14 Digits) 
API_14_std.                                 42-389-32484-0000 : API (14 Digits Standard) 
UWI.                                           42389324840000 : UNIQUE WELL ID 
WELL.                                        BLK 59 ST 37  1H : WELL NAME
STRT.FT                                                 236.0 : START DEPTH
STOP.FT                                               12079.0 : STOP DEPTH
STEP.FT                                                   0.5 : STEP BETWEEN DEPTHS
NULL.                                                 -999.25 : NULL VALUE
COMP.                                       SHELL WESTERN E&P : COMPANY 
DATE.                                             05-SEP-2007 : LOG DATE
#___________________________________________________________________________________________________ 
~CURVE INFORMATION 
# MNEM.UNIT           : CURVE DESCRIPTION 
#-----.-----          : ----------------------------- 
 DEPT.FT               : MEASURED DEPTH 
 CALI.IN               : CALIPER (CAL - CAL) 
 GR.API                : GAMMA RAY (GR) 
 DT.US/FT              : SONIC DELTA TRANSIT TIME (DT) 
 DPHI.V/V              : DENSITY POROSITY (DPHI) 
 NPHI.V/V              : NEUTRON POROSITY (NPHI) 
 RHOB.G/CC             : BULK DENSITY (RHOB) 
 #___________________________________________________________________________________________________ 
~A         DEPT           CALI             GR             DT           DPHI           NPHI           RHOB
# ...
         5784.0         13.322         55.084       -999.250        0.07888        0.06517         2.5720
         5784.5         13.330         47.345       -999.250        0.07740        0.04707         2.5670
         5785.0         13.337         45.614       -999.250        0.07884        0.03921         2.5610
         5785.5         13.344         46.836       -999.250        0.08813        0.03570         2.5650
         5786.0         13.351         52.265       -999.250        0.08872        0.04544         2.5730
         5786.5         13.358         61.172       -999.250        0.08345        0.05466         2.5820
         5787.0         13.365         71.034       -999.250        0.07817        0.06756         2.5910
         5787.5         13.372         85.357       -999.250        0.07545        0.08047         2.6000
         5788.0         13.379         96.918       -999.250        0.07092        0.09338         2.6090
         5788.5         13.386         95.228       -999.250        0.05984        0.09305         2.6180
         5789.0         13.394         91.778       -999.250        0.05646        0.08953         2.6190
         5789.5         13.401         88.631       -999.250        0.05173        0.08370         2.6100
         5790.0         13.401         89.942       -999.250        0.05275        0.07860         2.6010
         5790.5         13.401         91.253       -999.250        0.05712        0.08304         2.5920
         5791.0         13.401         92.564       -999.250        0.06421        0.08748         2.5830
         5791.5         13.401         88.834       -999.250        0.07095        0.09192         2.5740
         5792.0         13.401         78.184       -999.250        0.07769        0.09485         2.5650
         5792.5         13.401         65.535       -999.250        0.08422        0.09313         2.5560
         5793.0         13.401         58.534       -999.250        0.08828        0.08900         2.5520
         5793.5         13.401         54.915       -999.250        0.09233        0.08298         2.5480
         5794.0         13.401         56.408       -999.250        0.09639        0.07696         2.5450
         5794.5         13.401         58.249       -999.250        0.09407        0.07880         2.5510
         5795.0         13.401         58.249       -999.250        0.08915        0.08223         2.5590
         5795.5         13.401         58.248       -999.250        0.08422        0.08556         2.5660
         5796.0         13.393         59.012       -999.250        0.07930        0.08523         2.5730
         5796.5         13.383         65.124       -999.250        0.08057        0.08489         2.5860
         5797.0         13.373         73.888       -999.250        0.07576        0.08519         2.6030
         5797.5         13.363         87.921       -999.250        0.06959        0.08923         2.6200
         5798.0         13.353        102.991       -999.250        0.06357        0.09680         2.6250
         5798.5         13.343        111.476       -999.250        0.05755        0.10458         2.6260
         5799.0         13.332        112.432       -999.250        0.05152        0.10919         2.6270
         5799.5         13.322        109.650       -999.250        0.04590        0.10717         2.6280
         5800.0         13.312         87.595       -999.250        0.04539        0.10516         2.6270
         5800.5         13.311         73.698       -999.250        0.05251        0.07940         2.6220
         5801.0         13.311         62.856       -999.250        0.05595        0.05842         2.6160
         5801.5         13.311         52.014       -999.250        0.05745        0.03884         2.6110
         5802.0         13.311         42.593       -999.250        0.05670        0.02858         2.6060
         5802.5         13.311         45.634       -999.250        0.06212        0.03177         2.6020
         5803.0         13.311         59.808       -999.250        0.06330        0.04474         2.6060
         5803.5         13.311         86.401       -999.250        0.06114        0.06276         2.6090
         5804.0         13.311        101.935       -999.250        0.05898        0.08033         2.6130
         5804.5         13.311        109.345       -999.250        0.05908        0.08559         2.6170
         5805.0         13.311        113.805       -999.250        0.05926        0.08626         2.6220
         5805.5         13.311        118.265       -999.250        0.05567        0.08478         2.6300
         5806.0         13.311        117.261       -999.250        0.05170        0.08167         2.6380
         5806.5         13.311         97.363       -999.250        0.05170        0.07856         2.6460
         5807.0         13.311         77.465       -999.250        0.03852        0.06628         2.6540
         5807.5         13.311         60.174       -999.250        0.02555        0.05318         2.6630
         5808.0         13.311         49.962       -999.250        0.02105        0.04007         2.6710
         5808.5         13.319         48.277       -999.250        0.02851        0.03173         2.6700
         5809.0         13.337         46.242       -999.250        0.03683        0.02796         2.6630
         5809.5         13.355         49.488       -999.250        0.03342        0.02855         2.6560
         5810.0         13.373         64.879       -999.250        0.02851        0.04670         2.6490
         5810.5         13.390         81.738       -999.250        0.03344        0.06750         2.6420
         5811.0         13.408        102.592       -999.250        0.04356        0.08782         2.6360
         5811.5         13.426        101.974       -999.250        0.04890        0.09562         2.6290
         5812.0         13.444         99.524       -999.250        0.04935        0.09869         2.6180
         5812.5         13.461         96.895       -999.250        0.05679        0.09869         2.6030
         5813.0         13.479         89.905       -999.250        0.06587        0.09555         2.5880
         5813.5         13.497         79.153       -999.250        0.07876        0.09097         2.5730
         5814.0         13.515         68.497       -999.250        0.08099        0.08639         2.5580
         5814.5         13.533         61.212       -999.250        0.08548        0.08180         2.5500
         5815.0         13.550         61.974       -999.250        0.09202        0.07973         2.5450
         5815.5         13.568         68.954       -999.250        0.09856        0.08243         2.5500
         5816.0         13.586         77.224       -999.250        0.09451        0.09804         2.5750
         5816.5         13.604         85.493       -999.250        0.08949        0.11484         2.6010
         5817.0         13.621         93.763       -999.250        0.06609        0.12299         2.6260
         5817.5         13.627         96.281       -999.250        0.04576        0.12980         2.6510
         5818.0         13.630         95.022       -999.250        0.03902        0.12578         2.6470
         5818.5         13.633         96.310       -999.250        0.03848        0.11600         2.6420
         5819.0         13.635         97.225       -999.250        0.04689        0.11221         2.6360
         5819.5         13.638         94.376       -999.250        0.05531        0.11141         2.6180
         5820.0         13.641         86.987       -999.250        0.06377        0.10917         2.5930
         5820.5         13.643         75.925       -999.250        0.07347        0.10337         2.5670
         5821.0         13.646         65.043       -999.250        0.08439        0.09741         2.5480
         5821.5         13.648         55.090       -999.250        0.09532        0.09011         2.5440
