#   WellGreen Tech Inc.   Digitizing Services
#   www.wellgreentech.com
#   email: sales@wellgreentech.com
#
~Version Information Block
 VERS.                2.00:     CWLS LOG ASCII STANDARD - VERSION 2.000000
 WRAP.                  NO:     One Line Per Depth Step
#
~Well Information Block
#MNEM.UNIT                     Data                         Information
#----------   ------------------------------------------   ----------------
 STRT.FT                                     4000.0000:     START DEPTH
 STOP.FT                                    15710.0000:     STOP DEPTH
 STEP.FT                                        0.5000:     STEP
 NULL.                                       -999.2500:     NULL VALUE
 COMP.                        THE SUPERIOR OIL COMPANY:     COMPANY
 WELL.                                FORTUNE STATE #1:     WELL
 FLD .                                    CHAPMAN DEEP:     FIELD
 LOC .                                                :     LOCATION
 CNTY.                                          REEVES:     COUNTY
 STAT.                                              TX:     STATE
 CTRY.                                             USA:     COUNTRY
 SRVC.                                    SCHLUMBERGER:     SERVICE COMPANY
 DATE.                                      11/10/1974:     DATE
 API .               42389302950000:    API NUMBER
 UWI .               42389302950000:    UWI NUMBER
 TVD .                                              NO:     TVD flag
 MATRIX .G/CC                  :    Matrix Density
#
~Curve Information Block
#MNEM.UNIT       API CODE      Curve Description
#----------    -------------   -------------------
 DEPT.FT                   :   Depth in Feet
 CALI.IN       70 280 01 01:   Caliper
 GR  .API      35 310 01 01:   Gamma Ray
 DT  .US/F     60 520 08 01:   Sonic transit time
#
~Parameter Information Block
#MNEM.UNIT            Value               Description
#----------    --------------------    -------------------
 RUN .                         ONE:    Run Number
 PDAT.                          GL:    Permanent Datum
 EPD .FT                  000.0000:    Elevation Of Perm. Datum
 LMF .               KELLY BUSHING:    Log Measured From
 EKB .FT                  3065.0:    Elevation Of Kelly Bushing
 DF .FT                    000.0:    Elevation Of Derrick Floor
 GL .FT                   3034.0:    Elevation Of Ground Level
 TD .FT                  15710.0000:    Total Depth
 BHT .DEGF               260.00 :  Bottom Hole Temperature
 BLI .FT               15710.0000:   Bottom Log Interval
 CSGSIZE.IN              9.6250:   Casing Size
 BITSIZE.IN               8.750 :  BitSize
 CSGD.FT                  4000.0:    Casing Bottom (Driller) 1
 CSGL.FT                  400.0:    Casing Bottom (Logger) 1
 MUD . BRINE                                :    Drilling Fluid Type
 MUDV .CP                  27.0:    Drilling Fluid Viscosity
 MUDD .LB/USG              9.25:    Drilling Fluid Density
 PH.                        6.2:    Drilling Fluid Ph
 FL .ML/30MIN              11.0:    Drilling Fluid Loss
 MUDS .FLOW LINE                        :    Mud Sample Source
 RM .OHMM                   0.09:    Resistivity Of Mud Sample
 RMT .DEGF                 60.00:    Mud Sample Temperature
 RMF .OHMM                  0.09:    Mud Filtrate Resistivity
 RMFT.DEGF                 60.00:    Mud Filtrate Sample Temperature
 RMC .OHMM                  0.00:    Mud Cake Resistivity
 RMCT.DEGF                 00.00:    Mud Cake Sample Temperature
 RMB .OHMM                 0.027:    Mud Resistivity At Bht
 TMAX .DEGF               260.00:    Bottom Hole Temperature
#
~Other Information Block
<DescLogPlotStart>   NEURALOG PLOT DEFINITION
PLOTDEFVERSION: 3
LASFILE: D:\nds\projects\G\DAVE\new work\RS Energy - Texas - May 17 - Folder 2\
DEPTHSCALE: 240.000000
RESOLUTION: 400
DEPTHLABELFREQ: 100.000000
HEAVYGRIDFREQ: 100.000000
MEDIUMGRIDFREQ: 50.000000
LIGHTGRIDFREQ: 10.000000
#
#   TRACK 1
#
STARTTRACK: 
 LEFTX: 0.500000 inch
 RIGHTX: 3.000000 inch
 SCALETYPE: Linear
 NUMCHARTDIVISIONS: 10
CURVE: CALI  6.000000   16.000000  (0,0,255)      Solid             2     N    
CURVE: GR    0.000000   125.000000 (0,131,131)    Dot               2     Y    
BACKUP: 125.000000 250.000000 (0,131,131)    Dot               2    
ENDTRACK: 
#
#   TRACK 2
#
STARTTRACK: 
 LEFTX: 3.500000 inch
 RIGHTX: 8.500000 inch
 SCALETYPE: Linear
 NUMCHARTDIVISIONS: 10
CURVE: DT    100.000000 40.000000  (255,0,255)    Solid             2     Y    
BACKUP: 160.000000 100.000000 (255,0,255)    Solid             2    
ENDTRACK: 
<DescLogPlotEnd>
~A DEPTH     CALI             GR               DT              
# ...
   11000.000 10.015           75.875           81.504          
   11000.500 10.019           78.211           80.476          
   11001.000 10.022           82.070           82.095          
   11001.500 10.026           85.925           83.563          
   11002.000 10.029           89.780           85.033          
   11002.500 10.032           93.644           86.822          
   11003.000 10.036           97.186           85.851          
   11003.500 10.039           94.320           84.608          
   11004.000 10.043           91.502           83.365          
   11004.500 10.046           88.605           81.696          
   11005.000 10.050           90.785           83.038          
   11005.500 10.053           93.459           85.096          
   11006.000 10.057           95.947           87.181          
   11006.500 10.056           93.113           85.934          
   11007.000 10.044           90.006           84.667          
   11007.500 10.032           89.674           83.401          
   11008.000 10.019           90.024           82.303          
   11008.500 10.019           90.189           82.477          
   11009.000 10.039           88.217           81.532          
   11009.500 10.050           86.281           82.230          
   11010.000 10.061           84.674           82.764          
   11010.500 10.064           87.068           83.161          
   11011.000 10.045           89.552           82.015          
   11011.500 10.026           90.960           81.095          
   11012.000 10.007           86.507           81.005          
   11012.500 9.989            82.851           81.522          
   11013.000 10.006           82.078           82.367          
   11013.500 10.024           85.830           85.064          
   11014.000 10.042           90.042           89.160          
   11014.500 10.060           95.165           88.210          
   11015.000 10.064           92.804           86.234          
   11015.500 10.053           89.501           84.257          
   11016.000 10.043           86.202           82.444          
   11016.500 10.055           82.901           84.227          
   11017.000 10.082           79.640           84.997          
   11017.500 10.108           80.917           84.505          
   11018.000 10.135           83.450           82.961          
   11018.500 10.143           85.149           81.304          
   11019.000 10.131           84.033           81.746          
   11019.500 10.118           82.919           82.630          
   11020.000 10.106           81.807           83.514          
   11020.500 10.093           80.695           84.093          
   11021.000 10.080           79.156           82.529          
   11021.500 10.068           77.347           81.365          
   11022.000 10.055           76.394           80.202          
   11022.500 10.043           79.594           79.039          
   11023.000 10.030           77.839           77.316          
   11023.500 10.018           75.043           78.061          
   11024.000 10.011           72.248           79.494          
   11024.500 10.045           70.528           80.927          
   11025.000 10.079           78.243           82.360          
   11025.500 10.113           80.200           83.793          
   11026.000 10.147           76.188           84.273          
   11026.500 10.181           71.681           79.578          
   11027.000 10.214           67.180           76.276          
   11027.500 10.212           62.680           72.975          
   11028.000 10.113           58.177           69.850          
   11028.500 10.013           52.044           71.802          
   11029.000 9.968            57.111           74.146          
   11029.500 10.022           65.936           80.609          
   11030.000 10.076           74.746           84.638          
   11030.500 10.120           83.557           85.234          
   11031.000 10.126           92.361           85.829          
   11031.500 10.131           98.543           83.350          
   11032.000 10.136           87.430           79.806          
   11032.500 10.142           77.319           76.262          
   11033.000 10.147           67.953           72.219          
   11033.500 10.105           65.853           75.410          
   11034.000 9.988            63.671           79.124          
   11034.500 10.028           71.133           82.838          
   11035.000 10.143           79.482           86.642          
   11035.500 10.234           87.815           86.672          
   11036.000 10.251           96.178           85.091          
   11036.500 10.268           99.688           83.518          
   11037.000 10.285           96.454           81.945          
   11037.500 10.302           93.792           80.948          
   11038.000 10.319           90.390           84.774          
   11038.500 10.337           86.872           88.435          
   11039.000 10.354           90.146           87.560          
   11039.500 10.371           93.762           85.493          
   11040.000 10.341           96.275           80.915          
   11040.500 10.265           84.235           76.337          
   11041.000 10.189           74.617           71.759          
   11041.500 10.113           65.005           66.612          
   11042.000 10.036           56.876           69.405          
   11042.500 10.039           61.339           73.866          
   11043.000 10.050           65.366           78.328          
   11043.500 10.062           71.532           82.789          
   11044.000 10.073           80.103           86.102          
   11044.500 10.084           88.663           83.493          
   11045.000 10.091           94.350           84.308          
   11045.500 10.096           87.289           82.534          
   11046.000 10.100           81.774           83.095          
   11046.500 10.104           76.252           84.269          
   11047.000 10.109           73.355           83.945          
   11047.500 10.113           76.457           83.410          
   11048.000 10.117           78.778           82.877          
   11048.500 10.121           81.097           82.344          
   11049.000 10.126           83.420           81.845          
   11049.500 10.130           85.579           83.118          
   11050.000 10.134           85.916           84.753          
   11050.500 10.138           86.280           83.431          
   11051.000 10.143           86.246           81.351          
   11051.500 10.147           84.963           79.270          
   11052.000 10.128           83.610           77.190          
   11052.500 10.083           75.951           75.448          
   11053.000 10.040           68.048           73.420          
   11053.500 10.045           58.770           74.914          
   11054.000 10.041           63.081           77.627          
   11054.500 10.015           68.633           80.338          
   11055.000 10.023           74.179           83.049          
   11055.500 10.075           79.712           85.763          
   11056.000 10.040           86.391           87.271          
   11056.500 10.006           93.180           86.463          
   11057.000 9.985            101.693          85.903          
   11057.500 10.014           99.205           83.855          
   11058.000 10.043           95.678           81.552          
   11058.500 10.072           92.149           82.143          
   11059.000 10.098           88.620           81.149          
   11059.500 10.077           85.092           79.867          
   11060.000 10.057           81.563           78.585          
   11060.500 10.036           78.032           77.302          
   11061.000 10.016           74.522           76.000          
   11061.500 9.995            74.521           77.742          
   11062.000 9.997            76.177           79.523          
