###############################################
##         ENVERUS                           ##
##         ESS - Open Hole                   ##
##         PERMIAN / DELAWARE                ##
##         Nov 04 2023  V4.0                 ##
##         42-389-32421-01-00                ##
###############################################
## Copyright 2017-2023  ENVERUS.  All Rights Reserved. 
## Confidential - Property of ENVERUS, use governed by terms and 
## conditions found within the existing Information Services Subscription Agreement 
## (as may be amended, the “ISSA”) between Customer and ENVERUS. 
## 
~VERSION INFORMATION
# MNEM.UNIT                               DATA : DESCRIPTION OF MNEMONIC
#-----.-----     ----------------------------- : -----------------------------
VERS.                                     2.00 : CWLS LOG ASCII STANDARD - VERSION 2.00
WRAP.                                       NO : MULTIPLE LINES PER DEPTH STEP
VEND.                                  ENVERUS : VENDOR
TYPE.                          ESS - OPEN HOLE : ENVERUS ESSENTIAL CURVES – ACCESSIBLE THROUGH ENVERUS PRISM(TM)
DOC.                                  51226874 : ENVERUS HEADER RAW DOCUMENT ID
#___________________________________________________________________________________________________ 
~WELL INFORMATION 
# Tb73rb1SL3MkDZoC3l18/hn1AqNnLhXquKbAWMIBLpWCEGQs+cUq/9XFz1I3dh1trdNBSXyPtAuUBW0L3ONtkQ== 
# MNEM.UNIT                                              DATA : DESCRIPTION OF MNEMONIC 
#-----.-----                    ----------------------------- : ----------------------------- 
CNTY.                                                  REEVES : COUNTY 
STATE.                                                  TEXAS : STATE 
CNTRY.                                                    USA : COUNTRY 
API.                                             42-389-32421 : API (10 Digit) 
API_14.                                    42-389-32421-01-00 : API (14 Digits) 
API_14_std.                                 42-389-32421-0100 : API (14 Digits Standard) 
UWI.                                           42389324210100 : UNIQUE WELL ID 
WELL.                                      ARMSTRONG STATE  1 : WELL NAME
STRT.FT                                                 182.0 : START DEPTH
STOP.FT                                               14775.0 : STOP DEPTH
STEP.FT                                                   0.5 : STEP BETWEEN DEPTHS
NULL.                                                 -999.25 : NULL VALUE
PREV_UWI.                                      42389324210000 : UNIQUE WELL ID 
PREV_API.                                      42389324210000 : API NUMBER 
COMP.                                    STALEY OPERATING CO. : COMPANY 
DATE.                                             26-JUN-2006 : LOG DATE
#___________________________________________________________________________________________________ 
~CURVE INFORMATION 
# MNEM.UNIT           : CURVE DESCRIPTION 
#-----.-----          : ----------------------------- 
 DEPT.FT               : MEASURED DEPTH 
 CALI__A.IN            : CALIPER (CAL - CAL) 
 GR__A.API             : GAMMA RAY (GR) 
 DT__A.US/FT           : SONIC DELTA TRANSIT TIME (DT) 
 DPHI__A.V/V           : DENSITY POROSITY (DPHI) 
 NPHI__A.V/V           : NEUTRON POROSITY (NPHI) 
 RHOB__A.G/CC          : BULK DENSITY (RHOB) 
 #___________________________________________________________________________________________________ 
~A         DEPT        CALI__A          GR__A          DT__A        DPHI__A        NPHI__A        RHOB__A
# ...
        10480.0          9.900         84.115         75.692        0.08191        0.13640         2.5840
        10480.5          9.890         86.164         75.315        0.06612        0.13449         2.5950
        10481.0          9.880         87.871         74.627        0.05764        0.13748         2.6050
        10481.5          9.871         90.447         74.822        0.05764        0.14081         2.6100
        10482.0          9.861         94.630         75.788        0.07003        0.14733         2.5990
        10482.5          9.851         98.813         76.754        0.07162        0.15410         2.5880
        10483.0          9.842         97.487         77.337        0.06474        0.15682         2.5940
        10483.5          9.832         90.675         75.167        0.05326        0.15053         2.6070
        10484.0          9.822         82.714         72.998        0.04716        0.13615         2.6200
        10484.5          9.811         75.338         70.829        0.04968        0.12115         2.6250
        10485.0          9.798         73.380         71.201        0.05849        0.10489         2.6140
        10485.5          9.785         79.212         71.705        0.06853        0.12023         2.6040
        10486.0          9.773         86.037         67.942        0.06953        0.13035         2.5950
        10486.5          9.760         78.323         63.996        0.05434        0.12337         2.6290
        10487.0          9.747         64.874         60.051        0.03057        0.09567         2.6640
        10487.5          9.734         51.426         56.105        0.00680        0.06297         2.6980
        10488.0          9.721         41.125         55.490       -0.01696        0.04214         2.7330
        10488.5          9.708         46.379         57.092       -0.01850        0.03672         2.7300
        10489.0          9.695         59.621         63.676        0.01496        0.06587         2.6830
        10489.5          9.687         75.561         70.809        0.04842        0.09672         2.6370
        10490.0          9.687         91.852         76.376        0.06734        0.14919         2.5990
        10490.5          9.687        100.762         78.888        0.07806        0.16217         2.5890
        10491.0          9.687        104.484         79.390        0.08478        0.16275         2.5780
        10491.5          9.687        101.878         77.621        0.08354        0.15416         2.5680
        10492.0          9.687         88.530         74.162        0.07334        0.13021         2.5820
        10492.5          9.687         69.780         68.935        0.05842        0.10453         2.5990
        10493.0          9.687         58.245         65.010        0.05019        0.07905         2.6150
        10493.5          9.687         52.030         65.850        0.04728        0.05956         2.6160
        10494.0          9.688         61.325         68.381        0.05763        0.07503         2.6060
        10494.5          9.688         73.744         71.779        0.06798        0.10365         2.5950
        10495.0          9.688         86.163         74.087        0.07171        0.13187         2.5930
        10495.5          9.688         97.251         76.014        0.06716        0.15518         2.5960
        10496.0          9.688        105.477         77.021        0.06459        0.16403         2.5990
        10496.5          9.688        108.062         78.029        0.06401        0.16514         2.6020
        10497.0          9.688        106.862         79.037        0.06342        0.16379         2.6050
        10497.5          9.688        105.382         79.018        0.06283        0.15990         2.6050
        10498.0          9.684        103.991         78.841        0.06526        0.15635         2.5980
        10498.5          9.668        106.955         78.664        0.07077        0.15747         2.5920
        10499.0          9.652        109.718         78.487        0.07629        0.15859         2.5860
        10499.5          9.636        104.517         78.308        0.08180        0.15398         2.5790
        10500.0          9.626         96.301         77.974        0.07807        0.14437         2.5840
        10500.5          9.635         80.719         76.146        0.07153        0.13453         2.6240
        10501.0          9.644         65.136         70.761        0.03374        0.11497         2.6630
        10501.5          9.653         49.553         62.506       -0.01101        0.09104         2.7030
        10502.0          9.662         49.124         57.590       -0.03972        0.06710         2.7420
        10502.5          9.671         56.371         57.009       -0.02179        0.06204         2.7820
        10503.0          9.680         69.030         60.747        0.01931        0.08362         2.6630
        10503.5          9.689         81.294         66.031        0.05178        0.09949         2.6260
        10504.0          9.698         80.004         72.305        0.05780        0.10537         2.6130
        10504.5          9.707         81.946         75.650        0.06383        0.11210         2.6010
        10505.0          9.716         89.812         78.809        0.06985        0.12748         2.5880
        10505.5          9.725         96.426         80.197        0.07588        0.14286         2.5760
        10506.0          9.734        102.114         79.821        0.08191        0.15627         2.5740
        10506.5          9.743        106.062         79.430        0.08170        0.15921         2.5750
        10507.0          9.752        103.869         78.548        0.07789        0.16072         2.5770
        10507.5          9.761        101.676         77.666        0.06943        0.16022         2.5920
        10508.0          9.770         95.307         76.784        0.06098        0.15691         2.6060
        10508.5          9.779         89.951         75.902        0.05322        0.15233         2.6170
        10509.0          9.788         93.594         75.318        0.06134        0.15363         2.6060
        10509.5          9.797         99.125         76.372        0.06946        0.15778         2.5950
        10510.0          9.806        105.131         77.427        0.07758        0.16118         2.5840
        10510.5          9.815        103.643         78.418        0.07589        0.16103         2.5750
        10511.0          9.824         99.862         77.356        0.07018        0.15090         2.5820
        10511.5          9.834         98.344         76.295        0.06553        0.14215         2.5900
        10512.0          9.843        100.111         76.485        0.06939        0.14503         2.5900
        10512.5          9.852        101.667         77.125        0.07325        0.15027         2.5840
        10513.0          9.861         97.560         77.766        0.07568        0.15248         2.5820
        10513.5          9.870         95.632         77.288        0.07446        0.15220         2.5830
        10514.0          9.879         96.925         76.073        0.07323        0.14920         2.5830
        10514.5          9.888         99.779         75.882        0.07285        0.14526         2.5830
        10515.0          9.888        102.241         76.385        0.07436        0.14133         2.5820
        10515.5          9.889        103.279         76.548        0.07862        0.14551         2.5740
        10516.0          9.890        100.745         76.485        0.08765        0.15051         2.5670
        10516.5          9.891         99.313         76.422        0.08966        0.14922         2.5590
        10517.0          9.892         99.985         76.359        0.09168        0.14910         2.5510
        10517.5          9.893        100.658         76.259        0.08738        0.15277         2.5640
