#   WellGreen Tech Inc.   Digitizing Services
#   www.wellgreentech.com
#   email: sales@wellgreentech.com
#
~Version Information Block
 VERS.                2.00:     CWLS LOG ASCII STANDARD - VERSION 2.000000
 WRAP.                  NO:     One Line Per Depth Step
#
~Well Information Block
#MNEM.UNIT                     Data                         Information
#----------   ------------------------------------------   ----------------
 STRT.FT                                     4000.0000:     START DEPTH
 STOP.FT                                    15710.0000:     STOP DEPTH
 STEP.FT                                        0.5000:     STEP
 NULL.                                       -999.2500:     NULL VALUE
 COMP.                        THE SUPERIOR OIL COMPANY:     COMPANY
 WELL.                                FORTUNE STATE #1:     WELL
 FLD .                                    CHAPMAN DEEP:     FIELD
 LOC .                                                :     LOCATION
 CNTY.                                          REEVES:     COUNTY
 STAT.                                              TX:     STATE
 CTRY.                                             USA:     COUNTRY
 SRVC.                                    SCHLUMBERGER:     SERVICE COMPANY
 DATE.                                      11/10/1974:     DATE
 API .               42389302950000:    API NUMBER
 UWI .               42389302950000:    UWI NUMBER
 TVD .                                              NO:     TVD flag
 MATRIX .G/CC                  :    Matrix Density
#
~Curve Information Block
#MNEM.UNIT       API CODE      Curve Description
#----------    -------------   -------------------
 DEPT.FT                   :   Depth in Feet
 CALI.IN       70 280 01 01:   Caliper
 GR  .API      35 310 01 01:   Gamma Ray
 DT  .US/F     60 520 08 01:   Sonic transit time
#
~Parameter Information Block
#MNEM.UNIT            Value               Description
#----------    --------------------    -------------------
 RUN .                         ONE:    Run Number
 PDAT.                          GL:    Permanent Datum
 EPD .FT                  000.0000:    Elevation Of Perm. Datum
 LMF .               KELLY BUSHING:    Log Measured From
 EKB .FT                  3065.0:    Elevation Of Kelly Bushing
 DF .FT                    000.0:    Elevation Of Derrick Floor
 GL .FT                   3034.0:    Elevation Of Ground Level
 TD .FT                  15710.0000:    Total Depth
 BHT .DEGF               260.00 :  Bottom Hole Temperature
 BLI .FT               15710.0000:   Bottom Log Interval
 CSGSIZE.IN              9.6250:   Casing Size
 BITSIZE.IN               8.750 :  BitSize
 CSGD.FT                  4000.0:    Casing Bottom (Driller) 1
 CSGL.FT                  400.0:    Casing Bottom (Logger) 1
 MUD . BRINE                                :    Drilling Fluid Type
 MUDV .CP                  27.0:    Drilling Fluid Viscosity
 MUDD .LB/USG              9.25:    Drilling Fluid Density
 PH.                        6.2:    Drilling Fluid Ph
 FL .ML/30MIN              11.0:    Drilling Fluid Loss
 MUDS .FLOW LINE                        :    Mud Sample Source
 RM .OHMM                   0.09:    Resistivity Of Mud Sample
 RMT .DEGF                 60.00:    Mud Sample Temperature
 RMF .OHMM                  0.09:    Mud Filtrate Resistivity
 RMFT.DEGF                 60.00:    Mud Filtrate Sample Temperature
 RMC .OHMM                  0.00:    Mud Cake Resistivity
 RMCT.DEGF                 00.00:    Mud Cake Sample Temperature
 RMB .OHMM                 0.027:    Mud Resistivity At Bht
 TMAX .DEGF               260.00:    Bottom Hole Temperature
#
~Other Information Block
<DescLogPlotStart>   NEURALOG PLOT DEFINITION
PLOTDEFVERSION: 3
LASFILE: D:\nds\projects\G\DAVE\new work\RS Energy - Texas - May 17 - Folder 2\
DEPTHSCALE: 240.000000
RESOLUTION: 400
DEPTHLABELFREQ: 100.000000
HEAVYGRIDFREQ: 100.000000
MEDIUMGRIDFREQ: 50.000000
LIGHTGRIDFREQ: 10.000000
#
#   TRACK 1
#
STARTTRACK: 
 LEFTX: 0.500000 inch
 RIGHTX: 3.000000 inch
 SCALETYPE: Linear
 NUMCHARTDIVISIONS: 10
CURVE: CALI  6.000000   16.000000  (0,0,255)      Solid             2     N    
CURVE: GR    0.000000   125.000000 (0,131,131)    Dot               2     Y    
BACKUP: 125.000000 250.000000 (0,131,131)    Dot               2    
ENDTRACK: 
#
#   TRACK 2
#
STARTTRACK: 
 LEFTX: 3.500000 inch
 RIGHTX: 8.500000 inch
 SCALETYPE: Linear
 NUMCHARTDIVISIONS: 10
CURVE: DT    100.000000 40.000000  (255,0,255)    Solid             2     Y    
BACKUP: 160.000000 100.000000 (255,0,255)    Solid             2    
ENDTRACK: 
<DescLogPlotEnd>
~A DEPTH     CALI             GR               DT              
# ...
    4750.000 12.473           37.548           60.942          
    4750.500 12.473           38.577           60.723          
    4751.000 12.473           38.829           61.342          
    4751.500 12.472           36.373           62.556          
    4752.000 12.472           35.089           63.842          
    4752.500 12.472           33.810           65.520          
    4753.000 12.472           32.507           67.198          
    4753.500 12.472           33.340           68.214          
    4754.000 12.472           32.609           68.525          
    4754.500 12.471           32.937           68.734          
    4755.000 12.471           35.220           68.938          
    4755.500 12.471           37.640           68.729          
    4756.000 12.471           35.534           68.723          
    4756.500 12.471           32.938           68.752          
    4757.000 12.471           31.529           68.513          
    4757.500 12.471           30.250           67.136          
    4758.000 12.470           28.979           65.789          
    4758.500 12.470           29.121           65.569          
    4759.000 12.470           30.013           66.302          
    4759.500 12.470           30.136           68.251          
    4760.000 12.470           29.171           67.210          
    4760.500 12.470           28.394           64.945          
    4761.000 12.470           30.173           62.777          
    4761.500 12.469           31.931           61.012          
    4762.000 12.469           32.374           59.098          
    4762.500 12.469           32.325           59.905          
    4763.000 12.469           32.307           58.782          
    4763.500 12.469           29.974           58.799          
    4764.000 12.469           27.412           61.007          
    4764.500 12.469           25.891           64.860          
    4765.000 12.469           26.784           69.307          
    4765.500 12.469           27.496           71.030          
    4766.000 12.469           28.810           80.107          
    4766.500 12.469           30.223           68.886          
    4767.000 12.469           33.233           67.413          
    4767.500 12.469           32.250           66.462          
    4768.000 12.469           32.067           65.322          
    4768.500 12.469           32.326           66.591          
    4769.000 12.469           33.472           67.970          
    4769.500 12.469           34.643           69.353          
    4770.000 12.469           33.341           70.015          
    4770.500 12.469           32.349           68.175          
    4771.000 12.469           32.809           68.145          
    4771.500 12.469           34.664           68.014          
    4772.000 12.469           36.856           69.241          
    4772.500 12.470           39.050           70.599          
    4773.000 12.470           37.989           70.719          
    4773.500 12.470           36.017           70.207          
    4774.000 12.470           34.661           69.286          
    4774.500 12.470           34.652           68.517          
    4775.000 12.470           34.671           67.561          
    4775.500 12.470           33.147           65.700          
    4776.000 12.470           31.487           64.138          
    4776.500 12.470           31.924           65.009          
    4777.000 12.470           32.394           65.282          
    4777.500 12.470           29.043           67.005          
    4778.000 12.470           30.682           68.549          
    4778.500 12.470           32.265           65.655          
    4779.000 12.470           33.857           62.836          
    4779.500 12.470           32.584           61.491          
    4780.000 12.470           30.629           62.559          
    4780.500 12.470           29.616           64.900          
    4781.000 12.471           29.535           64.736          
    4781.500 12.471           29.700           64.242          
    4782.000 12.471           29.864           64.392          
    4782.500 12.471           30.014           67.029          
    4783.000 12.471           31.531           70.007          
    4783.500 12.471           33.113           68.246          
    4784.000 12.471           31.772           67.442          
    4784.500 12.471           30.790           66.638          
    4785.000 12.471           33.509           66.341          
    4785.500 12.471           33.079           67.780          
    4786.000 12.471           32.657           67.908          
    4786.500 12.471           33.508           66.939          
    4787.000 12.471           34.354           64.396          
    4787.500 12.471           31.917           64.101          
    4788.000 12.471           31.380           64.295          
    4788.500 12.471           30.859           65.480          
    4789.000 12.471           31.511           67.502          
    4789.500 12.472           33.549           67.622          
    4790.000 12.472           35.320           66.998          
    4790.500 12.472           35.532           66.079          
    4791.000 12.472           36.466           65.145          
    4791.500 12.472           37.463           65.017          
    4792.000 12.472           36.010           65.168          
    4792.500 12.472           34.560           66.452          
    4793.000 12.472           33.105           66.084          
    4793.500 12.472           32.803           65.469          
    4794.000 12.472           32.230           63.321          
    4794.500 12.472           32.518           61.900          
    4795.000 12.472           34.892           61.847          
    4795.500 12.472           36.018           62.936          
    4796.000 12.472           35.392           64.691          
    4796.500 12.472           36.541           64.391          
    4797.000 12.472           34.907           63.620          
    4797.500 12.472           33.611           62.731          
    4798.000 12.473           33.961           62.326          
    4798.500 12.473           34.183           58.807          
    4799.000 12.473           33.487           56.346          
    4799.500 12.473           32.803           57.417          
    4800.000 12.473           32.209           58.932          
    4800.500 12.473           33.243           61.496          
    4801.000 12.473           34.282           65.148          
    4801.500 12.473           35.343           65.678          
    4802.000 12.473           34.092           65.020          
    4802.500 12.473           33.582           66.154          
    4803.000 12.473           36.144           66.253          
    4803.500 12.473           43.694           66.678          
    4804.000 12.473           51.283           68.177          
    4804.500 12.473           58.872           69.507          
    4805.000 12.473           64.635           69.680          
    4805.500 12.473           59.419           69.058          
    4806.000 12.473           51.673           65.749          
    4806.500 12.473           42.121           64.702          
    4807.000 12.474           44.427           64.480          
    4807.500 12.474           46.897           64.868          
    4808.000 12.474           46.946           65.219          
    4808.500 12.474           46.995           64.659          
    4809.000 12.474           46.559           64.153          
    4809.500 12.474           45.721           64.272          
    4810.000 12.474           48.508           65.433          
    4810.500 12.474           53.751           66.352          
    4811.000 12.474           61.073           67.380          
    4811.500 12.474           69.579           69.045          
    4812.000 12.474           82.203           71.032          
