#--------------------------------------------------#
#-------------------ENVERUS, INC.------------------#
#------------------WWW.ENVERUS.COM-----------------#
#------------------COPYRIGHT 2020------------------#
#--------------------------------------------------#
#THIS FILE MAY BE USED ONLY IN ACCORDANCE WITH A CURRENT SUBSCRIPTION AGREEMENT BETWEEN
#THE USER AND ENVERUS, INC. NO PART OF THIS FILE MAY BE REPRODUCED, USED, COPIED,
#MODIFIED, PROPAGATED, OR DISTRIBUTED EXCEPT IN ACCORDANCE WITH THE SUBSCRIPTION
#AGREEMENT. UNAUTHORIZED USE OR DISTRIBUTION OF ALL OR ANY PART OF THIS FILE MAY VIOLATE
#COPYRIGHT, TRADEMARK, AND/OR OTHER LAWS AND IS SUBJECT TO CIVIL AS WELL AS CRIMINAL
#SANCTIONS.
#--------------------------------------------------#
#THIS FILE IS PROVIDED "AS-IS" AND ALL WARRANTIES ARE EXPRESSLY DISCLAIMED, WHETHER
#EXPRESS, ORAL, IMPLIED, STATUTORY OR OTHERWISE, INCLUDING ANY IMPLIED WARRANTY OF FITNESS
#FOR A PARTICULAR PURPOSE, MERCHANTABILITY, TITLE OR NON-INFRINGEMENT, AND ANY WARRANTIES
#ARISING BY VIRTUE OF CUSTOM OF TRADE OR COURSE OF DEALING.  FURTHER, ENVERUS, INC.
#AND ITS LICENSORS DO NOT REPRESENT OR WARRANT THAT THIS FILE WILL MEET USER'S
#REQUIREMENTS OR ARE SUITABLE FOR USER'S NEEDS OR THAT THE DATA OR RESULTS PROVIDED IN
#CONJUNCTION THEREWITH ARE CORRECT, ACCURATE, TIMELY OR RELIABLE. THESE DISCLAIMERS SHALL
#APPLY REGARDLESS OF ANY FAILURE OF ESSENTIAL PURPOSE OF ANY LIMITED REMEDY.  SOME
#JURISDICTIONS DO NOT ALLOW THE EXCLUSION OF CERTAIN WARRANTIES SO SOME OF THE ABOVE
#EXCLUSIONS MAY NOT APPLY. IN NO EVENT SHALL ENVERUS, INC. OR ANY OF ITS AFFILIATES
#BE LIABLE UNDER ANY LEGAL THEORY, WHETHER IN TORT (INCLUDING WITHOUT LIMITATION
#NEGLIGENCE), CONTRACT, STRICT LIABILITY, STATUTORY OR OTHERWISE, FOR ANY SPECIAL,
#INCIDENTAL, CONSEQUENTIAL, EXEMPLARY, PUNITIVE OR INDIRECT DAMAGE OF ANY KIND, INCLUDING
#WITHOUT LIMITATION LOSS OF REVENUE, PROFITS, GOODWILL, USE, AND/OR DATA OR THE COST OF
#PROCUREMENT OF SUBSTITUTE GOODS OR SERVICES, EVEN IF APPRISED OF THE POSSIBILITY OF SUCH
#DAMAGES IN ADVANCE.
#--------------------------------------------------#

~VERSION INFORMATION
VERS. 2.0 : CWLS LOG ASCII STANDARD - VERSION 2.0
WRAP.  NO : ONE LINE PER DEPTH STEP
~WELL INFORMATION
#MNEMONIC     .UNIT              VALUE :DESCRIPTION
STRT       .FT                0 :START DEPTH
STOP       .FT                13134 :STOP DEPTH
STEP       .FT                   0.500 :STEP
NULL       .                  -999.250 :NULL
UWI        .              42389303540000 :UNIQUE WELL ID
API        .              42389303540000 :API NUMBER
COMP       .         SMC OIL & GAS  INC. :COMPANY
WELL       .        TIFFANY STATE  1 :WELL
DATE       .                18-OCT-1995 :LOG DATE
~CURVE INFORMATION
#MNEMONIC     .UNIT      API CODE :CURVE DESCRIPTION
DEPTH       .FT                      :MEASURED DEPTH
DT.US/FT        UNKNOWN   :DT
CAL.INCH        UNKNOWN   :CAL
GR.API        UNKNOWN   :GR
~A    DEPTH    DT    CAL    GR
# ...
 12202     93.002   6.817   83.144
 12202.5     93.404   6.811   82.362
 12203     93.807   6.806   77.666
 12203.5     95.576   6.8   72.97
 12204     96.748   6.795   68.274
 12204.5     96.89   6.789   64.991
 12205     96.142   6.783   69.295
 12205.5     94.257   6.778   73.6
 12206     92.372   6.772   77.904
 12206.5     87.467   6.766   80.301
 12207     85.596   6.761   74.982
 12207.5     85.626   6.755   69.663
 12208     86.692   6.75   64.67
 12208.5     87.996   6.744   72.433
 12209     89.3   6.738   80.196
 12209.5     90.107   6.733   87.958
 12210     90.773   6.727   95.721
 12210.5     91.439   6.721   103.484
 12211     92.105   6.716   111.246
 12211.5     87.656   6.71   119.009
 12212     82.681   6.705   121.057
 12212.5     77.705   6.699   103.534
 12213     72.729   6.693   86.01
 12213.5     70.517   6.688   68.487
 12214     68.634   6.682   50.963
 12214.5     69.21   6.676   33.44
 12215     70.524   6.671   19.715
 12215.5     75.393   6.665   21.613
 12216     81.517   6.66   23.51
 12216.5     87.481   6.654   31.432
 12217     92.66   6.648   45.128
 12217.5     94.282   6.643   62.951
 12218     93.148   6.64   87.119
 12218.5     92.014   6.64   108.62
 12219     90.879   6.639   104.392
 12219.5     89.885   6.638   105.568
 12220     89.795   6.638   107.694
 12220.5     89.705   6.637   109.82
 12221     88.45   6.637   111.946
 12221.5     81.137   6.636   114.072
 12222     78.219   6.636   84.515
 12222.5     78.791   6.635   51.66
 12223     83.133   6.635   36.47
 12223.5     88.884   6.634   49.823
 12224     90.246   6.634   63.177
 12224.5     91.009   6.633   76.531
 12225     91.381   6.633   86.829
 12225.5     91.752   6.632   94.654
 12226     92.123   6.632   102.48
 12226.5     91.893   6.631   110.305
 12227     90.22   6.631   116.835
 12227.5     88.547   6.63   114.827
 12228     87.604   6.63   112.818
 12228.5     86.881   6.629   36.545
 12229     86.158   6.629   36.733
 12229.5     85.813   6.628   36.922
 12230     86.522   6.628   26.578
 12230.5     87.232   6.627   32.088
 12231     87.942   6.626   39.627
 12231.5     87.914   6.626   47.165
 12232     87.648   6.625   54.704
 12232.5     87.382   6.625   62.242
 12233     88.372   6.624   69.781
 12233.5     89.791   6.624   77.32
 12234     91.21   6.623   84.858
 12234.5     90.808   6.623   77.559
 12235     89.758   6.622   68.472
 12235.5     88.707   6.622   59.385
 12236     87.744   6.621   50.298
 12236.5     87.315   6.621   48.2
 12237     86.887   6.62   49.124
 12237.5     87.394   6.623   50.048
 12238     88.062   6.634   54.997
 12238.5     88.292   6.644   71.171
 12239     87.839   6.655   87.346
 12239.5     87.386   6.665   103.521
 12240     86.933   6.676   97.627
 12240.5     87.227   6.686   87.63
 12241     89.039   6.697   77.632
 12241.5     91.062   6.707   68.72
 12242     93.085   6.718   70.9
 12242.5     93.07   6.728   73.079
 12243     92.037   6.738   75.258
 12243.5     91.004   6.749   66.754
 12244     87.458   6.759   54.755
 12244.5     85.768   6.747   45.196
 12245     84.923   6.734   47.066
 12245.5     84.732   6.721   48.936
 12246     84.636   6.707   50.806
 12246.5     84.748   6.694   50.481
 12247     85.605   6.681   49.174
 12247.5     87.02   6.668   47.868
 12248     88.436   6.654   46.562
 12248.5     89.852   6.641   51.329
 12249     89.234   6.636   58.432
 12249.5     88.25   6.636   64.976
 12250     87.907   6.636   63.198
 12250.5     86.332   6.636   61.419
 12251     85.033   6.636   62.515
 12251.5     84.274   6.636   67.421
 12252     84.156   6.635   69.852
 12252.5     84.711   6.635   64.838
 12253     85.265   6.635   59.823
 12253.5     85.819   6.635   54.809
 12254     86.151   6.635   51.392
 12254.5     85.765   6.635   53.105
 12255     85.378   6.635   58.291
 12255.5     84.992   6.635   63.477
 12256     84.138   6.645   68.663
 12256.5     82.685   6.656   73.849
 12257     81.231   6.668   78.935
 12257.5     76.991   6.68   77.651
 12258     72.634   6.691   76.368
 12258.5     67.508   6.703   75.084
 12259     60.264   6.715   69.929
 12259.5     53.087   6.726   58.092
 12260     53.087   6.738   52.275
 12260.5     53.087   6.75   57.116
 12261     63.217   6.761   61.958
 12261.5     75.974   6.773   66.248
 12262     85.056   6.77   64.258
 12262.5     84.956   6.764   62.267
 12263     84.755   6.758   60.277
 12263.5     82.824   6.752   58.286
 12264     82.03   6.746   56.295
 12264.5     81.583   6.74   54.305
 12265     81.466   6.734   44.319
 12265.5     81.711   6.728   33.061
 12266     82.326   6.722   21.803
 12266.5     83.797   6.716   10.545
 12267     85.267   6.71   25.796
 12267.5     86.737   6.704   42.267
 12268     86.942   6.698   57.468
 12268.5     86.445   6.692   53.695
 12269     85.948   6.686   49.923
 12269.5     85.839   6.68   46.15
 12270     85.747   6.674   42.378
 12270.5     85.655   6.668   47.368
 12271     85.563   6.662   52.92
 12271.5     85.283   6.656   54.166
 12272     83.784   6.65   53.665
 12272.5     82.393   6.651   47.519
 12273     82.782   6.652   39.035
 12273.5     83.172   6.653   31.015
 12274     84.266   6.654   29.598
 12274.5     85.943   6.655   28.181
 12275     87.62   6.656   27.189
 12275.5     89.297   6.657   29.538
 12276     89.148   6.658   31.888
 12276.5     88.885   6.659   34.237
 12277     88.622   6.66   36.587
 12277.5     88.867   6.661   38.937
 12278     89.517   6.662   41.286
 12278.5     90.106   6.663   43.636
 12279     90.106   6.664   45.985
 12279.5     89.818   6.665   48.335
 12280     89.27   6.666   50.684
 12280.5     87.894   6.667   50.722
 12281     86.518   6.668   42.84
 12281.5     85.142   6.669   34.958
 12282     83.766   6.67   27.075
 12282.5     83.684   6.671   29.266
 12283     84.593   6.672   31.671
 12283.5     85.501   6.673   34.077
 12284     86.41   6.674   36.482
 12284.5     87.319   6.675   38.887
 12285     88.228   6.676   39.718
 12285.5     88.538   6.677   37.609
 12286     88.586   6.678   35.499
 12286.5     86.297   6.679   33.39
 12287     83.665   6.68   33.83
 12287.5     84.255   6.681   37.238
 12288     84.845   6.682   40.647
 12288.5     85.434   6.682   44.056
 12289     86.024   6.685   41.21
 12289.5     86.614   6.69   37.518
 12290     87.203   6.695   33.825
 12290.5     87.614   6.701   30.133
 12291     87.614   6.706   26.441
 12291.5     86.9   6.711   24.726
 12292     85.346   6.717   30.152
 12292.5     84.549   6.722   35.579
 12293     85.036   6.727   41.006
 12293.5     85.523   6.733   46.432
 12294     86.01   6.731   51.859
 12294.5     85.724   6.721   57.286
 12295     85.259   6.711   55.051
 12295.5     84.793   6.702   45.995
 12296     84.328   6.692   36.938
 12296.5     84.181   6.683   27.882
 12297     83.964   6.673   28.027
 12297.5     83.235   6.664   31.07
 12298     81.835   6.654   34.112
 12298.5     77.48   6.645   37.154
 12299     76.093   6.635   40.197
 12299.5     74.705   6.626   43.239
 12300     74.758   6.616   45.979
 12300.5     75.796   6.607   48.598
 12301     76.219   6.597   51.218
 12301.5     77.549   6.588   53.837
 12302     80.127   6.578   65.366
 12302.5     82.705   6.578   85.828
 12303     85.284   6.582   102.006
 12303.5     86.742   6.585   97.168
 12304     86.682   6.588   92.329
 12304.5     86.404   6.592   87.491
 12305     85.261   6.595   82.652
 12305.5     84.118   6.599   77.814
 12306     82.974   6.602   72.976
 12306.5     83.137   6.606   68.137
 12307     83.336   6.609   56.942
 12307.5     83.535   6.612   45.097
 12308     83.734   6.616   33.252
 12308.5     83.932   6.619   21.407
 12309     84.078   6.623   9.562
 12309.5     83.946   6.626   15.096
 12310     83.813   6.63   21.836
 12310.5     83.68   6.633   28.577
 12311     82.748   6.636   34.788
 12311.5     81.626   6.64   33.182
 12312     80.504   6.643   31.575
 12312.5     79.382   6.647   33.253
 12313     78.259   6.65   38.808
 12313.5     78.211   6.654   38.958
