###############################################
##         ENVERUS                           ##
##         ESS - Open Hole                   ##
##         PERMIAN / DELAWARE                ##
##         Nov 04 2023  V4.0                 ##
##         42-389-30424-00-00                ##
###############################################
## Copyright 2017-2023  ENVERUS.  All Rights Reserved. 
## Confidential - Property of ENVERUS, use governed by terms and 
## conditions found within the existing Information Services Subscription Agreement 
## (as may be amended, the “ISSA”) between Customer and ENVERUS. 
## 
~VERSION INFORMATION
# MNEM.UNIT                               DATA : DESCRIPTION OF MNEMONIC
#-----.-----     ----------------------------- : -----------------------------
VERS.                                     2.00 : CWLS LOG ASCII STANDARD - VERSION 2.00
WRAP.                                       NO : MULTIPLE LINES PER DEPTH STEP
VEND.                                  ENVERUS : VENDOR
TYPE.                          ESS - OPEN HOLE : ENVERUS ESSENTIAL CURVES – ACCESSIBLE THROUGH ENVERUS PRISM(TM)
DOC.                                  32008121 : ENVERUS HEADER RAW DOCUMENT ID
#___________________________________________________________________________________________________ 
~WELL INFORMATION 
# BBd8zmUYmd+wUdICSlYDIOWaOe8iOeA0ELK9EhSbx74Kr6OX4zJxS/eo6cO6KK5SWMTSkVzaKbU2EBBfROvOKA== 
# MNEM.UNIT                                              DATA : DESCRIPTION OF MNEMONIC 
#-----.-----                    ----------------------------- : ----------------------------- 
CNTY.                                                  REEVES : COUNTY 
STATE.                                                  TEXAS : STATE 
CNTRY.                                                    USA : COUNTRY 
API.                                             42-389-30424 : API (10 Digit) 
API_14.                                    42-389-30424-00-00 : API (14 Digits) 
API_14_std.                                 42-389-30424-0000 : API (14 Digits Standard) 
UWI.                                           42389304240000 : UNIQUE WELL ID 
WELL.                                      LEWELLING STATE  1 : WELL NAME
STRT.FT                                                   7.0 : START DEPTH
STOP.FT                                               15912.0 : STOP DEPTH
STEP.FT                                                   0.5 : STEP BETWEEN DEPTHS
NULL.                                                 -999.25 : NULL VALUE
COMP.                           PENN VIRGINIA OIL & GAS CORP. : COMPANY 
DATE.                                             14-AUG-1976 : LOG DATE
#___________________________________________________________________________________________________ 
~CURVE INFORMATION 
# MNEM.UNIT           : CURVE DESCRIPTION 
#-----.-----          : ----------------------------- 
 DEPT.FT               : MEASURED DEPTH 
 CALI__A.IN            : CALIPER (CAL - CAL) 
 GR__A.API             : GAMMA RAY (GR) 
 DT__A.US/FT           : SONIC DELTA TRANSIT TIME (DT) 
 DPHI__A.V/V           : DENSITY POROSITY (DPHI) 
 NPHI__A.V/V           : NEUTRON POROSITY (NPHI) 
 #___________________________________________________________________________________________________ 
~A         DEPT        CALI__A          GR__A          DT__A        DPHI__A        NPHI__A
# ...
        15847.0          6.525         14.085       -999.250       -0.05546        0.03182
        15847.5          6.518         14.741       -999.250       -0.06276        0.03358
        15848.0          6.511         15.397       -999.250       -0.06135        0.03657
        15848.5          6.504         16.053       -999.250       -0.05151        0.04065
        15849.0          6.497         16.710       -999.250       -0.04167        0.04473
        15849.5          6.490         17.097       -999.250       -0.05253        0.04880
        15850.0          6.484         16.801       -999.250       -0.04530        0.06019
        15850.5          6.477         16.504       -999.250       -0.03807        0.07316
        15851.0          6.470         16.208       -999.250       -0.03627        0.07873
        15851.5          6.463         15.959       -999.250       -0.04251        0.08430
        15852.0          6.456         16.460       -999.250       -0.03841        0.08987
        15852.5          6.449         16.962       -999.250       -0.03260        0.09779
        15853.0          6.442         17.463       -999.250       -0.02600        0.09831
        15853.5          6.444         17.964       -999.250       -0.03122        0.09854
        15854.0          6.448         18.465       -999.250       -0.04747        0.09646
        15854.5          6.451         18.967       -999.250       -0.03550        0.09438
        15855.0          6.455         19.340       -999.250       -0.02201        0.09231
        15855.5          6.459         19.285       -999.250       -0.01244        0.09074
        15856.0          6.462         19.231       -999.250       -0.01412        0.08960
        15856.5          6.466         19.176       -999.250       -0.00501        0.08797
        15857.0          6.469         19.122       -999.250        0.00389        0.08117
        15857.5          6.473         19.067       -999.250       -0.01272        0.07438
        15858.0          6.476         19.012       -999.250       -0.02934        0.06870
        15858.5          6.480         18.961       -999.250       -0.03534        0.06916
        15859.0          6.483         18.944       -999.250       -0.02870        0.06855
        15859.5          6.487         18.927       -999.250       -0.04092        0.06207
        15860.0          6.490         18.910       -999.250       -0.04409        0.05560
        15860.5          6.494         18.893       -999.250       -0.03627        0.04923
        15861.0          6.497         18.877       -999.250       -0.02845        0.04326
        15861.5          6.501         18.860       -999.250       -0.03200        0.03729
        15862.0          6.504         18.843       -999.250       -0.02775        0.03531
        15862.5          6.508         18.826       -999.250       -0.01973        0.03347
        15863.0          6.511         18.809       -999.250       -0.01315        0.03272
        15863.5          6.513         18.792       -999.250       -0.02697        0.03573
        15864.0          6.513         18.775       -999.250       -0.02280        0.04101
        15864.5          6.513         18.758       -999.250       -0.01863        0.04330
        15865.0          6.513         18.741       -999.250       -0.04549        0.04496
        15865.5          6.513         18.725       -999.250       -0.05756        0.04499
        15866.0          6.513         18.708       -999.250       -0.06964        0.04503
        15866.5          6.513         18.691       -999.250       -0.07915        0.04506
        15867.0          6.514         18.674       -999.250       -0.08040        0.04510
        15867.5          6.514         18.657       -999.250       -0.06782        0.04514
        15868.0          6.514         18.640       -999.250       -0.06723        0.04517
        15868.5          6.514         18.623       -999.250       -0.06974        0.04521
        15869.0          6.514         18.606       -999.250       -0.07091        0.04524
        15869.5          6.514         18.590       -999.250       -0.06284        0.04528
        15870.0          6.514         18.573       -999.250       -0.07267        0.04531
        15870.5          6.515         18.556       -999.250       -0.06904        0.04535
        15871.0          6.515         18.539       -999.250       -0.06734        0.04538
        15871.5          6.515         18.522       -999.250       -0.07834        0.04542
        15872.0          6.515         18.505       -999.250       -0.08466        0.04545
        15872.5          6.511         18.488       -999.250       -0.07928        0.04549
        15873.0          6.507         18.471       -999.250       -0.06838        0.04552
        15873.5          6.502         18.454       -999.250       -0.05169        0.04556
        15874.0          6.498         18.438       -999.250       -0.02915        0.04559
        15874.5          6.493         18.421       -999.250       -0.04869        0.04563
        15875.0          6.489         18.404       -999.250       -0.04632        0.04567
        15875.5          6.485         18.387       -999.250       -0.05434        0.04570
        15876.0          6.480         18.370       -999.250       -0.05907        0.04574
        15876.5          6.476         18.353       -999.250       -0.05248        0.04577
        15877.0          6.471         18.336       -999.250       -0.04991        0.04584
        15877.5          6.467         18.319       -999.250       -0.05137        0.04629
        15878.0          6.462         18.303       -999.250       -0.06283        0.04674
        15878.5          6.458         18.552       -999.250       -0.07320        0.04718
        15879.0          6.454         18.882       -999.250       -0.06595        0.04763
        15879.5          6.449         19.212       -999.250       -0.03726        0.04808
        15880.0          6.341         19.542       -999.250       -0.00914        0.04853
        15880.5          6.230         19.873       -999.250        0.01689        0.04897
        15881.0          6.118         20.203       -999.250        0.05249        0.04942
        15881.5          6.006         20.320       -999.250        0.09063        0.04987
        15882.0          5.894         19.844       -999.250        0.10079        0.05031
        15882.5       -999.250         19.368       -999.250        0.09819        0.05076
        15883.0       -999.250         18.892       -999.250        0.09697        0.05093
        15883.5       -999.250         18.416       -999.250        0.10324        0.05100
        15884.0       -999.250         17.940       -999.250        0.11010        0.05108
        15884.5       -999.250         17.510       -999.250        0.11629        0.05116
        15885.0       -999.250         17.515       -999.250        0.10936        0.05124
        15885.5       -999.250         17.519       -999.250        0.10243        0.05131
        15886.0       -999.250         17.524       -999.250        0.10138        0.05008
        15886.5       -999.250         17.528       -999.250        0.10792        0.04883
        15887.0       -999.250         17.532       -999.250        0.10988        0.04964
        15887.5       -999.250         17.537       -999.250        0.10734        0.05111
        15888.0       -999.250         17.541       -999.250        0.10762        0.05259
        15888.5       -999.250         17.545       -999.250        0.09828        0.05406
        15889.0       -999.250         17.550       -999.250        0.09983        0.05314
        15889.5       -999.250         17.554       -999.250        0.10138        0.05219
        15890.0       -999.250         17.559       -999.250        0.10195        0.05210
        15890.5       -999.250         17.563       -999.250        0.09927        0.05275
