#--------------------------------------------------#
#-------------------ENVERUS, INC.------------------#
#------------------WWW.ENVERUS.COM-----------------#
#------------------COPYRIGHT 2020------------------#
#--------------------------------------------------#
#THIS FILE MAY BE USED ONLY IN ACCORDANCE WITH A CURRENT SUBSCRIPTION AGREEMENT BETWEEN
#THE USER AND ENVERUS, INC. NO PART OF THIS FILE MAY BE REPRODUCED, USED, COPIED,
#MODIFIED, PROPAGATED, OR DISTRIBUTED EXCEPT IN ACCORDANCE WITH THE SUBSCRIPTION
#AGREEMENT. UNAUTHORIZED USE OR DISTRIBUTION OF ALL OR ANY PART OF THIS FILE MAY VIOLATE
#COPYRIGHT, TRADEMARK, AND/OR OTHER LAWS AND IS SUBJECT TO CIVIL AS WELL AS CRIMINAL
#SANCTIONS.
#--------------------------------------------------#
#THIS FILE IS PROVIDED "AS-IS" AND ALL WARRANTIES ARE EXPRESSLY DISCLAIMED, WHETHER
#EXPRESS, ORAL, IMPLIED, STATUTORY OR OTHERWISE, INCLUDING ANY IMPLIED WARRANTY OF FITNESS
#FOR A PARTICULAR PURPOSE, MERCHANTABILITY, TITLE OR NON-INFRINGEMENT, AND ANY WARRANTIES
#ARISING BY VIRTUE OF CUSTOM OF TRADE OR COURSE OF DEALING.  FURTHER, ENVERUS, INC.
#AND ITS LICENSORS DO NOT REPRESENT OR WARRANT THAT THIS FILE WILL MEET USER'S
#REQUIREMENTS OR ARE SUITABLE FOR USER'S NEEDS OR THAT THE DATA OR RESULTS PROVIDED IN
#CONJUNCTION THEREWITH ARE CORRECT, ACCURATE, TIMELY OR RELIABLE. THESE DISCLAIMERS SHALL
#APPLY REGARDLESS OF ANY FAILURE OF ESSENTIAL PURPOSE OF ANY LIMITED REMEDY.  SOME
#JURISDICTIONS DO NOT ALLOW THE EXCLUSION OF CERTAIN WARRANTIES SO SOME OF THE ABOVE
#EXCLUSIONS MAY NOT APPLY. IN NO EVENT SHALL ENVERUS, INC. OR ANY OF ITS AFFILIATES
#BE LIABLE UNDER ANY LEGAL THEORY, WHETHER IN TORT (INCLUDING WITHOUT LIMITATION
#NEGLIGENCE), CONTRACT, STRICT LIABILITY, STATUTORY OR OTHERWISE, FOR ANY SPECIAL,
#INCIDENTAL, CONSEQUENTIAL, EXEMPLARY, PUNITIVE OR INDIRECT DAMAGE OF ANY KIND, INCLUDING
#WITHOUT LIMITATION LOSS OF REVENUE, PROFITS, GOODWILL, USE, AND/OR DATA OR THE COST OF
#PROCUREMENT OF SUBSTITUTE GOODS OR SERVICES, EVEN IF APPRISED OF THE POSSIBILITY OF SUCH
#DAMAGES IN ADVANCE.
#--------------------------------------------------#

~VERSION INFORMATION
VERS. 2.0 : CWLS LOG ASCII STANDARD - VERSION 2.0
WRAP.  NO : ONE LINE PER DEPTH STEP
~WELL INFORMATION
#MNEMONIC     .UNIT              VALUE :DESCRIPTION
STRT       .FT                25 :START DEPTH
STOP       .FT                17136 :STOP DEPTH
STEP       .FT                   0.500 :STEP
NULL       .                  -999.250 :NULL
UWI        .              42389302310000 :UNIQUE WELL ID
API        .              42389302310000 :API NUMBER
COMP       .         EDISTO RESOURCES CORPORATION :COMPANY
WELL       .        WIGGINS  ORLA  1 :WELL
DATE       .                            :LOG DATE
~CURVE INFORMATION
#MNEMONIC     .UNIT      API CODE :CURVE DESCRIPTION
DEPTH       .FT                      :MEASURED DEPTH
CAL.INCH        UNKNOWN   :CAL
ILS.OHM        UNKNOWN   :ILS
SP.MV        UNKNOWN   :SP
DT.US/FT        UNKNOWN   :DT
GR.API        UNKNOWN   :GR
ILD.OHM        UNKNOWN   :ILD
~A    DEPTH    CAL    ILS    SP    DT    GR    ILD
# ...
 16101.5     4.107   2864.358   -37.952   47.904   12.894   2628.984
 16102     4.106   2866.116   -37.919   47.891   13.242   2630.458
 16102.5     4.106   2867.873   -37.886   47.965   12.859   2631.933
 16103     4.105   2869.63   -37.853   48.089   12.475   2633.407
 16103.5     4.105   2871.387   -37.819   48.214   13.063   2634.882
 16104     4.105   2873.145   -37.786   48.035   14.169   2636.356
 16104.5     4.104   2874.902   -37.753   47.85   14.855   2637.831
 16105     4.104   2876.659   -37.721   48.11   16.22   2639.305
 16105.5     4.103   2878.416   -37.71   48.371   17.513   2640.78
 16106     4.103   2880.174   -37.698   48.436   17.514   2642.254
 16106.5     4.102   2881.931   -37.687   48.404   17.489   2643.728
 16107     4.102   2883.688   -37.675   48.372   17.274   2645.203
 16107.5     4.101   2885.445   -37.664   48.34   17.059   2646.677
 16108     4.101   2887.202   -37.652   48.308   17.535   2648.152
 16108.5     4.101   2888.96   -37.641   48.276   18.043   2649.626
 16109     4.1   2890.717   -37.629   48.244   18.551   2651.101
 16109.5     4.097   2892.474   -37.618   48.214   19.279   2652.575
 16110     4.095   2894.231   -37.607   48.184   19.821   2654.049
 16110.5     4.093   2895.989   -37.595   48.155   18.816   2655.524
 16111     4.091   2897.746   -37.584   48.125   17.811   2656.998
 16111.5     4.088   2899.503   -37.572   48.065   16.807   2658.473
 16112     4.086   2901.26   -37.526   47.996   15.824   2659.947
 16112.5     4.084   2903.018   -37.425   47.926   14.99   2661.421
 16113     4.082   2904.775   -37.324   47.963   14.572   2662.896
 16113.5     4.079   2906.532   -37.223   48.118   15.58   2664.37
 16114     4.077   2908.289   -37.122   48.228   16.498   2665.845
 16114.5     4.075   2910.046   -37.021   48.213   16.499   2667.319
 16115     4.073   2911.804   -36.92   48.199   17.553   2668.794
 16115.5     4.07   2913.561   -36.819   48.184   20.968   2670.268
 16116     4.068   2915.318   -36.718   48.148   20.565   2671.742
 16116.5     4.066   2917.075   -36.617   48.086   20.142   2673.217
 16117     4.064   2918.833   -36.516   48.023   19.718   2674.691
 16117.5     4.061   2920.59   -36.415   47.96   17.452   2676.166
 16118     4.059   2922.347   -36.375   47.898   16.591   2677.64
 16118.5     4.057   2924.104   -36.36   47.835   16.04   2679.115
 16119     4.054   2925.862   -36.345   47.904   15.827   2680.589
 16119.5     4.052   2927.619   -36.33   47.975   15.181   2682.063
 16120     4.05   2929.376   -36.315   48.046   14.924   2683.538
 16120.5     4.048   2931.133   -36.3   48.117   15.321   2685.012
 16121     4.045   2932.89   -36.285   48.188   15.719   2686.487
 16121.5     4.043   2934.648   -36.27   48.259   16.3   2687.961
 16122     4.041   2936.405   -36.255   48.33   17.129   2689.436
 16122.5     4.039   2938.162   -36.24   48.401   17.959   2690.91
 16123     4.036   2939.919   -36.31   48.345   18.764   2692.385
 16123.5     4.034   2941.677   -36.439   48.28   19.026   2693.859
 16124     4.032   2943.434   -36.567   48.216   19.287   2695.333
 16124.5     4.03   2945.191   -36.696   48.151   18.917   2696.808
 16125     4.028   2946.948   -36.824   48.086   16.354   2698.282
 16125.5     4.031   2948.705   -36.953   48.073   12.799   2699.757
 16126     4.034   2950.884   -37   48.087   11.874   2701.231
 16126.5     4.037   2953.645   -37.038   48.101   12.216   2702.706
 16127     4.039   2956.406   -37.077   48.115   13.353   2704.18
 16127.5     4.042   2959.168   -37.115   48.103   14.007   2705.654
 16128     4.045   2961.929   -37.153   48.059   13.8   2707.129
 16128.5     4.048   2964.69   -37.191   48.016   13.593   2708.603
 16129     4.051   2967.451   -37.229   47.972   13.398   2710.078
 16129.5     4.053   2970.213   -37.267   47.929   13.251   2711.552
 16130     4.056   2972.974   -37.305   47.885   13.103   2713.026
 16130.5     4.059   2975.735   -37.343   47.842   13.009   2714.501
 16131     4.062   2978.497   -37.381   47.916   13.84   2715.975
 16131.5     4.065   2981.258   -37.42   48.001   14.671   2717.45
 16132     4.067   2984.019   -37.458   48.086   15.167   2718.924
 16132.5     4.07   2986.78   -37.496   48.171   16.117   2720.399
 16133     4.073   2989.542   -37.534   48.224   18.177   2721.873
 16133.5     4.076   2992.303   -37.572   48.272   20.491   2723.347
 16134     4.079   2995.064   -37.61   48.339   20.273   2724.822
 16134.5     4.081   2997.825   -37.648   48.426   20.055   2726.296
 16135     4.084   3000.586   -37.686   48.513   19.497   2727.771
 16135.5     4.087   3003.348   -37.725   48.553   17.796   2729.245
 16136     4.09   3005.483   -37.763   48.416   17.185   2730.719
 16136.5     4.093   3006.604   -37.801   48.279   15.676   2732.194
 16137     4.095   3007.725   -37.827   48.142   14.214   2733.668
 16137.5     4.098   3008.846   -37.734   48.008   14.44   2735.143
 16138     4.101   3009.967   -37.64   47.946   14.665   2736.617
 16138.5     4.104   3011.088   -37.547   47.883   14.891   2738.092
 16139     4.107   3012.209   -37.453   47.821   15.456   2739.566
 16139.5     4.109   3013.331   -37.36   47.869   16.106   2741.041
 16140     4.112   3014.452   -37.266   48.076   15.878   2742.515
 16140.5     4.115   3015.573   -37.172   48.282   15.523   2743.99
 16141     4.118   3016.694   -37.138   48.488   13.151   2745.464
 16141.5     4.121   3017.815   -37.278   48.494   13.06   2746.938
 16142     4.123   3018.936   -37.418   48.328   12.969   2748.413
 16142.5     4.126   3020.057   -37.558   48.161   12.936   2749.887
 16143     4.129   3021.178   -37.698   47.995   14.044   2751.362
 16143.5     4.132   3022.299   -37.838   47.828   14.708   2752.836
 16144     4.135   3023.42   -37.978   47.662   14.191   2754.31
 16144.5     4.136   3024.542   -38.118   47.506   14.545   2755.785
 16145     4.135   3025.663   -38.257   47.686   15.695   2757.259
 16145.5     4.135   3026.784   -38.397   47.866   15.932   2758.734
 16146     4.134   3027.905   -38.337   48.046   15.067   2760.208
 16146.5     4.133   3029.026   -38.239   48.145   14.232   2761.683
 16147     4.133   3030.147   -38.142   48.174   13.656   2763.157
 16147.5     4.132   3031.268   -38.044   48.204   13.96   2764.631
 16148     4.131   3032.389   -37.946   48.233   17.22   2766.106
 16148.5     4.13   3033.51   -37.848   48.262   17.636   2767.58
 16149     4.13   3034.632   -37.75   48.292   20.936   2769.055
 16149.5     4.129   3035.753   -37.653   48.21   19.978   2770.529
 16150     4.128   3036.874   -37.555   48.077   19.02   2772.004
 16150.5     4.128   3037.995   -37.457   47.944   17.207   2773.478
 16151     4.127   3039.116   -37.443   47.858   15.123   2774.952
 16151.5     4.126   3040.237   -37.626   47.909   14.97   2776.427
 16152     4.125   3041.358   -37.809   47.959   14.817   2777.901
 16152.5     4.125   3042.479   -37.992   48.01   14.631   2779.376
 16153     4.124   3043.601   -38.175   48.06   13.183   2780.85
 16153.5     4.123   3044.722   -38.358   48.111   12.696   2782.324
 16154     4.122   3045.843   -38.541   48.081   12.719   2783.799
 16154.5     4.122   3046.964   -38.724   47.993   13.234   2785.273
 16155     4.121   3048.085   -38.907   47.905   13.92   2786.748
 16155.5     4.12   3049.206   -39.034   47.817   14.212   2788.222
 16156     4.12   3050.327   -39.095   47.739   14.018   2788.915
 16156.5     4.119   3051.448   -39.156   47.861   13.824   2788.922
 16157     4.118   3052.57   -39.218   47.983   13.596   2788.929
 16157.5     4.114   3053.691   -39.279   48.106   13.389   2788.937
 16158     4.109   3054.812   -39.34   48.228   12.86   2788.944
 16158.5     4.105   3055.933   -39.401   48.35   12.132   2788.951
 16159     4.1   3057.054   -39.463   48.286   12.452   2788.958
 16159.5     4.096   3058.175   -39.524   48.203   13.973   2788.966
 16160     4.091   3059.296   -39.585   48.12   14.468   2788.973
 16160.5     4.087   3060.417   -39.647   48.038   13.9   2788.98
