#--------------------------------------------------#
#-------------------ENVERUS, INC.------------------#
#------------------WWW.ENVERUS.COM-----------------#
#------------------COPYRIGHT 2020------------------#
#--------------------------------------------------#
#THIS FILE MAY BE USED ONLY IN ACCORDANCE WITH A CURRENT SUBSCRIPTION AGREEMENT BETWEEN
#THE USER AND ENVERUS, INC. NO PART OF THIS FILE MAY BE REPRODUCED, USED, COPIED,
#MODIFIED, PROPAGATED, OR DISTRIBUTED EXCEPT IN ACCORDANCE WITH THE SUBSCRIPTION
#AGREEMENT. UNAUTHORIZED USE OR DISTRIBUTION OF ALL OR ANY PART OF THIS FILE MAY VIOLATE
#COPYRIGHT, TRADEMARK, AND/OR OTHER LAWS AND IS SUBJECT TO CIVIL AS WELL AS CRIMINAL
#SANCTIONS.
#--------------------------------------------------#
#THIS FILE IS PROVIDED "AS-IS" AND ALL WARRANTIES ARE EXPRESSLY DISCLAIMED, WHETHER
#EXPRESS, ORAL, IMPLIED, STATUTORY OR OTHERWISE, INCLUDING ANY IMPLIED WARRANTY OF FITNESS
#FOR A PARTICULAR PURPOSE, MERCHANTABILITY, TITLE OR NON-INFRINGEMENT, AND ANY WARRANTIES
#ARISING BY VIRTUE OF CUSTOM OF TRADE OR COURSE OF DEALING.  FURTHER, ENVERUS, INC.
#AND ITS LICENSORS DO NOT REPRESENT OR WARRANT THAT THIS FILE WILL MEET USER'S
#REQUIREMENTS OR ARE SUITABLE FOR USER'S NEEDS OR THAT THE DATA OR RESULTS PROVIDED IN
#CONJUNCTION THEREWITH ARE CORRECT, ACCURATE, TIMELY OR RELIABLE. THESE DISCLAIMERS SHALL
#APPLY REGARDLESS OF ANY FAILURE OF ESSENTIAL PURPOSE OF ANY LIMITED REMEDY.  SOME
#JURISDICTIONS DO NOT ALLOW THE EXCLUSION OF CERTAIN WARRANTIES SO SOME OF THE ABOVE
#EXCLUSIONS MAY NOT APPLY. IN NO EVENT SHALL ENVERUS, INC. OR ANY OF ITS AFFILIATES
#BE LIABLE UNDER ANY LEGAL THEORY, WHETHER IN TORT (INCLUDING WITHOUT LIMITATION
#NEGLIGENCE), CONTRACT, STRICT LIABILITY, STATUTORY OR OTHERWISE, FOR ANY SPECIAL,
#INCIDENTAL, CONSEQUENTIAL, EXEMPLARY, PUNITIVE OR INDIRECT DAMAGE OF ANY KIND, INCLUDING
#WITHOUT LIMITATION LOSS OF REVENUE, PROFITS, GOODWILL, USE, AND/OR DATA OR THE COST OF
#PROCUREMENT OF SUBSTITUTE GOODS OR SERVICES, EVEN IF APPRISED OF THE POSSIBILITY OF SUCH
#DAMAGES IN ADVANCE.
#--------------------------------------------------#

~VERSION INFORMATION
VERS. 2.0 : CWLS LOG ASCII STANDARD - VERSION 2.0
WRAP.  NO : ONE LINE PER DEPTH STEP
~WELL INFORMATION
#MNEMONIC     .UNIT              VALUE :DESCRIPTION
STRT       .FT                0 :START DEPTH
STOP       .FT                15761 :STOP DEPTH
STEP       .FT                   0.500 :STEP
NULL       .                  -999.250 :NULL
UWI        .              42389302550000 :UNIQUE WELL ID
API        .              42389302550000 :API NUMBER
COMP       .         COASTAL STATES GAS PROD. CO. :COMPANY
WELL       .        CHAPMAN  MCGUIRE & WYNNE  3B :WELL
DATE       .                            :LOG DATE
~CURVE INFORMATION
#MNEMONIC     .UNIT      API CODE :CURVE DESCRIPTION
DEPTH       .FT                      :MEASURED DEPTH
GR.API        UNKNOWN   :GR
DT.US/FT        UNKNOWN   :DT
CAL.INCH        UNKNOWN   :CAL
~A    DEPTH    GR    DT    CAL
# ...
 6415     49.058   60.957   13.552
 6415.5     47.137   63.219   13.552
 6416     48.814   65.482   13.552
 6416.5     50.491   65.055   13.552
 6417     48.91   64.515   13.552
 6417.5     46.912   67.81   13.552
 6418     45.819   68.089   13.552
 6418.5     49.184   64.634   13.552
 6419     52.55   65.345   13.552
 6419.5     55.916   64.663   13.552
 6420     57.187   64.28   13.552
 6420.5     55.372   64.367   13.552
 6421     53.557   64.801   13.552
 6421.5     53.236   65.497   13.552
 6422     55.025   66.193   13.554
 6422.5     56.813   66.888   13.57
 6423     58.239   66.769   13.586
 6423.5     57.971   66.567   13.601
 6424     55.736   66.365   13.617
 6424.5     53.076   66.163   13.633
 6425     50.417   66.287   13.649
 6425.5     50.133   66.425   13.664
 6426     52.699   67.445   13.68
 6426.5     58.964   69.907   13.696
 6427     64.91   78.825   13.712
 6427.5     66.478   64.361   13.727
 6428     65.96   64.225   13.743
 6428.5     62.896   66.295   13.731
 6429     59.833   76.044   13.715
 6429.5     56.769   67.793   13.7
 6430     58.92   69.033   13.715
 6430.5     60.124   70.23   13.762
 6431     57.73   69.835   13.81
 6431.5     55.337   69.44   13.857
 6432     52.944   69.15   13.875
 6432.5     52.33   69.823   13.855
 6433     58.421   69.174   13.834
 6433.5     60.942   70.231   13.813
 6434     61.135   71.424   13.792
 6434.5     53.054   70.748   13.771
 6435     46.32   67.268   13.75
 6435.5     42.673   63.146   13.728
 6436     39.025   59.021   13.705
 6436.5     37.294   63.514   13.682
 6437     39.477   81.835   13.659
 6437.5     41.661   81.747   13.649
 6438     43.844   79.372   13.696
 6438.5     46.008   74.899   13.744
 6439     47.012   71.141   13.791
 6439.5     48.016   70.564   13.839
 6440     49.453   69.988   13.828
 6440.5     50.962   69.418   13.8
 6441     49.403   68.87   13.771
 6441.5     46.504   68.398   13.743
 6442     43.605   68.566   13.715
 6442.5     44.015   68.733   13.694
 6443     45.845   68.901   13.698
 6443.5     47.675   68.942   13.702
 6444     49.887   68.91   13.706
 6444.5     52.239   68.878   13.71
 6445     54.59   68.924   13.687
 6445.5     54.799   69.128   13.658
 6446     52.853   68.893   13.629
 6446.5     50.907   68.244   13.6
 6447     48.961   67.532   13.572
 6447.5     52.653   66.719   13.543
 6448     56.549   65.907   13.514
 6448.5     61.953   66.51   13.485
 6449     68.592   76.058   13.457
 6449.5     75.231   88.681   13.428
 6450     83.983   65.825   13.399
 6450.5     83.686   65.43   13.37
 6451     83.388   65.035   13.342
 6451.5     80.777   64.641   13.313
 6452     76.895   64.253   13.284
 6452.5     73.013   63.941   13.255
 6453     69.13   63.693   13.227
 6453.5     63.51   62.413   13.219
 6454     57.518   59.636   13.214
 6454.5     51.525   57.044   13.21
 6455     46.098   55.189   13.205
 6455.5     42.284   55.332   13.201
 6456     38.902   58.077   13.196
 6456.5     40.748   58.077   13.192
 6457     42.594   59.004   13.187
 6457.5     49.349   61.361   13.182
 6458     56.537   61.013   13.178
 6458.5     62.098   60.665   13.173
 6459     62.768   61.435   13.169
 6459.5     65.705   62.578   13.164
 6460     69.926   63.905   13.16
 6460.5     71.537   65.157   13.155
 6461     70.022   64.18   13.174
 6461.5     66.968   64.643   13.202
 6462     63.914   64.832   13.23
 6462.5     67.379   64.331   13.258
 6463     70.752   64.206   13.286
 6463.5     67.148   64.34   13.314
 6464     64.281   64.282   13.342
 6464.5     65.397   64.1   13.324
 6465     64.613   63.918   13.3
 6465.5     62.175   64.433   13.276
 6466     66.243   64.307   13.252
 6466.5     71.023   63.467   13.228
 6467     75.802   61.924   13.204
 6467.5     77.619   60.232   13.179
 6468     74.227   60.151   13.155
 6468.5     68.644   60.071   13.143
 6469     63.06   62.195   13.167
 6469.5     62.359   64.847   13.191
 6470     69.418   66.018   13.215
 6470.5     77.368   66.734   13.239
 6471     83.822   67.079   13.263
 6471.5     79.117   66.756   13.287
 6472     74.411   65.042   13.311
 6472.5     67.535   63.824   13.331
 6473     59.528   62.843   13.339
 6473.5     51.521   62.292   13.347
 6474     45.403   61.807   13.355
 6474.5     40.402   62.537   13.363
 6475     36.523   64.37   13.371
 6475.5     38.213   65.751   13.379
 6476     39.903   66.675   13.41
 6476.5     41.593   67.6   13.448
 6477     43.283   68.524   13.486
 6477.5     44.973   68.466   13.524
 6478     46.663   67.638   13.562
 6478.5     48.353   66.97   13.559
 6479     53.108   66.539   13.538
 6479.5     58.269   66.108   13.517
 6480     63.429   66.646   13.496
 6480.5     68.821   66.322   13.475
 6481     74.23   65.999   13.454
 6481.5     77.732   65.437   13.433
 6482     77.009   64.58   13.412
 6482.5     75.295   65.046   13.391
 6483     79.845   66.191   13.383
 6483.5     81.669   67.301   13.386
 6484     78.446   67.127   13.388
 6484.5     71.059   66.641   13.391
 6485     63.671   65.897   13.393
 6485.5     56.283   65.102   13.396
 6486     50.946   64.308   13.398
 6486.5     47.343   62.693   13.401
 6487     45.81   61.113   13.403
 6487.5     45.365   59.861   13.406
 6488     44.831   59.092   13.408
 6488.5     44.296   59.296   13.411
 6489     45.233   60.52   13.413
 6489.5     46.452   62.362   13.416
 6490     47.672   63.504   13.418
 6490.5     53.892   63.903   13.421
 6491     60.868   64.359   13.423
 6491.5     63.897   64.929   13.426
 6492     66.927   65.499   13.428
 6492.5     67.763   65.544   13.431
 6493     68.21   65.59   13.433
 6493.5     69.912   65.53   13.417
 6494     73.393   64.959   13.385
 6494.5     76.874   64.191   13.354
 6495     80.92   64.651   13.322
 6495.5     87.38   65.24   13.296
 6496     93.841   65.849   13.301
 6496.5     100.301   66.464   13.306
 6497     104.065   66.797   13.311
 6497.5     103.767   66.733   13.317
 6498     98.367   66.669   13.322
 6498.5     92.968   71.059   13.327
 6499     87.295   86.241   13.332
 6499.5     78.672   71.235   13.337
 6500     70.48   60.476   13.342
 6500.5     64.667   62.201   13.347
 6501     68.716   64.212   13.352
 6501.5     80.414   66.219   13.358
 6502     87.532   68.034   13.363
 6502.5     92.26   68.609   13.377
 6503     91.944   67.933   13.401
 6503.5     84.116   67.122   13.425
 6504     60.461   66.644   13.449
 6504.5     54.192   66.866   13.473
 6505     47.924   67.088   13.497
 6505.5     45.671   67.31   13.521
 6506     46.406   67.492   13.545
 6506.5     49.603   67.277   13.569
 6507     52.551   67.031   13.592
 6507.5     54.929   66.765   13.593
 6508     57.307   66.499   13.594
 6508.5     59.685   66.89   13.596
 6509     69.849   67.428   13.597
 6509.5     77.254   67.862   13.598
 6510     79.674   67.733   13.599
 6510.5     82.093   67.27   13.6
 6511     79.805   66.486   13.601
 6511.5     75.574   65.703   13.602
 6512     67.521   65.418   13.603
 6512.5     59.468   65.315   13.604
 6513     56.039   65.213   13.605
 6513.5     55.25   65.38   13.606
 6514     56.142   67.78   13.607
 6514.5     57.5   77.076   13.608
 6515     61.395   88.092   13.61
 6515.5     65.289   64.895   13.605
 6516     67.004   65.119   13.591
 6516.5     67.942   65.343   13.578
 6517     68.787   67.751   13.564
 6517.5     67.123   75.434   13.551
 6518     64.264   95.026   13.537
 6518.5     61.339   68.052   13.524
 6519     58.415   77.091   13.51
 6519.5     55.49   88.785   13.496
 6520     54.227   93.933   13.483
 6520.5     53.227   83.034   13.469
 6521     53.228   70.221   13.456
 6521.5     53.673   62.866   13.454
 6522     53.906   62.865   13.454
 6522.5     53.525   62.986   13.454
 6523     53.143   63.624   13.454
 6523.5     52.762   64.245   13.454
 6524     54.445   64.857   13.454
 6524.5     58.491   65.212   13.454
 6525     60.612   65.433   13.454
 6525.5     58.615   65.429   13.454
 6526     55.257   65.206   13.454
 6526.5     51.278   64.632   13.454
 6527     48.038   63.456   13.454
