###############################################
##         ENVERUS                           ##
##         ESS - Open Hole                   ##
##         PERMIAN / DELAWARE                ##
##         Nov 04 2023  V4.0                 ##
##         42-389-32245-00-00                ##
###############################################
## Copyright 2017-2023  ENVERUS.  All Rights Reserved. 
## Confidential - Property of ENVERUS, use governed by terms and 
## conditions found within the existing Information Services Subscription Agreement 
## (as may be amended, the “ISSA”) between Customer and ENVERUS. 
## 
~VERSION INFORMATION
# MNEM.UNIT                               DATA : DESCRIPTION OF MNEMONIC
#-----.-----     ----------------------------- : -----------------------------
VERS.                                     2.00 : CWLS LOG ASCII STANDARD - VERSION 2.00
WRAP.                                       NO : MULTIPLE LINES PER DEPTH STEP
VEND.                                  ENVERUS : VENDOR
TYPE.                          ESS - OPEN HOLE : ENVERUS ESSENTIAL CURVES – ACCESSIBLE THROUGH ENVERUS PRISM(TM)
DOC.                                  24742630 : ENVERUS HEADER RAW DOCUMENT ID
#___________________________________________________________________________________________________ 
~WELL INFORMATION 
# u9Wg0OWXiPz858M7Kubpm0lpDPxjGuyhH3tqBPDGtvBYDDDqGrwiIchrhDPbdkpmsDZNCKsM7+2eKUVstoQO7Q== 
# MNEM.UNIT                                              DATA : DESCRIPTION OF MNEMONIC 
#-----.-----                    ----------------------------- : ----------------------------- 
CNTY.                                                  REEVES : COUNTY 
STATE.                                                  TEXAS : STATE 
CNTRY.                                                    USA : COUNTRY 
API.                                             42-389-32245 : API (10 Digit) 
API_14.                                    42-389-32245-00-00 : API (14 Digits) 
API_14_std.                                 42-389-32245-0000 : API (14 Digits Standard) 
UWI.                                           42389322450000 : UNIQUE WELL ID 
WELL.                          TEXAS PACIFIC LAND TRUST #25-1 : WELL NAME
STRT.FT                                                2530.0 : START DEPTH
STOP.FT                                               10610.0 : STOP DEPTH
STEP.FT                                                   0.5 : STEP BETWEEN DEPTHS
NULL.                                                 -999.25 : NULL VALUE
COMP.                                             CONOCO INC. : COMPANY 
FLD.                                            FORD WOLFCAMP : FIELD 
LOC.                                                 25-2S-58 : LOCATION 
SRVC.                                            SCHLUMBERGER : SERVICE COMPANY 
DATE.                                              03/21/2002 : DATE 
TVD.                                                       NO : TVD FLAG
#___________________________________________________________________________________________________ 
~PARAMETER INFORMATION 
# MNEM.UNIT                                              DATA : DESCRIPTION OF MNEMONIC 
#-----.-----                    ----------------------------- : ----------------------------- 
RUN.                                                      ONE : RUN NUMBER 
PDAT.                                                      GL : PERMANENT DATUM 
EPD.FT                                              2993.0000 : ELEVATION OF PERM. DATUM 
LMF.                                            KELLY BUSHING : LOG MEASURED FROM 
EKB.FT                                              3021.0000 : ELEVATION OF KELLY BUSHING 
DF.FT                                               3020.0000 : ELEVATION OF DERRICK FLOOR 
GL.FT                                               2993.0000 : ELEVATION OF GROUND LEVEL 
TD.FT                                              10610.0000 : TOTAL DEPTH 
BHT.DEGF                                               130.00 : BOTTOM HOLE TEMPERATURE 
BLI.FT                                             10610.0000 : BOTTOM LOG INTERVAL 
CSGSIZE.IN                                             9.6250 : CASING SIZE 
BITSIZE.IN                                              8.750 : BITSIZE 
CSGD.FT                                                  2642 : CASING BOTTOM (DRILLER) 1 
CSGL.FT                                                  2538 : CASING BOTTOM (LOGGER) 1 
MUD.                                                CUT BRINE : DRILLING FLUID TYPE 
MUDV.CP                                               28.0000 : DRILLING FLUID VISCOSITY 
MUDD.LB/USG                                           10.0000 : DRILLING FLUID DENSITY 
PH.                                                    8.5000 : DRILLING FLUID PH 
MUDS.                                        CIRCULATION TANK : MUD SAMPLE SOURCE 
RM.OHMM                                                0.0610 : RESISTIVITY OF MUD SAMPLE 
RMT.DEGF                                              75.0000 : MUD SAMPLE TEMPERATURE 
RMF.OHMM                                               0.0610 : MUD FILTRATE RESISTIVITY 
RMFT.DEGF                                             75.0000 : MUD FILTRATE SAMPLE TEMPERATURE
#___________________________________________________________________________________________________ 
~CURVE INFORMATION 
# MNEM.UNIT           : CURVE DESCRIPTION 
#-----.-----          : ----------------------------- 
 DEPT.FT               : MEASURED DEPTH 
 CALI.IN               : CALIPER (CALIPER) 
 GR.API                : GAMMA RAY (GAMMA RAY) 
 DT.US/FT              : SONIC DELTA TRANSIT TIME (DELTA T) 
 SPHI.V/V              : SONIC POROSITY (SONIC POROSITY) 
 #___________________________________________________________________________________________________ 
~A         DEPT           CALI             GR             DT           SPHI
# ...
         5710.0          8.970        105.660         66.960        0.14000
         5710.5          8.980        105.440         66.520        0.13000
         5711.0          8.980         97.410         65.270        0.12000
         5711.5          8.980         87.640         63.920        0.11000
         5712.0          8.980         69.670         62.570        0.10000
         5712.5          8.980         55.030         61.240        0.09000
         5713.0          8.990         52.400         60.300        0.09000
         5713.5          8.990         50.400         60.200        0.09000
         5714.0          8.990         52.050         60.790        0.09000
         5714.5          8.990         56.100         61.500        0.10000
         5715.0          9.000         60.130         62.210        0.11000
         5715.5          9.000         64.100         62.900        0.11000
         5716.0          9.000         66.660         63.490        0.11000
         5716.5          9.000         68.040         64.080        0.12000
         5717.0          9.000         66.860         64.420        0.12000
         5717.5          9.010         65.330         64.190        0.12000
         5718.0          9.010         64.290         63.770        0.11000
         5718.5          9.010         64.700         63.840        0.11000
         5719.0          9.010         63.180         63.900        0.11000
         5719.5          9.020         61.660         63.780        0.11000
         5720.0          9.020         63.500         63.650        0.11000
         5720.5          9.030         66.790         63.550        0.11000
         5721.0          9.030         68.310         63.470        0.11000
         5721.5          9.010         66.430         63.400        0.11000
         5722.0          8.990         63.280         63.220        0.11000
         5722.5          8.970         60.230         62.990        0.11000
         5723.0          8.950         58.420         62.810        0.11000
         5723.5          8.930         59.360         62.950        0.11000
         5724.0          8.910         65.460         62.940        0.11000
         5724.5          8.890         71.170         62.440        0.10000
         5725.0          8.870         72.650         61.930        0.10000
         5725.5          8.850         69.510         61.760        0.10000
         5726.0          8.830         69.300         62.110        0.10000
         5726.5          8.830         70.030         62.260        0.10000
         5727.0          8.860         63.060         61.880        0.10000
         5727.5          8.890         53.270         61.350        0.10000
         5728.0          8.920         43.670         61.040        0.10000
         5728.5          8.950         34.520         61.540        0.10000
         5729.0          8.980         32.810         62.930        0.11000
         5729.5          9.000         33.390         64.330        0.12000
         5730.0          9.030         34.070         65.720        0.13000
         5730.5          9.070         34.120         67.120        0.14000
         5731.0          9.100         33.200         68.510        0.15000
         5731.5          9.140         35.370         69.050        0.15000
         5732.0          9.170         48.030         68.920        0.15000
         5732.5          9.150         64.830         67.860        0.14000
         5733.0          9.080         83.080         66.110        0.13000
         5733.5          9.010         82.190         64.360        0.11000
         5734.0          8.940         65.870         62.610        0.10000
         5734.5          8.910         50.110         60.850        0.09000
         5735.0          8.880         46.520         60.120        0.09000
         5735.5          8.860         51.560         60.760        0.09000
         5736.0          8.870         60.810         61.600        0.10000
         5736.5          8.870         67.340         62.440        0.11000
         5737.0          8.880         68.810         62.520        0.11000
         5737.5          8.890         69.110         62.010        0.10000
         5738.0          8.900         69.370         61.560        0.10000
         5738.5          8.910         69.750         61.160        0.09000
         5739.0          8.920         75.350         60.850        0.09000
         5739.5          8.930         82.340         61.080        0.10000
         5740.0          8.940         89.130         61.420        0.10000
         5740.5          8.950         86.540         61.320        0.10000
         5741.0          8.950         81.470         61.100        0.09000
         5741.5          8.960         85.030         62.110        0.10000
         5742.0          8.970        101.500         63.670        0.11000
         5742.5          8.980        100.700         65.340        0.13000
         5743.0          8.980        106.120         65.140        0.12000
         5743.5          8.990         99.060         64.420        0.12000
         5744.0          9.000         88.600         63.760        0.11000
         5744.5          9.010         77.970         63.120        0.11000
         5745.0          9.010         72.850         62.660        0.11000
         5745.5          9.020         68.510         62.580        0.11000
         5746.0          9.030         68.760         62.710        0.11000
         5746.5          9.040         81.380         63.190        0.11000
         5747.0          9.050         97.120         64.040        0.12000
         5747.5          9.050        126.120         64.940        0.13000
         5748.0          9.060        142.300         65.770        0.13000
         5748.5          9.070        153.830         66.450        0.13000
         5749.0          9.080        144.840         66.450        0.13000
         5749.5          9.090        124.050         65.490        0.12000
         5750.0          9.100        100.270         64.190        0.11000
         5750.5          9.130         72.620         62.890        0.10000
         5751.0          9.170         55.560         61.860        0.10000
         5751.5          9.200         46.200         61.160        0.10000
         5752.0          9.240         41.960         61.490        0.11000
         5752.5          9.270         38.720         63.270        0.12000
         5753.0          9.310         40.570         64.870        0.13000
         5753.5          9.340         49.790         66.480        0.14000
         5754.0          9.380         58.950         67.360        0.14000
         5754.5          9.390         67.850         67.650        0.14000
         5755.0          9.410         64.210         67.780        0.14000
         5755.5          9.420         56.380         67.910        0.14000
         5756.0          9.440         48.640         67.950        0.14000
         5756.5          9.450         46.150         67.780        0.14000
         5757.0          9.470         50.700         67.280        0.14000
         5757.5          9.480         54.460         66.640        0.13000
         5758.0          9.490         55.640         66.000        0.13000
         5758.5          9.510         49.840         65.700        0.13000
         5759.0          9.520         44.040         66.260        0.13000
         5759.5          9.540         40.880         67.000        0.14000
         5760.0          9.550         45.570         67.220        0.14000
         5760.5          9.570         51.680         67.190        0.14000
         5761.0          9.580         57.810         67.030        0.14000
         5761.5          9.600         60.520         66.900        0.13000
         5762.0          9.610         55.990         66.920        0.14000
         5762.5          9.620         51.000         66.950        0.14000
