###############################################
##         ENVERUS                           ##
##         ESS - Open Hole                   ##
##         PERMIAN / DELAWARE                ##
##         Nov 04 2023  V4.0                 ##
##         42-389-32730-00-00                ##
###############################################
## Copyright 2017-2023  ENVERUS.  All Rights Reserved. 
## Confidential - Property of ENVERUS, use governed by terms and 
## conditions found within the existing Information Services Subscription Agreement 
## (as may be amended, the “ISSA”) between Customer and ENVERUS. 
## 
~VERSION INFORMATION
# MNEM.UNIT                               DATA : DESCRIPTION OF MNEMONIC
#-----.-----     ----------------------------- : -----------------------------
VERS.                                     2.00 : CWLS LOG ASCII STANDARD - VERSION 2.00
WRAP.                                       NO : MULTIPLE LINES PER DEPTH STEP
VEND.                                  ENVERUS : VENDOR
TYPE.                          ESS - OPEN HOLE : ENVERUS ESSENTIAL CURVES – ACCESSIBLE THROUGH ENVERUS PRISM(TM)
DOC.                                  19552736 : ENVERUS HEADER RAW DOCUMENT ID
#___________________________________________________________________________________________________ 
~WELL INFORMATION 
# Emv0q1Fc4UOVqi1FEPTQ50pHgS2U6oO6A9wxQf5ozJtTAVTQXtUhuyCOytio7eHVwvke0CQF/LYkoyLsbhUTsQ== 
# MNEM.UNIT                                              DATA : DESCRIPTION OF MNEMONIC 
#-----.-----                    ----------------------------- : ----------------------------- 
CNTY.                                                  REEVES : COUNTY 
STATE.                                                  TEXAS : STATE 
CNTRY.                                                    USA : COUNTRY 
API.                                             42-389-32730 : API (10 Digit) 
API_14.                                    42-389-32730-00-00 : API (14 Digits) 
API_14_std.                                 42-389-32730-0000 : API (14 Digits Standard) 
UWI.                                           42389327300000 : UNIQUE WELL ID 
WELL.                                  BIG SKY 55 - 16 NO. 1H : WELL NAME
STRT.FT                                                3850.0 : START DEPTH
STOP.FT                                               12070.5 : STOP DEPTH
STEP.FT                                                   0.5 : STEP BETWEEN DEPTHS
NULL.                                                 -999.25 : NULL VALUE
COMP.                                      CIMAREX ENERGY CO. : COMPANY 
FLD.                                                  WILDCAT : FIELD 
SRVC.                                             HALLIBURTON : SERVICE COMPANY 
DATE.                                              03/23/2011 : DATE 
TVD.                                                       NO : TVD FLAG 
WSTA.                                                     LOC : WELL STATUS
#___________________________________________________________________________________________________ 
~PARAMETER INFORMATION 
# MNEM.UNIT                                              DATA : DESCRIPTION OF MNEMONIC 
#-----.-----                    ----------------------------- : ----------------------------- 
RUN.                                                      ONE : RUN NUMBER 
PDAT.                                                      GL : PERMANENT DATUM 
EPD.FT                                              2996.0000 : ELEVATION OF PERM. DATUM 
LMF.                                            KELLY BUSHING : LOG MEASURED FROM 
EKB.FT                                              3021.0000 : ELEVATION OF KELLY BUSHING 
DF.FT                                               3020.0000 : ELEVATION OF DERRICK FLOOR 
GL.FT                                               2996.0000 : ELEVATION OF GROUND LEVEL 
TD.FT                                              12100.0000 : TOTAL DEPTH 
CSGD.FT                                                  3861 : CASING BOTTOM (DRILLER) 1 
CSGL.FT                                                  3855 : CASING BOTTOM (LOGGER) 1 
MUD.                                                    BRINE : DRILLING FLUID TYPE 
MUDV.CP                                               36.0000 : DRILLING FLUID VISCOSITY 
MUDD.LB/USG                                           10.1000 : DRILLING FLUID DENSITY 
PH.                                                   10.0000 : DRILLING FLUID PH 
MUDS.                                                FLOWLINE : MUD SAMPLE SOURCE 
RM.OHMM                                                0.0600 : RESISTIVITY OF MUD SAMPLE 
RMT.DEGF                                              75.0000 : MUD SAMPLE TEMPERATURE 
RMF.OHMM                                               0.0400 : MUD FILTRATE RESISTIVITY 
RMFT.DEGF                                             75.0000 : MUD FILTRATE SAMPLE TEMPERATURE 
RMC.OHMM                                               0.0600 : MUD CAKE RESISTIVITY 
RMCT.DEGF                                             75.0000 : MUD CAKE SAMPLE TEMPERATURE 
RMB.OHMM                                               0.0240 : MUD RESISTIVITY AT BHT 
TMAX.DEGF                                            200.0000 : BOTTOM HOLE TEMPERATURE
#___________________________________________________________________________________________________ 
~CURVE INFORMATION 
# MNEM.UNIT           : CURVE DESCRIPTION 
#-----.-----          : ----------------------------- 
 DEPT.FT               : MEASURED DEPTH 
 GR.API                : GAMMA RAY (GAMMA RAY) 
 DT.US/FT              : SONIC DELTA TRANSIT TIME (DELTA T) 
 RESD_LL.OHMM          : DEEP LATEROLOG (LLD - DEEP LATEROLOG) 
 DPHI.V/V              : DENSITY POROSITY (DENSITY POROSITY) 
 NPHI.V/V              : NEUTRON POROSITY (NEUTRON POROSITY) 
 #___________________________________________________________________________________________________ 
~A         DEPT             GR             DT        RESD_LL           DPHI           NPHI
# ...
         7634.0         31.690         71.105       170.7550        0.15000        0.14400
         7634.5         23.899         67.689       157.0520        0.13100        0.11600
         7635.0         15.870         64.612       154.3490        0.11100        0.08900
         7635.5         13.317         62.426       153.3840        0.10600        0.07500
         7636.0         10.574         59.816       152.3400        0.12700        0.07100
         7636.5          7.805         58.092       153.3040        0.21600        0.06700
         7637.0          7.170         58.020       154.3930        0.30400        0.06700
         7637.5          6.272         58.372       155.1710        0.38800        0.06700
         7638.0          5.655         59.419       148.6230        0.39500        0.07200
         7638.5         12.129         63.399       143.7660        0.33700        0.08800
         7639.0         22.986         67.156       138.9040        0.25600        0.11500
         7639.5         34.088         70.913       143.7290        0.23600        0.14100
         7640.0         38.357         73.419       147.4910        0.25800        0.16300
         7640.5         40.952         75.283       152.3330        0.20700        0.16400
         7641.0         41.430         75.782       147.8450        0.13500        0.16300
         7641.5         38.220         76.035       141.4910        0.07300        0.16300
         7642.0         34.641         75.963       130.2840        0.10300        0.16200
         7642.5         31.073         73.871       116.5840        0.12600        0.14400
         7643.0         27.528         72.129       104.3100        0.10600        0.12500
         7643.5         25.094         72.165        98.8580        0.09100        0.10500
         7644.0         26.297         73.851        97.8160        0.10200        0.10400
         7644.5         28.106         76.126       108.0890        0.11700        0.13300
         7645.0         29.967         76.608       117.4500        0.13200        0.15500
         7645.5         30.405         74.771       127.6220        0.13500        0.15900
         7646.0         26.523         72.071       138.6750        0.13800        0.13100
         7646.5         22.603         69.412       150.6850        0.14200        0.09700
         7647.0         19.611         68.076       156.3890        0.13400        0.09800
         7647.5         21.871         69.500       159.1410        0.12500        0.10400
         7648.0         26.352         71.712       161.9410        0.11500        0.11300
         7648.5         31.592         74.208       164.5280        0.14400        0.13400
         7649.0         35.482         72.422       166.4530        0.19600        0.15600
         7649.5         35.371         70.371       167.6890        0.21900        0.15800
         7650.0         34.392         68.321       168.6080        0.21900        0.14300
         7650.5         30.533         66.249       169.5320        0.18900        0.13000
         7651.0         27.030         64.915       170.1730        0.15500        0.11800
         7651.5         23.542         63.751       165.6870        0.11500        0.10700
         7652.0         19.954         63.188       162.3330        0.07500        0.09500
         7652.5         17.556         62.842       159.0480        0.06100        0.08900
         7653.0         16.341         62.906       155.8320        0.06700        0.08700
         7653.5         18.096         63.995       152.6810        0.07600        0.08600
         7654.0         19.866         65.166       149.5940        0.08600        0.09200
         7654.5         21.626         65.905       146.5700        0.09500        0.09900
         7655.0         22.807         65.913       143.6070        0.10200        0.10500
         7655.5         22.902         66.309       140.7030        0.08900        0.10000
         7656.0         22.976         67.201       138.9040        0.07300        0.09100
         7656.5         28.329         70.683       155.1710        0.07300        0.10300
         7657.0         34.013         75.694       153.9800        0.13800        0.13700
         7657.5         39.667         78.217       151.9520        0.16100        0.15800
         7658.0         44.063         79.903       149.9500        0.17700        0.17000
         7658.5         46.489         80.694       147.9740        0.20300        0.18200
         7659.0         46.536         79.644       146.0240        0.22900        0.19000
         7659.5         42.402         76.320       144.1270        0.24100        0.18300
         7660.0         34.410         70.976       145.8330        0.23600        0.16300
         7660.5         23.402         65.619       147.5350        0.17600        0.13600
         7661.0         13.329         62.487       149.5470        0.12000        0.11100
         7661.5          9.340         61.775       140.8170        0.10000        0.09000
         7662.0          8.364         62.745       130.9970        0.08200        0.07600
         7662.5         11.904         65.001       121.9050        0.07800        0.09300
         7663.0         16.018         68.594       115.5390        0.10600        0.11400
         7663.5         21.764         72.188       127.4540        0.12500        0.13400
         7664.0         27.531         75.781       137.8700        0.14400        0.15400
         7664.5         33.375         76.132       149.2400        0.15900        0.16500
         7665.0         32.351         71.472       161.6010        0.15600        0.15700
         7665.5         26.612         67.810       174.9870        0.12300        0.13500
         7666.0         20.411         64.147       179.8610        0.09000        0.10900
         7666.5         14.105         62.397       179.9470        0.05700        0.08400
         7667.0         11.006         62.419       167.3690        0.04100        0.06100
         7667.5         10.426         64.216       150.9170        0.04700        0.05500
         7668.0         13.080         67.358       136.1400        0.06000        0.06700
         7668.5         18.874         72.856       124.3420        0.08900        0.09500
         7669.0         25.412         77.561       131.6070        0.13300        0.12600
         7669.5         31.999         80.461       138.9040        0.17400        0.15700
         7670.0         35.789         79.833       148.3950        0.19200        0.17400
         7670.5         37.536         78.586       159.2720        0.19800        0.18000
         7671.0         31.120         73.949       170.9460        0.17100        0.15900
         7671.5         24.174         69.312       186.6250        0.12900        0.13100
         7672.0         16.649         65.311       185.1270        0.08500        0.09900
         7672.5         12.592         64.328       183.1730        0.08700        0.10000
         7673.0         12.179         65.716       181.2400        0.15900        0.10500
         7673.5         16.954         69.779       179.3270        0.19800        0.11900
         7674.0         21.800         74.286       177.4340        0.23900        0.13400
         7674.5         24.905         77.695       175.5620        0.26200        0.15300
         7675.0         26.234         78.417       173.7090        0.28600        0.17200
         7675.5         27.567         78.420       173.3430        0.28100        0.18000
         7676.0         29.547         78.493       173.3430        0.25200        0.18000
         7676.5         35.894         79.070       163.1190        0.22800        0.18000
         7677.0         42.345         79.947       153.6080        0.21200        0.17900
         7677.5         45.817         80.433       141.4910        0.21500        0.17600
