###############################################
##         ENVERUS                           ##
##         ESS - Open Hole                   ##
##         PERMIAN / DELAWARE                ##
##         Nov 04 2023  V4.0                 ##
##         42-389-30283-00-00                ##
###############################################
## Copyright 2017-2023  ENVERUS.  All Rights Reserved. 
## Confidential - Property of ENVERUS, use governed by terms and 
## conditions found within the existing Information Services Subscription Agreement 
## (as may be amended, the “ISSA”) between Customer and ENVERUS. 
## 
~VERSION INFORMATION
# MNEM.UNIT                               DATA : DESCRIPTION OF MNEMONIC
#-----.-----     ----------------------------- : -----------------------------
VERS.                                     2.00 : CWLS LOG ASCII STANDARD - VERSION 2.00
WRAP.                                       NO : MULTIPLE LINES PER DEPTH STEP
VEND.                                  ENVERUS : VENDOR
TYPE.                          ESS - OPEN HOLE : ENVERUS ESSENTIAL CURVES – ACCESSIBLE THROUGH ENVERUS PRISM(TM)
DOC.                                  32052778 : ENVERUS HEADER RAW DOCUMENT ID
#___________________________________________________________________________________________________ 
~WELL INFORMATION 
# CKTmoz7OsKELnwE/IP0i4B9qEmEewtam1JWnvb6ghWZsYWfxLv+2EOc67unJ6Yof0W+RqImtxqI23GomxkzDLA== 
# MNEM.UNIT                                              DATA : DESCRIPTION OF MNEMONIC 
#-----.-----                    ----------------------------- : ----------------------------- 
CNTY.                                                  REEVES : COUNTY 
STATE.                                                  TEXAS : STATE 
CNTRY.                                                    USA : COUNTRY 
API.                                             42-389-30283 : API (10 Digit) 
API_14.                                    42-389-30283-00-00 : API (14 Digits) 
API_14_std.                                 42-389-30283-0000 : API (14 Digits Standard) 
UWI.                                           42389302830000 : UNIQUE WELL ID 
WELL.                       RANDOLPH  A. T.  ET AL-STATE  1 L : WELL NAME
STRT.FT                                                 155.0 : START DEPTH
STOP.FT                                               15740.0 : STOP DEPTH
STEP.FT                                                   0.5 : STEP BETWEEN DEPTHS
NULL.                                                 -999.25 : NULL VALUE
COMP.                                     RIO PETROLEUM  INC. : COMPANY
#___________________________________________________________________________________________________ 
~CURVE INFORMATION 
# MNEM.UNIT           : CURVE DESCRIPTION 
#-----.-----          : ----------------------------- 
 DEPT.FT               : MEASURED DEPTH 
 CALI__A.IN            : CALIPER (CAL - CAL) 
 GR__A.API             : GAMMA RAY (GR) 
 SP__A.MV              : SPONTANEOUS POTENTIAL (SP) 
 DT__A.US/FT           : SONIC DELTA TRANSIT TIME (DT) 
 RESD__A.OHMM          : DEEP INDUCTION RESISTIVITY (ILD - ILD) 
 NPHI__A.V/V           : NEUTRON POROSITY (NPH - NPH) 
 #___________________________________________________________________________________________________ 
~A         DEPT        CALI__A          GR__A          SP__A          DT__A        RESD__A        NPHI__A
# ...
         6957.0         12.762         90.984       -999.250         81.257       -999.250     -999.25000
         6957.5         12.763         87.916       -999.250         82.599       -999.250     -999.25000
         6958.0         12.763         85.448       -999.250         82.155       -999.250     -999.25000
         6958.5         12.747         77.857       -999.250         79.197       -999.250     -999.25000
         6959.0         12.727         67.580       -999.250         76.804       -999.250     -999.25000
         6959.5         12.706         62.556       -999.250         76.537       -999.250     -999.25000
         6960.0         12.685         62.954       -999.250         76.269       -999.250     -999.25000
         6960.5         12.665         67.328       -999.250         76.002       -999.250     -999.25000
         6961.0         12.644         78.180       -999.250         76.309       -999.250     -999.25000
         6961.5         12.623         89.406       -999.250         81.106       -999.250     -999.25000
         6962.0         12.603         99.777       -999.250         82.477       -999.250     -999.25000
         6962.5         12.582         96.309       -999.250         83.276       -999.250     -999.25000
         6963.0         12.561         88.943       -999.250         80.890       -999.250     -999.25000
         6963.5         12.541         89.101       -999.250         78.676       -999.250     -999.25000
         6964.0         12.520         97.221       -999.250         79.835       -999.250     -999.25000
         6964.5         12.499        107.394       -999.250         80.993       -999.250     -999.25000
         6965.0         12.501         98.589       -999.250         80.439       -999.250     -999.25000
         6965.5         12.525         88.078       -999.250         78.529       -999.250     -999.25000
         6966.0         12.549         78.056       -999.250         76.620       -999.250     -999.25000
         6966.5         12.572         74.692       -999.250         76.087       -999.250     -999.25000
         6967.0         12.596         76.792       -999.250         77.564       -999.250     -999.25000
         6967.5         12.620         80.303       -999.250         79.041       -999.250     -999.25000
         6968.0         12.644         83.020       -999.250         80.002       -999.250     -999.25000
         6968.5         12.668         81.115       -999.250         80.951       -999.250     -999.25000
         6969.0         12.692         78.488       -999.250         81.564       -999.250     -999.25000
         6969.5         12.716         78.031       -999.250         81.536       -999.250     -999.25000
         6970.0         12.739         81.082       -999.250         82.547       -999.250     -999.25000
         6970.5         12.763         75.912       -999.250         83.078       -999.250     -999.25000
         6971.0         12.787         72.684       -999.250         81.911       -999.250     -999.25000
         6971.5         12.811         72.338       -999.250         80.743       -999.250     -999.25000
         6972.0         12.835         75.697       -999.250         81.162       -999.250     -999.25000
         6972.5         12.859         85.937       -999.250         84.089       -999.250     -999.25000
         6973.0         12.876         91.625       -999.250         86.575       -999.250     -999.25000
         6973.5         12.875         93.382       -999.250         88.618       -999.250     -999.25000
         6974.0         12.875         93.261       -999.250         88.085       -999.250     -999.25000
         6974.5         12.874         88.509       -999.250         84.709       -999.250     -999.25000
         6975.0         12.873         85.133       -999.250         83.279       -999.250     -999.25000
         6975.5         12.872         83.696       -999.250         83.573       -999.250     -999.25000
         6976.0         12.872         84.646       -999.250         84.373       -999.250     -999.25000
         6976.5         12.850         92.621       -999.250         86.822       -999.250     -999.25000
         6977.0         12.815         98.374       -999.250         89.484       -999.250     -999.25000
         6977.5         12.781        103.839       -999.250         89.929       -999.250     -999.25000
         6978.0         12.746        108.987       -999.250         90.370       -999.250     -999.25000
         6978.5         12.712        108.914       -999.250         90.254       -999.250     -999.25000
         6979.0         12.677        103.025       -999.250         89.539       -999.250     -999.25000
         6979.5         12.642         97.397       -999.250         88.824       -999.250     -999.25000
         6980.0         12.608         93.075       -999.250         86.963       -999.250     -999.25000
         6980.5         12.573         89.484       -999.250         85.177       -999.250     -999.25000
         6981.0         12.555         85.406       -999.250         83.585       -999.250     -999.25000
         6981.5         12.555         81.421       -999.250         81.994       -999.250     -999.25000
         6982.0         12.554         72.136       -999.250         80.403       -999.250     -999.25000
         6982.5         12.553         59.305       -999.250         74.906       -999.250     -999.25000
         6983.0         12.553         46.475       -999.250         69.060       -999.250     -999.25000
         6983.5         12.550         40.208       -999.250         64.935       -999.250     -999.25000
         6984.0         12.526         36.822       -999.250         63.458       -999.250     -999.25000
         6984.5         12.503         38.715       -999.250         61.982       -999.250     -999.25000
         6985.0         12.479         53.234       -999.250         60.505       -999.250     -999.25000
         6985.5         12.456         70.008       -999.250         70.018       -999.250     -999.25000
         6986.0         12.432         92.090       -999.250         75.399       -999.250     -999.25000
         6986.5         12.411        115.265       -999.250         80.718       -999.250     -999.25000
         6987.0         12.397        121.014       -999.250         86.037       -999.250     -999.25000
         6987.5         12.383        121.403       -999.250         89.122       -999.250     -999.25000
         6988.0         12.369        120.890       -999.250         89.710       -999.250     -999.25000
         6988.5         12.355        117.996       -999.250         88.878       -999.250     -999.25000
         6989.0         12.341        111.751       -999.250         88.046       -999.250     -999.25000
         6989.5         12.327        104.546       -999.250         87.215       -999.250     -999.25000
         6990.0         12.336         87.649       -999.250         84.867       -999.250     -999.25000
         6990.5         12.358         79.009       -999.250         80.683       -999.250     -999.25000
         6991.0         12.380         82.773       -999.250         80.822       -999.250     -999.25000
         6991.5         12.402         86.701       -999.250         81.708       -999.250     -999.25000
         6992.0         12.424         93.038       -999.250         84.038       -999.250     -999.25000
         6992.5         12.447         99.424       -999.250         86.064       -999.250     -999.25000
         6993.0         12.469         97.587       -999.250         86.243       -999.250     -999.25000
         6993.5         12.491         94.389       -999.250         86.423       -999.250     -999.25000
         6994.0         12.513         92.048       -999.250         83.906       -999.250     -999.25000
         6994.5         12.535         84.290       -999.250         80.230       -999.250     -999.25000
