#--------------------------------------------------#
#-------------------ENVERUS, INC.------------------#
#------------------WWW.ENVERUS.COM-----------------#
#------------------COPYRIGHT 2020------------------#
#--------------------------------------------------#
#THIS FILE MAY BE USED ONLY IN ACCORDANCE WITH A CURRENT SUBSCRIPTION AGREEMENT BETWEEN
#THE USER AND ENVERUS, INC. NO PART OF THIS FILE MAY BE REPRODUCED, USED, COPIED,
#MODIFIED, PROPAGATED, OR DISTRIBUTED EXCEPT IN ACCORDANCE WITH THE SUBSCRIPTION
#AGREEMENT. UNAUTHORIZED USE OR DISTRIBUTION OF ALL OR ANY PART OF THIS FILE MAY VIOLATE
#COPYRIGHT, TRADEMARK, AND/OR OTHER LAWS AND IS SUBJECT TO CIVIL AS WELL AS CRIMINAL
#SANCTIONS.
#--------------------------------------------------#
#THIS FILE IS PROVIDED "AS-IS" AND ALL WARRANTIES ARE EXPRESSLY DISCLAIMED, WHETHER
#EXPRESS, ORAL, IMPLIED, STATUTORY OR OTHERWISE, INCLUDING ANY IMPLIED WARRANTY OF FITNESS
#FOR A PARTICULAR PURPOSE, MERCHANTABILITY, TITLE OR NON-INFRINGEMENT, AND ANY WARRANTIES
#ARISING BY VIRTUE OF CUSTOM OF TRADE OR COURSE OF DEALING.  FURTHER, ENVERUS, INC.
#AND ITS LICENSORS DO NOT REPRESENT OR WARRANT THAT THIS FILE WILL MEET USER'S
#REQUIREMENTS OR ARE SUITABLE FOR USER'S NEEDS OR THAT THE DATA OR RESULTS PROVIDED IN
#CONJUNCTION THEREWITH ARE CORRECT, ACCURATE, TIMELY OR RELIABLE. THESE DISCLAIMERS SHALL
#APPLY REGARDLESS OF ANY FAILURE OF ESSENTIAL PURPOSE OF ANY LIMITED REMEDY.  SOME
#JURISDICTIONS DO NOT ALLOW THE EXCLUSION OF CERTAIN WARRANTIES SO SOME OF THE ABOVE
#EXCLUSIONS MAY NOT APPLY. IN NO EVENT SHALL ENVERUS, INC. OR ANY OF ITS AFFILIATES
#BE LIABLE UNDER ANY LEGAL THEORY, WHETHER IN TORT (INCLUDING WITHOUT LIMITATION
#NEGLIGENCE), CONTRACT, STRICT LIABILITY, STATUTORY OR OTHERWISE, FOR ANY SPECIAL,
#INCIDENTAL, CONSEQUENTIAL, EXEMPLARY, PUNITIVE OR INDIRECT DAMAGE OF ANY KIND, INCLUDING
#WITHOUT LIMITATION LOSS OF REVENUE, PROFITS, GOODWILL, USE, AND/OR DATA OR THE COST OF
#PROCUREMENT OF SUBSTITUTE GOODS OR SERVICES, EVEN IF APPRISED OF THE POSSIBILITY OF SUCH
#DAMAGES IN ADVANCE.
#--------------------------------------------------#

~VERSION INFORMATION
VERS. 2.0 : CWLS LOG ASCII STANDARD - VERSION 2.0
WRAP.  NO : ONE LINE PER DEPTH STEP
~WELL INFORMATION
#MNEMONIC     .UNIT              VALUE :DESCRIPTION
STRT       .FT                25 :START DEPTH
STOP       .FT                17136 :STOP DEPTH
STEP       .FT                   0.500 :STEP
NULL       .                  -999.250 :NULL
UWI        .              42389302310000 :UNIQUE WELL ID
API        .              42389302310000 :API NUMBER
COMP       .         EDISTO RESOURCES CORPORATION :COMPANY
WELL       .        WIGGINS  ORLA  1 :WELL
DATE       .                            :LOG DATE
~CURVE INFORMATION
#MNEMONIC     .UNIT      API CODE :CURVE DESCRIPTION
DEPTH       .FT                      :MEASURED DEPTH
CAL.INCH        UNKNOWN   :CAL
ILS.OHM        UNKNOWN   :ILS
SP.MV        UNKNOWN   :SP
DT.US/FT        UNKNOWN   :DT
GR.API        UNKNOWN   :GR
ILD.OHM        UNKNOWN   :ILD
~A    DEPTH    CAL    ILS    SP    DT    GR    ILD
# ...
 13396     11.741   -999.99   -50.195   85.504   50.657   2.837
 13396.5     11.639   -999.99   -50.156   82.973   50.977   2.851
 13397     11.537   -999.99   -50.117   86.793   52   2.865
 13397.5     11.463   -999.99   -50.078   85.846   53.338   2.879
 13398     11.444   -999.99   -50.038   89.04   54.676   2.892
 13398.5     11.426   -999.99   -49.999   90.088   55.933   2.909
 13399     11.407   -999.99   -49.96   89.726   57.167   2.932
 13399.5     11.388   -999.99   -49.921   87.762   58.389   2.956
 13400     11.369   -999.99   -49.881   81.204   58.154   2.979
 13400.5     11.35   -999.99   -49.842   75.863   57.918   3.003
 13401     11.331   -999.99   -49.803   76.667   56.053   2.991
 13401.5     11.344   -999.99   -49.764   78.39   53.913   2.911
 13402     11.391   -999.99   -49.743   85.087   53.203   2.831
 13402.5     11.437   -999.99   -49.742   92.41   55.612   2.752
 13403     11.483   -999.99   -49.74   92.561   58.02   2.674
 13403.5     11.529   -999.99   -49.739   91.755   60.429   2.596
 13404     11.576   -999.99   -49.737   90.949   62.48   2.518
 13404.5     11.622   -999.99   -49.736   89.89   62.481   2.439
 13405     11.668   -999.99   -49.735   88.317   62.482   2.354
 13405.5     11.715   -999.99   -49.733   87.17   62.483   2.268
 13406     11.744   -999.99   -49.732   89.659   62.484   2.182
 13406.5     11.746   -999.99   -49.73   90.692   62.534   2.096
 13407     11.749   -999.99   -49.75   90.63   63.911   2.01
 13407.5     11.752   -999.99   -49.778   90.567   65.289   1.99
 13408     11.754   -999.99   -49.805   90.528   66.031   1.976
 13408.5     11.759   -999.99   -49.833   90.606   65.971   1.962
 13409     11.799   -999.99   -49.86   90.683   65.912   1.947
 13409.5     11.84   -999.99   -49.888   90.761   65.853   1.961
 13410     11.88   -999.99   -49.916   90.838   65.794   1.99
 13410.5     11.921   -999.99   -49.943   90.915   65.734   2.019
 13411     11.961   -999.99   -49.971   90.938   58.624   2.048
 13411.5     12.002   -999.99   -49.998   90.938   54.912   2.063
 13412     12.042   -999.99   -50.026   90.938   55.349   2.076
 13412.5     12.083   -999.99   -50.054   90.938   55.785   2.088
 13413     12.094   -999.99   -50.081   90.938   56.218   2.095
 13413.5     12.044   -999.99   -50.109   94.391   56.646   2.052
 13414     11.995   -999.99   -50.136   98.098   57.074   2.008
 13414.5     11.945   -999.99   -50.164   101.393   57.891   1.965
 13415     11.895   -999.99   -50.192   99.19   58.937   1.922
 13415.5     11.846   -999.99   -50.219   96.987   59.983   1.934
 13416     11.796   -999.99   -50.247   94.784   61.219   1.959
 13416.5     11.766   -999.99   -50.274   92.581   62.618   1.984
 13417     11.798   -999.99   -50.302   91.019   64.016   2.009
 13417.5     11.83   -999.99   -50.329   94.712   65.415   2.034
 13418     11.862   -999.99   -50.357   98.405   66.813   2.059
 13418.5     11.894   -999.99   -50.385   102.097   68.211   2.084
 13419     11.926   -999.99   -53.986   105.79   69.512   2.109
 13419.5     11.958   -999.99   -54.243   109.482   70.451   2.113
 13420     11.99   -999.99   -54.194   109.63   71.096   2.105
 13420.5     12.022   -999.99   -52.406   104.245   71.53   2.096
 13421     12.054   -999.99   -50.618   98.859   66.655   2.088
 13421.5     12.085   -999.99   -48.983   93.473   61.265   2.071
 13422     12.115   -999.99   -48.982   91.035   61.584   2.049
 13422.5     12.145   -999.99   -49.009   91.025   61.903   2.027
 13423     12.175   -999.99   -50.035   91.015   62.222   2.006
 13423.5     12.157   -999.99   -51.06   91.005   62.436   1.984
 13424     12.129   -999.99   -52.085   90.995   60.953   1.963
 13424.5     12.102   -999.99   -50.195   90.985   59.469   1.941
 13425     12.074   -999.99   -47.395   90.975   58.042   1.92
 13425.5     12.046   -999.99   -44.766   90.965   56.664   1.9
 13426     12.035   -999.99   -45.505   90.955   56.002   1.891
 13426.5     12.045   -999.99   -46.244   90.946   55.661   1.883
 13427     12.054   -999.99   -46.982   90.936   55.829   1.874
 13427.5     12.064   -999.99   -47.721   90.926   57.947   1.895
 13428     12.074   -999.99   -47.403   90.916   60.065   1.92
 13428.5     12.083   -999.99   -46.738   90.906   60.985   1.945
 13429     12.119   -999.99   -49.138   90.896   61.004   1.97
 13429.5     12.167   -999.99   -49.412   90.886   61.006   1.995
 13430     12.216   -999.99   -49.686   90.876   58.871   2.02
 13430.5     12.265   -999.99   -49.96   90.866   56.312   2.04
 13431     12.314   -999.99   -50.234   90.857   53.754   2.06
 13431.5     12.396   -999.99   -50.507   90.847   51.195   2.079
 13432     12.531   -999.99   -50.389   90.837   51.044   2.098
 13432.5     12.665   -999.99   -50.208   90.827   51.114   2.118
 13433     12.8   -999.99   -50.027   90.817   51.618   2.137
 13433.5     12.781   -999.99   -49.846   90.807   52.663   2.093
 13434     12.683   -999.99   -49.665   90.797   53.703   2.043
 13434.5     12.585   -999.99   -49.484   90.787   52.845   1.994
 13435     12.58   -999.99   -49.303   90.777   51.987   1.945
 13435.5     12.632   -999.99   -49.122   90.768   51.13   1.912
 13436     12.616   -999.99   -49.237   90.758   50.476   1.899
 13436.5     12.542   -999.99   -49.356   90.748   52.526   1.886
 13437     12.452   -999.99   -49.476   90.738   54.577   1.875
 13437.5     12.279   -999.99   -49.596   90.728   54.75   1.875
 13438     12.106   -999.99   -49.715   90.718   53.633   1.875
 13438.5     12.021   -999.99   -49.708   90.49   53.036   1.92
 13439     12.025   -999.99   -49.007   85.812   52.486   2.118
 13439.5     12.028   -999.99   -48.307   82.96   51.995   2.316
 13440     12.031   -999.99   -47.606   80.154   51.524   2.833
 13440.5     11.955   -999.99   -46.905   75.013   51.052   3.415
 13441     11.711   -999.99   -46.204   67.544   50.58   3.998
 13441.5     11.466   -999.99   -48.989   61.532   46.775   4.707
 13442     11.222   -999.99   -52.358   59.304   38.823   5.808
 13442.5     11.156   -999.99   -55.726   57.076   32.93   6.909
 13443     11.127   -999.99   -59.094   54.848   29.695   10.541
 13443.5     11.099   -999.99   -60.769   55.277   26.461   17.337
 13444     11.07   -999.99   -59.302   55.995   27.178   22.522
 13444.5     11.042   -999.99   -57.49   57.266   28.535   25.707
 13445     11.013   -999.99   -49.425   59.351   30.206   25.993
 13445.5     11.029   -999.99   -49.267   61.436   34.654   25.091
 13446     11.068   -999.99   -49.108   62.604   39.102   22.546
 13446.5     11.107   -999.99   -48.949   63.454   43.551   19.355
 13447     11.145   -999.99   -48.79   64.288   49.09   15.575
 13447.5     11.184   -999.99   -48.632   65.102   51.057   11.796
 13448     11.223   -999.99   -48.473   65.916   51.576   9.62
 13448.5     11.261   -999.99   -48.314   66.73   52.057   7.657
 13449     11.3   -999.99   -48.156   69.102   52.491   5.694
 13449.5     11.339   -999.99   -47.997   74.851   53.072   3.731
 13450     11.388   -999.99   -47.849   81.01   53.811   2.709
 13450.5     11.491   -999.99   -47.996   84.915   54.55   2.48
 13451     11.595   -999.99   -48.144   87.356   55.29   2.252
 13451.5     11.698   -999.99   -48.292   89.797   56.029   2.023
 13452     11.801   -999.99   -48.44   93.125   57.209   1.908
 13452.5     11.904   -999.99   -48.587   95.288   59.015   1.908
 13453     12.007   -999.99   -48.735   97.452   60.579   1.908
 13453.5     12.076   -999.99   -48.883   99.616   60.805   1.919
 13454     12.104   -999.99   -49.031   101.687   61.031   1.971
 13454.5     12.132   -999.99   -49.178   96.967   61.256   2.023
 13455     12.16   -999.99   -49.326   92.246   61.511   2.075
 13455.5     12.189   -999.99   -49.474   88.743   61.817   2.127
 13456     12.205   -999.99   -49.622   90.033   62.122   2.179
 13456.5     12.214   -999.99   -49.769   91.442   62.428   2.232
 13457     12.224   -999.99   -49.917   93.034   62.734   2.288
 13457.5     12.233   -999.99   -49.737   94.625   63.039   2.351
