###############################################
##         ENVERUS                           ##
##         ESS - Open Hole                   ##
##         PERMIAN / DELAWARE                ##
##         Nov 04 2023  V4.0                 ##
##         42-389-30424-00-00                ##
###############################################
## Copyright 2017-2023  ENVERUS.  All Rights Reserved. 
## Confidential - Property of ENVERUS, use governed by terms and 
## conditions found within the existing Information Services Subscription Agreement 
## (as may be amended, the “ISSA”) between Customer and ENVERUS. 
## 
~VERSION INFORMATION
# MNEM.UNIT                               DATA : DESCRIPTION OF MNEMONIC
#-----.-----     ----------------------------- : -----------------------------
VERS.                                     2.00 : CWLS LOG ASCII STANDARD - VERSION 2.00
WRAP.                                       NO : MULTIPLE LINES PER DEPTH STEP
VEND.                                  ENVERUS : VENDOR
TYPE.                          ESS - OPEN HOLE : ENVERUS ESSENTIAL CURVES – ACCESSIBLE THROUGH ENVERUS PRISM(TM)
DOC.                                  32008121 : ENVERUS HEADER RAW DOCUMENT ID
#___________________________________________________________________________________________________ 
~WELL INFORMATION 
# BBd8zmUYmd+wUdICSlYDIOWaOe8iOeA0ELK9EhSbx74Kr6OX4zJxS/eo6cO6KK5SWMTSkVzaKbU2EBBfROvOKA== 
# MNEM.UNIT                                              DATA : DESCRIPTION OF MNEMONIC 
#-----.-----                    ----------------------------- : ----------------------------- 
CNTY.                                                  REEVES : COUNTY 
STATE.                                                  TEXAS : STATE 
CNTRY.                                                    USA : COUNTRY 
API.                                             42-389-30424 : API (10 Digit) 
API_14.                                    42-389-30424-00-00 : API (14 Digits) 
API_14_std.                                 42-389-30424-0000 : API (14 Digits Standard) 
UWI.                                           42389304240000 : UNIQUE WELL ID 
WELL.                                      LEWELLING STATE  1 : WELL NAME
STRT.FT                                                   7.0 : START DEPTH
STOP.FT                                               15912.0 : STOP DEPTH
STEP.FT                                                   0.5 : STEP BETWEEN DEPTHS
NULL.                                                 -999.25 : NULL VALUE
COMP.                           PENN VIRGINIA OIL & GAS CORP. : COMPANY 
DATE.                                             14-AUG-1976 : LOG DATE
#___________________________________________________________________________________________________ 
~CURVE INFORMATION 
# MNEM.UNIT           : CURVE DESCRIPTION 
#-----.-----          : ----------------------------- 
 DEPT.FT               : MEASURED DEPTH 
 CALI__A.IN            : CALIPER (CAL - CAL) 
 GR__A.API             : GAMMA RAY (GR) 
 DT__A.US/FT           : SONIC DELTA TRANSIT TIME (DT) 
 DPHI__A.V/V           : DENSITY POROSITY (DPHI) 
 NPHI__A.V/V           : NEUTRON POROSITY (NPHI) 
 #___________________________________________________________________________________________________ 
~A         DEPT        CALI__A          GR__A          DT__A        DPHI__A        NPHI__A
# ...
         8851.0         12.942         32.927         71.822     -999.25000     -999.25000
         8851.5         12.941         35.093         71.544     -999.25000     -999.25000
         8852.0         12.939         37.258         71.078     -999.25000     -999.25000
         8852.5         12.938         39.423         70.195     -999.25000     -999.25000
         8853.0         12.936         39.420         69.313     -999.25000     -999.25000
         8853.5         12.935         37.863         69.344     -999.25000     -999.25000
         8854.0         12.933         36.306         69.678     -999.25000     -999.25000
         8854.5         12.932         34.749         70.012     -999.25000     -999.25000
         8855.0         12.930         34.474         70.346     -999.25000     -999.25000
         8855.5         12.928         35.289         70.680     -999.25000     -999.25000
         8856.0         12.927         36.466         71.014     -999.25000     -999.25000
         8856.5         12.925         37.643         71.348     -999.25000     -999.25000
         8857.0         12.924         38.821         71.373     -999.25000     -999.25000
         8857.5         12.922         39.419         71.392     -999.25000     -999.25000
         8858.0         12.921         38.933         71.410     -999.25000     -999.25000
         8858.5         12.919         38.446         70.663     -999.25000     -999.25000
         8859.0         12.918         38.746         69.655     -999.25000     -999.25000
         8859.5         12.916         40.619         68.648     -999.25000     -999.25000
         8860.0         12.915         42.155         69.002     -999.25000     -999.25000
         8860.5         12.911         42.692         69.394     -999.25000     -999.25000
         8861.0         12.900         43.229         69.786     -999.25000     -999.25000
         8861.5         12.890         42.276         68.808     -999.25000     -999.25000
         8862.0         12.879         41.303         66.977     -999.25000     -999.25000
         8862.5         12.869         41.822         64.465     -999.25000     -999.25000
         8863.0         12.858         47.710         63.500     -999.25000     -999.25000
         8863.5         12.848         56.888         64.067     -999.25000     -999.25000
         8864.0         12.837         66.065         70.950     -999.25000     -999.25000
         8864.5         12.827         73.599         73.598     -999.25000     -999.25000
         8865.0         12.816         71.197         75.029     -999.25000     -999.25000
         8865.5         12.806         67.291         75.146     -999.25000     -999.25000
         8866.0         12.795         63.960         73.561     -999.25000     -999.25000
         8866.5         12.784         61.795         71.665     -999.25000     -999.25000
         8867.0         12.772         59.629         70.146     -999.25000     -999.25000
         8867.5         12.760         57.678         68.892     -999.25000     -999.25000
         8868.0         12.749         55.929         68.874     -999.25000     -999.25000
         8868.5         12.737         54.180         69.191     -999.25000     -999.25000
         8869.0         12.725         52.432         69.708     -999.25000     -999.25000
         8869.5         12.714         49.859         71.323     -999.25000     -999.25000
         8870.0         12.702         43.822         71.650     -999.25000     -999.25000
         8870.5         12.690         37.785         69.732     -999.25000     -999.25000
         8871.0         12.679         31.748         64.927     -999.25000     -999.25000
         8871.5         12.667         25.712         58.565     -999.25000     -999.25000
         8872.0         12.655         21.858         53.164     -999.25000     -999.25000
         8872.5         12.644         26.753         51.460     -999.25000     -999.25000
         8873.0         12.632         38.483         52.476     -999.25000     -999.25000
         8873.5         12.632         50.213         56.383     -999.25000     -999.25000
         8874.0         12.635         55.837         60.291     -999.25000     -999.25000
         8874.5         12.639         58.365         65.350     -999.25000     -999.25000
         8875.0         12.643         58.623         71.689     -999.25000     -999.25000
         8875.5         12.646         57.652         72.220     -999.25000     -999.25000
         8876.0         12.650         53.847         70.743     -999.25000     -999.25000
         8876.5         12.654         50.043         69.120     -999.25000     -999.25000
         8877.0         12.658         49.303         68.630     -999.25000     -999.25000
         8877.5         12.661         49.031         68.630     -999.25000     -999.25000
         8878.0         12.665         48.758         68.459     -999.25000     -999.25000
         8878.5         12.669         47.940         68.045     -999.25000     -999.25000
         8879.0         12.672         45.774         67.630     -999.25000     -999.25000
         8879.5         12.676         43.608         67.216     -999.25000     -999.25000
         8880.0         12.680         42.248         66.764     -999.25000     -999.25000
         8880.5         12.683         41.785         66.281     -999.25000     -999.25000
         8881.0         12.687         41.322         65.797     -999.25000     -999.25000
         8881.5         12.691         37.769         65.314     -999.25000     -999.25000
         8882.0         12.695         33.610         64.831     -999.25000     -999.25000
         8882.5         12.698         29.450         63.224     -999.25000     -999.25000
         8883.0         12.702         25.291         60.493     -999.25000     -999.25000
         8883.5         12.706         26.811         57.876     -999.25000     -999.25000
         8884.0         12.708         29.307         55.341     -999.25000     -999.25000
         8884.5         12.708         33.058         54.545     -999.25000     -999.25000
         8885.0         12.708         45.406         58.384     -999.25000     -999.25000
         8885.5         12.707         56.696         63.605     -999.25000     -999.25000
         8886.0         12.707         61.138         68.883     -999.25000     -999.25000
         8886.5         12.707         65.581         73.121     -999.25000     -999.25000
         8887.0         12.707         68.289         73.937     -999.25000     -999.25000
         8887.5         12.707         66.591         74.752     -999.25000     -999.25000
         8888.0         12.707         64.894         75.453     -999.25000     -999.25000
         8888.5         12.707         63.196         75.073     -999.25000     -999.25000
         8889.0         12.707         61.498         74.044     -999.25000     -999.25000
         8889.5         12.707         59.078         72.015     -999.25000     -999.25000
         8890.0         12.707         55.563         69.333     -999.25000     -999.25000
         8890.5         12.706         51.823         66.650     -999.25000     -999.25000
         8891.0         12.706         51.469         65.405     -999.25000     -999.25000
         8891.5         12.706         50.901         65.882     -999.25000     -999.25000
         8892.0         12.706         49.749         67.034     -999.25000     -999.25000
         8892.5         12.706         46.253         68.471     -999.25000     -999.25000
         8893.0         12.706         41.029         68.967     -999.25000     -999.25000
         8893.5         12.706         35.805         65.132     -999.25000     -999.25000
         8894.0         12.706         31.345         60.341     -999.25000     -999.25000
         8894.5         12.706         29.658         56.872     -999.25000     -999.25000
