#--------------------------------------------------#
#-------------------ENVERUS, INC.------------------#
#------------------WWW.ENVERUS.COM-----------------#
#------------------COPYRIGHT 2020------------------#
#--------------------------------------------------#
#THIS FILE MAY BE USED ONLY IN ACCORDANCE WITH A CURRENT SUBSCRIPTION AGREEMENT BETWEEN
#THE USER AND ENVERUS, INC. NO PART OF THIS FILE MAY BE REPRODUCED, USED, COPIED,
#MODIFIED, PROPAGATED, OR DISTRIBUTED EXCEPT IN ACCORDANCE WITH THE SUBSCRIPTION
#AGREEMENT. UNAUTHORIZED USE OR DISTRIBUTION OF ALL OR ANY PART OF THIS FILE MAY VIOLATE
#COPYRIGHT, TRADEMARK, AND/OR OTHER LAWS AND IS SUBJECT TO CIVIL AS WELL AS CRIMINAL
#SANCTIONS.
#--------------------------------------------------#
#THIS FILE IS PROVIDED "AS-IS" AND ALL WARRANTIES ARE EXPRESSLY DISCLAIMED, WHETHER
#EXPRESS, ORAL, IMPLIED, STATUTORY OR OTHERWISE, INCLUDING ANY IMPLIED WARRANTY OF FITNESS
#FOR A PARTICULAR PURPOSE, MERCHANTABILITY, TITLE OR NON-INFRINGEMENT, AND ANY WARRANTIES
#ARISING BY VIRTUE OF CUSTOM OF TRADE OR COURSE OF DEALING.  FURTHER, ENVERUS, INC.
#AND ITS LICENSORS DO NOT REPRESENT OR WARRANT THAT THIS FILE WILL MEET USER'S
#REQUIREMENTS OR ARE SUITABLE FOR USER'S NEEDS OR THAT THE DATA OR RESULTS PROVIDED IN
#CONJUNCTION THEREWITH ARE CORRECT, ACCURATE, TIMELY OR RELIABLE. THESE DISCLAIMERS SHALL
#APPLY REGARDLESS OF ANY FAILURE OF ESSENTIAL PURPOSE OF ANY LIMITED REMEDY.  SOME
#JURISDICTIONS DO NOT ALLOW THE EXCLUSION OF CERTAIN WARRANTIES SO SOME OF THE ABOVE
#EXCLUSIONS MAY NOT APPLY. IN NO EVENT SHALL ENVERUS, INC. OR ANY OF ITS AFFILIATES
#BE LIABLE UNDER ANY LEGAL THEORY, WHETHER IN TORT (INCLUDING WITHOUT LIMITATION
#NEGLIGENCE), CONTRACT, STRICT LIABILITY, STATUTORY OR OTHERWISE, FOR ANY SPECIAL,
#INCIDENTAL, CONSEQUENTIAL, EXEMPLARY, PUNITIVE OR INDIRECT DAMAGE OF ANY KIND, INCLUDING
#WITHOUT LIMITATION LOSS OF REVENUE, PROFITS, GOODWILL, USE, AND/OR DATA OR THE COST OF
#PROCUREMENT OF SUBSTITUTE GOODS OR SERVICES, EVEN IF APPRISED OF THE POSSIBILITY OF SUCH
#DAMAGES IN ADVANCE.
#--------------------------------------------------#

~VERSION INFORMATION
VERS. 2.0 : CWLS LOG ASCII STANDARD - VERSION 2.0
WRAP.  NO : ONE LINE PER DEPTH STEP
~WELL INFORMATION
#MNEMONIC     .UNIT              VALUE :DESCRIPTION
STRT       .FT                25 :START DEPTH
STOP       .FT                17136 :STOP DEPTH
STEP       .FT                   0.500 :STEP
NULL       .                  -999.250 :NULL
UWI        .              42389302310000 :UNIQUE WELL ID
API        .              42389302310000 :API NUMBER
COMP       .         EDISTO RESOURCES CORPORATION :COMPANY
WELL       .        WIGGINS  ORLA  1 :WELL
DATE       .                            :LOG DATE
~CURVE INFORMATION
#MNEMONIC     .UNIT      API CODE :CURVE DESCRIPTION
DEPTH       .FT                      :MEASURED DEPTH
CAL.INCH        UNKNOWN   :CAL
ILS.OHM        UNKNOWN   :ILS
SP.MV        UNKNOWN   :SP
DT.US/FT        UNKNOWN   :DT
GR.API        UNKNOWN   :GR
ILD.OHM        UNKNOWN   :ILD
~A    DEPTH    CAL    ILS    SP    DT    GR    ILD
# ...
 6796     12.805   56.11   -26.431   59.127   35.035   136.307
 6796.5     12.806   57.312   -26.32   61.158   38.672   150.544
 6797     12.808   58.514   -26.208   63.189   42.31   164.781
 6797.5     12.809   58.184   -26.097   63.583   45.947   192.932
 6798     12.811   57.218   -25.986   62.174   45.349   221.465
 6798.5     12.812   56.252   -25.874   60.765   41.134   225.073
 6799     12.814   55.286   -25.763   59.531   38.35   202.51
 6799.5     12.78   54.32   -25.684   59.503   36.145   160.139
 6800     12.736   53.355   -25.742   59.475   33.94   121.598
 6800.5     12.692   52.389   -25.799   61.022   36.669   116.479
 6801     12.648   52.814   -25.857   63.132   40.992   111.998
 6801.5     12.635   53.476   -25.915   65.242   45.314   129.086
 6802     12.639   54.138   -25.973   67.353   57.299   136.448
 6802.5     12.644   54.8   -26.031   69.463   63.696   134.083
 6803     12.649   55.462   -26.088   68.035   65.238   131.718
 6803.5     12.654   56.124   -26.146   67.486   60.604   132.942
 6804     12.658   56.785   -26.204   68.365   56.314   139.411
 6804.5     12.663   57.447   -26.262   69.243   58.786   137.8
 6805     12.668   58.109   -26.32   70.121   61.257   132.276
 6805.5     12.673   58.771   -26.377   68.998   63.344   126.753
 6806     12.678   59.433   -26.435   61.506   63.79   122.074
 6806.5     12.682   60.095   -26.493   61.176   53.664   121.04
 6807     12.687   60.757   -26.551   62.847   43.491   120.51
 6807.5     12.692   61.419   -26.609   64.517   41.145   127.414
 6808     12.707   62.081   -26.666   66.105   46.204   140.844
 6808.5     12.726   62.743   -26.724   67.224   56.858   154.914
 6809     12.745   63.404   -26.782   68.343   61.049   168.158
 6809.5     12.763   64.066   -26.84   69.387   62.393   157.95
 6810     12.782   64.728   -26.897   66.714   62.006   147.742
 6810.5     12.8   65.38   -26.955   64.04   53.074   137.533
 6811     12.798   65.214   -26.884   61.367   44.141   134.245
 6811.5     12.797   65.048   -26.626   58.694   35.209   143.975
 6812     12.795   64.883   -26.368   56.02   28.569   158.965
 6812.5     12.794   64.717   -26.11   53.347   25.061   165.2
 6813     12.792   64.551   -25.852   53.784   22.319   166.955
 6813.5     12.791   64.386   -25.594   54.495   21.296   155.536
 6814     12.789   63.644   -25.336   55.207   22.231   143.048
 6814.5     12.787   62.371   -25.078   55.918   25.997   146.495
 6815     12.786   61.098   -24.82   59.57   33.576   154.185
 6815.5     12.782   59.825   -24.562   63.595   41.542   161.876
 6816     12.773   58.552   -24.305   68.167   61.934   147.36
 6816.5     12.764   57.28   -24.047   72.739   81.957   130.504
 6817     12.755   56.007   -23.789   72.557   89.574   113.647
 6817.5     12.745   54.734   -23.531   70.121   97.192   108.607
 6818     12.736   55.238   -23.273   67.479   92.687   111.724
 6818.5     12.727   57.003   -23.015   68.734   84.562   114.842
 6819     12.718   58.767   -22.757   70.169   85.931   117.959
 6819.5     12.708   60.532   -22.499   72.982   96.691   121.077
 6820     12.699   62.297   -22.241   75.795   115.092   124.194
 6820.5     12.699   64.061   -21.983   77.991   114.854   130.404
 6821     12.715   65.826   -21.855   72.263   106.516   137.892
 6821.5     12.731   67.591   -21.775   66.534   96.962   151.802
 6822     12.747   69.355   -21.696   63.182   63.929   165.712
 6822.5     12.763   71.12   -21.604   60.164   47.194   179.622
 6823     12.778   72.885   -21.388   58.494   31.959   191.402
 6823.5     12.794   74.649   -21.172   56.825   26.472   196.495
 6824     12.81   76.414   -20.956   56.694   23.979   200.705
 6824.5     12.826   77.986   -20.74   57.275   26.161   198.545
 6825     12.824   78.934   -20.524   57.856   30.303   196.386
 6825.5     12.814   79.883   -20.307   58.436   38.092   204.635
 6826     12.804   79.3   -20.091   60.224   46.114   219.517
 6826.5     12.794   75.877   -19.875   65.208   56.766   234.589
 6827     12.784   72.453   -19.659   69.895   67.419   251.151
 6827.5     12.774   69.03   -19.639   67.918   78.071   259.071
 6828     12.764   65.606   -19.635   65.941   83.421   229.835
 6828.5     12.754   64.378   -19.632   64.563   74.26   193.842
 6829     12.744   64.273   -19.628   66.722   68.072   157.85
 6829.5     12.734   64.168   -19.625   68.882   71.124   129.736
 6830     12.724   64.064   -19.622   70.535   78.893   125.158
 6830.5     12.728   63.959   -19.618   71.874   85.609   145.806
 6831     12.733   63.854   -19.615   73.214   84.552   166.454
 6831.5     12.737   63.75   -19.938   74.232   82.238   177.885
 6832     12.741   63.645   -20.272   74.261   68.972   161.86
 6832.5     12.746   63.54   -20.606   74.289   68.691   145.835
 6833     12.75   63.436   -20.94   72.331   68.411   128.456
 6833.5     12.754   54.906   -21.274   70.035   68.13   102.766
 6834     12.748   53.476   -21.608   67.739   63.481   85.705
 6834.5     12.74   54.628   -21.942   65.443   60.632   83.074
 6835     12.733   55.779   -22.276   67.572   59.961   80.881
 6835.5     12.726   56.931   -22.61   69.934   60.607   86.176
 6836     12.718   58.082   -22.944   71.777   75.886   98.994
 6836.5     12.711   59.234   -23.278   71.279   79.372   112.659
 6837     12.711   60.385   -23.612   70.782   79.886   126.324
 6837.5     12.714   61.536   -23.946   68.349   71.915   131.391
 6838     12.717   62.688   -23.989   64.723   62.721   134.768
 6838.5     12.72   63.839   -23.941   64.764   57.278   138.145
 6839     12.723   62.67   -23.892   64.805   54.031   141.522
 6839.5     12.726   59.507   -23.844   64.847   50.869   149.925
 6840     12.729   60.387   -23.796   63.738   48.501   159.657
 6840.5     12.732   61.266   -23.747   62.401   46.91   167.655
 6841     12.735   62.146   -23.699   62.912   45.32   173.792
 6841.5     12.738   63.025   -23.651   63.209   45.797   179.929
 6842     12.741   63.905   -23.602   61.488   47.044   186.067
 6842.5     12.744   64.784   -23.554   61.912   48.291   192.758
 6843     12.747   65.664   -23.506   62.735   49.537   201.149
 6843.5     12.75   66.543   -23.457   63.558   50.784   203.523
 6844     12.753   67.422   -23.409   64.168   52.03   200.188
 6844.5     12.752   68.302   -23.361   62.618   50.721   196.853
 6845     12.748   69.181   -23.312   62.281   49.541   188.235
 6845.5     12.744   70.061   -23.264   61.944   51.468   161.851
 6846     12.74   70.94   -23.215   59.471   51.047   145.707
 6846.5     12.736   71.835   -23.167   61.532   42.287   147.311
 6847     12.732   72.78   -23.14   63.596   49.064   154.381
 6847.5     12.728   73.725   -23.164   65.917   55.84   216.481
 6848     12.725   74.67   -23.188   68.439   70.646   256.894
 6848.5     12.721   75.614   -23.211   70.962   85.654   269.397
 6849     12.717   76.559   -23.235   73.484   99.937   264.96
 6849.5     12.713   74.946   -23.259   74.917   108.762   237.372
 6850     12.709   72.778   -23.283   74.604   102.556   190.14
 6850.5     12.705   70.611   -23.307   74.249   95.437   174.354
 6851     12.701   68.443   -23.331   70.863   86.171   158.568
 6851.5     12.697   66.275   -23.354   67.478   75.086   144.406
 6852     12.693   65.789   -23.377   67.144   64.373   131.063
 6852.5     12.689   65.793   -23.374   67.454   58.985   117.719
 6853     12.685   65.798   -23.37   67.66   60.722   106.555
 6853.5     12.681   65.803   -23.367   68.767   64.82   96.14
 6854     12.677   65.808   -23.364   70.621   70.116   102.731
 6854.5     12.674   65.812   -23.361   72.116   75.412   109.321
 6855     12.67   65.817   -23.357   73.612   80.707   120.812
 6855.5     12.666   65.822   -23.354   72.334   85.834   134.427
 6856     12.662   65.827   -23.351   67.681   80.934   147.806
 6856.5     12.671   66.665   -23.348   63.029   67.772   143.03
 6857     12.679   67.771   -23.344   58.376   47.066   138.253
 6857.5     12.688   68.877   -23.341   56.724   26.639   133.477
 6858     12.696   69.983   -23.338   57.636   24.052   128.7
