#--------------------------------------------------#
#-------------------ENVERUS, INC.------------------#
#------------------WWW.ENVERUS.COM-----------------#
#------------------COPYRIGHT 2020------------------#
#--------------------------------------------------#
#THIS FILE MAY BE USED ONLY IN ACCORDANCE WITH A CURRENT SUBSCRIPTION AGREEMENT BETWEEN
#THE USER AND ENVERUS, INC. NO PART OF THIS FILE MAY BE REPRODUCED, USED, COPIED,
#MODIFIED, PROPAGATED, OR DISTRIBUTED EXCEPT IN ACCORDANCE WITH THE SUBSCRIPTION
#AGREEMENT. UNAUTHORIZED USE OR DISTRIBUTION OF ALL OR ANY PART OF THIS FILE MAY VIOLATE
#COPYRIGHT, TRADEMARK, AND/OR OTHER LAWS AND IS SUBJECT TO CIVIL AS WELL AS CRIMINAL
#SANCTIONS.
#--------------------------------------------------#
#THIS FILE IS PROVIDED "AS-IS" AND ALL WARRANTIES ARE EXPRESSLY DISCLAIMED, WHETHER
#EXPRESS, ORAL, IMPLIED, STATUTORY OR OTHERWISE, INCLUDING ANY IMPLIED WARRANTY OF FITNESS
#FOR A PARTICULAR PURPOSE, MERCHANTABILITY, TITLE OR NON-INFRINGEMENT, AND ANY WARRANTIES
#ARISING BY VIRTUE OF CUSTOM OF TRADE OR COURSE OF DEALING.  FURTHER, ENVERUS, INC.
#AND ITS LICENSORS DO NOT REPRESENT OR WARRANT THAT THIS FILE WILL MEET USER'S
#REQUIREMENTS OR ARE SUITABLE FOR USER'S NEEDS OR THAT THE DATA OR RESULTS PROVIDED IN
#CONJUNCTION THEREWITH ARE CORRECT, ACCURATE, TIMELY OR RELIABLE. THESE DISCLAIMERS SHALL
#APPLY REGARDLESS OF ANY FAILURE OF ESSENTIAL PURPOSE OF ANY LIMITED REMEDY.  SOME
#JURISDICTIONS DO NOT ALLOW THE EXCLUSION OF CERTAIN WARRANTIES SO SOME OF THE ABOVE
#EXCLUSIONS MAY NOT APPLY. IN NO EVENT SHALL ENVERUS, INC. OR ANY OF ITS AFFILIATES
#BE LIABLE UNDER ANY LEGAL THEORY, WHETHER IN TORT (INCLUDING WITHOUT LIMITATION
#NEGLIGENCE), CONTRACT, STRICT LIABILITY, STATUTORY OR OTHERWISE, FOR ANY SPECIAL,
#INCIDENTAL, CONSEQUENTIAL, EXEMPLARY, PUNITIVE OR INDIRECT DAMAGE OF ANY KIND, INCLUDING
#WITHOUT LIMITATION LOSS OF REVENUE, PROFITS, GOODWILL, USE, AND/OR DATA OR THE COST OF
#PROCUREMENT OF SUBSTITUTE GOODS OR SERVICES, EVEN IF APPRISED OF THE POSSIBILITY OF SUCH
#DAMAGES IN ADVANCE.
#--------------------------------------------------#

~VERSION INFORMATION
VERS. 2.0 : CWLS LOG ASCII STANDARD - VERSION 2.0
WRAP.  NO : ONE LINE PER DEPTH STEP
~WELL INFORMATION
#MNEMONIC     .UNIT              VALUE :DESCRIPTION
STRT       .FT                47 :START DEPTH
STOP       .FT                15730 :STOP DEPTH
STEP       .FT                   0.500 :STEP
NULL       .                  -999.250 :NULL
UWI        .              42389303580000 :UNIQUE WELL ID
API        .              42389303580000 :API NUMBER
COMP       .         CIMAREX ENERGY CO. OF COLORADO :COMPANY
WELL       .        REEVES  AZ  FEE  1 :WELL
DATE       .                08-JAN-2006 :LOG DATE
~CURVE INFORMATION
#MNEMONIC     .UNIT      API CODE :CURVE DESCRIPTION
DEPTH       .FT                      :MEASURED DEPTH
NEUT.API        UNKNOWN   :NEUT
GR.API        UNKNOWN   :GR
DT.US/FT        UNKNOWN   :DT
CAL.INCH        UNKNOWN   :CAL
~A    DEPTH    NEUT    GR    DT    CAL
# ...
 13690     477.852   58.102   -999.250   -999.250
 13690.5     478.766   58.369   -999.250   -999.250
 13691     478.367   58.304   -999.250   -999.250
 13691.5     472.446   54.523   -999.250   -999.250
 13692     466.988   50.742   -999.250   -999.250
 13692.5     466.99   49.533   -999.250   -999.250
 13693     466.992   48.498   -999.250   -999.250
 13693.5     466.993   47.463   -999.250   -999.250
 13694     464.156   46.429   -999.250   -999.250
 13694.5     460.184   46.83   -999.250   -999.250
 13695     456.212   50.09   -999.250   -999.250
 13695.5     452.651   53.349   -999.250   -999.250
 13696     449.895   56.609   -999.250   -999.250
 13696.5     447.139   58.714   -999.250   -999.250
 13697     444.383   60.345   -999.250   -999.250
 13697.5     442.402   61.975   -999.250   -999.250
 13698     445.96   63.414   -999.250   -999.250
 13698.5     449.518   58.789   -999.250   -999.250
 13699     456.485   57.918   -999.250   -999.250
 13699.5     465.648   58.407   -999.250   -999.250
 13700     474.81   58.895   -999.250   -999.250
 13700.5     483.973   56.948   -999.250   -999.250
 13701     493.117   54.756   -999.250   -999.250
 13701.5     501.357   53.702   -999.250   -999.250
 13702     509.597   51.491   -999.250   -999.250
 13702.5     517.837   48.013   -999.250   -999.250
 13703     526.077   44.535   -999.250   -999.250
 13703.5     534.317   42.166   -999.250   -999.250
 13704     555.014   40.973   -999.250   -999.250
 13704.5     584.285   39.78   -999.250   -999.250
 13705     613.556   40.676   -999.250   -999.250
 13705.5     611.409   41.63   -999.250   -999.250
 13706     597.06   42.583   -999.250   -999.250
 13706.5     581.463   39.669   -999.250   -999.250
 13707     559.556   30.316   -999.250   -999.250
 13707.5     537.649   28.787   -999.250   -999.250
 13708     533.067   30.779   -999.250   -999.250
 13708.5     540.343   32.847   -999.250   -999.250
 13709     554.031   36.807   -999.250   -999.250
 13709.5     574.032   40.638   -999.250   -999.250
 13710     594.033   40.816   -999.250   -999.250
 13710.5     611.177   40.994   -999.250   -999.250
 13711     616.517   41.172   -999.250   -999.250
 13711.5     621.857   41.35   -999.250   -999.250
 13712     627.198   41.334   -999.250   -999.250
 13712.5     687.726   38.672   -999.250   -999.250
 13713     722.251   36.009   -999.250   -999.250
 13713.5     756.776   35.52   -999.250   -999.250
 13714     791.3   35.149   -999.250   -999.250
 13714.5     819.115   34.778   -999.250   -999.250
 13715     835.38   30.866   -999.250   -999.250
 13715.5     851.646   24.804   -999.250   -999.250
 13716     867.912   21.507   -999.250   -999.250
 13716.5     869.297   18.6   -999.250   -999.250
 13717     861.904   16.787   -999.250   -999.250
 13717.5     855.459   17.214   -999.250   -999.250
 13718     858.656   17.642   -999.250   -999.250
 13718.5     861.853   18.069   -999.250   -999.250
 13719     865.049   19.803   -999.250   -999.250
 13719.5     868.246   22.363   -999.250   -999.250
 13720     871.443   24.924   -999.250   -999.250
 13720.5     870.94   27.484   -999.250   -999.250
 13721     856.759   28.616   -999.250   -999.250
 13721.5     848.582   29.69   -999.250   -999.250
 13722     846.16   29.281   -999.250   -999.250
 13722.5     843.737   27.365   -999.250   -999.250
 13723     844.578   25.45   -999.250   -999.250
 13723.5     847.988   24.665   -999.250   -999.250
 13724     851.399   25.094   -999.250   -999.250
 13724.5     854.809   26.168   -999.250   -999.250
 13725     858.219   27.241   -999.250   -999.250
 13725.5     861.63   28.247   -999.250   -999.250
 13726     861.005   26.154   -999.250   -999.250
 13726.5     849.138   24.062   -999.250   -999.250
 13727     837.271   22.74   -999.250   -999.250
 13727.5     825.404   22.21   -999.250   -999.250
 13728     813.536   20.046   -999.250   -999.250
 13728.5     810.814   20.003   -999.250   -999.250
 13729     814.367   20.003   -999.250   -999.250
 13729.5     814.567   22.647   -999.250   -999.250
 13730     773.373   24.322   -999.250   -999.250
 13730.5     728.424   24.444   -999.250   -999.250
 13731     682.368   24.566   -999.250   -999.250
 13731.5     636.313   26.613   -999.250   -999.250
 13732     590.258   29.131   -999.250   -999.250
 13732.5     605.965   34.528   -999.250   -999.250
 13733     632.529   40.775   -999.250   -999.250
 13733.5     659.094   47.022   -999.250   -999.250
 13734     696.139   50.459   -999.250   -999.250
 13734.5     741.715   52.096   -999.250   -999.250
 13735     787.291   52.148   -999.250   -999.250
 13735.5     824.266   50.968   -999.250   -999.250
 13736     840.608   35.264   -999.250   -999.250
 13736.5     856.951   32.335   -999.250   -999.250
 13737     873.293   31.364   -999.250   -999.250
 13737.5     886.846   30.392   -999.250   -999.250
 13738     882.611   29.421   -999.250   -999.250
 13738.5     878.023   26.146   -999.250   -999.250
 13739     859.675   22.104   -999.250   -999.250
 13739.5     841.326   20.902   -999.250   -999.250
 13740     822.978   21.501   -999.250   -999.250
 13740.5     814.332   22.9   -999.250   -999.250
 13741     811.788   24.953   -999.250   -999.250
 13741.5     810.84   27.007   -999.250   -999.250
 13742     811.449   28.966   -999.250   -999.250
 13742.5     812.058   29.608   -999.250   -999.250
 13743     809.944   29.015   -999.250   -999.250
 13743.5     805.708   28.422   -999.250   -999.250
 13744     808.098   27.829   -999.250   -999.250
 13744.5     811.446   27.875   -999.250   -999.250
 13745     814.795   29.382   -999.250   -999.250
 13745.5     814.73   30.889   -999.250   -999.250
 13746     814.427   32.211   -999.250   -999.250
 13746.5     814.125   33.5   -999.250   -999.250
 13747     826.575   34.789   -999.250   -999.250
 13747.5     839.169   36.078   -999.250   -999.250
 13748     851.763   37.367   -999.250   -999.250
 13748.5     867.357   36.144   -999.250   -999.250
 13749     884.555   34.701   -999.250   -999.250
 13749.5     901.754   33.257   -999.250   -999.250
 13750     997.177   33.379   -999.250   -999.250
 13750.5     1002.366   33.521   -999.250   -999.250
 13751     998.836   33.096   -999.250   -999.250
 13751.5     995.306   28.141   -999.250   -999.250
 13752     988.253   14.771   -999.250   -999.250
 13752.5     978.755   9.257   -999.250   -999.250
 13753     973.973   9.874   -999.250   -999.250
 13753.5     969.738   10.492   -999.250   -999.250
 13754     971.621   11.11   -999.250   -999.250
 13754.5     984.237   11.728   -999.250   -999.250
 13755     996.853   12.346   -999.250   -999.250
 13755.5     1009.469   12.964   -999.250   -999.250
 13756     1018.705   13.582   -999.250   -999.250
 13756.5     1025.749   13.754   -999.250   -999.250
 13757     1032.792   13.612   -999.250   -999.250
 13757.5     1039.836   15.285   -999.250   -999.250
 13758     1041.982   15.617   -999.250   -999.250
 13758.5     1037.278   15.949   -999.250   -999.250
 13759     1032.574   16.281   -999.250   -999.250
 13759.5     1027.871   15.809   -999.250   -999.250
 13760     1030.451   14.08   -999.250   -999.250
 13760.5     1033.106   12.351   -999.250   -999.250
 13761     1027.816   10.623   -999.250   -999.250
 13761.5     1022.525   10.352   -999.250   -999.250
 13762     1017.235   10.994   -999.250   -999.250
 13762.5     1001.675   11.635   -999.250   -999.250
 13763     985.909   12.895   -999.250   -999.250
 13763.5     979.793   15.495   -999.250   -999.250
 13764     986.549   18.096   -999.250   -999.250
 13764.5     993.305   20.696   -999.250   -999.250
 13765     1013.281   23.296   -999.250   -999.250
 13765.5     1034.507   25.815   -999.250   -999.250
 13766     1055.473   25.029   -999.250   -999.250
 13766.5     1039.446   24.243   -999.250   -999.250
 13767     1023.419   22.164   -999.250   -999.250
 13767.5     1007.391   11.887   -999.250   -999.250
 13768     992.567   11.826   -999.250   -999.250
 13768.5     978.53   11.765   -999.250   -999.250
