###############################################
##         ENVERUS                           ##
##         ESS - Open Hole                   ##
##         PERMIAN / DELAWARE                ##
##         Nov 04 2023  V4.0                 ##
##         42-389-32353-00-00                ##
###############################################
## Copyright 2017-2023  ENVERUS.  All Rights Reserved. 
## Confidential - Property of ENVERUS, use governed by terms and 
## conditions found within the existing Information Services Subscription Agreement 
## (as may be amended, the “ISSA”) between Customer and ENVERUS. 
## 
~VERSION INFORMATION
# MNEM.UNIT                               DATA : DESCRIPTION OF MNEMONIC
#-----.-----     ----------------------------- : -----------------------------
VERS.                                     2.00 : CWLS LOG ASCII STANDARD - VERSION 2.00
WRAP.                                       NO : MULTIPLE LINES PER DEPTH STEP
VEND.                                  ENVERUS : VENDOR
TYPE.                          ESS - OPEN HOLE : ENVERUS ESSENTIAL CURVES – ACCESSIBLE THROUGH ENVERUS PRISM(TM)
DOC.                                  31816014 : ENVERUS HEADER RAW DOCUMENT ID
#___________________________________________________________________________________________________ 
~WELL INFORMATION 
# N6wmpYeOPIEODBGNmaSz+o1WStwpnSM+Mr70h4S2k9wmNhpeTZrfoFyYX6I24xyp8IiB7B51j2C/wpla6NseZQ== 
# MNEM.UNIT                                              DATA : DESCRIPTION OF MNEMONIC 
#-----.-----                    ----------------------------- : ----------------------------- 
CNTY.                                                  REEVES : COUNTY 
STATE.                                                  TEXAS : STATE 
CNTRY.                                                    USA : COUNTRY 
API.                                             42-389-32353 : API (10 Digit) 
API_14.                                    42-389-32353-00-00 : API (14 Digits) 
API_14_std.                                 42-389-32353-0000 : API (14 Digits Standard) 
UWI.                                           42389323530000 : UNIQUE WELL ID 
WELL.                                             DORNFIELD 1 : WELL NAME
STRT.FT                                                 210.0 : START DEPTH
STOP.FT                                               13522.0 : STOP DEPTH
STEP.FT                                                   0.5 : STEP BETWEEN DEPTHS
NULL.                                                 -999.25 : NULL VALUE
LOC.                                                      UNK : LOCATION 
SRVC.                                                     UNK : SERVICE COMPANY
#___________________________________________________________________________________________________ 
~CURVE INFORMATION 
# MNEM.UNIT           : CURVE DESCRIPTION 
#-----.-----          : ----------------------------- 
 DEPT.FT               : MEASURED DEPTH 
 CALI.IN               : CALIPER (CAL - CAL) 
 GR.API                : GAMMA RAY (GR) 
 DT.US/FT              : SONIC DELTA TRANSIT TIME (DT) 
 RESS.OHMM             : SHALLOW INDUCTION RESISTIVITY (ILS - ILS) 
 RESD.OHMM             : DEEP INDUCTION RESISTIVITY (ILD - ILD) 
 DPHI.V/V              : DENSITY POROSITY (DPHI) 
 NPHI.V/V              : NEUTRON POROSITY (NPHI) 
 RHOB.G/CC             : BULK DENSITY (RHOB) 
 #___________________________________________________________________________________________________ 
~A         DEPT           CALI             GR             DT           RESS           RESD           DPHI           NPHI           RHOB
# ...
         8971.5          9.496         34.725         56.233        261.588        184.783       -0.02571        0.06608         2.7077
         8972.0          9.496         34.384         57.155        240.657        260.091       -0.03059        0.06730         2.6990
         8972.5          9.496         34.990         57.516        132.763        195.650       -0.03455        0.07059         2.6971
         8973.0          9.497         38.202         57.753        122.693        110.291       -0.03368        0.07567         2.6987
         8973.5          9.497         41.413         57.798        166.288         91.648       -0.03018        0.08075         2.7023
         8974.0          9.497         39.935         57.723        201.198        260.482       -0.02165        0.08381         2.6970
         8974.5          9.497         35.181         57.462        182.752        415.349       -0.01688        0.07415         2.6846
         8975.0          9.497         30.428         57.201        164.306        347.567       -0.01518        0.06449         2.6731
         8975.5          9.497         31.322         56.940        145.859        274.187       -0.01718        0.05996         2.6781
         8976.0          9.497         32.730         56.563        127.413        200.807       -0.01920        0.06258         2.6769
         8976.5          9.497         34.138         56.288        249.013        332.984       -0.00967        0.06495         2.6676
         8977.0          9.497         32.070         56.059        281.167        499.674       -0.00455        0.06150         2.6670
         8977.5          9.497         30.192         55.537        306.700        575.102       -0.00401        0.05804         2.6676
         8978.0          9.497         31.151         55.750        325.462        584.688       -0.00854        0.05459         2.6596
         8978.5          9.498         38.123         57.665        320.085        516.873       -0.00490        0.05602         2.6541
         8979.0          9.466         45.095         59.899        285.721        444.148        0.01397        0.06755         2.6187
         8979.5          9.487         61.393         62.992        206.952        323.400        0.03285        0.09860         2.5799
         8980.0          9.509         82.944         66.829        128.183        162.143        0.05312        0.12965         2.5410
         8980.5          9.530         94.707         70.850         96.413         97.898        0.06889        0.16069         2.5382
         8981.0          9.551        100.195         73.617        130.905        121.760        0.07463        0.17490         2.5540
         8981.5          9.572         99.686         73.771        107.974        119.346        0.06436        0.18324         2.5699
         8982.0          9.593         93.737         73.137         63.120         78.847        0.04917        0.17440         2.5858
         8982.5          9.614         86.035         71.348         50.519         58.156        0.03814        0.16356         2.5856
         8983.0          9.635         78.334         69.559         64.404         74.230        0.04526        0.15536         2.5781
         8983.5          9.657         72.963         68.803         78.289         73.940        0.05245        0.15080         2.5734
         8984.0          9.677         71.736         68.143         61.102         55.936        0.05055        0.13962         2.5686
         8984.5          9.676         70.509         67.483         70.891         61.245        0.05425        0.13799         2.5663
         8985.0          9.674         69.281         67.396         97.708         92.063        0.04801        0.14036         2.5652
         8985.5          9.673         68.054         68.177        113.926        113.667        0.03476        0.13735         2.5873
         8986.0          9.671         74.229         69.941        130.143        129.191        0.02151        0.13202         2.6165
         8986.5          9.670         87.997         71.705        146.361        140.332        0.02861        0.12668         2.5921
         8987.0          9.668        101.431         73.646        108.342        101.400        0.05476        0.14689         2.5553
         8987.5          9.667        108.588         73.993         65.307         62.469        0.07255        0.16766         2.5463
         8988.0          9.666        105.416         74.147         88.185         85.279        0.07790        0.18842         2.5579
         8988.5          9.664         95.015         73.453        129.859        117.048        0.06814        0.18687         2.5696
         8989.0          9.663         84.615         71.589        171.395        148.816        0.05528        0.17866         2.5812
         8989.5          9.661         74.215         69.725        130.229        117.734        0.04608        0.16675         2.5929
         8990.0          9.660         69.547         67.861        141.682        103.244        0.04070        0.15558         2.6045
         8990.5          9.658         65.088         66.107        263.431        266.026        0.02696        0.14563         2.6162
         8991.0          9.657         54.170         64.377        380.602        428.809        0.01980        0.13758         2.6278
         8991.5          9.656         43.251         62.824        294.979        468.524        0.01498        0.11724         2.6395
         8992.0          9.654         38.300         62.564        217.391        356.356        0.00903        0.09689         2.6511
         8992.5          9.653         46.587         63.182        145.622        244.189       -0.00119        0.08064         2.6628
         8993.0          9.651         60.233         65.417         73.852        132.021       -0.00124        0.10261         2.6512
         8993.5          9.650         73.880         67.539         63.227         53.973        0.01679        0.12458         2.6311
         8994.0          9.648         86.371         69.037         61.232         55.614        0.03004        0.14655         2.6110
         8994.5          9.647         87.308         69.063         59.237         57.364        0.03476        0.15618         2.6654
         8995.0          9.646         75.109         67.190         93.958         74.888        0.02093        0.14160         2.6516
         8995.5          9.644         62.910         65.317        157.645        108.426        0.00697        0.12512         2.6368
         8996.0          9.646         52.325         64.286        225.826        308.907       -0.00717        0.10418         2.6219
         8996.5          9.650         51.043         63.827        496.946        395.194        0.00384        0.08325         2.6070
         8997.0          9.654         65.726         64.135        137.797        262.518        0.01985        0.11253         2.5921
         8997.5          9.658         80.408         67.390         98.315        152.387        0.03827        0.14602         2.5773
         8998.0          9.663         96.312         71.448         79.353        105.652        0.05669        0.17952         2.5624
         8998.5          9.667        107.623         74.881         84.917         87.398        0.06899        0.20124         2.5522
         8999.0          9.671        112.446         76.383         77.932        113.635        0.06862        0.20098         2.5652
         8999.5          9.675        110.645         77.322         78.466         79.459        0.05761        0.19230         2.5781
         9000.0          9.680        106.241         77.014        104.363        100.369        0.04659        0.18361         2.5910
         9000.5          9.684        101.837         76.422        120.793        133.087        0.03582        0.17492         2.6040
