###############################################
##         ENVERUS                           ##
##         ESS - Open Hole                   ##
##         PERMIAN / DELAWARE                ##
##         Nov 04 2023  V4.0                 ##
##         42-389-32398-00-00                ##
###############################################
## Copyright 2017-2023  ENVERUS.  All Rights Reserved. 
## Confidential - Property of ENVERUS, use governed by terms and 
## conditions found within the existing Information Services Subscription Agreement 
## (as may be amended, the “ISSA”) between Customer and ENVERUS. 
## 
~VERSION INFORMATION
# MNEM.UNIT                               DATA : DESCRIPTION OF MNEMONIC
#-----.-----     ----------------------------- : -----------------------------
VERS.                                     2.00 : CWLS LOG ASCII STANDARD - VERSION 2.00
WRAP.                                       NO : MULTIPLE LINES PER DEPTH STEP
VEND.                                  ENVERUS : VENDOR
TYPE.                          ESS - OPEN HOLE : ENVERUS ESSENTIAL CURVES – ACCESSIBLE THROUGH ENVERUS PRISM(TM)
DOC.                                  31812117 : ENVERUS HEADER RAW DOCUMENT ID
#___________________________________________________________________________________________________ 
~WELL INFORMATION 
# uAwnbjLw6pKN5CeTb7gwROLhNOHLu74gercCwdGpUdKCBCGOTLsJuzWIBCYkU6KzQxtC+uHRBloynRtd0Ulspg== 
# MNEM.UNIT                                              DATA : DESCRIPTION OF MNEMONIC 
#-----.-----                    ----------------------------- : ----------------------------- 
CNTY.                                                  REEVES : COUNTY 
STATE.                                                  TEXAS : STATE 
CNTRY.                                                    USA : COUNTRY 
API.                                             42-389-32398 : API (10 Digit) 
API_14.                                    42-389-32398-00-00 : API (14 Digits) 
API_14_std.                                 42-389-32398-0000 : API (14 Digits Standard) 
UWI.                                           42389323980000 : UNIQUE WELL ID 
WELL.                                    BLOCK 58 STATE 32  1 : WELL NAME
STRT.FT                                                8311.0 : START DEPTH
STOP.FT                                               12834.0 : STOP DEPTH
STEP.FT                                                   0.5 : STEP BETWEEN DEPTHS
NULL.                                                 -999.25 : NULL VALUE
COMP.                                       SHELL WESTERN E&P : COMPANY 
DATE.                                             08-FEB-2006 : LOG DATE
#___________________________________________________________________________________________________ 
~CURVE INFORMATION 
# MNEM.UNIT           : CURVE DESCRIPTION 
#-----.-----          : ----------------------------- 
 DEPT.FT               : MEASURED DEPTH 
 CALI__B.IN            : CALIPER (CAL - CAL) 
 GR__B.API             : GAMMA RAY (GR) 
 DT__B.US/FT           : SONIC DELTA TRANSIT TIME (DT) 
 RESS__B.OHMM          : SHALLOW INDUCTION RESISTIVITY (ILS - ILS) 
 RESD__B.OHMM          : DEEP INDUCTION RESISTIVITY (ILD - ILD) 
 #___________________________________________________________________________________________________ 
~A         DEPT        CALI__B          GR__B          DT__B        RESS__B        RESD__B
# ...
        11083.0          8.200        103.878         76.756         15.079         18.260
        11083.5          8.200        115.373         76.578         12.551         15.488
        11084.0          8.201        120.333         76.028         10.785         12.715
        11084.5          8.201        119.468         74.909          9.167          9.942
        11085.0          8.202        116.976         73.805          8.096          8.557
        11085.5          8.202        111.006         73.624          8.995          8.993
        11086.0          8.203        105.035         73.568         10.445         10.772
        11086.5          8.203         99.065         73.552         11.643         12.101
        11087.0          8.204         94.948         73.489         11.684         11.693
        11087.5          8.204         95.077         73.215         10.957         11.284
        11088.0          8.204         96.397         72.757         10.230         10.876
        11088.5          8.205         97.388         72.453         10.296         10.635
        11089.0          8.205         94.367         72.403         10.448         10.808
        11089.5          8.206         91.345         72.544         10.656         10.981
        11090.0          8.206         90.463         73.146         10.868         11.155
        11090.5          8.207         91.929         73.703         10.726         11.068
        11091.0          8.207         95.826         73.935          9.866         10.096
        11091.5          8.208         99.204         73.974          8.865          9.125
        11092.0          8.208        100.358         73.985          8.528          9.127
        11092.5          8.209        100.206         73.962          8.793          9.169
        11093.0          8.209         98.444         73.939          9.058          9.212
        11093.5          8.210         95.306         73.916          9.150          9.224
        11094.0          8.210         93.535         73.928          8.857          9.080
        11094.5          8.211         94.137         73.943          8.565          8.935
        11095.0          8.211         95.715         73.958          8.670          8.790
        11095.5          8.212         97.726         73.972          9.079          9.321
        11096.0          8.212         99.737         73.987          9.488          9.955
        11096.5          8.213         99.702         73.966          9.901         10.589
        11097.0          8.213         98.523         73.689         10.319         10.706
        11097.5          8.214         96.509         73.324         10.380         10.706
        11098.0          8.214         94.495         72.870         10.481         10.706
        11098.5          8.215         92.481         72.416         11.193         12.835
        11099.0          8.215         88.077         71.963         12.783         15.203
        11099.5          8.216         81.278         70.511         14.752         17.571
        11100.0          8.216         76.337         69.146         16.923         19.939
        11100.5          8.217         72.391         68.858         19.175         22.307
        11101.0          8.217         68.445         70.163         21.426         24.320
        11101.5          8.217         67.167         71.197         23.678         24.218
        11102.0          8.218         71.084         71.544         19.003         21.470
        11102.5          8.218         79.922         72.475         14.574         17.841
        11103.0          8.219         93.780         73.265         11.017         14.212
        11103.5          8.219        107.638         73.191          9.057         10.583
        11104.0          8.220        111.551         72.788          8.903          9.936
        11104.5          8.220        107.781         72.446          9.443         11.032
        11105.0          8.221        102.242         72.434         11.779         12.128
        11105.5          8.221         99.108         72.682         11.540         11.711
        11106.0          8.222         99.107         73.211         10.488         10.971
        11106.5          8.222         98.758         73.925          9.554         10.231
        11107.0          8.222         97.416         74.253          9.197          9.492
        11107.5          8.221         97.571         74.361          8.962          9.192
        11108.0          8.221         99.871         74.407          8.936          9.117
        11108.5          8.221        103.357         74.453          8.910          9.042
        11109.0          8.221        106.843         74.997          8.884          8.966
        11109.5          8.221        108.861         75.674          8.858          8.891
        11110.0          8.221        110.718         76.189          8.871          8.832
        11110.5          8.221        111.227         76.215          8.958          8.780
        11111.0          8.221        111.192         75.974          8.797          8.728
        11111.5          8.221        110.544         75.638          8.594          8.676
        11112.0          8.221        109.897         75.274          8.569          8.624
        11112.5          8.221        107.138         75.215          8.618          8.781
        11113.0          8.221        103.512         75.417          8.809          8.996
        11113.5          8.221        100.914         75.680          9.000          9.212
        11114.0          8.221        103.454         75.658          8.761          9.427
        11114.5          8.221        110.238         75.213          8.290          8.753
        11115.0          8.221        115.675         74.760          7.818          7.922
        11115.5          8.220        115.171         74.033          7.425          7.091
        11116.0          8.220        108.850         73.701          8.469          8.188
        11116.5          8.220        103.116         73.600          9.405          9.374
        11117.0          8.220        103.801         73.730          8.977          9.941
        11117.5          8.220        107.093         74.362          8.549          9.569
        11118.0          8.220        112.987         75.242          8.168          9.197
        11118.5          8.220        114.553         76.123          9.907          9.172
        11119.0          8.220        113.867         77.668         11.646         11.910
        11119.5          8.220        114.152         79.399         13.364         14.649
        11120.0          8.220        120.979         81.131         11.380         13.188
        11120.5          8.220        135.936         82.862         10.279         11.557
        11121.0          8.220        148.889         83.948         10.242         10.815
        11121.5          8.220        153.263         84.232          9.791         10.055
        11122.0          8.220        152.460         83.567          8.748          8.501
        11122.5          8.220        147.147         82.612          6.478          6.947
        11123.0          8.219        138.405         81.136          5.545          5.811
        11123.5          8.219        128.224         78.195          5.386          5.641
        11124.0          8.219        117.634         75.911          6.060          7.100
        11124.5          8.219        107.045         75.813          7.651          8.558
        11125.0          8.219        105.715         75.898          8.538          9.254
        11125.5          8.219        111.242         75.983          7.792          8.240
        11126.0          8.219        116.213         76.066          7.342          7.761
        11126.5          8.219        115.736         76.016          6.968          7.324
