#--------------------------------------------------#
#-------------------ENVERUS, INC.------------------#
#------------------WWW.ENVERUS.COM-----------------#
#------------------COPYRIGHT 2020------------------#
#--------------------------------------------------#
#THIS FILE MAY BE USED ONLY IN ACCORDANCE WITH A CURRENT SUBSCRIPTION AGREEMENT BETWEEN
#THE USER AND ENVERUS, INC. NO PART OF THIS FILE MAY BE REPRODUCED, USED, COPIED,
#MODIFIED, PROPAGATED, OR DISTRIBUTED EXCEPT IN ACCORDANCE WITH THE SUBSCRIPTION
#AGREEMENT. UNAUTHORIZED USE OR DISTRIBUTION OF ALL OR ANY PART OF THIS FILE MAY VIOLATE
#COPYRIGHT, TRADEMARK, AND/OR OTHER LAWS AND IS SUBJECT TO CIVIL AS WELL AS CRIMINAL
#SANCTIONS.
#--------------------------------------------------#
#THIS FILE IS PROVIDED "AS-IS" AND ALL WARRANTIES ARE EXPRESSLY DISCLAIMED, WHETHER
#EXPRESS, ORAL, IMPLIED, STATUTORY OR OTHERWISE, INCLUDING ANY IMPLIED WARRANTY OF FITNESS
#FOR A PARTICULAR PURPOSE, MERCHANTABILITY, TITLE OR NON-INFRINGEMENT, AND ANY WARRANTIES
#ARISING BY VIRTUE OF CUSTOM OF TRADE OR COURSE OF DEALING.  FURTHER, ENVERUS, INC.
#AND ITS LICENSORS DO NOT REPRESENT OR WARRANT THAT THIS FILE WILL MEET USER'S
#REQUIREMENTS OR ARE SUITABLE FOR USER'S NEEDS OR THAT THE DATA OR RESULTS PROVIDED IN
#CONJUNCTION THEREWITH ARE CORRECT, ACCURATE, TIMELY OR RELIABLE. THESE DISCLAIMERS SHALL
#APPLY REGARDLESS OF ANY FAILURE OF ESSENTIAL PURPOSE OF ANY LIMITED REMEDY.  SOME
#JURISDICTIONS DO NOT ALLOW THE EXCLUSION OF CERTAIN WARRANTIES SO SOME OF THE ABOVE
#EXCLUSIONS MAY NOT APPLY. IN NO EVENT SHALL ENVERUS, INC. OR ANY OF ITS AFFILIATES
#BE LIABLE UNDER ANY LEGAL THEORY, WHETHER IN TORT (INCLUDING WITHOUT LIMITATION
#NEGLIGENCE), CONTRACT, STRICT LIABILITY, STATUTORY OR OTHERWISE, FOR ANY SPECIAL,
#INCIDENTAL, CONSEQUENTIAL, EXEMPLARY, PUNITIVE OR INDIRECT DAMAGE OF ANY KIND, INCLUDING
#WITHOUT LIMITATION LOSS OF REVENUE, PROFITS, GOODWILL, USE, AND/OR DATA OR THE COST OF
#PROCUREMENT OF SUBSTITUTE GOODS OR SERVICES, EVEN IF APPRISED OF THE POSSIBILITY OF SUCH
#DAMAGES IN ADVANCE.
#--------------------------------------------------#

~VERSION INFORMATION
VERS. 2.0 : CWLS LOG ASCII STANDARD - VERSION 2.0
WRAP.  NO : ONE LINE PER DEPTH STEP
~WELL INFORMATION
#MNEMONIC     .UNIT              VALUE :DESCRIPTION
STRT       .FT                0 :START DEPTH
STOP       .FT                15770 :STOP DEPTH
STEP       .FT                   0.500 :STEP
NULL       .                  -999.250 :NULL
UWI        .              42389309020000 :UNIQUE WELL ID
API        .              42389309020000 :API NUMBER
COMP       .         WALSH & WATTS  INC. :COMPANY
WELL       .        SABRE  1WS :WELL
DATE       .                28-JAN-1987 :LOG DATE
~CURVE INFORMATION
#MNEMONIC     .UNIT      API CODE :CURVE DESCRIPTION
DEPTH       .FT                      :MEASURED DEPTH
CAL.INCH        UNKNOWN   :CAL
DT.US/FT        UNKNOWN   :DT
GR.API        UNKNOWN   :GR
~A    DEPTH    CAL    DT    GR
# ...
 13543.5     8.612   51.239   35.701
 13544     8.609   51.534   37.31
 13544.5     8.606   51.829   39.894
 13545     8.603   52.229   42.768
 13545.5     8.601   52.679   42.767
 13546     8.598   53.13   42.766
 13546.5     8.595   52.618   40.205
 13547     8.592   52.239   37.487
 13547.5     8.59   52.112   34.768
 13548     8.587   52.375   34.167
 13548.5     8.59   53.415   35.483
 13549     8.595   54.323   36.799
 13549.5     8.601   54.438   38.116
 13550     8.606   54.553   39.193
 13550.5     8.611   54.668   39.483
 13551     8.616   55.99   39.773
 13551.5     8.621   58.192   42.061
 13552     8.626   60.548   46.667
 13552.5     8.631   62.288   51.274
 13553     8.636   62.468   55.881
 13553.5     8.641   62.317   57.533
 13554     8.646   58.317   56.443
 13554.5     8.651   54.732   50.308
 13555     8.657   53.156   42.257
 13555.5     8.662   51.58   41.188
 13556     8.667   50.526   40.118
 13556.5     8.672   51.36   39.048
 13557     8.677   52.194   39.247
 13557.5     8.682   56.424   40.682
 13558     8.687   60.805   45.869
 13558.5     8.692   60.573   51.056
 13559     8.691   57.644   51.439
 13559.5     8.685   54.553   45.271
 13560     8.678   53.737   39.104
 13560.5     8.672   54.936   36.161
 13561     8.666   57.223   41.235
 13561.5     8.66   59.509   42.771
 13562     8.653   59.968   45.255
 13562.5     8.647   59.133   50.86
 13563     8.641   58.298   51.721
 13563.5     8.635   56.6   48.328
 13564     8.628   54.757   42.362
 13564.5     8.622   53.404   36.396
 13565     8.616   53.78   30.611
 13565.5     8.61   54.155   30.346
 13566     8.604   54.791   34.385
 13566.5     8.597   60.403   42.895
 13567     8.591   65.772   51.405
 13567.5     8.585   67.999   59.915
 13568     8.578   70.226   68.426
 13568.5     8.571   72.448   68.729
 13569     8.564   71.799   65.485
 13569.5     8.557   69.959   62.241
 13570     8.55   66.798   58.997
 13570.5     8.543   63.637   55.753
 13571     8.536   60.476   50.785
 13571.5     8.529   57.247   45.139
 13572     8.523   54.004   39.494
 13572.5     8.516   52.73   33.848
 13573     8.509   52.825   32.153
 13573.5     8.502   55.007   33.183
 13574     8.495   56.506   38.645
 13574.5     8.488   57.685   44.106
 13575     8.481   58.864   49.567
 13575.5     8.474   59.285   55.028
 13576     8.467   59.437   60.489
 13576.5     8.46   59.589   65.951
 13577     8.453   59.742   68.372
 13577.5     8.447   59.894   66.737
 13578     8.44   60.046   63.877
 13578.5     8.433   60.198   61.017
 13579     8.426   60.351   58.213
 13579.5     8.419   60.503   55.888
 13580     8.412   60.373   53.563
 13580.5     8.405   60.068   51.238
 13581     8.398   59.763   48.913
 13581.5     8.391   59.458   48.984
 13582     8.384   59.153   49.804
 13582.5     8.377   58.848   52.23
 13583     8.371   58.881   58.346
 13583.5     8.406   61.325   64.461
 13584     8.48   66.921   70.577
 13584.5     8.554   73.598   76.072
 13585     8.62   76.259   74.244
 13585.5     8.608   72.713   68.161
 13586     8.596   67.383   58.327
 13586.5     8.585   62.053   48.494
 13587     8.573   54.212   38.66
 13587.5     8.561   53.508   34.639
 13588     8.549   53.053   32.961
 13588.5     8.546   53.117   30.956
 13589     8.544   53.18   30.891
 13589.5     8.541   54.226   35.891
 13590     8.539   59.374   40.891
 13590.5     8.536   64.636   49.936
 13591     8.534   70.243   59.527
 13591.5     8.531   75.851   69.118
 13592     8.529   77.701   73.131
 13592.5     8.526   78.957   73.393
 13593     8.524   80.214   73.654
 13593.5     8.521   81.47   75.511
 13594     8.519   81.81   78.822
 13594.5     8.516   81.99   81.829
 13595     8.514   78.951   81.567
 13595.5     8.511   69.996   77.773
 13596     8.509   67.288   72.348
 13596.5     8.506   65.932   70.177
 13597     8.504   65.641   70.907
 13597.5     8.502   66.705   75.568
 13598     8.499   66.528   80.229
 13598.5     8.497   65.862   82.726
 13599     8.494   65.196   85.222
 13599.5     8.492   64.53   85.724
 13600     8.489   63.864   80.25
 13600.5     8.487   63.199   74.777
 13601     8.484   61.628   68.912
 13601.5     8.482   59.495   62.91
 13602     8.479   57.396   56.909
 13602.5     8.477   57.425   51.977
 13603     8.474   57.454   52.583
 13603.5     8.472   57.483   56.57
 13604     8.469   58.168   60.557
 13604.5     8.467   59.34   61.418
 13605     8.464   60.513   60.402
 13605.5     8.462   59.063   59.385
 13606     8.459   57.486   56.673
 13606.5     8.457   55.909   53.645
 13607     8.454   54.518   45.914
 13607.5     8.452   54.479   38.07
 13608     8.449   54.439   38.236
 13608.5     8.447   55.073   42.923
 13609     8.444   56.116   49.316
 13609.5     8.442   56.565   55.71
 13610     8.439   55.87   53.123
 13610.5     8.437   55.175   48.693
 13611     8.434   54.48   44.263
 13611.5     8.432   53.786   39.834
 13612     8.429   53.091   37.079
 13612.5     8.427   52.396   36.332
 13613     8.424   52.571   36.663
 13613.5     8.422   53.232   39.572
 13614     8.419   53.633   38.737
 13614.5     8.417   53.633   37.82
 13615     8.414   53.633   37.819
 13615.5     8.412   54.319   41.771
 13616     8.409   54.444   45.196
 13616.5     8.407   54.147   45.851
 13617     8.404   53.849   42.077
 13617.5     8.405   53.552   38.012
 13618     8.408   53.461   36.353
 13618.5     8.411   53.914   41.05
 13619     8.413   54.367   46.9
 13619.5     8.416   54.821   48.989
 13620     8.419   54.46   45.746
 13620.5     8.422   53.866   42.503
 13621     8.424   53.272   39.261
 13621.5     8.427   52.794   39.559
 13622     8.43   53.26   41.539
 13622.5     8.433   53.824   49.834
 13623     8.435   54.782   59.308
 13623.5     8.438   55.741   67.101
 13624     8.451   55.667   65.983
 13624.5     8.492   55.43   64.864
 13625     8.532   53.946   47.652
 13625.5     8.573   52.462   30.798
 13626     8.614   51.441   26.281
 13626.5     8.708   50.426   21.765
 13627     8.815   49.41   19.784
 13627.5     8.78   49.558   20.048
 13628     8.703   51.598   32.907
 13628.5     8.627   56.428   52.206
 13629     8.55   63.226   71.506
 13629.5     8.546   77.53   90.805
 13630     8.544   81.713   110.105
 13630.5     8.541   81.056   120.473
 13631     8.538   77.848   119.049
 13631.5     8.535   72.545   94.923
 13632     8.533   64.436   71.741
 13632.5     8.53   54.495   51.942
 13633     8.527   52.588   44.446
 13633.5     8.525   50.681   37.759
 13634     8.522   49.583   31.749
 13634.5     8.519   49.222   31.749
 13635     8.516   49.059   31.748
 13635.5     8.514   52.172   38.82
 13636     8.517   54.9   46.291
 13636.5     8.523   56.613   52.579
 13637     8.529   57.193   55.002
 13637.5     8.535   57.011   48.381
 13638     8.542   53.42   42.47
 13638.5     8.548   52.126   41.164
 13639     8.554   51.604   39.858
 13639.5     8.56   51.081   37.499
 13640     8.566   50.559   33.195
 13640.5     8.573   50.094   28.891
 13641     8.579   50.446   26.666
 13641.5     8.585   50.797   26.229
 13642     8.591   52.744   30.43
 13642.5     8.598   56.112   36.713
 13643     8.604   59.481   42.996
 13643.5     8.61   62.849   49.279
 13644     8.616   63.302   45.187
 13644.5     8.623   61.451   38.878
 13645     8.629   59.6   36.117
 13645.5     8.635   56.154   33.355
 13646     8.641   53.213   30.251
 13646.5     8.648   51.759   31.788
 13647     8.654   52.124   35.133
 13647.5     8.666   54.161   44.088
 13648     8.69   56.199   53.043
 13648.5     8.715   56.206   60.071
 13649     8.739   53.812   61.059
 13649.5     8.763   51.418   51.406
 13650     8.788   50.468   41.753
 13650.5     8.812   50.468   32.099
 13651     8.837   53.757   23.711
 13651.5     8.861   61.454   20.081
 13652     8.873   63.597   19.883
 13652.5     8.865   64.616   21.506
 13653     8.858   62.655   23.129
 13653.5     8.85   56.301   24.751
 13654     8.843   50.823   23.1
 13654.5     8.878   50.532   19.859
 13655     8.942   50.24   16.618
