#--------------------------------------------------#
#-------------------ENVERUS, INC.------------------#
#------------------WWW.ENVERUS.COM-----------------#
#------------------COPYRIGHT 2020------------------#
#--------------------------------------------------#
#THIS FILE MAY BE USED ONLY IN ACCORDANCE WITH A CURRENT SUBSCRIPTION AGREEMENT BETWEEN
#THE USER AND ENVERUS, INC. NO PART OF THIS FILE MAY BE REPRODUCED, USED, COPIED,
#MODIFIED, PROPAGATED, OR DISTRIBUTED EXCEPT IN ACCORDANCE WITH THE SUBSCRIPTION
#AGREEMENT. UNAUTHORIZED USE OR DISTRIBUTION OF ALL OR ANY PART OF THIS FILE MAY VIOLATE
#COPYRIGHT, TRADEMARK, AND/OR OTHER LAWS AND IS SUBJECT TO CIVIL AS WELL AS CRIMINAL
#SANCTIONS.
#--------------------------------------------------#
#THIS FILE IS PROVIDED "AS-IS" AND ALL WARRANTIES ARE EXPRESSLY DISCLAIMED, WHETHER
#EXPRESS, ORAL, IMPLIED, STATUTORY OR OTHERWISE, INCLUDING ANY IMPLIED WARRANTY OF FITNESS
#FOR A PARTICULAR PURPOSE, MERCHANTABILITY, TITLE OR NON-INFRINGEMENT, AND ANY WARRANTIES
#ARISING BY VIRTUE OF CUSTOM OF TRADE OR COURSE OF DEALING.  FURTHER, ENVERUS, INC.
#AND ITS LICENSORS DO NOT REPRESENT OR WARRANT THAT THIS FILE WILL MEET USER'S
#REQUIREMENTS OR ARE SUITABLE FOR USER'S NEEDS OR THAT THE DATA OR RESULTS PROVIDED IN
#CONJUNCTION THEREWITH ARE CORRECT, ACCURATE, TIMELY OR RELIABLE. THESE DISCLAIMERS SHALL
#APPLY REGARDLESS OF ANY FAILURE OF ESSENTIAL PURPOSE OF ANY LIMITED REMEDY.  SOME
#JURISDICTIONS DO NOT ALLOW THE EXCLUSION OF CERTAIN WARRANTIES SO SOME OF THE ABOVE
#EXCLUSIONS MAY NOT APPLY. IN NO EVENT SHALL ENVERUS, INC. OR ANY OF ITS AFFILIATES
#BE LIABLE UNDER ANY LEGAL THEORY, WHETHER IN TORT (INCLUDING WITHOUT LIMITATION
#NEGLIGENCE), CONTRACT, STRICT LIABILITY, STATUTORY OR OTHERWISE, FOR ANY SPECIAL,
#INCIDENTAL, CONSEQUENTIAL, EXEMPLARY, PUNITIVE OR INDIRECT DAMAGE OF ANY KIND, INCLUDING
#WITHOUT LIMITATION LOSS OF REVENUE, PROFITS, GOODWILL, USE, AND/OR DATA OR THE COST OF
#PROCUREMENT OF SUBSTITUTE GOODS OR SERVICES, EVEN IF APPRISED OF THE POSSIBILITY OF SUCH
#DAMAGES IN ADVANCE.
#--------------------------------------------------#

# EXPORTED FROM DI TRANSFORM
# DI TRANSFORM - A PRODUCT OF DRILLINGINFO, INC. - WWW.DRILLINGINFO.COM
#
~VERSION INFORMATION
 VERS.        2.0 : LAS ASCII STANDARD - VERSION 2.0
 WRAP.         NO : ONE LINE PER DEPTH STEP

~WELL INFORMATION
#MNEM.UNIT       DATA TYPE       INFORMATION
#---------       ---------       -----------
 STRT.FT                3800 : START DEPTH
 STOP.FT               10654 : STOP DEPTH
 STEP.FT                 0.5 : STEP LENGTH
 NULL.               -999.25 : NULL VALUE
 UWI.         42389340250000 : UNIQUE WELL ID
 API.         42389340250000 : WELL IDENTIFIER
 COMP.                       : COMPANY
 WELL.  42389340250000_API14 : WELL NAME
 FLD.                        : FIELD NAME
 LOC.                        : WELL LOCATION
 CNTY.                       : COUNTY
 STAT.                       : STATE OR PROVINCE
 CTRY.                       : COUNTRY
 SRVC.                       : SERVICE COMPANY
 DATE.                       : DATE

~CURVE INFORMATION
#MNEM.UNIT       API CODE       CURVE DESCRIPTION
#---------       --------       -----------------
 DEPT.FT        : <MEASURED DEPTH>
 CAL.IN         : CALIPER
 DT.US/FT       : SONIC
 GR.GAPI        : GAMMA RAY

~PARAMETER INFORMATION
#MNEM.UNIT       VALUE       DESCRIPTION
#---------       -----       -----------
 EKB.FT      3120.5 : ELEVATION ABOVE MSL

~A      DEPT         CAL          DT          GR
# ...
        9212      9.4731     64.5856     89.4249
      9212.5      9.4731     65.7005     93.4695
        9213      9.4912     66.7828     97.5142
      9213.5       9.493      68.258    101.5589
        9214       9.493     69.3461    104.8823
      9214.5       9.493     70.4763    107.3148
        9215       9.493     70.9836    109.7473
      9215.5       9.493     71.3942    112.1798
        9216       9.493     71.0911    108.9866
      9216.5      9.5328     70.5838     100.882
        9217       9.493     70.0903    105.1521
      9217.5       9.493     69.6695    109.4222
        9218       9.493     68.9362    103.1512
      9218.5      9.4731      67.984     93.1039
        9219      9.4731     67.7637     83.7351
      9219.5      9.4731     67.4824     75.5538
        9220      9.4731     67.5827     67.3724
      9220.5      9.4731      67.683     59.1911
        9221      9.4731     67.7834     54.4681
      9221.5      9.4731     68.2505     62.6399
        9222      9.4731     68.5572     70.8117
      9222.5      9.4731     69.0645     75.6447
        9223       9.493     69.4885     70.2263
      9223.5       9.493     69.6891      64.808
        9224       9.493     68.9082     59.3896
      9224.5       9.493     67.7829     53.9713
        9225       9.493     67.1691     48.5529
      9225.5       9.493     66.5677     48.4047
        9226       9.493     66.3791     55.8466
      9226.5      9.4837     66.3791     65.3914
        9227      9.4731     66.5088     74.9363
      9227.5       9.493     67.0161     84.4812
        9228       9.513      67.765     94.0262
      9228.5       9.513     68.3316     103.571
        9229       9.528     68.7386    101.8813
      9229.5      9.5529     69.6472     88.4484
        9230      9.5529     70.2548     83.4248
      9230.5      9.5529     70.2909     78.4012
        9231      9.5529     70.2909     73.3775
      9231.5      9.5529     70.1906     68.3539
        9232      9.5529     70.1906     63.3303
      9232.5      9.5529      69.603     58.3067
        9233      9.5529     69.0886     54.9382
      9233.5      9.5529     68.6861      55.675
        9234      9.5529     68.3852     56.4118
      9234.5      9.5329     68.0843     56.2656
        9235      9.5329     68.0843     62.2255
      9235.5      9.5329     68.0843     75.2341
        9236      9.5329     68.0843     88.2427
      9236.5      9.5329     68.1846    101.2512
        9237      9.5329     68.2849     86.3767
      9237.5      9.5329     68.7369     63.3594
        9238      9.5329     69.3445     53.4427
      9238.5      9.5329     70.0145     52.2944
        9239      9.5329       70.66     51.1462
      9239.5      9.5329     71.1673     49.9979
        9240      9.5333     71.6746     48.8496
      9240.5      9.5729     72.1819     48.1448
        9241      9.5729     72.4975     54.0475
      9241.5      9.5729     72.8956     64.3613
        9242      9.5729     73.2999     59.4701
      9242.5      9.5928      73.509     58.2944
        9243      9.5928     73.8014     71.2442
      9243.5      9.5928     73.8014     75.7477
        9244      9.5928     73.9276     72.6618
      9244.5      9.5928      74.002     69.5758
        9245       9.541      74.002     71.2701
      9245.5      9.5329     73.9017     74.4852
        9246      9.5329      73.652     71.6549
      9246.5      9.5329      73.245     73.0339
        9247      9.5329     72.7377     75.9956
      9247.5      9.5329     72.2304     79.9475
        9248      9.5518     71.7231     83.8994
      9248.5      9.5529     71.3161     78.7532
        9249      9.5329     70.8088     72.2396
      9249.5      9.5329     70.5021      59.498
        9250      9.5329     70.0951     50.5796
      9250.5      9.5329     69.8906     54.9334
        9251      9.5329     69.8829     56.1057
      9251.5      9.5329     69.5888     57.9229
        9252      9.5329     69.5704     73.3259
      9252.5      9.5329     69.4643     83.9751
        9253       9.513     69.1576     92.4524
      9253.5       9.513      68.987    100.9298
        9254       9.513     68.5442     97.2839
      9254.5       9.513     68.3852     84.4318
        9255       9.513     67.9308     71.5797
      9255.5       9.513     67.4235     58.7276
        9256       9.513     66.0847     45.8754
      9256.5       9.513     64.6929     39.4829
        9257       9.493     62.7923     47.2889
      9257.5      9.4731     61.8017     55.0948
        9258      9.4731     60.4986     55.7225
      9258.5      9.4731     59.4716     47.9861
        9259      9.4731     59.6582     44.5374
      9259.5      9.4731     60.0652     45.6478
        9260      9.4731      60.827     46.7583
      9260.5      9.4731     62.9018     47.8688
        9261      9.4819     64.3623     51.8976
      9261.5       9.493      65.934     57.0169
        9262       9.513     67.3158     62.1362
      9262.5       9.513     68.4042     67.2556
        9263       9.513     69.2331     63.2556
      9263.5       9.513     69.5888     60.8819
        9264       9.513     69.8897     71.5844
      9264.5       9.513     69.6261      82.287
        9265       9.513     68.9498     92.9895
      9265.5       9.513     68.4109     103.692
        9266      9.5329      67.703     93.1174
      9266.5      9.5329     67.3963     78.5488
        9267       9.493     66.6968     63.9803
      9267.5       9.493     66.2795     49.4118
        9268       9.493     66.2788     43.9454
      9268.5       9.493     66.3791      47.873
        9269       9.493      66.394     51.8005
      9269.5       9.493     66.8216     55.7281
        9270       9.493     67.5089     58.4394
      9270.5       9.493     68.1487     55.0837
        9271       9.493     68.9247     60.2597
      9271.5       9.493      69.432     73.3211
        9272       9.493     69.9393     86.3825
      9272.5       9.493     70.3463      99.444
        9273       9.493     70.6921    105.6327
      9273.5       9.493     70.8927    101.8649
        9274      9.4731     71.6401     98.0972
      9274.5      9.4731     72.4758     95.5801
        9275      9.4731      73.284     96.7096
      9275.5      9.4731     73.9919     97.7269
        9276      9.4731     74.3029     98.7442
      9276.5      9.4731     73.7955     99.7615
        9277      9.4731     72.1893    100.7788
      9277.5      9.4731     71.5817    101.7961
        9278      9.4731     70.7735    102.8134
      9278.5      9.4731     70.2415    103.8306
        9279      9.4731     69.2663    104.8479
      9279.5      9.4731     68.2486    105.8652
        9280      9.4731     67.7413    106.8825
      9280.5      9.4731     67.4824    107.8998
        9281      9.4731      67.683    108.9171
      9281.5      9.4731      67.683    109.9343
        9282      9.4731     67.9489    110.9516
      9282.5      9.4731     68.0132    111.9689
        9283      9.4731     67.7065    114.7565
      9283.5      9.4731     66.8157    109.3971
        9284      9.4731     65.6123     85.0803
      9284.5      9.4531      64.981     78.1477
        9285      9.4531      64.674      71.215
      9285.5      9.4531     64.7743     64.2824
        9286      9.4531      64.763      53.434
      9286.5      9.4531     64.7743     64.6525
        9287      9.4531     65.2987     78.7745
      9287.5      9.4531     65.7773     92.8965
        9288      9.4531     66.1127    102.4877
      9288.5      9.4531     66.3791    103.8441
        9289      9.4531     66.3791    105.2005
      9289.5      9.4731     66.0748    106.5569
        9290      9.4731     64.8595    102.0116
      9290.5      9.4731     63.7815     88.6329
        9291      9.4731     62.9999     75.2542
      9291.5      9.4731     62.3923     61.8755
        9292      9.4731     61.8656     53.2291
      9292.5      9.4731     61.8656     47.2008
        9293      9.4531     61.8656     41.1724
      9293.5      9.4331     61.8656     38.9638
