#--------------------------------------------------#
#-------------------ENVERUS, INC.------------------#
#------------------WWW.ENVERUS.COM-----------------#
#------------------COPYRIGHT 2020------------------#
#--------------------------------------------------#
#THIS FILE MAY BE USED ONLY IN ACCORDANCE WITH A CURRENT SUBSCRIPTION AGREEMENT BETWEEN
#THE USER AND ENVERUS, INC. NO PART OF THIS FILE MAY BE REPRODUCED, USED, COPIED,
#MODIFIED, PROPAGATED, OR DISTRIBUTED EXCEPT IN ACCORDANCE WITH THE SUBSCRIPTION
#AGREEMENT. UNAUTHORIZED USE OR DISTRIBUTION OF ALL OR ANY PART OF THIS FILE MAY VIOLATE
#COPYRIGHT, TRADEMARK, AND/OR OTHER LAWS AND IS SUBJECT TO CIVIL AS WELL AS CRIMINAL
#SANCTIONS.
#--------------------------------------------------#
#THIS FILE IS PROVIDED "AS-IS" AND ALL WARRANTIES ARE EXPRESSLY DISCLAIMED, WHETHER
#EXPRESS, ORAL, IMPLIED, STATUTORY OR OTHERWISE, INCLUDING ANY IMPLIED WARRANTY OF FITNESS
#FOR A PARTICULAR PURPOSE, MERCHANTABILITY, TITLE OR NON-INFRINGEMENT, AND ANY WARRANTIES
#ARISING BY VIRTUE OF CUSTOM OF TRADE OR COURSE OF DEALING.  FURTHER, ENVERUS, INC.
#AND ITS LICENSORS DO NOT REPRESENT OR WARRANT THAT THIS FILE WILL MEET USER'S
#REQUIREMENTS OR ARE SUITABLE FOR USER'S NEEDS OR THAT THE DATA OR RESULTS PROVIDED IN
#CONJUNCTION THEREWITH ARE CORRECT, ACCURATE, TIMELY OR RELIABLE. THESE DISCLAIMERS SHALL
#APPLY REGARDLESS OF ANY FAILURE OF ESSENTIAL PURPOSE OF ANY LIMITED REMEDY.  SOME
#JURISDICTIONS DO NOT ALLOW THE EXCLUSION OF CERTAIN WARRANTIES SO SOME OF THE ABOVE
#EXCLUSIONS MAY NOT APPLY. IN NO EVENT SHALL ENVERUS, INC. OR ANY OF ITS AFFILIATES
#BE LIABLE UNDER ANY LEGAL THEORY, WHETHER IN TORT (INCLUDING WITHOUT LIMITATION
#NEGLIGENCE), CONTRACT, STRICT LIABILITY, STATUTORY OR OTHERWISE, FOR ANY SPECIAL,
#INCIDENTAL, CONSEQUENTIAL, EXEMPLARY, PUNITIVE OR INDIRECT DAMAGE OF ANY KIND, INCLUDING
#WITHOUT LIMITATION LOSS OF REVENUE, PROFITS, GOODWILL, USE, AND/OR DATA OR THE COST OF
#PROCUREMENT OF SUBSTITUTE GOODS OR SERVICES, EVEN IF APPRISED OF THE POSSIBILITY OF SUCH
#DAMAGES IN ADVANCE.
#--------------------------------------------------#

~VERSION INFORMATION
VERS. 2.0 : CWLS LOG ASCII STANDARD - VERSION 2.0
WRAP.  NO : ONE LINE PER DEPTH STEP
~WELL INFORMATION
#MNEMONIC     .UNIT              VALUE :DESCRIPTION
STRT       .FT                51 :START DEPTH
STOP       .FT                4494 :STOP DEPTH
STEP       .FT                   0.500 :STEP
NULL       .                  -999.990 :NULL
UWI        .              42389102200000 :UNIQUE WELL ID
API        .              42389102200000 :API NUMBER
COMP       .         GRUY PETROLEUM MANAGEMENT CO. :COMPANY
WELL       .        REEVES -AQ- FEE  2 :WELL
DATE       .                30-NOV-1992 :LOG DATE
~CURVE INFORMATION
#MNEMONIC     .UNIT      API CODE :CURVE DESCRIPTION
DEPTH       .FT                      :MEASURED DEPTH
CAL.INCH        UNKNOWN   :CAL
GR.API        UNKNOWN   :GR
DT.US/FT        UNKNOWN   :DT
~A    DEPTH    CAL    GR    DT
# ...
 2083     8.976   9.689   49.011
 2083.5     8.977   9.691   48.945
 2084     8.978   9.693   48.879
 2084.5     8.978   9.356   48.814
 2085     8.979   9.011   48.831
 2085.5     8.98   8.666   48.914
 2086     8.981   8.321   48.998
 2086.5     8.981   7.976   49.082
 2087     8.982   7.632   49.166
 2087.5     8.983   7.287   49.249
 2088     8.984   6.942   49.237
 2088.5     8.985   6.597   49.055
 2089     8.985   7.334   48.873
 2089.5     8.986   8.091   48.89
 2090     8.987   8.848   48.929
 2090.5     8.988   8.623   48.969
 2091     8.988   8.265   49.018
 2091.5     8.989   7.907   49.108
 2092     8.99   7.549   49.198
 2092.5     8.991   7.191   49.287
 2093     8.992   6.833   49.377
 2093.5     8.992   6.475   49.424
 2094     8.993   6.457   49.333
 2094.5     8.995   6.505   49.242
 2095     8.998   6.553   49.151
 2095.5     9.001   6.6   49.059
 2096     9.005   6.682   49.006
 2096.5     9.008   6.791   49.04
 2097     9.011   6.901   49.073
 2097.5     9.014   7.01   49.107
 2098     9.017   7.12   49.141
 2098.5     9.02   7.249   49.142
 2099     9.023   7.568   49.141
 2099.5     9.026   7.887   49.14
 2100     9.029   8.206   49.14
 2100.5     9.033   8.525   49.139
 2101     9.036   8.844   49.139
 2101.5     9.039   9.163   49.114
 2102     9.042   9.481   49.084
 2102.5     9.045   9.483   49.053
 2103     9.048   9.355   49.022
 2103.5     9.051   9.227   48.991
 2104     9.054   9.099   48.961
 2104.5     9.057   8.971   48.93
 2105     9.06   8.843   48.911
 2105.5     9.064   8.715   48.91
 2106     9.067   8.587   48.91
 2106.5     9.07   8.459   48.909
 2107     9.071   8.554   48.908
 2107.5     9.067   8.733   48.908
 2108     9.063   8.912   48.907
 2108.5     9.059   9.091   48.907
 2109     9.055   9.27   49.08
 2109.5     9.051   9.449   49.26
 2110     9.047   9.587   49.44
 2110.5     9.043   9.399   49.62
 2111     9.039   9.211   49.8
 2111.5     9.035   9.023   49.979
 2112     9.031   8.835   49.949
 2112.5     9.027   8.647   49.856
 2113     9.023   8.459   49.762
 2113.5     9.019   8.271   49.669
 2114     9.015   8.083   49.575
 2114.5     9.011   8.392   49.482
 2115     9.007   8.753   49.388
 2115.5     9.003   9.04   49.295
 2116     8.999   9.004   49.296
 2116.5     8.994   8.968   49.33
 2117     8.99   8.931   49.364
 2117.5     8.986   8.895   49.398
 2118     8.982   8.92   49.36
 2118.5     8.978   9.425   49.221
 2119     8.958   9.929   49.082
 2119.5     8.932   10.235   48.944
 2120     8.905   10.237   48.822
 2120.5     8.879   10.24   48.849
 2121     8.852   10.242   48.876
 2121.5     8.826   10.006   48.903
 2122     8.8   9.739   48.93
 2122.5     8.778   9.473   48.958
 2123     8.771   9.206   48.985
 2123.5     8.763   8.94   49.012
 2124     8.756   8.921   49.035
 2124.5     8.748   8.961   48.994
 2125     8.741   9.002   48.953
 2125.5     8.733   9.043   48.913
 2126     8.725   9.083   48.872
 2126.5     8.718   9.018   48.831
 2127     8.71   8.915   48.79
 2127.5     8.703   8.812   48.749
 2128     8.695   8.709   48.709
 2128.5     8.687   8.606   48.668
 2129     8.68   8.503   48.769
 2129.5     8.672   8.4   48.906
 2130     8.665   8.381   49.043
 2130.5     8.657   8.542   49.18
 2131     8.649   8.702   49.249
 2131.5     8.642   8.863   49.239
 2132     8.634   9.023   49.229
 2132.5     8.627   9.183   49.219
 2133     8.619   9.344   49.209
 2133.5     8.611   9.504   49.199
 2134     8.593   9.296   49.19
 2134.5     8.574   9.058   49.18
 2135     8.555   8.819   49.108
 2135.5     8.536   8.58   48.957
 2136     8.517   8.341   48.805
 2136.5     8.498   8.103   48.841
 2137     8.48   7.864   48.883
 2137.5     8.461   7.625   48.926
 2138     8.442   7.386   48.968
 2138.5     8.423   7.148   49.011
 2139     8.404   6.909   49.053
 2139.5     8.385   6.887   49.096
 2140     8.367   7.014   49.138
 2140.5     8.365   7.141   49.139
 2141     8.364   7.269   49.046
 2141.5     8.362   7.396   48.953
 2142     8.361   7.524   48.86
 2142.5     8.359   7.651   48.767
 2143     8.358   7.779   48.674
 2143.5     8.356   7.869   48.581
 2144     8.355   7.95   48.488
 2144.5     8.354   8.032   48.395
 2145     8.352   8.113   48.302
 2145.5     8.351   8.194   48.209
 2146     8.349   8.275   48.228
 2146.5     8.348   8.357   48.271
 2147     8.347   8.347   48.314
 2147.5     8.345   8.2   48.357
 2148     8.344   8.052   48.401
 2148.5     8.342   7.905   48.444
 2149     8.341   7.895   48.488
 2149.5     8.339   8.028   48.571
 2150     8.338   8.161   48.655
 2150.5     8.337   8.294   48.739
 2151     8.335   8.427   48.823
 2151.5     8.334   8.56   48.906
 2152     8.332   8.693   48.99
 2152.5     8.331   8.826   48.903
 2153     8.329   8.959   48.782
 2153.5     8.328   8.804   48.66
 2154     8.327   8.399   48.539
 2154.5     8.325   7.993   48.417
 2155     8.324   7.588   48.296
 2155.5     8.323   7.345   48.174
 2156     8.341   7.648   48.053
 2156.5     8.359   7.951   48.104
 2157     8.376   8.254   48.193
 2157.5     8.394   8.336   48.283
 2158     8.412   7.989   48.373
 2158.5     8.429   7.642   48.463
 2159     8.447   7.295   48.552
 2159.5     8.464   7.264   48.642
 2160     8.482   7.652   48.732
 2160.5     8.5   8.041   48.822
 2161     8.517   8.429   48.911
 2161.5     8.535   8.818   48.879
 2162     8.553   8.935   48.835
 2162.5     8.57   8.605   48.791
 2163     8.577   8.275   48.748
 2163.5     8.583   7.945   48.704
 2164     8.588   8.474   48.66
 2164.5     8.593   9.148   48.617
 2165     8.599   9.821   48.573
 2165.5     8.604   10.494   48.568
 2166     8.609   11.167   48.669
 2166.5     8.615   11.84   48.77
 2167     8.62   12.513   48.87
 2167.5     8.625   11.942   48.971
 2168     8.631   11.198   49.072
 2168.5     8.636   10.455   49.173
 2169     8.641   9.712   49.273
 2169.5     8.647   8.968   49.374
 2170     8.652   8.225   49.475
 2170.5     8.658   7.97   49.576
 2171     8.663   8.039   49.677
 2171.5     8.668   8.108   49.679
 2172     8.674   8.177   49.585
 2172.5     8.68   8.246   49.492
 2173     8.688   8.315   49.398
 2173.5     8.695   7.958   49.304
 2174     8.702   7.462   49.211
 2174.5     8.709   6.966   49.117
 2175     8.717   6.47   49.024
 2175.5     8.724   6.022   48.985
 2176     8.731   6.372   49.003
 2176.5     8.738   6.721   49.02
 2177     8.746   7.071   49.038
 2177.5     8.747   7.42   49.056
 2178     8.722   7.769   49.074
 2178.5     8.697   7.541   49.092
 2179     8.672   7.313   49.11
 2179.5     8.648   7.085   49.085
 2180     8.627   6.857   49.007
 2180.5     8.619   6.628   48.93
 2181     8.611   7.077   48.852
 2181.5     8.603   7.581   48.775
 2182     8.596   8.086   48.697
 2182.5     8.588   8.591   48.62
 2183     8.579   9.096   48.698
 2183.5     8.551   9.312   48.853
 2184     8.523   9.223   49.009
 2184.5     8.494   9.135   49.165
 2185     8.466   9.046   49.321
 2185.5     8.458   9.005   49.477
 2186     8.458   9.162   49.632
 2186.5     8.458   9.318   49.788
 2187     8.458   9.475   49.944
 2187.5     8.458   9.631   50.1
 2188     8.458   9.714   50.255
 2188.5     8.459   9.318   50.411
 2189     8.459   8.921   50.449
 2189.5     8.459   8.525   50.173
 2190     8.465   8.205   49.896
 2190.5     8.48   8.157   49.62
 2191     8.495   8.11   49.344
 2191.5     8.51   8.062   49.068
 2192     8.525   7.957   48.792
 2192.5     8.539   7.729   48.67
 2193     8.554   7.5   48.698
 2193.5     8.562   7.272   48.725
 2194     8.565   7.044   48.752
 2194.5     8.568   6.899   48.779
 2195     8.571   7.017   48.806
 2195.5     8.574   7.136   48.834
 2196     8.577   7.254   48.861
 2196.5     8.58   7.372   48.797
 2197     8.584   7.505   48.632
 2197.5     8.587   7.707   48.467
 2198     8.59   7.91   48.302
 2198.5     8.593   8.113   48.138
 2199     8.596   8.316   47.973
 2199.5     8.599   8.518   47.808
 2200     8.603   8.513   47.643
 2200.5     8.606   8.1   47.478
 2201     8.609   7.687   47.615
 2201.5     8.612   7.274   47.804
