###############################################
##         ENVERUS                           ##
##         ESS - Open Hole                   ##
##         PERMIAN / DELAWARE                ##
##         Nov 04 2023  V4.0                 ##
##         42-389-30283-00-00                ##
###############################################
## Copyright 2017-2023  ENVERUS.  All Rights Reserved. 
## Confidential - Property of ENVERUS, use governed by terms and 
## conditions found within the existing Information Services Subscription Agreement 
## (as may be amended, the “ISSA”) between Customer and ENVERUS. 
## 
~VERSION INFORMATION
# MNEM.UNIT                               DATA : DESCRIPTION OF MNEMONIC
#-----.-----     ----------------------------- : -----------------------------
VERS.                                     2.00 : CWLS LOG ASCII STANDARD - VERSION 2.00
WRAP.                                       NO : MULTIPLE LINES PER DEPTH STEP
VEND.                                  ENVERUS : VENDOR
TYPE.                          ESS - OPEN HOLE : ENVERUS ESSENTIAL CURVES – ACCESSIBLE THROUGH ENVERUS PRISM(TM)
DOC.                                  32052778 : ENVERUS HEADER RAW DOCUMENT ID
#___________________________________________________________________________________________________ 
~WELL INFORMATION 
# CKTmoz7OsKELnwE/IP0i4B9qEmEewtam1JWnvb6ghWZsYWfxLv+2EOc67unJ6Yof0W+RqImtxqI23GomxkzDLA== 
# MNEM.UNIT                                              DATA : DESCRIPTION OF MNEMONIC 
#-----.-----                    ----------------------------- : ----------------------------- 
CNTY.                                                  REEVES : COUNTY 
STATE.                                                  TEXAS : STATE 
CNTRY.                                                    USA : COUNTRY 
API.                                             42-389-30283 : API (10 Digit) 
API_14.                                    42-389-30283-00-00 : API (14 Digits) 
API_14_std.                                 42-389-30283-0000 : API (14 Digits Standard) 
UWI.                                           42389302830000 : UNIQUE WELL ID 
WELL.                       RANDOLPH  A. T.  ET AL-STATE  1 L : WELL NAME
STRT.FT                                                 155.0 : START DEPTH
STOP.FT                                               15740.0 : STOP DEPTH
STEP.FT                                                   0.5 : STEP BETWEEN DEPTHS
NULL.                                                 -999.25 : NULL VALUE
COMP.                                     RIO PETROLEUM  INC. : COMPANY
#___________________________________________________________________________________________________ 
~CURVE INFORMATION 
# MNEM.UNIT           : CURVE DESCRIPTION 
#-----.-----          : ----------------------------- 
 DEPT.FT               : MEASURED DEPTH 
 CALI__A.IN            : CALIPER (CAL - CAL) 
 GR__A.API             : GAMMA RAY (GR) 
 SP__A.MV              : SPONTANEOUS POTENTIAL (SP) 
 DT__A.US/FT           : SONIC DELTA TRANSIT TIME (DT) 
 RESD__A.OHMM          : DEEP INDUCTION RESISTIVITY (ILD - ILD) 
 NPHI__A.V/V           : NEUTRON POROSITY (NPH - NPH) 
 #___________________________________________________________________________________________________ 
~A         DEPT        CALI__A          GR__A          SP__A          DT__A        RESD__A        NPHI__A
# ...
        10111.0         12.473         78.164       -999.250         81.917       -999.250     -999.25000
        10111.5         12.460         76.293       -999.250         81.282       -999.250     -999.25000
        10112.0         12.446         75.534       -999.250         80.596       -999.250     -999.25000
        10112.5         12.433         74.774       -999.250         79.854       -999.250     -999.25000
        10113.0         12.419         72.690       -999.250         79.112       -999.250     -999.25000
        10113.5         12.406         64.417       -999.250         78.371       -999.250     -999.25000
        10114.0         12.393         56.144       -999.250         75.080       -999.250     -999.25000
        10114.5         12.379         45.191       -999.250         69.487       -999.250     -999.25000
        10115.0         12.377         34.573       -999.250         62.197       -999.250     -999.25000
        10115.5         12.383         34.183       -999.250         56.317       -999.250     -999.25000
        10116.0         12.390         41.987       -999.250         59.955       -999.250     -999.25000
        10116.5         12.396         52.500       -999.250         63.592       -999.250     -999.25000
        10117.0         12.403         55.623       -999.250         67.230       -999.250     -999.25000
        10117.5         12.409         58.169       -999.250         70.196       -999.250     -999.25000
        10118.0         12.416         60.716       -999.250         72.168       -999.250     -999.25000
        10118.5         12.422         76.005       -999.250         74.478       -999.250     -999.25000
        10119.0         12.429         76.677       -999.250         78.031       -999.250     -999.25000
        10119.5         12.435         75.534       -999.250         78.697       -999.250     -999.25000
        10120.0         12.442         74.391       -999.250         77.871       -999.250     -999.25000
        10120.5         12.448         74.943       -999.250         77.046       -999.250     -999.25000
        10121.0         12.455         80.580       -999.250         76.930       -999.250     -999.25000
        10121.5         12.461         79.959       -999.250         77.533       -999.250     -999.25000
        10122.0         12.468         78.744       -999.250         78.136       -999.250     -999.25000
        10122.5         12.474         76.118       -999.250         77.997       -999.250     -999.25000
        10123.0         12.481         73.462       -999.250         77.488       -999.250     -999.25000
        10123.5         12.487         77.266       -999.250         76.980       -999.250     -999.25000
        10124.0         12.494         81.071       -999.250         77.835       -999.250     -999.25000
        10124.5         12.500         81.795       -999.250         80.008       -999.250     -999.25000
        10125.0         12.500         79.878       -999.250         82.126       -999.250     -999.25000
        10125.5         12.497         73.788       -999.250         80.335       -999.250     -999.25000
        10126.0         12.494         65.690       -999.250         78.545       -999.250     -999.25000
        10126.5         12.490         49.926       -999.250         76.032       -999.250     -999.25000
        10127.0         12.487         40.872       -999.250         69.545       -999.250     -999.25000
        10127.5         12.484         40.484       -999.250         63.057       -999.250     -999.25000
        10128.0         12.480         49.704       -999.250         59.198       -999.250     -999.25000
        10128.5         12.477         62.099       -999.250         64.213       -999.250     -999.25000
        10129.0         12.474         77.254       -999.250         70.300       -999.250     -999.25000
        10129.5         12.470         79.242       -999.250         76.874       -999.250     -999.25000
        10130.0         12.467         81.229       -999.250         82.160       -999.250     -999.25000
        10130.5         12.464         80.767       -999.250         83.441       -999.250     -999.25000
        10131.0         12.461         76.191       -999.250         83.864       -999.250     -999.25000
        10131.5         12.457         69.461       -999.250         82.781       -999.250     -999.25000
        10132.0         12.454         68.651       -999.250         81.697       -999.250     -999.25000
        10132.5         12.451         71.437       -999.250         80.614       -999.250     -999.25000
        10133.0         12.447         72.519       -999.250         81.096       -999.250     -999.25000
        10133.5         12.444         70.713       -999.250         82.799       -999.250     -999.25000
        10134.0         12.441         68.907       -999.250         84.501       -999.250     -999.25000
        10134.5         12.438         67.928       -999.250         85.056       -999.250     -999.25000
        10135.0         12.434         68.523       -999.250         84.131       -999.250     -999.25000
        10135.5         12.431         72.458       -999.250         83.206       -999.250     -999.25000
        10136.0         12.428         75.016       -999.250         82.281       -999.250     -999.25000
        10136.5         12.424         74.403       -999.250         82.790       -999.250     -999.25000
        10137.0         12.421         73.789       -999.250         84.112       -999.250     -999.25000
        10137.5         12.418         71.944       -999.250         85.374       -999.250     -999.25000
        10138.0         12.414         70.009       -999.250         86.238       -999.250     -999.25000
        10138.5         12.411         68.073       -999.250         87.102       -999.250     -999.25000
        10139.0         12.496         65.504       -999.250         87.966       -999.250     -999.25000
        10139.5         12.696         62.889       -999.250         85.930       -999.250     -999.25000
        10140.0         12.896         59.019       -999.250         82.692       -999.250     -999.25000
        10140.5         12.892         48.558       -999.250         78.991       -999.250     -999.25000
        10141.0         12.734         38.269       -999.250         71.278       -999.250     -999.25000
        10141.5         12.577         34.024       -999.250         62.523       -999.250     -999.25000
        10142.0         12.458         39.232       -999.250         61.117       -999.250     -999.25000
        10142.5         12.485         44.441       -999.250         61.436       -999.250     -999.25000
        10143.0         12.511         51.457       -999.250         66.251       -999.250     -999.25000
        10143.5         12.537         51.837       -999.250         71.439       -999.250     -999.25000
        10144.0         12.564         52.217       -999.250         73.663       -999.250     -999.25000
        10144.5         12.582         53.097       -999.250         74.050       -999.250     -999.25000
        10145.0         12.576         57.816       -999.250         73.550       -999.250     -999.25000
        10145.5         12.569         62.536       -999.250         75.300       -999.250     -999.25000
        10146.0         12.563         66.986       -999.250         81.046       -999.250     -999.25000
        10146.5         12.557         70.539       -999.250         85.330       -999.250     -999.25000
        10147.0         12.551         73.869       -999.250         88.019       -999.250     -999.25000
        10147.5         12.544         69.525       -999.250         85.772       -999.250     -999.25000
        10148.0         12.538         67.601       -999.250         83.553       -999.250     -999.25000
        10148.5         12.532         67.462       -999.250         84.143       -999.250     -999.25000
