###############################################
##         ENVERUS                           ##
##         ESS - Open Hole                   ##
##         PERMIAN / DELAWARE                ##
##         Nov 04 2023  V4.0                 ##
##         42-389-31391-00-00                ##
###############################################
## Copyright 2017-2023  ENVERUS.  All Rights Reserved. 
## Confidential - Property of ENVERUS, use governed by terms and 
## conditions found within the existing Information Services Subscription Agreement 
## (as may be amended, the “ISSA”) between Customer and ENVERUS. 
## 
~VERSION INFORMATION
# MNEM.UNIT                               DATA : DESCRIPTION OF MNEMONIC
#-----.-----     ----------------------------- : -----------------------------
VERS.                                     2.00 : CWLS LOG ASCII STANDARD - VERSION 2.00
WRAP.                                       NO : MULTIPLE LINES PER DEPTH STEP
VEND.                                  ENVERUS : VENDOR
TYPE.                          ESS - OPEN HOLE : ENVERUS ESSENTIAL CURVES – ACCESSIBLE THROUGH ENVERUS PRISM(TM)
DOC.                                  23866972 : ENVERUS HEADER RAW DOCUMENT ID
#___________________________________________________________________________________________________ 
~WELL INFORMATION 
# fYFWm3OWRd9IdMsmH1sgiJ8+yI47SyIf11h8n9fSv2EtxvNnkQHcFoeZabdKB/2nhpfFDZXLrBDJ+4Q2ZBaHeQ== 
# MNEM.UNIT                                              DATA : DESCRIPTION OF MNEMONIC 
#-----.-----                    ----------------------------- : ----------------------------- 
CNTY.                                                  REEVES : COUNTY 
STATE.                                                  TEXAS : STATE 
CNTRY.                                                    USA : COUNTRY 
API.                                             42-389-31391 : API (10 Digit) 
API_14.                                    42-389-31391-00-00 : API (14 Digits) 
API_14_std.                                 42-389-31391-0000 : API (14 Digits Standard) 
UWI.                                           42389313910000 : UNIQUE WELL ID 
WELL.                                       DIXIELAND # 3 - 1 : WELL NAME
STRT.FT                                                4000.0 : START DEPTH
STOP.FT                                               12000.0 : STOP DEPTH
STEP.FT                                                   0.5 : STEP BETWEEN DEPTHS
NULL.                                                 -999.25 : NULL VALUE
COMP.                             R. K. PETROLEUM CORPORATION : COMPANY 
FLD.                                                  WILDCAT : FIELD 
DATE.                                              08/13/2015 : DATE 
TVD.                                                       NO : TVD FLAG 
WSTA.                                                     LOC : WELL STATUS
#___________________________________________________________________________________________________ 
~PARAMETER INFORMATION 
# MNEM.UNIT                                              DATA : DESCRIPTION OF MNEMONIC 
#-----.-----                    ----------------------------- : ----------------------------- 
RUN.                                                      ONE : RUN NUMBER 
PDAT.                                                      GL : PERMANENT DATUM 
LMF.                                            KELLY BUSHING : LOG MEASURED FROM
#___________________________________________________________________________________________________ 
~CURVE INFORMATION 
# MNEM.UNIT           : CURVE DESCRIPTION 
#-----.-----          : ----------------------------- 
 DEPT.FT               : MEASURED DEPTH 
 CALI.IN               : CALIPER (CALIPER) 
 GR.API                : GAMMA RAY (GAMMA RAY) 
 DT.US/FT              : SONIC DELTA TRANSIT TIME (DELTA-T) 
 RESD.OHMM             : DEEP INDUCTION RESISTIVITY (ILD - DEEP INDUCTION STANDARD PROCESSED RESISTIVITY) 
 RESD_LL.OHMM          : DEEP LATEROLOG (LLD - LATERO-LOG DEEP (RESISTIVITY)) 
 NPHI.V/V              : NEUTRON POROSITY (NEUTRON POROSITY) 
 #___________________________________________________________________________________________________ 
~A         DEPT           CALI             GR             DT           RESD        RESD_LL           NPHI
# ...
         5064.0         14.907         34.561         79.560       -999.250         2.5563        0.32535
         5064.5         14.908         36.314         79.315       -999.250         2.5217        0.34895
         5065.0         14.909         34.977         79.379       -999.250         1.8647        0.37669
         5065.5         14.911         32.523         79.739       -999.250         2.0237        0.40181
         5066.0         14.912         32.700         80.408       -999.250         2.3001        0.37854
         5066.5         14.913         32.346         81.019       -999.250         2.6618        0.35996
         5067.0         14.915         34.266         81.303       -999.250         2.7110        0.35272
         5067.5         14.916         36.153         80.942       -999.250         2.5942        0.31594
         5068.0         14.917         35.763         80.689       -999.250         2.5351        0.29971
         5068.5         14.919         34.738         80.471       -999.250         2.4738        0.30000
         5069.0         14.920         34.048         80.342       -999.250         2.6178        0.29155
         5069.5         14.921         35.564         80.049       -999.250         2.7886        0.29902
         5070.0         14.923         36.529         79.820       -999.250         2.8656        0.31829
         5070.5         14.924         37.033         79.591       -999.250         2.9447        0.33757
         5071.0         14.925         37.533         79.379       -999.250         3.0880        0.35030
         5071.5         14.927         36.877         79.380       -999.250         3.3903        0.35835
         5072.0         14.928         35.014         79.000       -999.250         3.4189        0.36017
         5072.5         14.929         35.288         78.537       -999.250         3.4462        0.36221
         5073.0         14.931         37.185         78.176       -999.250         3.4542        0.36534
         5073.5         14.932         40.493         77.335       -999.250         3.3903        0.37606
         5074.0         14.933         43.296         77.262       -999.250         3.1826        0.35463
         5074.5         14.935         41.228         77.186       -999.250         3.0106        0.33214
         5075.0         14.936         39.295         77.109       -999.250         2.9196        0.31167
         5075.5         14.937         38.661         77.335       -999.250         2.9448        0.31408
         5076.0         14.939         39.268         78.176       -999.250         3.0640        0.33236
         5076.5         14.940         39.618         78.352       -999.250         3.2660        0.34950
         5077.0         14.941         39.123         78.525       -999.250         3.2635        0.31809
         5077.5         14.943         39.227         77.929       -999.250         3.5158        0.32708
         5078.0         14.944         41.342         77.694       -999.250         3.1795        0.33746
         5078.5         14.945         44.185         78.040       -999.250         2.7127        0.34782
         5079.0         14.947         46.471         78.418       -999.250         2.8151        0.35894
         5079.5         14.948         48.912         78.655       -999.250         2.8034        0.37529
         5080.0         14.949         46.533         78.888       -999.250         2.7856        0.36939
         5080.5         14.951         43.018         79.015       -999.250         2.7677        0.35865
         5081.0         14.952         38.891         79.138       -999.250         2.7094        0.34805
         5081.5         14.953         37.284         79.499       -999.250         2.6593        0.33727
         5082.0         14.955         37.250         79.739       -999.250         2.7502        0.32655
         5082.5         14.956         37.846         79.884       -999.250         2.8656        0.31592
         5083.0         14.958         38.741         80.100       -999.250         2.7605        0.30765
         5083.5         14.959         38.658         79.980       -999.250         2.8218        0.30362
         5084.0         14.960         38.811         80.341       -999.250         3.1412        0.30422
         5084.5         14.962         41.446         80.565       -999.250         4.0747        0.30490
         5085.0         14.963         46.434         80.569       -999.250         5.2856        0.30366
         5085.5         14.964         56.172         79.009       -999.250         6.8563        0.29477
         5086.0         14.966         61.226         76.840       -999.250         8.8938        0.26122
         5086.5         14.967         62.457         74.395       -999.250        10.6231        0.26019
         5087.0         14.968         63.381         71.947       -999.250        10.0191        0.25936
         5087.5         14.970         64.720         70.458       -999.250         8.2104        0.25936
         5088.0         14.971         66.025         70.601       -999.250         6.8264        0.27337
         5088.5         14.972         61.883         71.208       -999.250         5.6144        0.28739
         5089.0         14.974         58.274         72.525       -999.250         5.2102        0.29790
         5089.5         14.975         54.240         73.487       -999.250         4.9262        0.29756
         5090.0         14.976         51.836         74.569       -999.250         4.2821        0.29718
         5090.5         14.978         49.879         75.108       -999.250         3.7118        0.28889
         5091.0         14.979         47.819         75.772       -999.250         3.0880        0.27867
         5091.5         14.980         46.172         76.012       -999.250         3.2055        0.27304
         5092.0         14.982         42.675         76.129       -999.250         3.1676        0.31562
         5092.5         14.983         40.578         76.060       -999.250         3.1115        0.35344
         5093.0         14.984         38.589         75.932       -999.250         3.0564        0.36157
         5093.5         14.986         36.772         75.994       -999.250         2.9747        0.41388
         5094.0         14.987         36.209         76.590       -999.250         2.6876        0.42354
         5094.5         14.988         36.505         77.673       -999.250         2.4048        0.42108
         5095.0         14.990         36.727         78.994       -999.250         2.2061        0.40626
         5095.5         14.991         38.135         80.200       -999.250         2.6100        0.39698
         5096.0         14.992         37.690         81.303       -999.250         2.5427        0.39610
         5096.5         14.994         36.016         81.733       -999.250         2.4632        0.39508
         5097.0         14.995         34.235         82.144       -999.250         2.2477        0.39215
         5097.5         14.996         33.996         82.024       -999.250         2.3224        0.37606
         5098.0         14.998         35.526         81.784       -999.250         2.5200        0.36906
         5098.5         14.999         37.224         81.211       -999.250         2.8252        0.36147
         5099.0         15.000         38.498         80.701       -999.250         3.0308        0.35513
         5099.5         15.002         40.353         80.100       -999.250         3.4413        0.35707
         5100.0         15.003         42.451         79.465       -999.250         4.3223        0.35003
         5100.5         15.004         44.690         78.797       -999.250         3.8838        0.34528
         5101.0         15.006         45.770         78.032       -999.250         3.3276        0.33969
         5101.5         15.007         44.738         77.313       -999.250         3.1462        0.33198
