#--------------------------------------------------#
#-------------------ENVERUS, INC.------------------#
#------------------WWW.ENVERUS.COM-----------------#
#------------------COPYRIGHT 2020------------------#
#--------------------------------------------------#
#THIS FILE MAY BE USED ONLY IN ACCORDANCE WITH A CURRENT SUBSCRIPTION AGREEMENT BETWEEN
#THE USER AND ENVERUS, INC. NO PART OF THIS FILE MAY BE REPRODUCED, USED, COPIED,
#MODIFIED, PROPAGATED, OR DISTRIBUTED EXCEPT IN ACCORDANCE WITH THE SUBSCRIPTION
#AGREEMENT. UNAUTHORIZED USE OR DISTRIBUTION OF ALL OR ANY PART OF THIS FILE MAY VIOLATE
#COPYRIGHT, TRADEMARK, AND/OR OTHER LAWS AND IS SUBJECT TO CIVIL AS WELL AS CRIMINAL
#SANCTIONS.
#--------------------------------------------------#
#THIS FILE IS PROVIDED "AS-IS" AND ALL WARRANTIES ARE EXPRESSLY DISCLAIMED, WHETHER
#EXPRESS, ORAL, IMPLIED, STATUTORY OR OTHERWISE, INCLUDING ANY IMPLIED WARRANTY OF FITNESS
#FOR A PARTICULAR PURPOSE, MERCHANTABILITY, TITLE OR NON-INFRINGEMENT, AND ANY WARRANTIES
#ARISING BY VIRTUE OF CUSTOM OF TRADE OR COURSE OF DEALING.  FURTHER, ENVERUS, INC.
#AND ITS LICENSORS DO NOT REPRESENT OR WARRANT THAT THIS FILE WILL MEET USER'S
#REQUIREMENTS OR ARE SUITABLE FOR USER'S NEEDS OR THAT THE DATA OR RESULTS PROVIDED IN
#CONJUNCTION THEREWITH ARE CORRECT, ACCURATE, TIMELY OR RELIABLE. THESE DISCLAIMERS SHALL
#APPLY REGARDLESS OF ANY FAILURE OF ESSENTIAL PURPOSE OF ANY LIMITED REMEDY.  SOME
#JURISDICTIONS DO NOT ALLOW THE EXCLUSION OF CERTAIN WARRANTIES SO SOME OF THE ABOVE
#EXCLUSIONS MAY NOT APPLY. IN NO EVENT SHALL ENVERUS, INC. OR ANY OF ITS AFFILIATES
#BE LIABLE UNDER ANY LEGAL THEORY, WHETHER IN TORT (INCLUDING WITHOUT LIMITATION
#NEGLIGENCE), CONTRACT, STRICT LIABILITY, STATUTORY OR OTHERWISE, FOR ANY SPECIAL,
#INCIDENTAL, CONSEQUENTIAL, EXEMPLARY, PUNITIVE OR INDIRECT DAMAGE OF ANY KIND, INCLUDING
#WITHOUT LIMITATION LOSS OF REVENUE, PROFITS, GOODWILL, USE, AND/OR DATA OR THE COST OF
#PROCUREMENT OF SUBSTITUTE GOODS OR SERVICES, EVEN IF APPRISED OF THE POSSIBILITY OF SUCH
#DAMAGES IN ADVANCE.
#--------------------------------------------------#

~VERSION INFORMATION
VERS. 2.0 : CWLS LOG ASCII STANDARD - VERSION 2.0
WRAP.  NO : ONE LINE PER DEPTH STEP
~WELL INFORMATION
#MNEMONIC     .UNIT              VALUE :DESCRIPTION
STRT       .FT                0 :START DEPTH
STOP       .FT                3396 :STOP DEPTH
STEP       .FT                   0.500 :STEP
NULL       .                  -999.250 :NULL
UWI        .              42389305140000 :UNIQUE WELL ID
API        .              42389305140000 :API NUMBER
COMP       .         SLEDGE BROS. OIL CO. :COMPANY
WELL       .        BOLLINGER  5 :WELL
DATE       .                            :LOG DATE
~CURVE INFORMATION
#MNEMONIC     .UNIT      API CODE :CURVE DESCRIPTION
DEPTH       .FT                      :MEASURED DEPTH
ILS.OHM        UNKNOWN   :ILS
GR.API        UNKNOWN   :GR
DT.US/FT        UNKNOWN   :DT
CAL.INCH        UNKNOWN   :CAL
ILD.OHM        UNKNOWN   :ILD
~A    DEPTH    ILS    GR    DT    CAL    ILD
# ...
 3132.5     1998.275   22.049   49.231   6.703   8734.088
 3133     1998.648   23.402   49.235   6.703   10480.897
 3133.5     1999.022   20.097   49.178   6.702   17015.877
 3134     1999.395   16.791   49.12   6.702   22271.58
 3134.5     1999.768   13.486   49.062   6.702   26548.498
 3135     2000.142   10.675   49.005   6.702   28691.412
 3135.5     2000.515   9.909   48.947   6.701   28971.26
 3136     2000.889   9.771   48.613   6.701   29251.107
 3136.5     2001.262   10.468   48.212   6.701   29530.953
 3137     2001.636   11.165   48.136   6.702   29494.85
 3137.5     2002.009   11.862   48.115   6.702   29031.295
 3138     2002.383   12.058   48.406   6.702   28742.367
 3138.5     2002.756   11.459   48.697   6.703   28583.689
 3139     2003.13   10.859   48.636   6.703   28425.01
 3139.5     2003.503   10.259   48.297   6.703   28284.127
 3140     2003.877   9.66   47.784   6.704   28357.111
 3140.5     2004.25   9.21   47.2   6.704   28430.094
 3141     2004.624   9.38   47.114   6.704   28503.078
 3141.5     2004.997   9.164   47.118   6.705   28465.473
 3142     2005.37   8.729   47.338   6.705   27893.785
 3142.5     2005.744   8.293   47.511   6.706   27322.098
 3143     2006.117   8.271   47.486   6.706   26750.41
 3143.5     2006.491   8.622   47.461   6.706   26178.723
 3144     2006.864   8.974   47.435   6.707   25607.035
 3144.5     2007.238   9.266   47.41   6.707   25076.453
 3145     2007.611   9.038   47.72   6.707   24708.607
 3145.5     2007.985   8.809   48.128   6.708   24340.76
 3146     2008.358   9.188   48.535   6.708   23972.914
 3146.5     2008.732   9.809   48.943   6.708   23605.068
 3147     2009.105   10.285   49.351   6.709   23329.855
 3147.5     2009.479   9.731   49.39   6.709   24581.107
 3148     2009.852   9.177   48.602   6.71   25832.359
 3148.5     2010.226   8.623   47.944   6.71   27083.611
 3149     2010.599   8.068   47.286   6.71   28334.865
 3149.5     2010.973   7.892   47.093   6.711   28844.027
 3150     2011.093   7.746   47.235   6.712   27937.049
 3150.5     2010.356   7.643   47.371   6.713   27030.07
 3151     2009.62   9.321   47.503   6.714   26123.092
 3151.5     2008.883   11.071   47.635   6.715   25306.918
 3152     2008.147   11.883   47.767   6.716   24806.324
 3152.5     2007.41   11.514   47.899   6.717   24305.732
 3153     2006.673   10.723   48.03   6.718   23805.139
 3153.5     2005.937   9.933   48.162   6.719   23304.545
 3154     2005.2   10.52   44.332   6.72   23262.9
 3154.5     2004.464   11.904   31.987   6.721   23700.91
 3155     2003.727   13.288   19.642   6.722   24138.92
 3155.5     2002.991   13.835   10.041   6.723   24576.932
 3156     2002.254   13.624   9.204   6.723   25241.24
 3156.5     2001.517   13.414   9.278   6.722   26956.695
 3157     2000.781   14.261   9.353   6.72   28672.15
 3157.5     2000.044   14.742   9.428   6.718   30387.607
 3158     1999.308   13.617   10.431   6.717   30927.439
 3158.5     1998.571   11.886   11.501   6.715   30253.115
 3159     1997.835   10.393   12.582   6.713   29578.791
 3159.5     1997.098   10.771   13.908   6.712   28904.467
 3160     1996.361   11.906   13.695   6.71   28231.963
 3160.5     1995.625   13.04   13.433   6.709   27568.432
 3161     1994.888   13.302   13.087   6.707   26904.9
 3161.5     1994.152   13.509   12.676   6.705   26241.369
 3162     1993.415   13.716   12.49   6.704   25577.838
 3162.5     1992.679   12.756   12.725   6.702   25141.439
 3163     1991.942   11.353   12.959   6.701   25002.742
 3163.5     1991.342   10.143   13.194   6.699   24864.045
 3164     1990.863   10.264   13.429   6.697   24725.346
 3164.5     1990.383   10.385   20.099   6.696   23759.84
 3165     1989.904   9.978   42.029   6.694   22738.707
 3165.5     1989.424   9.542   45.574   6.693   22317.904
 3166     1988.945   9.336   48.629   6.691   22593.623
 3166.5     1988.466   10.47   49.503   6.689   22869.342
 3167     1987.986   10.893   49.259   6.688   23145.061
 3167.5     1987.507   10.565   49.015   6.694   23420.779
 3168     1987.027   10.238   48.763   6.701   23696.498
 3168.5     1986.548   10.782   48.46   6.708   24284.83
 3169     1986.069   11.953   48.389   6.715   24999.748
 3169.5     1985.589   13.124   48.318   6.722   25714.664
 3170     1985.11   13.753   48.307   6.729   26126.893
 3170.5     1984.631   13.451   48.331   6.736   26364.594
 3171     1984.151   13.149   48.381   6.743   26602.293
 3171.5     1983.672   13.452   48.51   6.748   26670.49
 3172     1983.192   13.886   48.639   6.747   26420.299
 3172.5     1982.713   12.994   48.778   6.745   26170.107
 3173     1982.234   12.101   48.987   6.744   26131.76
 3173.5     1981.754   11.209   49.195   6.743   26690.084
 3174     1981.275   10.661   49.404   6.742   27248.408
 3174.5     1980.796   10.489   49.38   6.741   27806.732
 3175     1980.316   10.368   49.309   6.74   28365.057
 3175.5     1979.837   10.747   49.079   6.739   28295.1
 3176     1979.357   10.843   48.648   6.738   28192.926
 3176.5     1978.878   10.362   48.497   6.737   27958.877
 3177     1978.399   10.319   48.542   6.736   27382.947
 3177.5     1977.919   11.066   48.582   6.735   26807.018
 3178     1977.44   11.812   48.335   6.734   26231.086
 3178.5     1976.96   11.874   48.088   6.733   25639.658
 3179     1976.481   11.583   47.896   6.732   24967.568
 3179.5     1976.002   12.368   47.868   6.731   24295.477
 3180     1975.522   13.435   47.84   6.729   23623.385
 3180.5     1975.043   14.502   47.813   6.728   23379.66
 3181     1974.563   15.284   47.848   6.726   24433.514
 3181.5     1974.084   14.881   48.13   6.724   25487.365
 3182     1973.605   13.677   48.344   6.722   26541.217
 3182.5     1973.666   12.473   48.445   6.72   26866.762
 3183     1974.149   11.964   48.545   6.718   26967.205
 3183.5     1974.631   12.074   48.646   6.716   26965.27
 3184     1975.114   12.027   48.747   6.714   26022.227
 3184.5     1975.597   11.029   48.882   6.712   26089.775
 3185     1976.08   10.032   49.125   6.71   26157.324
 3185.5     1976.563   9.07   49.369   6.708   26224.873
 3186     1977.046   9.826   49.612   6.706   26292.422
 3186.5     1977.528   12.357   49.332   6.703   26359.971
 3187     1978.011   14.307   49.047   6.701   26427.52
 3187.5     1978.494   13.435   48.82   6.699   26495.068
 3188     1978.977   11.703   48.594   6.697   27182.707
 3188.5     1979.46   11.3   48.63   6.695   29710.68
 3189     1979.943   11.668   48.91   6.693   30002.762
 3189.5     1980.425   11.426   49.19   6.691   29811.02
 3190     1980.908   10.45   49.452   6.69   29619.275
 3190.5     1981.391   9.719   49.313   6.688   29427.531
 3191     1981.874   10.712   49.174   6.687   29082.66
 3191.5     1982.357   12.799   49.035   6.685   28376.723
 3192     1982.839   14.887   48.965   6.683   27670.785
 3192.5     1983.322   15.544   49.004   6.682   26964.85
 3193     1983.805   15.417   49.005   6.68   26970.338
 3193.5     1984.288   15.483   49.005   6.679   27156.684
 3194     1984.771   15.769   49.055   6.677   27343.029
 3194.5     1985.254   15.482   49.128   6.676   26588.447
 3195     1985.736   14.812   49.204   6.675   25753.111
 3195.5     1986.219   14.141   49.292   6.675   24917.773
 3196     1986.702   13.471   49.379   6.675   24082.436
 3196.5     1987.185   13.341   49.466   6.674   23247.098
 3197     1987.668   14.59   49.294   6.674   23011.078
 3197.5     1988.151   16.366   49.123   6.674   23849.883
 3198     1988.633   16.914   48.951   6.674   24688.688
 3198.5     1989.116   15.902   48.912   6.673   25527.494
 3199     1989.599   14.891   48.935   6.673   24965.127
 3199.5     1990.082   14.4   48.958   6.673   23702.898
 3200     1990.565   15.745   48.981   6.673   20883.805
 3200.5     1991.047   17.09   49.003   6.674   16386.434
 3201     1991.53   17.634   48.94   6.674   16045.862
 3201.5     1992.013   17.082   48.803   6.675   14363.4
 3202     1992.496   16.53   48.887   6.675   9361.713
 3202.5     1992.979   18.069   49.001   6.676   4097.483
