###############################################
##         ENVERUS                           ##
##         ESS - Open Hole                   ##
##         PERMIAN / DELAWARE                ##
##         Nov 04 2023  V4.0                 ##
##         42-389-32245-00-00                ##
###############################################
## Copyright 2017-2023  ENVERUS.  All Rights Reserved. 
## Confidential - Property of ENVERUS, use governed by terms and 
## conditions found within the existing Information Services Subscription Agreement 
## (as may be amended, the “ISSA”) between Customer and ENVERUS. 
## 
~VERSION INFORMATION
# MNEM.UNIT                               DATA : DESCRIPTION OF MNEMONIC
#-----.-----     ----------------------------- : -----------------------------
VERS.                                     2.00 : CWLS LOG ASCII STANDARD - VERSION 2.00
WRAP.                                       NO : MULTIPLE LINES PER DEPTH STEP
VEND.                                  ENVERUS : VENDOR
TYPE.                          ESS - OPEN HOLE : ENVERUS ESSENTIAL CURVES – ACCESSIBLE THROUGH ENVERUS PRISM(TM)
DOC.                                  24742630 : ENVERUS HEADER RAW DOCUMENT ID
#___________________________________________________________________________________________________ 
~WELL INFORMATION 
# u9Wg0OWXiPz858M7Kubpm0lpDPxjGuyhH3tqBPDGtvBYDDDqGrwiIchrhDPbdkpmsDZNCKsM7+2eKUVstoQO7Q== 
# MNEM.UNIT                                              DATA : DESCRIPTION OF MNEMONIC 
#-----.-----                    ----------------------------- : ----------------------------- 
CNTY.                                                  REEVES : COUNTY 
STATE.                                                  TEXAS : STATE 
CNTRY.                                                    USA : COUNTRY 
API.                                             42-389-32245 : API (10 Digit) 
API_14.                                    42-389-32245-00-00 : API (14 Digits) 
API_14_std.                                 42-389-32245-0000 : API (14 Digits Standard) 
UWI.                                           42389322450000 : UNIQUE WELL ID 
WELL.                          TEXAS PACIFIC LAND TRUST #25-1 : WELL NAME
STRT.FT                                                2530.0 : START DEPTH
STOP.FT                                               10610.0 : STOP DEPTH
STEP.FT                                                   0.5 : STEP BETWEEN DEPTHS
NULL.                                                 -999.25 : NULL VALUE
COMP.                                             CONOCO INC. : COMPANY 
FLD.                                            FORD WOLFCAMP : FIELD 
LOC.                                                 25-2S-58 : LOCATION 
SRVC.                                            SCHLUMBERGER : SERVICE COMPANY 
DATE.                                              03/21/2002 : DATE 
TVD.                                                       NO : TVD FLAG
#___________________________________________________________________________________________________ 
~PARAMETER INFORMATION 
# MNEM.UNIT                                              DATA : DESCRIPTION OF MNEMONIC 
#-----.-----                    ----------------------------- : ----------------------------- 
RUN.                                                      ONE : RUN NUMBER 
PDAT.                                                      GL : PERMANENT DATUM 
EPD.FT                                              2993.0000 : ELEVATION OF PERM. DATUM 
LMF.                                            KELLY BUSHING : LOG MEASURED FROM 
EKB.FT                                              3021.0000 : ELEVATION OF KELLY BUSHING 
DF.FT                                               3020.0000 : ELEVATION OF DERRICK FLOOR 
GL.FT                                               2993.0000 : ELEVATION OF GROUND LEVEL 
TD.FT                                              10610.0000 : TOTAL DEPTH 
BHT.DEGF                                               130.00 : BOTTOM HOLE TEMPERATURE 
BLI.FT                                             10610.0000 : BOTTOM LOG INTERVAL 
CSGSIZE.IN                                             9.6250 : CASING SIZE 
BITSIZE.IN                                              8.750 : BITSIZE 
CSGD.FT                                                  2642 : CASING BOTTOM (DRILLER) 1 
CSGL.FT                                                  2538 : CASING BOTTOM (LOGGER) 1 
MUD.                                                CUT BRINE : DRILLING FLUID TYPE 
MUDV.CP                                               28.0000 : DRILLING FLUID VISCOSITY 
MUDD.LB/USG                                           10.0000 : DRILLING FLUID DENSITY 
PH.                                                    8.5000 : DRILLING FLUID PH 
MUDS.                                        CIRCULATION TANK : MUD SAMPLE SOURCE 
RM.OHMM                                                0.0610 : RESISTIVITY OF MUD SAMPLE 
RMT.DEGF                                              75.0000 : MUD SAMPLE TEMPERATURE 
RMF.OHMM                                               0.0610 : MUD FILTRATE RESISTIVITY 
RMFT.DEGF                                             75.0000 : MUD FILTRATE SAMPLE TEMPERATURE
#___________________________________________________________________________________________________ 
~CURVE INFORMATION 
# MNEM.UNIT           : CURVE DESCRIPTION 
#-----.-----          : ----------------------------- 
 DEPT.FT               : MEASURED DEPTH 
 CALI.IN               : CALIPER (CALIPER) 
 GR.API                : GAMMA RAY (GAMMA RAY) 
 DT.US/FT              : SONIC DELTA TRANSIT TIME (DELTA T) 
 SPHI.V/V              : SONIC POROSITY (SONIC POROSITY) 
 #___________________________________________________________________________________________________ 
~A         DEPT           CALI             GR             DT           SPHI
         2530.0          8.720         43.540       -999.250     -999.25000
         2530.5          8.730         47.160       -999.250     -999.25000
         2531.0          8.730         52.090       -999.250     -999.25000
         2531.5          8.730         57.070       -999.250     -999.25000
         2532.0          8.730         56.230       -999.250     -999.25000
         2532.5          8.730         52.510       -999.250     -999.25000
         2533.0          8.730         48.310       -999.250     -999.25000
         2533.5          8.730         46.770       -999.250     -999.25000
         2534.0          8.740         45.750       -999.250     -999.25000
         2534.5          8.740         45.660       -999.250     -999.25000
         2535.0          8.740         46.670       -999.250     -999.25000
         2535.5          8.740         47.640       -999.250     -999.25000
         2536.0          8.740         46.550       -999.250     -999.25000
         2536.5          8.740         42.620        108.170     -999.25000
         2537.0          8.740         38.690        122.990     -999.25000
         2537.5          8.750         34.830        119.730     -999.25000
         2538.0          8.790         33.920        122.920     -999.25000
         2538.5          8.910         41.380        128.420     -999.25000
         2539.0          9.250         52.260        132.640     -999.25000
         2539.5          9.520         63.000        103.400     -999.25000
         2540.0          9.400         73.870         81.920     -999.25000
         2540.5          9.240         85.090         91.940     -999.25000
         2541.0          9.230         88.010        118.620     -999.25000
         2541.5          9.240         90.610        107.540     -999.25000
         2542.0          9.250         93.670         90.190        0.23000
         2542.5          9.260         92.320         69.840        0.23000
         2543.0          9.270         89.230         80.540        0.29000
         2543.5          9.280         86.150         97.030        0.30000
         2544.0          9.290         83.450        116.860        0.30000
         2544.5          9.280         82.670        108.580        0.30000
         2545.0          9.270         83.800        113.350        0.30000
         2545.5          9.250         86.150        119.760        0.30000
         2546.0          9.230         93.490        124.950        0.30000
         2546.5          9.200         99.010        122.320        0.30000
         2547.0          9.180        103.660        103.040        0.30000
         2547.5          9.150        109.160         83.920        0.20000
         2548.0          9.130        114.540         71.860        0.17000
         2548.5          9.100        123.010         71.350        0.17000
         2549.0          9.080        130.600         70.800        0.16000
         2549.5          9.100        134.090         70.630        0.17000
         2550.0          9.120        152.990         75.660        0.20000
         2550.5          9.140        172.400         98.550        0.26000
         2551.0          9.160        187.740        111.640        0.30000
         2551.5          9.180        167.720        110.400        0.30000
         2552.0          9.190        141.790        114.190        0.30000
         2552.5          9.210        100.850        118.230        0.30000
         2553.0          9.230         77.500         92.660        0.25000
         2553.5          9.250         67.830         73.880        0.18000
         2554.0          9.270         70.130         75.900        0.24000
         2554.5          9.290         94.810        100.380        0.30000
         2555.0          9.300        112.590        114.210        0.30000
         2555.5          9.320        138.250        126.270        0.30000
         2556.0          9.340        141.810        135.120        0.30000
         2556.5          9.360        121.730        123.700        0.30000
         2557.0          9.380        100.030        106.360        0.30000
         2557.5          9.410         79.410         88.220        0.30000
         2558.0          9.450         69.470         71.090        0.16000
         2558.5          9.500         68.010         70.610        0.16000
         2559.0          9.520         68.690         72.600        0.18000
         2559.5          9.540         69.300         79.210        0.26000
         2560.0          9.560         69.920         85.900        0.30000
         2560.5          9.580         70.690         92.760        0.30000
         2561.0          9.600         74.660         87.320        0.25000
         2561.5          9.620         78.700         80.110        0.18000
         2562.0          9.640         81.590         73.440        0.18000
         2562.5          9.660         80.580         72.450        0.18000
         2563.0          9.680         80.840         72.150        0.17000
         2563.5          9.690         82.700         72.300        0.18000
         2564.0          9.710         83.590         73.470        0.19000
         2564.5          9.720         81.320         74.810        0.20000
         2565.0          9.740         77.890         76.140        0.21000
         2565.5          9.750         75.710         77.330        0.21000
         2566.0          9.760         73.520         78.010        0.21000
         2566.5          9.770         71.310         78.150        0.22000
         2567.0          9.780         69.680         78.300        0.23000
         2567.5          9.780         69.690         80.280        0.24000
         2568.0          9.790         69.200         82.690        0.25000
         2568.5          9.810         64.090         83.370        0.28000
         2569.0          9.840         58.460         97.530        0.30000
         2569.5          9.880         52.780        103.300        0.30000
         2570.0          9.910         47.340        106.490        0.30000
         2570.5          9.940         44.530        101.380        0.30000
         2571.0          9.980         45.750         96.260        0.30000
         2571.5         10.010         47.850         93.170        0.30000
         2572.0         10.050         49.450         91.780        0.30000
         2572.5         10.080         47.260         88.680        0.30000
         2573.0         10.130         44.170        104.470        0.30000
         2573.5         10.180         42.120        130.750        0.30000
         2574.0         10.220         42.200        152.330        0.30000
         2574.5         10.250         42.620        140.810        0.30000
         2575.0         10.280         43.050        131.730        0.30000
         2575.5         10.300         43.480        147.320        0.30000
         2576.0         10.330         43.910        144.000        0.30000
         2576.5         10.350         44.530        112.480        0.30000
         2577.0         10.380         45.250         98.010        0.30000
         2577.5         10.400         45.320         93.180        0.30000
         2578.0         10.410         42.970         91.760        0.30000
         2578.5         10.400         40.690         90.210        0.30000
         2579.0         10.400         39.040         88.670        0.29000
         2579.5         10.400         39.650         87.620        0.28000
         2580.0         10.390         41.580         86.970        0.28000
         2580.5         10.390         43.870         86.600        0.28000
         2581.0         10.390         46.180         88.460        0.29000
         2581.5         10.400         48.470         90.310        0.30000
         2582.0         10.410         49.750         92.140        0.30000
         2582.5         10.410         51.060         90.480        0.30000
