#--------------------------------------------------#
#-------------------ENVERUS, INC.------------------#
#------------------WWW.ENVERUS.COM-----------------#
#------------------COPYRIGHT 2020------------------#
#--------------------------------------------------#
#THIS FILE MAY BE USED ONLY IN ACCORDANCE WITH A CURRENT SUBSCRIPTION AGREEMENT BETWEEN
#THE USER AND ENVERUS, INC. NO PART OF THIS FILE MAY BE REPRODUCED, USED, COPIED,
#MODIFIED, PROPAGATED, OR DISTRIBUTED EXCEPT IN ACCORDANCE WITH THE SUBSCRIPTION
#AGREEMENT. UNAUTHORIZED USE OR DISTRIBUTION OF ALL OR ANY PART OF THIS FILE MAY VIOLATE
#COPYRIGHT, TRADEMARK, AND/OR OTHER LAWS AND IS SUBJECT TO CIVIL AS WELL AS CRIMINAL
#SANCTIONS.
#--------------------------------------------------#
#THIS FILE IS PROVIDED "AS-IS" AND ALL WARRANTIES ARE EXPRESSLY DISCLAIMED, WHETHER
#EXPRESS, ORAL, IMPLIED, STATUTORY OR OTHERWISE, INCLUDING ANY IMPLIED WARRANTY OF FITNESS
#FOR A PARTICULAR PURPOSE, MERCHANTABILITY, TITLE OR NON-INFRINGEMENT, AND ANY WARRANTIES
#ARISING BY VIRTUE OF CUSTOM OF TRADE OR COURSE OF DEALING.  FURTHER, ENVERUS, INC.
#AND ITS LICENSORS DO NOT REPRESENT OR WARRANT THAT THIS FILE WILL MEET USER'S
#REQUIREMENTS OR ARE SUITABLE FOR USER'S NEEDS OR THAT THE DATA OR RESULTS PROVIDED IN
#CONJUNCTION THEREWITH ARE CORRECT, ACCURATE, TIMELY OR RELIABLE. THESE DISCLAIMERS SHALL
#APPLY REGARDLESS OF ANY FAILURE OF ESSENTIAL PURPOSE OF ANY LIMITED REMEDY.  SOME
#JURISDICTIONS DO NOT ALLOW THE EXCLUSION OF CERTAIN WARRANTIES SO SOME OF THE ABOVE
#EXCLUSIONS MAY NOT APPLY. IN NO EVENT SHALL ENVERUS, INC. OR ANY OF ITS AFFILIATES
#BE LIABLE UNDER ANY LEGAL THEORY, WHETHER IN TORT (INCLUDING WITHOUT LIMITATION
#NEGLIGENCE), CONTRACT, STRICT LIABILITY, STATUTORY OR OTHERWISE, FOR ANY SPECIAL,
#INCIDENTAL, CONSEQUENTIAL, EXEMPLARY, PUNITIVE OR INDIRECT DAMAGE OF ANY KIND, INCLUDING
#WITHOUT LIMITATION LOSS OF REVENUE, PROFITS, GOODWILL, USE, AND/OR DATA OR THE COST OF
#PROCUREMENT OF SUBSTITUTE GOODS OR SERVICES, EVEN IF APPRISED OF THE POSSIBILITY OF SUCH
#DAMAGES IN ADVANCE.
#--------------------------------------------------#

~VERSION INFORMATION
VERS. 2.0 : CWLS LOG ASCII STANDARD - VERSION 2.0
WRAP.  NO : ONE LINE PER DEPTH STEP
~WELL INFORMATION
#MNEMONIC     .UNIT              VALUE :DESCRIPTION
STRT       .FT                47 :START DEPTH
STOP       .FT                15730 :STOP DEPTH
STEP       .FT                   0.500 :STEP
NULL       .                  -999.250 :NULL
UWI        .              42389303580000 :UNIQUE WELL ID
API        .              42389303580000 :API NUMBER
COMP       .         CIMAREX ENERGY CO. OF COLORADO :COMPANY
WELL       .        REEVES  AZ  FEE  1 :WELL
DATE       .                08-JAN-2006 :LOG DATE
~CURVE INFORMATION
#MNEMONIC     .UNIT      API CODE :CURVE DESCRIPTION
DEPTH       .FT                      :MEASURED DEPTH
NEUT.API        UNKNOWN   :NEUT
GR.API        UNKNOWN   :GR
DT.US/FT        UNKNOWN   :DT
CAL.INCH        UNKNOWN   :CAL
~A    DEPTH    NEUT    GR    DT    CAL
# ...
 15583.5     929.864   117.019   -999.250   -999.250
 15584     935.51   116.02   -999.250   -999.250
 15584.5     941.155   114.888   -999.250   -999.250
 15585     924.577   113.756   -999.250   -999.250
 15585.5     909.636   112.624   -999.250   -999.250
 15586     918.092   111.574   -999.250   -999.250
 15586.5     926.548   112.024   -999.250   -999.250
 15587     935.004   112.475   -999.250   -999.250
 15587.5     943.46   112.925   -999.250   -999.250
 15588     940.996   113.376   -999.250   -999.250
 15588.5     938.146   113.826   -999.250   -999.250
 15589     935.295   114.277   -999.250   -999.250
 15589.5     933.192   114.626   -999.250   -999.250
 15590     934.248   113.069   -999.250   -999.250
 15590.5     935.304   113.24   -999.250   -999.250
 15591     934.429   114.327   -999.250   -999.250
 15591.5     932.595   115.413   -999.250   -999.250
 15592     930.761   116.5   -999.250   -999.250
 15592.5     938.182   117.587   -999.250   -999.250
 15593     949.018   118.673   -999.250   -999.250
 15593.5     959.853   119.404   -999.250   -999.250
 15594     970.689   117.387   -999.250   -999.250
 15594.5     981.525   115.37   -999.250   -999.250
 15595     992.36   113.352   -999.250   -999.250
 15595.5     994.625   111.36   -999.250   -999.250
 15596     982.916   109.407   -999.250   -999.250
 15596.5     971.207   107.644   -999.250   -999.250
 15597     959.498   108.681   -999.250   -999.250
 15597.5     947.789   109.719   -999.250   -999.250
 15598     947.795   110.756   -999.250   -999.250
 15598.5     950.821   111.793   -999.250   -999.250
 15599     953.848   112.831   -999.250   -999.250
 15599.5     999.237   111.806   -999.250   -999.250
 15600     1015.407   110.617   -999.250   -999.250
 15600.5     1031.578   110.98   -999.250   -999.250
 15601     1047.748   112.388   -999.250   -999.250
 15601.5     1063.919   113.797   -999.250   -999.250
 15602     1080.089   113.964   -999.250   -999.250
 15602.5     1096.26   113.809   -999.250   -999.250
 15603     1103.206   113.654   -999.250   -999.250
 15603.5     1104.049   113.499   -999.250   -999.250
 15604     1107.526   113.344   -999.250   -999.250
 15604.5     1113.64   112.165   -999.250   -999.250
 15605     1119.755   110.468   -999.250   -999.250
 15605.5     1125.869   108.77   -999.250   -999.250
 15606     1128.62   107.073   -999.250   -999.250
 15606.5     1129.942   107.11   -999.250   -999.250
 15607     1131.263   107.263   -999.250   -999.250
 15607.5     1133.963   107.416   -999.250   -999.250
 15608     1139.374   107.569   -999.250   -999.250
 15608.5     1144.785   107.722   -999.250   -999.250
 15609     1150.196   108.636   -999.250   -999.250
 15609.5     1150.697   109.735   -999.250   -999.250
 15610     1147.032   110.179   -999.250   -999.250
 15610.5     1143.368   109.884   -999.250   -999.250
 15611     1135.421   109.59   -999.250   -999.250
 15611.5     1124.695   109.296   -999.250   -999.250
 15612     1113.97   109.002   -999.250   -999.250
 15612.5     1098.234   108.708   -999.250   -999.250
 15613     1068.905   108.878   -999.250   -999.250
 15613.5     1039.576   109.723   -999.250   -999.250
 15614     1010.247   110.568   -999.250   -999.250
 15614.5     980.918   111.413   -999.250   -999.250
 15615     951.589   111.689   -999.250   -999.250
 15615.5     933.565   111.688   -999.250   -999.250
 15616     926.607   111.687   -999.250   -999.250
 15616.5     929.559   111.686   -999.250   -999.250
 15617     934.5   113.435   -999.250   -999.250
 15617.5     949.153   115.294   -999.250   -999.250
 15618     986.144   115.687   -999.250   -999.250
 15618.5     1023.136   115.121   -999.250   -999.250
 15619     1044.288   114.556   -999.250   -999.250
 15619.5     1025.083   113.99   -999.250   -999.250
 15620     1005.878   114.025   -999.250   -999.250
 15620.5     986.673   114.93   -999.250   -999.250
 15621     970.77   115.836   -999.250   -999.250
 15621.5     975.799   117.213   -999.250   -999.250
 15622     980.828   121.491   -999.250   -999.250
 15622.5     985.857   125.768   -999.250   -999.250
 15623     981.059   130.045   -999.250   -999.250
 15623.5     979.362   129.623   -999.250   -999.250
 15624     983.597   128.448   -999.250   -999.250
 15624.5     987.833   127.273   -999.250   -999.250
 15625     990.269   126.098   -999.250   -999.250
 15625.5     981.388   124.923   -999.250   -999.250
 15626     972.507   123.748   -999.250   -999.250
 15626.5     967.034   123.449   -999.250   -999.250
 15627     974.031   123.363   -999.250   -999.250
 15627.5     981.027   121.915   -999.250   -999.250
 15628     988.024   118.943   -999.250   -999.250
 15628.5     995.021   115.97   -999.250   -999.250
 15629     1002.017   112.998   -999.250   -999.250
 15629.5     975.929   111.036   -999.250   -999.250
 15630     949.57   111.617   -999.250   -999.250
 15630.5     935.588   112.197   -999.250   -999.250
 15631     921.664   112.778   -999.250   -999.250
 15631.5     926.745   112.473   -999.250   -999.250
 15632     931.826   111.442   -999.250   -999.250
 15632.5     951.324   110.412   -999.250   -999.250
 15633     972.527   109.991   -999.250   -999.250
 15633.5     993.73   111.078   -999.250   -999.250
 15634     1000.041   112.165   -999.250   -999.250
 15634.5     990.173   113.324   -999.250   -999.250
 15635     976.022   118.216   -999.250   -999.250
 15635.5     955.269   123.108   -999.250   -999.250
 15636     934.516   125.352   -999.250   -999.250
 15636.5     913.763   126.338   -999.250   -999.250
 15637     900.941   127.324   -999.250   -999.250
 15637.5     911.229   128.31   -999.250   -999.250
 15638     921.518   127.108   -999.250   -999.250
 15638.5     931.806   123.497   -999.250   -999.250
 15639     957.137   121.952   -999.250   -999.250
 15639.5     984.75   121.697   -999.250   -999.250
 15640     1012.363   121.442   -999.250   -999.250
 15640.5     1023.618   121.187   -999.250   -999.250
 15641     1013.75   120.932   -999.250   -999.250
 15641.5     996.13   115.43   -999.250   -999.250
 15642     964.156   113.491   -999.250   -999.250
 15642.5     932.181   111.552   -999.250   -999.250
 15643     900.206   110.022   -999.250   -999.250
 15643.5     868.231   109.88   -999.250   -999.250
 15644     836.256   109.737   -999.250   -999.250
 15644.5     816.956   109.595   -999.250   -999.250
 15645     849.467   109.505   -999.250   -999.250
 15645.5     880.238   111.125   -999.250   -999.250
 15646     910.826   112.745   -999.250   -999.250
 15646.5     941.413   114.381   -999.250   -999.250
 15647     972.001   116.072   -999.250   -999.250
 15647.5     1002.588   117.762   -999.250   -999.250
 15648     1033.176   119.452   -999.250   -999.250
 15648.5     1043.597   121.143   -999.250   -999.250
 15649     1051.348   122.622   -999.250   -999.250
 15649.5     1052.399   121.962   -999.250   -999.250
 15650     1040.855   121.302   -999.250   -999.250
 15650.5     1029.31   120.642   -999.250   -999.250
 15651     1017.9   119.982   -999.250   -999.250
 15651.5     1015.761   120.289   -999.250   -999.250
 15652     1013.623   120.712   -999.250   -999.250
 15652.5     1011.484   121.134   -999.250   -999.250
 15653     1021.125   119.828   -999.250   -999.250
 15653.5     1036.892   117.496   -999.250   -999.250
 15654     1052.66   113.377   -999.250   -999.250
 15654.5     1068.428   108.706   -999.250   -999.250
 15655     1080.11   107.935   -999.250   -999.250
 15655.5     1085.825   107.581   -999.250   -999.250
 15656     1091.539   107.187   -999.250   -999.250
 15656.5     1097.254   106.445   -999.250   -999.250
 15657     1101.559   105.703   -999.250   -999.250
 15657.5     1099.725   104.961   -999.250   -999.250
 15658     1097.891   104.602   -999.250   -999.250
 15658.5     1097.939   104.883   -999.250   -999.250
 15659     1103.654   105.164   -999.250   -999.250
 15659.5     1109.368   105.445   -999.250   -999.250
 15660     1115.083   105.886   -999.250   -999.250
