###############################################
##         ENVERUS                           ##
##         ESS - Open Hole                   ##
##         PERMIAN / DELAWARE                ##
##         Nov 04 2023  V4.0                 ##
##         42-389-32421-01-00                ##
###############################################
## Copyright 2017-2023  ENVERUS.  All Rights Reserved. 
## Confidential - Property of ENVERUS, use governed by terms and 
## conditions found within the existing Information Services Subscription Agreement 
## (as may be amended, the “ISSA”) between Customer and ENVERUS. 
## 
~VERSION INFORMATION
# MNEM.UNIT                               DATA : DESCRIPTION OF MNEMONIC
#-----.-----     ----------------------------- : -----------------------------
VERS.                                     2.00 : CWLS LOG ASCII STANDARD - VERSION 2.00
WRAP.                                       NO : MULTIPLE LINES PER DEPTH STEP
VEND.                                  ENVERUS : VENDOR
TYPE.                          ESS - OPEN HOLE : ENVERUS ESSENTIAL CURVES – ACCESSIBLE THROUGH ENVERUS PRISM(TM)
DOC.                                  51227099 : ENVERUS HEADER RAW DOCUMENT ID
#___________________________________________________________________________________________________ 
~WELL INFORMATION 
# zrraAS4ibxVPgm4F4FjILRFQbgMcjf5VKWH9QXz9oP+5l3DBeEvHFHP9dTNjNwXm2+WMaTXZz7qhRLDoyN0AVg== 
# MNEM.UNIT                                              DATA : DESCRIPTION OF MNEMONIC 
#-----.-----                    ----------------------------- : ----------------------------- 
CNTY.                                                  REEVES : COUNTY 
STATE.                                                  TEXAS : STATE 
CNTRY.                                                    USA : COUNTRY 
API.                                             42-389-32421 : API (10 Digit) 
API_14.                                    42-389-32421-01-00 : API (14 Digits) 
API_14_std.                                 42-389-32421-0100 : API (14 Digits Standard) 
UWI.                                           42389324210100 : UNIQUE WELL ID 
WELL.                                      ARMSTRONG STATE #1 : WELL NAME
STRT.FT                                                2000.0 : START DEPTH
STOP.FT                                               14700.0 : STOP DEPTH
STEP.FT                                                   0.5 : STEP BETWEEN DEPTHS
NULL.                                                 -999.25 : NULL VALUE
COMP.                                   BULLDOG OPERATING CO. : COMPANY 
FLD.                                                  WILDCAT : FIELD 
LOC.                                                3-59-2778 : LOCATION 
SRVC.                                            SCHLUMBERGER : SERVICE COMPANY 
DATE.                                              08/28/2006 : DATE 
PREV_APII.                                       423893242100 : API NUMBER 
PREV_UWI.                                        423893242100 : UWI NUMBER 
TVD.                                                       NO : TVD FLAG
#___________________________________________________________________________________________________ 
~PARAMETER INFORMATION 
# MNEM.UNIT                                              DATA : DESCRIPTION OF MNEMONIC 
#-----.-----                    ----------------------------- : ----------------------------- 
RUN.                                                      ONE : RUN NUMBER 
PDAT.                                                      GL : PERMANENT DATUM 
EPD.FT                                              3134.8000 : ELEVATION OF PERM. DATUM 
LMF.                                            KELLY BUSHING : LOG MEASURED FROM 
EKB.FT                                              3157.8000 : ELEVATION OF KELLY BUSHING 
DF.FT                                               3156.8000 : ELEVATION OF DERRICK FLOOR 
GL.FT                                               3134.8000 : ELEVATION OF GROUND LEVEL 
TD.FT                                              14700.0000 : TOTAL DEPTH 
BHT.DEGF                                               230.00 : BOTTOM HOLE TEMPERATURE 
BLI.FT                                             14700.0000 : BOTTOM LOG INTERVAL 
CSGSIZE.IN                                             9.6250 : CASING SIZE 
BITSIZE.IN                                              8.750 : BITSIZE 
CSGD.FT                                                  2014 : CASING BOTTOM (DRILLER) 1 
CSGL.FT                                                  2014 : CASING BOTTOM (LOGGER) 1 
MUD.                                                    BRINE : DRILLING FLUID TYPE 
MUDV.CP                                               31.0000 : DRILLING FLUID VISCOSITY 
MUDD.LB/USG                                            9.3000 : DRILLING FLUID DENSITY 
FL.ML/30MIN                                           13.0000 : DRILLING FLUID LOSS 
PH.                                                   10.0000 : DRILLING FLUID PH 
MUDS.                                        CIRCULATION TANK : MUD SAMPLE SOURCE 
RM.OHMM                                                0.0540 : RESISTIVITY OF MUD SAMPLE 
RMT.DEGF                                              90.0000 : MUD SAMPLE TEMPERATURE 
RMF.OHMM                                               0.0640 : MUD FILTRATE RESISTIVITY 
RMFT.DEGF                                             80.0000 : MUD FILTRATE SAMPLE TEMPERATURE
#___________________________________________________________________________________________________ 
~CURVE INFORMATION 
# MNEM.UNIT           : CURVE DESCRIPTION 
#-----.-----          : ----------------------------- 
 DEPT.FT               : MEASURED DEPTH 
 DT.US/FT              : SONIC DELTA TRANSIT TIME (DELTA T) 
 SPHI.V/V              : SONIC POROSITY (SONIC POROSITY) 
 #___________________________________________________________________________________________________ 
~A         DEPT             DT           SPHI
# ...
        14615.0         46.249       -0.00800
        14615.5         46.149       -0.00800
        14616.0         46.049       -0.00800
        14616.5         45.949       -0.00900
        14617.0         45.849       -0.01000
        14617.5         45.748       -0.01100
        14618.0         45.648       -0.01100
        14618.5         45.533       -0.01100
        14619.0         45.655       -0.01100
        14619.5         45.798       -0.01100
        14620.0         45.936       -0.01300
        14620.5         45.563       -0.01400
        14621.0         45.206       -0.01600
        14621.5         44.968       -0.01600
        14622.0         45.135       -0.01400
        14622.5         45.302       -0.01300
        14623.0         45.469       -0.01100
        14623.5         45.561       -0.01200
        14624.0         45.607       -0.01200
        14624.5         45.655       -0.01300
        14625.0         45.701       -0.01300
        14625.5         45.738       -0.01200
        14626.0         46.010       -0.01000
        14626.5         46.237       -0.00800
        14627.0         46.463       -0.00600
        14627.5         46.689       -0.00600
        14628.0         46.543       -0.00700
        14628.5         46.295       -0.00900
        14629.0         46.121       -0.00900
        14629.5         46.080       -0.00900
        14630.0         46.038       -0.00800
        14630.5         45.996       -0.00800
        14631.0         45.954       -0.00800
        14631.5         46.061       -0.00700
        14632.0         46.289       -0.00600
        14632.5         46.516       -0.00400
        14633.0         46.744       -0.00300
        14633.5         46.942       -0.00200
        14634.0         46.445       -0.00500
        14634.5         46.007       -0.00900
        14635.0         45.533       -0.01200
        14635.5         45.533       -0.01200
        14636.0         45.533       -0.01200
        14636.5         45.533       -0.01300
        14637.0         45.533       -0.01300
        14637.5         45.533       -0.01300
        14638.0         45.533       -0.01300
        14638.5         45.533       -0.01300
        14639.0         45.533       -0.01300
        14639.5         45.533       -0.01300
        14640.0         45.538       -0.01400
        14640.5         45.379       -0.01500
        14641.0         45.046       -0.01700
        14641.5         44.712       -0.01900
        14642.0         44.331       -0.02000
        14642.5         44.527       -0.01800
        14643.0         44.753       -0.01700
        14643.5         44.979       -0.01500
        14644.0         45.206       -0.01500
        14644.5         45.492       -0.01200
        14645.0         45.849       -0.00900
        14645.5         46.207       -0.00600
        14646.0         46.565       -0.00200
        14646.5         46.923        0.00100
        14647.0         47.344       -0.00100
        14647.5         47.035       -0.00300
        14648.0         46.659       -0.00400
        14648.5         46.283       -0.00600
        14649.0         46.137       -0.00800
        14649.5         46.137       -0.00800
        14650.0         46.200       -0.00700
        14650.5         46.263       -0.00600
        14651.0         46.326       -0.00600
        14651.5         46.389       -0.00500
        14652.0         46.451       -0.00500
        14652.5         46.514       -0.00500
        14653.0         46.622       -0.00500
        14653.5         46.757       -0.00500
        14654.0         46.892       -0.00300
        14654.5         47.028       -0.00200
        14655.0         47.163       -0.00100
        14655.5         47.296        0.00100
        14656.0         47.274       -0.00100
        14656.5         46.990       -0.00300
        14657.0         46.706       -0.00400
        14657.5         46.422       -0.00600
        14658.0         46.138       -0.00800
        14658.5         45.853       -0.00900
        14659.0         45.533       -0.01000
        14659.5         45.698       -0.00800
        14660.0         45.888       -0.00700
        14660.5         46.077       -0.00800
        14661.0         46.123       -0.00900
        14661.5         46.103       -0.00900
        14662.0         46.083       -0.00900
        14662.5         46.062       -0.00800
        14663.0         46.042       -0.00800
        14663.5         46.022       -0.00700
        14664.0         46.002       -0.00700
        14664.5         45.982       -0.00800
        14665.0         45.961       -0.00800
        14665.5         45.941       -0.00900
        14666.0         45.875       -0.01000
        14666.5         45.790       -0.01100
        14667.0         45.706       -0.01100
        14667.5         45.624       -0.01200
        14668.0         45.534       -0.01100
        14668.5         45.677       -0.01100
        14669.0         45.827       -0.01000
        14669.5         45.978       -0.01000
        14670.0         46.135       -0.00900
        14670.5         46.075       -0.00900
        14671.0         46.011       -0.00800
        14671.5         45.947       -0.00800
        14672.0         46.100       -0.00700
        14672.5         46.316       -0.00600
        14673.0         46.536       -0.00500
        14673.5         46.287       -0.00600
        14674.0         46.036       -0.00800
        14674.5         45.784       -0.01100
        14675.0         45.734       -0.01100
        14675.5         45.734       -0.01200
        14676.0         45.653       -0.01200
        14676.5         45.552       -0.01200
        14677.0         45.451       -0.01300
        14677.5         45.350       -0.01300
        14678.0         45.249       -0.01400
        14678.5         45.148       -0.01500
        14679.0         45.048       -0.01600
        14679.5         44.947       -0.01700
        14680.0         44.846       -0.01800
        14680.5         44.730       -0.01800
        14681.0         44.755       -0.01700
        14681.5         44.784       -0.01700
        14682.0         44.813       -0.01600
        14682.5         44.843       -0.01600
        14683.0         44.872       -0.01700
        14683.5         44.903       -0.01900
        14684.0         44.931       -0.01900
        14684.5         45.000       -0.01700
        14685.0         45.065       -0.01500
        14685.5         45.137       -0.01400
        14686.0         45.512       -0.01200
        14686.5         45.924       -0.01000
        14687.0         45.929       -0.00900
        14687.5         45.508       -0.01300
        14688.0         45.131       -0.01600
        14688.5         45.250       -0.01500
        14689.0         45.358       -0.01400
        14689.5         45.467       -0.01400
        14690.0         45.575       -0.01300
        14690.5         45.684       -0.01200
        14691.0         45.729       -0.01200
        14691.5         45.718       -0.01200
        14692.0         45.706       -0.01200
        14692.5         45.695       -0.01200
        14693.0         45.683       -0.01200
        14693.5         45.671       -0.01200
        14694.0         45.660       -0.01200
        14694.5         45.648       -0.01200
        14695.0         45.637       -0.01200
        14695.5         45.625       -0.01200
        14696.0         45.614       -0.01300
        14696.5         45.602       -0.01300
        14697.0         45.591       -0.01300
        14697.5         45.579       -0.01300
        14698.0         45.568       -0.01300
        14698.5         45.556       -0.01300
        14699.0         45.545       -0.01300
        14699.5         45.533       -0.01300
        14700.0         45.533       -0.01300
