###############################################
##         ENVERUS                           ##
##         ESS - Open Hole                   ##
##         PERMIAN / DELAWARE                ##
##         Nov 04 2023  V4.0                 ##
##         42-389-30422-00-00                ##
###############################################
## Copyright 2017-2023  ENVERUS.  All Rights Reserved. 
## Confidential - Property of ENVERUS, use governed by terms and 
## conditions found within the existing Information Services Subscription Agreement 
## (as may be amended, the “ISSA”) between Customer and ENVERUS. 
## 
~VERSION INFORMATION
# MNEM.UNIT                               DATA : DESCRIPTION OF MNEMONIC
#-----.-----     ----------------------------- : -----------------------------
VERS.                                     2.00 : CWLS LOG ASCII STANDARD - VERSION 2.00
WRAP.                                       NO : MULTIPLE LINES PER DEPTH STEP
VEND.                                  ENVERUS : VENDOR
TYPE.                          ESS - OPEN HOLE : ENVERUS ESSENTIAL CURVES – ACCESSIBLE THROUGH ENVERUS PRISM(TM)
DOC.                                  31749874 : ENVERUS HEADER RAW DOCUMENT ID
#___________________________________________________________________________________________________ 
~WELL INFORMATION 
# u82sU1u0B8de5w9HEAjaYOtqLlVzfD+KUeD2ZoqivGgiUzwSeb1LYInaR9MNeJxDUIxxjb7EPbXz9g+KH10l6Q== 
# MNEM.UNIT                                              DATA : DESCRIPTION OF MNEMONIC 
#-----.-----                    ----------------------------- : ----------------------------- 
CNTY.                                                  REEVES : COUNTY 
STATE.                                                  TEXAS : STATE 
CNTRY.                                                    USA : COUNTRY 
API.                                             42-389-30422 : API (10 Digit) 
API_14.                                    42-389-30422-00-00 : API (14 Digits) 
API_14_std.                                 42-389-30422-0000 : API (14 Digits Standard) 
UWI.                                           42389304220000 : UNIQUE WELL ID 
WELL.                                    BECKHAM  AGNES 26  1 : WELL NAME
STRT.FT                                                  89.0 : START DEPTH
STOP.FT                                               15719.0 : STOP DEPTH
STEP.FT                                                   0.5 : STEP BETWEEN DEPTHS
NULL.                                                 -999.25 : NULL VALUE
COMP.                                     WALSH & WATTS  INC. : COMPANY
#___________________________________________________________________________________________________ 
~CURVE INFORMATION 
# MNEM.UNIT           : CURVE DESCRIPTION 
#-----.-----          : ----------------------------- 
 DEPT.FT               : MEASURED DEPTH 
 CALI.IN               : CALIPER (CAL - CAL) 
 GR.API                : GAMMA RAY (GR) 
 DT.US/FT              : SONIC DELTA TRANSIT TIME (DT) 
 #___________________________________________________________________________________________________ 
~A         DEPT           CALI             GR             DT
# ...
         3389.0       -999.250         41.840         83.552
         3389.5       -999.250         43.860         85.450
         3390.0       -999.250         46.025         86.929
         3390.5       -999.250         48.302         85.228
         3391.0       -999.250         50.578         83.526
         3391.5       -999.250         52.854         81.825
         3392.0       -999.250         49.895         83.260
         3392.5       -999.250         46.749         85.155
         3393.0       -999.250         42.249         87.050
         3393.5       -999.250         37.123         88.945
         3394.0       -999.250         34.036         90.840
         3394.5       -999.250         33.509         90.268
         3395.0       -999.250         33.106         88.789
         3395.5       -999.250         33.755         87.311
         3396.0       -999.250         34.405         86.710
         3396.5       -999.250         35.054         86.930
         3397.0       -999.250         34.982         87.149
         3397.5       -999.250         34.876         87.369
         3398.0       -999.250         34.770         87.588
         3398.5       -999.250         34.742         87.808
         3399.0       -999.250         36.447         88.028
         3399.5       -999.250         38.152         86.984
         3400.0       -999.250         39.857         85.738
         3400.5       -999.250         41.562         84.492
         3401.0       -999.250         43.268         83.246
         3401.5       -999.250         44.973         82.001
         3402.0       -999.250         45.636         80.755
         3402.5       -999.250         45.798         79.509
         3403.0       -999.250         45.961         78.079
         3403.5       -999.250         46.123         76.617
         3404.0       -999.250         46.285         75.620
         3404.5       -999.250         46.447         75.820
         3405.0       -999.250         46.169         76.019
         3405.5       -999.250         45.229         76.219
         3406.0       -999.250         44.288         76.455
         3406.5       -999.250         43.348         77.512
         3407.0       -999.250         42.408         78.570
         3407.5       -999.250         41.468         79.627
         3408.0       -999.250         40.527         80.685
         3408.5       -999.250         39.066         81.742
         3409.0       -999.250         36.867         81.717
         3409.5       -999.250         34.669         76.233
         3410.0       -999.250         32.470         74.559
         3410.5       -999.250         32.988         74.887
         3411.0       -999.250         33.611         75.215
         3411.5       -999.250         34.235         75.542
         3412.0       -999.250         34.858         76.251
         3412.5       -999.250         35.481         77.448
         3413.0       -999.250         36.105         78.644
         3413.5       -999.250         36.728         79.841
         3414.0       -999.250         37.271         81.037
         3414.5       -999.250         36.930         80.604
         3415.0       -999.250         36.589         79.649
         3415.5       -999.250         36.248         78.694
         3416.0       -999.250         35.907         77.739
         3416.5       -999.250         35.566         77.425
         3417.0       -999.250         35.224         78.334
         3417.5       -999.250         35.586         79.243
         3418.0       -999.250         36.807         80.152
         3418.5       -999.250         38.029         79.796
         3419.0       -999.250         39.250         79.121
         3419.5       -999.250         40.331         78.445
         3420.0       -999.250         39.992         77.811
         3420.5       -999.250         39.653         77.896
         3421.0       -999.250         39.315         77.709
         3421.5       -999.250         38.976         76.620
         3422.0       -999.250         38.637         75.530
         3422.5       -999.250         38.148         74.441
         3423.0       -999.250         37.568         73.351
         3423.5       -999.250         36.988         72.262
         3424.0       -999.250         36.408         71.995
         3424.5       -999.250         36.364         72.452
         3425.0       -999.250         36.517         72.909
         3425.5       -999.250         36.669         73.366
         3426.0       -999.250         36.822         73.749
         3426.5       -999.250         36.975         73.982
         3427.0       -999.250         37.128         74.215
         3427.5       -999.250         37.225         74.448
         3428.0       -999.250         36.521         73.669
         3428.5       -999.250         35.818         74.125
         3429.0       -999.250         35.114         76.769
         3429.5       -999.250         35.196         78.585
         3430.0       -999.250         35.888         77.037
         3430.5       -999.250         36.581         75.489
         3431.0       -999.250         37.273         73.940
         3431.5       -999.250         37.966         72.392
         3432.0       -999.250         40.287         70.843
         3432.5       -999.250         42.936         70.247
         3433.0       -999.250         44.130         71.055
         3433.5       -999.250         45.007         71.826
         3434.0       -999.250         45.884         71.387
         3434.5       -999.250         46.762         70.947
         3435.0       -999.250         47.639         70.508
         3435.5       -999.250         49.114         70.069
         3436.0       -999.250         50.861         69.630
         3436.5       -999.250         52.609         69.191
         3437.0       -999.250         54.356         68.826
         3437.5       -999.250         59.933         68.715
         3438.0       -999.250         67.147         68.604
         3438.5       -999.250         74.362         68.493
         3439.0       -999.250         81.576         68.382
         3439.5       -999.250         88.791         68.271
         3440.0       -999.250         96.005         69.546
         3440.5       -999.250        103.219         71.356
         3441.0       -999.250         96.115         73.167
         3441.5       -999.250         88.065         74.978
         3442.0       -999.250         80.015         76.789
         3442.5       -999.250         71.965         78.600
         3443.0       -999.250         63.916         77.471
         3443.5       -999.250         68.361         72.064
         3444.0       -999.250         74.688         66.657
         3444.5       -999.250         81.015         61.250
         3445.0       -999.250         87.342         61.150
         3445.5       -999.250         93.669         63.593
         3446.0       -999.250         94.001         66.037
         3446.5       -999.250         86.264         68.480
         3447.0       -999.250         78.527         70.923
         3447.5       -999.250         70.790         73.366
         3448.0       -999.250         63.053         75.809
         3448.5       -999.250         55.316         76.656
         3449.0       -999.250         49.608         74.634
         3449.5       -999.250         49.930         72.612
         3450.0       -999.250         50.252         70.591
         3450.5       -999.250         50.574         68.569
         3451.0       -999.250         50.896         66.877
         3451.5       -999.250         51.218         67.544
         3452.0       -999.250         51.540         68.212
         3452.5       -999.250         51.862         68.879
         3453.0       -999.250         52.186         69.547
         3453.5       -999.250         57.387         70.215
         3454.0       -999.250         62.587         70.882
         3454.5       -999.250         67.788         71.030
