#--------------------------------------------------#
#-------------------ENVERUS, INC.------------------#
#------------------WWW.ENVERUS.COM-----------------#
#------------------COPYRIGHT 2020------------------#
#--------------------------------------------------#
#THIS FILE MAY BE USED ONLY IN ACCORDANCE WITH A CURRENT SUBSCRIPTION AGREEMENT BETWEEN
#THE USER AND ENVERUS, INC. NO PART OF THIS FILE MAY BE REPRODUCED, USED, COPIED,
#MODIFIED, PROPAGATED, OR DISTRIBUTED EXCEPT IN ACCORDANCE WITH THE SUBSCRIPTION
#AGREEMENT. UNAUTHORIZED USE OR DISTRIBUTION OF ALL OR ANY PART OF THIS FILE MAY VIOLATE
#COPYRIGHT, TRADEMARK, AND/OR OTHER LAWS AND IS SUBJECT TO CIVIL AS WELL AS CRIMINAL
#SANCTIONS.
#--------------------------------------------------#
#THIS FILE IS PROVIDED "AS-IS" AND ALL WARRANTIES ARE EXPRESSLY DISCLAIMED, WHETHER
#EXPRESS, ORAL, IMPLIED, STATUTORY OR OTHERWISE, INCLUDING ANY IMPLIED WARRANTY OF FITNESS
#FOR A PARTICULAR PURPOSE, MERCHANTABILITY, TITLE OR NON-INFRINGEMENT, AND ANY WARRANTIES
#ARISING BY VIRTUE OF CUSTOM OF TRADE OR COURSE OF DEALING.  FURTHER, ENVERUS, INC.
#AND ITS LICENSORS DO NOT REPRESENT OR WARRANT THAT THIS FILE WILL MEET USER'S
#REQUIREMENTS OR ARE SUITABLE FOR USER'S NEEDS OR THAT THE DATA OR RESULTS PROVIDED IN
#CONJUNCTION THEREWITH ARE CORRECT, ACCURATE, TIMELY OR RELIABLE. THESE DISCLAIMERS SHALL
#APPLY REGARDLESS OF ANY FAILURE OF ESSENTIAL PURPOSE OF ANY LIMITED REMEDY.  SOME
#JURISDICTIONS DO NOT ALLOW THE EXCLUSION OF CERTAIN WARRANTIES SO SOME OF THE ABOVE
#EXCLUSIONS MAY NOT APPLY. IN NO EVENT SHALL ENVERUS, INC. OR ANY OF ITS AFFILIATES
#BE LIABLE UNDER ANY LEGAL THEORY, WHETHER IN TORT (INCLUDING WITHOUT LIMITATION
#NEGLIGENCE), CONTRACT, STRICT LIABILITY, STATUTORY OR OTHERWISE, FOR ANY SPECIAL,
#INCIDENTAL, CONSEQUENTIAL, EXEMPLARY, PUNITIVE OR INDIRECT DAMAGE OF ANY KIND, INCLUDING
#WITHOUT LIMITATION LOSS OF REVENUE, PROFITS, GOODWILL, USE, AND/OR DATA OR THE COST OF
#PROCUREMENT OF SUBSTITUTE GOODS OR SERVICES, EVEN IF APPRISED OF THE POSSIBILITY OF SUCH
#DAMAGES IN ADVANCE.
#--------------------------------------------------#

~VERSION INFORMATION
VERS. 2.0 : CWLS LOG ASCII STANDARD - VERSION 2.0
WRAP.  NO : ONE LINE PER DEPTH STEP
~WELL INFORMATION
#MNEMONIC     .UNIT              VALUE :DESCRIPTION
STRT       .FT                24 :START DEPTH
STOP       .FT                5035 :STOP DEPTH
STEP       .FT                   0.500 :STEP
NULL       .                  -999.250 :NULL
UWI        .              42389314500000 :UNIQUE WELL ID
API        .              42389314500000 :API NUMBER
COMP       .         SLEDGE BROS. OIL CO. :COMPANY
WELL       .        ELIZABETH MITCHELL  1 :WELL
DATE       .                18-DEC-1983 :LOG DATE
~CURVE INFORMATION
#MNEMONIC     .UNIT      API CODE :CURVE DESCRIPTION
DEPTH       .FT                      :MEASURED DEPTH
CAL.INCH        UNKNOWN   :CAL
DT.US/FT        UNKNOWN   :DT
GR.API        UNKNOWN   :GR
~A    DEPTH    CAL    DT    GR
# ...
 2373.5     9.356   48.964   7.879
 2374     9.359   48.749   8.023
 2374.5     9.362   48.535   8.166
 2375     9.365   48.321   8.309
 2375.5     9.368   48.199   8.434
 2376     9.371   48.349   8.386
 2376.5     9.374   48.498   8.338
 2377     9.377   48.647   8.29
 2377.5     9.38   48.797   8.242
 2378     9.383   48.839   8.194
 2378.5     9.386   48.635   8.146
 2379     9.389   48.43   8.098
 2379.5     9.392   48.34   8.05
 2380     9.395   48.379   7.97
 2380.5     9.398   48.418   7.727
 2381     9.401   48.458   7.483
 2381.5     9.404   48.497   7.24
 2382     9.407   48.537   6.997
 2382.5     9.41   48.576   6.754
 2383     9.409   48.615   6.51
 2383.5     9.407   49.38   6.267
 2384     9.405   50.052   6.024
 2384.5     9.403   50.076   5.781
 2385     9.401   50.101   5.813
 2385.5     9.399   50.126   6.561
 2386     9.397   50.15   7.309
 2386.5     9.395   50.175   8.057
 2387     9.394   50.199   7.932
 2387.5     9.392   50.224   7.48
 2388     9.39   50.248   7.028
 2388.5     9.388   50.258   6.576
 2389     9.386   50.264   6.124
 2389.5     9.384   50.27   5.672
 2390     9.382   50.276   5.22
 2390.5     9.38   50.282   4.768
 2391     9.382   50.288   4.316
 2391.5     9.385   50.294   3.864
 2392     9.388   50.3   3.963
 2392.5     9.391   50.306   5.726
 2393     9.393   50.312   7.489
 2393.5     9.396   50.318   9.252
 2394     9.399   50.251   8.876
 2394.5     9.402   50.108   8.298
 2395     9.404   49.966   7.72
 2395.5     9.407   49.823   7.142
 2396     9.41   49.681   6.942
 2396.5     9.413   49.539   8.212
 2397     9.416   49.396   9.482
 2397.5     9.418   49.254   10.753
 2398     9.421   49.112   12.023
 2398.5     9.424   48.969   13.293
 2399     9.427   48.827   14.564
 2399.5     9.429   48.802   15.834
 2400     9.432   48.833   15.746
 2400.5     9.435   48.863   10.953
 2401     9.438   48.894   7.113
 2401.5     9.441   48.925   6.978
 2402     9.443   49.108   6.843
 2402.5     9.446   49.384   6.709
 2403     9.455   49.66   6.574
 2403.5     9.467   49.936   6.439
 2404     9.478   49.974   6.305
 2404.5     9.49   49.982   6.17
 2405     9.501   49.991   6.035
 2405.5     9.513   50   5.9
 2406     9.524   50.009   5.766
 2406.5     9.535   50.017   5.631
 2407     9.547   50.026   5.88
 2407.5     9.558   49.908   6.169
 2408     9.57   49.771   6.458
 2408.5     9.581   49.633   6.746
 2409     9.593   49.496   7.035
 2409.5     9.604   49.359   7.324
 2410     9.616   49.258   7.613
 2410.5     9.617   49.26   7.901
 2411     9.605   49.261   8.19
 2411.5     9.593   49.263   7.738
 2412     9.582   49.182   7.16
 2412.5     9.57   49.072   6.582
 2413     9.558   48.963   6.004
 2413.5     9.547   48.853   5.568
 2414     9.535   48.773   5.969
 2414.5     9.523   48.742   6.371
 2415     9.515   48.711   6.772
 2415.5     9.524   48.68   7.174
 2416     9.533   48.649   7.575
 2416.5     9.541   48.618   7.132
 2417     9.55   48.587   6.593
 2417.5     9.558   48.557   6.671
 2418     9.567   48.571   6.835
 2418.5     9.576   48.591   6.999
 2419     9.584   48.61   7.163
 2419.5     9.593   48.63   7.328
 2420     9.602   48.65   7.184
 2420.5     9.61   48.737   6.896
 2421     9.619   48.91   6.607
 2421.5     9.627   49.083   6.319
 2422     9.638   49.256   6.031
 2422.5     9.65   49.429   6.035
 2423     9.661   49.602   6.253
 2423.5     9.672   49.775   6.471
 2424     9.683   49.829   6.69
 2424.5     9.695   49.808   6.908
 2425     9.706   49.788   7.127
 2425.5     9.717   49.767   7.345
 2426     9.728   49.746   7.563
 2426.5     9.74   49.725   7.782
 2427     9.751   49.704   8
 2427.5     9.762   49.683   8.219
 2428     9.774   49.663   8.437
 2428.5     9.785   49.565   8.655
 2429     9.796   49.465   8.874
 2429.5     9.807   49.366   8.711
 2430     9.819   49.267   7.818
 2430.5     9.83   49.168   6.926
 2431     9.841   49.069   6.033
 2431.5     9.852   49.031   5.141
 2432     9.863   49.204   5.012
 2432.5     9.873   49.377   5.225
 2433     9.882   49.55   5.438
 2433.5     9.892   49.723   5.652
 2434     9.901   49.896   5.865
 2434.5     9.911   49.995   6.078
 2435     9.92   50.031   6.291
 2435.5     9.93   50.066   6.504
 2436     9.939   50.101   6.717
 2436.5     9.948   50.136   6.93
 2437     9.958   50.172   7.143
 2437.5     9.967   50.021   7.356
 2438     9.977   49.794   7.033
 2438.5     9.986   49.567   6.259
 2439     9.996   49.34   5.714
 2439.5     10.005   49.176   6.042
 2440     10.015   49.216   6.37
 2440.5     10.021   49.256   6.699
 2441     10.026   49.297   7.027
 2441.5     10.032   49.337   7.356
 2442     10.038   49.364   7.684
 2442.5     10.043   49.333   8.012
 2443     10.049   49.301   8.341
 2443.5     10.054   49.27   8.669
 2444     10.06   49.239   8.934
 2444.5     10.066   49.207   8.603
 2445     10.07   49.249   8.272
 2445.5     10.06   49.467   7.942
 2446     10.05   49.684   7.611
 2446.5     10.041   49.902   7.28
 2447     10.031   50.119   6.949
 2447.5     10.022   50.336   6.619
 2448     10.012   50.284   6.288
 2448.5     10.002   50.082   5.957
 2449     9.993   49.88   5.626
 2449.5     9.983   49.678   5.933
 2450     9.973   49.476   6.725
 2450.5     9.964   49.32   7.517
 2451     9.954   49.24   8.31
 2451.5     9.945   49.16   9.102
 2452     9.935   49.079   9.894
 2452.5     9.925   48.999   11.719
 2453     9.916   48.919   14.466
 2453.5     9.906   48.923   17.213
 2454     9.897   49.036   19.96
 2454.5     9.887   49.149   22.707
 2455     9.877   49.505   25.454
 2455.5     9.87   50.273   28.201
 2456     9.864   51.042   21.435
 2456.5     9.859   50.859   14.346
 2457     9.853   50.631   7.329
 2457.5     9.847   50.403   7.269
 2458     9.841   50.175   7.209
 2458.5     9.836   49.96   7.149
 2459     9.83   49.9   7.137
 2459.5     9.824   49.84   7.159
 2460     9.819   49.78   7.182
 2460.5     9.813   49.655   7.205
 2461     9.807   49.525   7.227
 2461.5     9.801   49.395   7.25
 2462     9.796   49.264   7.053
 2462.5     9.79   49.16   6.771
 2463     9.784   49.249   6.49
 2463.5     9.778   49.338   6.209
 2464     9.773   49.427   5.927
 2464.5     9.767   49.515   5.646
 2465     9.761   49.604   5.365
 2465.5     9.769   49.693   5.083
 2466     9.787   49.528   4.905
 2466.5     9.805   49.353   5.098
 2467     9.823   49.178   5.291
 2467.5     9.84   49.003   5.484
 2468     9.858   48.828   5.677
 2468.5     9.876   48.818   5.87
 2469     9.894   48.872   6.063
 2469.5     9.912   48.925   6.759
 2470     9.929   48.979   7.467
 2470.5     9.947   49.033   8.176
 2471     9.965   49.086   8.884
 2471.5     9.983   49.179   8.425
 2472     9.983   49.51   7.533
 2472.5     9.928   49.842   6.64
 2473     9.872   50.173   5.747
 2473.5     9.816   50.504   4.941
 2474     9.76   50.55   5.176
 2474.5     9.705   50.476   5.411
 2475     9.649   50.401   5.645
 2475.5     9.639   50.327   5.88
 2476     9.668   50.252   6.115
 2476.5     9.697   50.178   6.255
 2477     9.726   50.103   5.952
 2477.5     9.755   50.029   5.648
 2478     9.783   49.99   5.344
 2478.5     9.812   50.008   5.04
 2479     9.841   50.025   4.736
 2479.5     9.87   50.042   5.897
 2480     9.899   50.06   7.17
 2480.5     9.919   50.077   7.248
 2481     9.87   50.089   7.311
 2481.5     9.822   50.073   7.303
 2482     9.773   50.056   7.295
 2482.5     9.73   50.039   7.108
 2483     9.704   50.023   6.666
 2483.5     9.678   50.006   6.086
 2484     9.652   49.989   5.505
 2484.5     9.626   49.973   4.924
 2485     9.6   49.956   4.83
 2485.5     9.574   49.939   5.515
 2486     9.548   49.923   6.2
 2486.5     9.522   49.851   6.885
 2487     9.496   49.739   7.57
 2487.5     9.47   49.627   8.255
 2488     9.444   49.515   8.94
 2488.5     9.418   49.403   8.489
 2489     9.392   49.292   7.477
 2489.5     9.366   49.447   6.465
 2490     9.34   49.58   5.452
 2490.5     9.314   49.511   4.478
 2491     9.288   49.441   4.49
 2491.5     9.262   49.372   4.501
 2492     9.236   49.302   4.512
