###############################################
##         ENVERUS                           ##
##         ESS - Open Hole                   ##
##         PERMIAN / DELAWARE                ##
##         Nov 04 2023  V4.0                 ##
##         42-389-32421-01-00                ##
###############################################
## Copyright 2017-2023  ENVERUS.  All Rights Reserved. 
## Confidential - Property of ENVERUS, use governed by terms and 
## conditions found within the existing Information Services Subscription Agreement 
## (as may be amended, the “ISSA”) between Customer and ENVERUS. 
## 
~VERSION INFORMATION
# MNEM.UNIT                               DATA : DESCRIPTION OF MNEMONIC
#-----.-----     ----------------------------- : -----------------------------
VERS.                                     2.00 : CWLS LOG ASCII STANDARD - VERSION 2.00
WRAP.                                       NO : MULTIPLE LINES PER DEPTH STEP
VEND.                                  ENVERUS : VENDOR
TYPE.                          ESS - OPEN HOLE : ENVERUS ESSENTIAL CURVES – ACCESSIBLE THROUGH ENVERUS PRISM(TM)
DOC.                                  51226874 : ENVERUS HEADER RAW DOCUMENT ID
#___________________________________________________________________________________________________ 
~WELL INFORMATION 
# Tb73rb1SL3MkDZoC3l18/hn1AqNnLhXquKbAWMIBLpWCEGQs+cUq/9XFz1I3dh1trdNBSXyPtAuUBW0L3ONtkQ== 
# MNEM.UNIT                                              DATA : DESCRIPTION OF MNEMONIC 
#-----.-----                    ----------------------------- : ----------------------------- 
CNTY.                                                  REEVES : COUNTY 
STATE.                                                  TEXAS : STATE 
CNTRY.                                                    USA : COUNTRY 
API.                                             42-389-32421 : API (10 Digit) 
API_14.                                    42-389-32421-01-00 : API (14 Digits) 
API_14_std.                                 42-389-32421-0100 : API (14 Digits Standard) 
UWI.                                           42389324210100 : UNIQUE WELL ID 
WELL.                                      ARMSTRONG STATE  1 : WELL NAME
STRT.FT                                                 182.0 : START DEPTH
STOP.FT                                               14775.0 : STOP DEPTH
STEP.FT                                                   0.5 : STEP BETWEEN DEPTHS
NULL.                                                 -999.25 : NULL VALUE
PREV_UWI.                                      42389324210000 : UNIQUE WELL ID 
PREV_API.                                      42389324210000 : API NUMBER 
COMP.                                    STALEY OPERATING CO. : COMPANY 
DATE.                                             26-JUN-2006 : LOG DATE
#___________________________________________________________________________________________________ 
~CURVE INFORMATION 
# MNEM.UNIT           : CURVE DESCRIPTION 
#-----.-----          : ----------------------------- 
 DEPT.FT               : MEASURED DEPTH 
 CALI__A.IN            : CALIPER (CAL - CAL) 
 GR__A.API             : GAMMA RAY (GR) 
 DT__A.US/FT           : SONIC DELTA TRANSIT TIME (DT) 
 DPHI__A.V/V           : DENSITY POROSITY (DPHI) 
 NPHI__A.V/V           : NEUTRON POROSITY (NPHI) 
 RHOB__A.G/CC          : BULK DENSITY (RHOB) 
 #___________________________________________________________________________________________________ 
~A         DEPT        CALI__A          GR__A          DT__A        DPHI__A        NPHI__A        RHOB__A
# ...
         9644.0          9.757         33.050         54.463        0.00196        0.01935         2.7010
         9644.5          9.766         31.143         53.532        0.00105        0.01787         2.7050
         9645.0          9.774         34.453         53.749        0.00015        0.02202         2.7090
         9645.5          9.783         49.366         56.517        0.01243        0.03775         2.7090
         9646.0          9.791         64.881         60.981        0.02991        0.06111         2.6780
         9646.5          9.799         85.112         65.444        0.04739        0.10039         2.6480
         9647.0          9.808         81.561         63.974        0.04966        0.10893         2.6290
         9647.5          9.816         67.027         61.342        0.02224        0.09386         2.6530
         9648.0          9.817         51.986         59.108       -0.00500        0.07520         2.6770
         9648.5          9.818         51.834         60.626        0.01009        0.05770         2.7010
         9649.0          9.819         60.749         64.952        0.04657        0.08479         2.6790
         9649.5          9.820         73.120         73.610        0.08305        0.11737         2.5970
         9650.0          9.820         85.069         75.345        0.09710        0.14400         2.5440
         9650.5          9.821         87.720         77.040        0.09908        0.15119         2.5450
         9651.0          9.822         85.254         76.482        0.09338        0.15413         2.5460
         9651.5          9.823         84.046         75.924        0.09436        0.15375         2.5470
         9652.0          9.824         82.897         75.204        0.10039        0.15184         2.5420
         9652.5          9.824         81.677         74.280        0.10565        0.14943         2.5360
         9653.0          9.825         78.734         73.355        0.10403        0.13998         2.5310
         9653.5          9.826         76.225         72.431        0.09232        0.13054         2.5430
         9654.0          9.827         77.738         72.635        0.08084        0.12109         2.5560
         9654.5          9.828         83.075         73.288        0.08542        0.12583         2.5680
         9655.0          9.828         88.072         73.940        0.09000        0.14182         2.5720
         9655.5          9.829         90.863         74.592        0.09458        0.15609         2.5600
         9656.0          9.825         89.523         75.244        0.09523        0.15689         2.5490
         9656.5          9.820         85.984         73.338        0.08515        0.14940         2.5610
         9657.0          9.815         80.970         71.056        0.07935        0.13716         2.5720
         9657.5          9.810         76.800         71.023        0.07682        0.12492         2.5820
         9658.0          9.805         74.978         71.359        0.08203        0.12193         2.5730
         9658.5          9.799         75.608         72.054        0.08723        0.12428         2.5650
         9659.0          9.794         75.468         73.619        0.09066        0.12416         2.5540
         9659.5          9.789         75.479         75.184        0.09539        0.12032         2.5420
         9660.0          9.784         78.430         76.293        0.10847        0.12576         2.5300
         9660.5          9.779         84.360         76.842        0.11918        0.14224         2.5180
         9661.0          9.774         90.290         77.392        0.10750        0.15244         2.5110
         9661.5          9.768         96.289         78.334        0.09835        0.15621         2.5370
         9662.0          9.763        103.160         80.126        0.10256        0.16558         2.5450
         9662.5          9.758        110.031         81.918        0.10678        0.18019         2.5290
         9663.0          9.753        116.902         83.002        0.10647        0.18837         2.5360
         9663.5          9.748        110.271         81.116        0.10052        0.18672         2.5430
         9664.0          9.743        102.450         79.229        0.09456        0.17456         2.5500
         9664.5          9.737         88.156         76.770        0.09072        0.15814         2.5550
         9665.0          9.729         72.268         73.940        0.08921        0.14172         2.5580
         9665.5          9.721         63.063         71.109        0.08147        0.11408         2.5610
         9666.0          9.712         54.562         68.279        0.06457        0.08691         2.5660
         9666.5          9.704         46.061         65.448        0.04768        0.06467         2.6040
         9667.0          9.696         41.389         59.205        0.03102        0.04244         2.6410
         9667.5          9.687         44.641         59.214        0.01910        0.03751         2.6790
         9668.0          9.679         55.431         61.797        0.01613        0.05127         2.6820
         9668.5          9.671         71.525         64.416        0.04160        0.07682         2.6640
         9669.0          9.662         75.233         67.036        0.05470        0.10238         2.6460
         9669.5          9.654         71.017         67.644        0.06230        0.11149         2.6270
         9670.0          9.645         66.213         66.757        0.05304        0.10584         2.6180
         9670.5          9.637         61.369         65.871        0.04379        0.09988         2.6360
         9671.0          9.629         60.397         64.984        0.03904        0.09491         2.6420
         9671.5          9.620         61.825         67.094        0.03789        0.10194         2.6280
         9672.0          9.612         68.636         69.732        0.05076        0.11385         2.6140
         9672.5          9.606         75.270         72.330        0.06830        0.12572         2.6000
         9673.0          9.605         81.905         73.035        0.07865        0.12828         2.5860
         9673.5          9.603         83.578         74.621        0.07915        0.12854         2.5750
         9674.0          9.602         85.752         76.803        0.08254        0.12882         2.5740
         9674.5          9.601         94.552         78.984        0.09127        0.13358         2.5680
         9675.0          9.600        103.870         81.165        0.10001        0.14227         2.5520
         9675.5          9.599        101.494         78.397        0.10196        0.14818         2.5370
         9676.0          9.597         90.569         75.149        0.08403        0.13736         2.5770
         9676.5          9.596         77.545         71.901        0.06609        0.12088         2.6160
         9677.0          9.595         69.796         68.995        0.05398        0.10744         2.6160
         9677.5          9.594         67.152         67.947        0.05672        0.10202         2.6170
         9678.0          9.593         62.373         66.900        0.05947        0.09907         2.6170
         9678.5          9.591         55.981         65.851        0.05570        0.09255         2.6180
         9679.0          9.590         49.590         64.451        0.04363        0.08149         2.6180
         9679.5          9.589         47.565         63.051        0.03461        0.07042         2.6300
         9680.0          9.588         51.848         62.451        0.03511        0.08124         2.6380
         9680.5          9.587         69.367         67.045        0.04940        0.11636         2.6160
         9681.0          9.585         86.952         71.640        0.06971        0.14652         2.5940
         9681.5          9.584        103.411         74.642        0.09001        0.16505         2.5720
