###############################################
##         ENVERUS                           ##
##         ESS - Open Hole                   ##
##         PERMIAN / DELAWARE                ##
##         Nov 04 2023  V4.0                 ##
##         42-389-30424-00-00                ##
###############################################
## Copyright 2017-2023  ENVERUS.  All Rights Reserved. 
## Confidential - Property of ENVERUS, use governed by terms and 
## conditions found within the existing Information Services Subscription Agreement 
## (as may be amended, the “ISSA”) between Customer and ENVERUS. 
## 
~VERSION INFORMATION
# MNEM.UNIT                               DATA : DESCRIPTION OF MNEMONIC
#-----.-----     ----------------------------- : -----------------------------
VERS.                                     2.00 : CWLS LOG ASCII STANDARD - VERSION 2.00
WRAP.                                       NO : MULTIPLE LINES PER DEPTH STEP
VEND.                                  ENVERUS : VENDOR
TYPE.                          ESS - OPEN HOLE : ENVERUS ESSENTIAL CURVES – ACCESSIBLE THROUGH ENVERUS PRISM(TM)
DOC.                                  32008121 : ENVERUS HEADER RAW DOCUMENT ID
#___________________________________________________________________________________________________ 
~WELL INFORMATION 
# BBd8zmUYmd+wUdICSlYDIOWaOe8iOeA0ELK9EhSbx74Kr6OX4zJxS/eo6cO6KK5SWMTSkVzaKbU2EBBfROvOKA== 
# MNEM.UNIT                                              DATA : DESCRIPTION OF MNEMONIC 
#-----.-----                    ----------------------------- : ----------------------------- 
CNTY.                                                  REEVES : COUNTY 
STATE.                                                  TEXAS : STATE 
CNTRY.                                                    USA : COUNTRY 
API.                                             42-389-30424 : API (10 Digit) 
API_14.                                    42-389-30424-00-00 : API (14 Digits) 
API_14_std.                                 42-389-30424-0000 : API (14 Digits Standard) 
UWI.                                           42389304240000 : UNIQUE WELL ID 
WELL.                                      LEWELLING STATE  1 : WELL NAME
STRT.FT                                                   7.0 : START DEPTH
STOP.FT                                               15912.0 : STOP DEPTH
STEP.FT                                                   0.5 : STEP BETWEEN DEPTHS
NULL.                                                 -999.25 : NULL VALUE
COMP.                           PENN VIRGINIA OIL & GAS CORP. : COMPANY 
DATE.                                             14-AUG-1976 : LOG DATE
#___________________________________________________________________________________________________ 
~CURVE INFORMATION 
# MNEM.UNIT           : CURVE DESCRIPTION 
#-----.-----          : ----------------------------- 
 DEPT.FT               : MEASURED DEPTH 
 CALI__A.IN            : CALIPER (CAL - CAL) 
 GR__A.API             : GAMMA RAY (GR) 
 DT__A.US/FT           : SONIC DELTA TRANSIT TIME (DT) 
 DPHI__A.V/V           : DENSITY POROSITY (DPHI) 
 NPHI__A.V/V           : NEUTRON POROSITY (NPHI) 
 #___________________________________________________________________________________________________ 
~A         DEPT        CALI__A          GR__A          DT__A        DPHI__A        NPHI__A
# ...
        11447.0          9.979         52.054       -999.250        0.05471        0.18223
        11447.5          9.962         50.232       -999.250        0.07338        0.19300
        11448.0          9.945         50.451       -999.250        0.08598        0.18370
        11448.5          9.929         50.669       -999.250        0.06649        0.17440
        11449.0         10.133         54.523       -999.250        0.06826        0.20351
        11449.5         10.338         59.401       -999.250        0.09115        0.22931
        11450.0         10.325         61.162       -999.250        0.10541        0.23571
        11450.5         10.255         62.556       -999.250        0.11444        0.23826
        11451.0         10.209         62.699       -999.250        0.10802        0.23786
        11451.5         10.222         61.695       -999.250        0.10160        0.21853
        11452.0         10.234         62.216       -999.250        0.09696        0.22290
        11452.5         10.246         62.582       -999.250        0.09408        0.22726
        11453.0         10.258         62.583       -999.250        0.09120        0.23163
        11453.5         10.270         60.497       -999.250        0.08904        0.23186
        11454.0         10.249         58.391       -999.250        0.10741        0.23320
        11454.5         10.205         58.523       -999.250        0.11448        0.25585
        11455.0         10.161         60.286       -999.250        0.12992        0.27132
        11455.5         10.116         61.134       -999.250        0.12066        0.25583
        11456.0         10.072         60.087       -999.250        0.09514        0.24034
        11456.5         10.028         57.479       -999.250        0.08817        0.22494
        11457.0          9.984         54.871       -999.250        0.08120        0.20978
        11457.5          9.943         52.436       -999.250        0.08989        0.19462
        11458.0          9.938         50.107       -999.250        0.08223        0.18270
        11458.5          9.933         47.652       -999.250        0.07524        0.17269
        11459.0          9.928         40.090       -999.250        0.07276        0.16199
        11459.5          9.923         32.540       -999.250        0.06264        0.15060
        11460.0          9.918         26.519       -999.250        0.06028        0.13921
        11460.5          9.913         23.671       -999.250        0.04118        0.10429
        11461.0          9.908         22.922       -999.250        0.00428        0.07228
        11461.5          9.903         25.024       -999.250       -0.03261        0.06039
        11462.0          9.898         28.365       -999.250       -0.03806        0.05799
        11462.5          9.893         32.143       -999.250       -0.01848        0.06352
        11463.0          9.888         35.922       -999.250        0.00126        0.07268
        11463.5          9.883         42.153       -999.250        0.01567        0.10535
        11464.0          9.878         49.301       -999.250        0.02841        0.14397
        11464.5          9.886         52.942       -999.250        0.04462        0.17432
        11465.0          9.949         55.873       -999.250        0.04946        0.19653
        11465.5         10.012         56.955       -999.250        0.05718        0.20238
        11466.0         10.075         57.474       -999.250        0.06818        0.20993
        11466.5         10.116         57.993       -999.250        0.07917        0.21890
        11467.0         10.114         56.528       -999.250        0.07559        0.22787
        11467.5         10.111         54.995       -999.250        0.06850        0.21727
        11468.0         10.108         53.463       -999.250        0.07503        0.20457
        11468.5         10.106         53.698       -999.250        0.06745        0.19269
        11469.0         10.103         53.630       -999.250        0.05334        0.20611
        11469.5         10.100         52.003       -999.250        0.06028        0.21464
        11470.0         10.099         50.473       -999.250        0.06281        0.21190
        11470.5         10.099         49.973       -999.250        0.05755        0.18932
        11471.0         10.099         49.473       -999.250        0.05229        0.17034
        11471.5         10.099         50.168       -999.250        0.04684        0.17812
        11472.0         10.099         51.463       -999.250        0.04124        0.18643
        11472.5         10.099         51.850       -999.250        0.04778        0.19555
        11473.0         10.101         52.004       -999.250        0.05377        0.20466
        11473.5         10.104         52.157       -999.250        0.05250        0.20936
        11474.0         10.106         51.867       -999.250        0.05490        0.21032
        11474.5         10.108         50.862       -999.250        0.05729        0.21129
        11475.0         10.110         48.904       -999.250        0.05832        0.20684
        11475.5         10.112         48.589       -999.250        0.05212        0.19879
        11476.0         10.114         49.403       -999.250        0.05923        0.19379
        11476.5         10.116         50.932       -999.250        0.06038        0.19802
        11477.0         10.118         52.350       -999.250        0.05123        0.20373
        11477.5         10.120         53.645       -999.250        0.05789        0.21013
        11478.0         10.122         54.130       -999.250        0.05527        0.20767
        11478.5         10.124         53.480       -999.250        0.05265        0.20431
        11479.0         10.126         52.831       -999.250        0.05797        0.20751
        11479.5         10.128         53.472       -999.250        0.05973        0.20988
        11480.0         10.130         54.415       -999.250        0.06198        0.21151
        11480.5         10.132         55.014       -999.250        0.06910        0.21550
        11481.0         10.136         55.178       -999.250        0.06970        0.21842
        11481.5         10.141         54.437       -999.250        0.06629        0.21154
        11482.0         10.146         55.459       -999.250        0.05629        0.20466
        11482.5         10.151         56.555       -999.250        0.05197        0.20540
        11483.0         10.156         56.900       -999.250        0.05006        0.20832
        11483.5         10.161         55.209       -999.250        0.04815        0.21123
        11484.0         10.166         53.144       -999.250        0.05201        0.20729
        11484.5         10.151         53.059       -999.250        0.05816        0.20218
        11485.0         10.133         53.685       -999.250        0.05559        0.19741
        11485.5         10.114         51.934       -999.250        0.05454        0.19695
        11486.0         10.096         48.628       -999.250        0.05566        0.19572
        11486.5         10.082         44.133       -999.250        0.06219        0.15417
        11487.0         10.094         47.644       -999.250        0.06732        0.13745
        11487.5         10.107         51.076       -999.250        0.05636        0.16992
        11488.0         10.119         52.368       -999.250        0.05975        0.19761
        11488.5         10.132         53.105       -999.250        0.06760        0.20727
        11489.0         10.144         52.817       -999.250        0.06057        0.20079
        11489.5         10.140         47.590       -999.250        0.04915        0.19430
        11490.0         10.125         46.459       -999.250        0.05432        0.18757
        11490.5         10.111         42.256       -999.250        0.06210        0.17102
