#--------------------------------------------------#
#-------------------ENVERUS, INC.------------------#
#------------------WWW.ENVERUS.COM-----------------#
#------------------COPYRIGHT 2020------------------#
#--------------------------------------------------#
#THIS FILE MAY BE USED ONLY IN ACCORDANCE WITH A CURRENT SUBSCRIPTION AGREEMENT BETWEEN
#THE USER AND ENVERUS, INC. NO PART OF THIS FILE MAY BE REPRODUCED, USED, COPIED,
#MODIFIED, PROPAGATED, OR DISTRIBUTED EXCEPT IN ACCORDANCE WITH THE SUBSCRIPTION
#AGREEMENT. UNAUTHORIZED USE OR DISTRIBUTION OF ALL OR ANY PART OF THIS FILE MAY VIOLATE
#COPYRIGHT, TRADEMARK, AND/OR OTHER LAWS AND IS SUBJECT TO CIVIL AS WELL AS CRIMINAL
#SANCTIONS.
#--------------------------------------------------#
#THIS FILE IS PROVIDED "AS-IS" AND ALL WARRANTIES ARE EXPRESSLY DISCLAIMED, WHETHER
#EXPRESS, ORAL, IMPLIED, STATUTORY OR OTHERWISE, INCLUDING ANY IMPLIED WARRANTY OF FITNESS
#FOR A PARTICULAR PURPOSE, MERCHANTABILITY, TITLE OR NON-INFRINGEMENT, AND ANY WARRANTIES
#ARISING BY VIRTUE OF CUSTOM OF TRADE OR COURSE OF DEALING.  FURTHER, ENVERUS, INC.
#AND ITS LICENSORS DO NOT REPRESENT OR WARRANT THAT THIS FILE WILL MEET USER'S
#REQUIREMENTS OR ARE SUITABLE FOR USER'S NEEDS OR THAT THE DATA OR RESULTS PROVIDED IN
#CONJUNCTION THEREWITH ARE CORRECT, ACCURATE, TIMELY OR RELIABLE. THESE DISCLAIMERS SHALL
#APPLY REGARDLESS OF ANY FAILURE OF ESSENTIAL PURPOSE OF ANY LIMITED REMEDY.  SOME
#JURISDICTIONS DO NOT ALLOW THE EXCLUSION OF CERTAIN WARRANTIES SO SOME OF THE ABOVE
#EXCLUSIONS MAY NOT APPLY. IN NO EVENT SHALL ENVERUS, INC. OR ANY OF ITS AFFILIATES
#BE LIABLE UNDER ANY LEGAL THEORY, WHETHER IN TORT (INCLUDING WITHOUT LIMITATION
#NEGLIGENCE), CONTRACT, STRICT LIABILITY, STATUTORY OR OTHERWISE, FOR ANY SPECIAL,
#INCIDENTAL, CONSEQUENTIAL, EXEMPLARY, PUNITIVE OR INDIRECT DAMAGE OF ANY KIND, INCLUDING
#WITHOUT LIMITATION LOSS OF REVENUE, PROFITS, GOODWILL, USE, AND/OR DATA OR THE COST OF
#PROCUREMENT OF SUBSTITUTE GOODS OR SERVICES, EVEN IF APPRISED OF THE POSSIBILITY OF SUCH
#DAMAGES IN ADVANCE.
#--------------------------------------------------#

# EXPORTED FROM DI TRANSFORM
# DI TRANSFORM - A PRODUCT OF DRILLINGINFO, INC. - WWW.DRILLINGINFO.COM
#
~VERSION INFORMATION
 VERS.        2.0 : LAS ASCII STANDARD - VERSION 2.0
 WRAP.         NO : ONE LINE PER DEPTH STEP

~WELL INFORMATION
#MNEM.UNIT       DATA TYPE       INFORMATION
#---------       ---------       -----------
 STRT.FT          3310 : START DEPTH
 STOP.FT         11910 : STOP DEPTH
 STEP.FT           0.5 : STEP LENGTH
 NULL.         -999.25 : NULL VALUE
 UWI.   42389328760000 : UNIQUE WELL ID
 API.   42389328760000 : WELL IDENTIFIER
 COMP.                 : COMPANY
 WELL.          DRD_55 : WELL NAME
 FLD.                  : FIELD NAME
 LOC.                  : WELL LOCATION
 CNTY.                 : COUNTY
 STAT.                 : STATE OR PROVINCE
 CTRY.                 : COUNTRY
 SRVC.                 : SERVICE COMPANY
 DATE.                 : DATE

~CURVE INFORMATION
#MNEM.UNIT       API CODE       CURVE DESCRIPTION
#---------       --------       -----------------
 DEPT.FT        : <MEASURED DEPTH>
 CAL.IN         : CALIPER
 DT.US/FT       : SONIC
 GR.GAPI        : GAMMA RAY
 ILD.OHMM       : DEEP RESISTIVITY
 ILS.OHMM       : SHALLOW RESISTIVITY

~PARAMETER INFORMATION
#MNEM.UNIT       VALUE       DESCRIPTION
#---------       -----       -----------
 EKB.FT      3168.5 : ELEVATION ABOVE MSL

~A       DEPT         CAL          DT          GR         ILD         ILS
# ...
       7833.5      8.4303     65.1411    113.3542     18.3322     11.9323
         7834      8.4303     64.5174    101.8474     18.1891     12.8711
       7834.5      8.4303     65.4554     85.2013     15.6005      8.2191
         7835      8.4303     66.3245      66.327     13.6193      7.9527
       7835.5      8.4303     66.9574      60.384     12.0632      7.1857
         7836      8.4303     67.7521     57.0708      11.711      7.7722
       7836.5      8.4285     68.5468     56.1753     12.2737      8.3716
         7837      8.3904     69.2656     57.1254     12.6289      8.4437
       7837.5      8.3904     69.3072     58.7257     12.2332      8.5507
         7838      8.3904     69.1574     61.8627        11.6      8.2914
       7838.5      8.3904     68.7737     64.5749      10.933      7.9986
         7839      8.3904     68.4321     68.6747     10.6259      7.8657
       7839.5      8.3904      68.887     72.0398     10.3273      7.6624
         7840      8.4245     70.3136     72.5693      9.8535      7.3603
       7840.5      8.4303       70.56     72.0725      9.5768      7.0817
         7841      8.3904     69.5259     71.7131      9.4707      6.8738
       7841.5      8.3904     69.4406     74.0721      9.5566      7.1994
         7842      8.4303      68.328     82.3009     10.4979      7.6033
       7842.5      8.4303     67.2154     89.0066     11.7447      8.1165
         7843      8.4303     65.9098     91.5055     12.5194      8.4809
       7843.5      8.4303     64.5819     93.7211     14.1387      8.9932
         7844      8.3904     63.8377     99.3383     20.9833     17.4265
       7844.5      8.3904     62.6026     97.5349     46.6149     33.0072
         7845      8.3904     61.8079     80.7368     58.1993     45.4267
       7845.5      8.4239     60.7585      71.307     89.7654     61.4617
         7846       8.415     59.8647     83.8921     78.5533     78.7871
       7846.5      8.3904     59.5261     90.0886     61.5133     47.2382
         7847      8.3904     59.4621     77.3244     48.5334      36.611
       7847.5      8.4303     59.7721     68.7348     46.3402     36.4439
         7848      8.4303     60.6382     72.1334     49.7264     37.1279
       7848.5      8.4303     60.9163     92.9201     60.7112       49.28
         7849      8.4303     60.6037    119.8048     72.0879     55.2657
       7849.5      8.4303     60.4618    126.1852     85.6345      66.138
         7850      8.4303     61.8006    123.7608    128.0482    109.3767
       7850.5      8.4303     64.4328    132.9758    180.7077    139.2024
         7851      8.4303     65.3073    158.2931    202.1394    143.7199
       7851.5      8.4303      65.203     149.793     208.707    148.9446
         7852      8.4303     65.0987    129.0413    249.6744    214.5535
       7852.5      8.4303     64.9944    119.7047     241.854    187.8872
         7853      8.4303     64.8901    128.7936    230.7498    156.5482
       7853.5      8.4303     64.7858    142.8843    216.9202    127.7582
         7854      8.4303     64.6478    152.1176    152.2967    119.3425
       7854.5      8.4303     64.4314    157.3928     126.491     91.2731
         7855      8.4303     64.2151     142.374    112.6482     76.9763
       7855.5      8.4303     63.9988    122.2443    101.8809     72.6009
         7856      8.4303     63.7824    107.7303     78.0662     52.7429
       7856.5      8.4303     63.5661     98.9297      46.023     39.1452
         7857      8.4303     63.3497      91.483     32.4954     19.0419
       7857.5      8.4303     63.4281     90.2894      20.716      15.264
         7858      8.4303     64.6943     88.0194     13.0809     10.9384
       7858.5      8.4303     65.6533     76.8785      8.2623      6.6695
         7859      8.4303     65.8067     64.1316       7.798      5.1064
       7859.5      8.4303     65.8067     57.3256      7.7413       5.779
         7860      8.4303     65.0612     55.8052      8.4587      7.3121
       7860.5      8.4303     64.6427     53.5407      9.6765       8.426
         7861      8.4303        64.6     50.4613      9.6997      8.9398
       7861.5      8.4303     65.4296     50.3496      9.1487       8.584
         7862      8.4303      67.178     51.3944      8.2819        7.97
       7862.5      8.4303     68.7213     51.5976      7.0488      7.1562
         7863      8.4303     69.0959     53.3821      6.5082      6.2749
       7863.5      8.4473     69.7785      55.236      5.9233      5.6972
         7864      8.4314     70.3781     56.7564      5.6514      5.1692
       7864.5      8.4303     69.8913     59.1928      5.7259      5.0501
         7865      8.4303     69.4046     63.8082      5.8675      5.0332
       7865.5      8.4303     68.9178     71.0183      6.2772      5.2049
         7866      8.4303     67.8918     83.5567      7.0884      6.2256
       7866.5      8.4303     66.8587      90.999      7.5952       6.243
         7867      8.4303     65.8256     99.0238       9.639      6.6779
       7867.5      8.4303     65.4303    123.6478     14.9526     12.3749
         7868      8.4303     66.0874    150.4787     16.9405     19.9619
       7868.5      8.4303     66.2421    173.9776     30.3023       52.68
         7869      8.4303     65.2094    178.6888      86.255     79.2652
       7869.5      8.4303      64.494    152.1549    116.4728     87.6861
         7870      8.4303      64.494    143.1108    109.7816     82.6053
       7870.5      8.4303     64.1081    119.6974    104.2558     74.4907
         7871      8.4303     63.8377    115.3916     97.5074     71.0024
       7871.5      8.4303     63.8377    127.1532      93.638      62.578
         7872      8.4303      64.574    119.9819     99.6782     70.7153
       7872.5      8.4303     65.1504    113.2136    104.7756     77.4886
         7873      8.4303     64.9316    115.3025    109.8131     79.9765
       7873.5      8.4303     65.1007    132.3094    124.6385     86.2021
         7874      8.4303     65.1504    130.6288    132.2872     92.4526
       7874.5      8.4303     64.9721    114.0951    132.6396     95.8549
         7875      8.4303     64.5581       98.17    125.7638    116.4155
       7875.5      8.4303     63.9959    101.6928    101.7951     90.7223
         7876      8.4303     62.9626    110.6434     86.7075     61.9731
       7876.5      8.4303     62.9626     97.3041      82.733     60.3428
         7877      8.4303     62.4742     82.0775     79.1087     60.2128
       7877.5      8.4303     61.9179     77.2927     84.6559     62.2657
         7878      8.4303     59.7606     74.1427     89.6776      72.426
       7878.5      8.4303     58.4496     68.2737     85.5642     73.2123
         7879      8.4303     58.5447     67.0371     81.4203      71.698
       7879.5      8.4303     60.2329     72.3228     72.7916     68.8262
         7880      8.4303     60.7748     75.6172     60.3846     53.4142
       7880.5      8.4303     60.7693     73.9119     55.7827     46.7353
         7881      8.4303     60.3372     71.8988     54.6895     45.3888
       7881.5      8.4303     60.6586     76.5731     56.7904     46.6176
         7882      8.4303     62.8138     88.3786     64.4723     56.5934
       7882.5      8.4303     63.5232    105.2078     73.0176     63.3291
         7883      8.4303     63.8377    118.0531     78.8262     67.8589
       7883.5      8.4303     63.8377    123.3544     83.9134     71.0266
         7884      8.4303     63.6189    116.1241     82.4856     72.6957
       7884.5      8.4303     63.6189    107.1215     85.6166     70.4594
         7885      8.4303     62.1239     94.6595      89.732     75.9162
       7885.5      8.4303     62.2885      85.582     91.6965     78.2397
         7886      8.4303     63.1814     89.1361     94.0483     77.8968
       7886.5      8.4087     61.6171      92.579    113.6029     83.6497
         7887      8.4303     58.6647     76.1718    145.4787    107.6016
       7887.5      8.4303     56.3231     51.7705    202.3838     192.676
