###############################################
##         ENVERUS                           ##
##         ESS - Open Hole                   ##
##         PERMIAN / DELAWARE                ##
##         Nov 04 2023  V4.0                 ##
##         42-389-32245-00-00                ##
###############################################
## Copyright 2017-2023  ENVERUS.  All Rights Reserved. 
## Confidential - Property of ENVERUS, use governed by terms and 
## conditions found within the existing Information Services Subscription Agreement 
## (as may be amended, the “ISSA”) between Customer and ENVERUS. 
## 
~VERSION INFORMATION
# MNEM.UNIT                               DATA : DESCRIPTION OF MNEMONIC
#-----.-----     ----------------------------- : -----------------------------
VERS.                                     2.00 : CWLS LOG ASCII STANDARD - VERSION 2.00
WRAP.                                       NO : MULTIPLE LINES PER DEPTH STEP
VEND.                                  ENVERUS : VENDOR
TYPE.                          ESS - OPEN HOLE : ENVERUS ESSENTIAL CURVES – ACCESSIBLE THROUGH ENVERUS PRISM(TM)
DOC.                                  31784178 : ENVERUS HEADER RAW DOCUMENT ID
#___________________________________________________________________________________________________ 
~WELL INFORMATION 
# v5kOeJgG8V8Fdrn76qwaaSXPAkEfLGq57aawfXlCwOXh55ROPeN2VCvB7JmY2/dENYnWxxZwl4Ma/Wu+4c2YGQ== 
# MNEM.UNIT                                              DATA : DESCRIPTION OF MNEMONIC 
#-----.-----                    ----------------------------- : ----------------------------- 
CNTY.                                                  REEVES : COUNTY 
STATE.                                                  TEXAS : STATE 
CNTRY.                                                    USA : COUNTRY 
API.                                             42-389-32245 : API (10 Digit) 
API_14.                                    42-389-32245-00-00 : API (14 Digits) 
API_14_std.                                 42-389-32245-0000 : API (14 Digits Standard) 
UWI.                                           42389322450000 : UNIQUE WELL ID 
WELL.                          TEXAS PACIFIC LAND TRUST 25 1H : WELL NAME
STRT.FT                                                2519.0 : START DEPTH
STOP.FT                                               10624.0 : STOP DEPTH
STEP.FT                                                   0.5 : STEP BETWEEN DEPTHS
NULL.                                                 -999.25 : NULL VALUE
#___________________________________________________________________________________________________ 
~CURVE INFORMATION 
# MNEM.UNIT           : CURVE DESCRIPTION 
#-----.-----          : ----------------------------- 
 DEPT.FT               : MEASURED DEPTH 
 CALI__B.IN            : CALIPER (CAL - CAL) 
 GR__B.API             : GAMMA RAY (GR) 
 DT__B.US/FT           : SONIC DELTA TRANSIT TIME (DT) 
 #___________________________________________________________________________________________________ 
~A         DEPT        CALI__B          GR__B          DT__B
# ...
         8393.0         12.789         35.933         54.510
         8393.5         12.792         36.463         54.789
         8394.0         12.795         36.992         55.067
         8394.5         12.799         35.885         55.148
         8395.0         12.802         34.084         55.005
         8395.5         12.806         32.282         54.875
         8396.0         12.809         30.681         56.168
         8396.5         12.812         33.486         59.104
         8397.0         12.816         38.986         63.344
         8397.5         12.819         51.410         66.945
         8398.0         12.823         63.834         69.778
         8398.5         12.826         75.105         71.509
         8399.0         12.830         81.927         71.785
         8399.5         12.833         83.056         71.865
         8400.0         12.836         84.185         72.184
         8400.5         12.840         87.057         72.541
         8401.0         12.843         91.626         72.898
         8401.5         12.847         92.544         73.851
         8402.0         12.850         93.180         75.079
         8402.5         12.853         98.324         75.663
         8403.0         12.857        104.843         76.151
         8403.5         12.860        110.033         76.606
         8404.0         12.864        106.572         76.575
         8404.5         12.864        103.112         75.819
         8405.0         12.853         97.784         73.621
         8405.5         12.843         88.752         70.061
         8406.0         12.832         79.721         66.501
         8406.5         12.822         70.690         62.941
         8407.0         12.811         54.371         59.381
         8407.5         12.801         37.742         57.191
         8408.0         12.790         34.046         57.205
         8408.5         12.780         35.745         58.113
         8409.0         12.769         38.612         59.320
         8409.5         12.759         41.478         61.785
         8410.0         12.766         44.345         64.343
         8410.5         12.786         50.892         66.901
         8411.0         12.805         61.254         71.886
         8411.5         12.824         71.615         82.745
         8412.0         12.843         78.264         90.994
         8412.5         12.862         77.694         85.957
         8413.0         12.882         73.673         77.370
         8413.5         12.901         64.250         75.473
         8414.0         12.920         54.827         75.702
         8414.5         12.939         46.509         75.616
         8415.0         12.955         45.819         74.445
         8415.5         12.955         47.469         71.990
         8416.0         12.955         49.120         69.204
         8416.5         12.955         49.993         66.461
         8417.0         12.955         48.679         65.355
         8417.5         12.955         47.365         66.234
         8418.0         12.960         49.841         68.736
         8418.5         12.967         53.554         71.180
         8419.0         12.973         55.076         72.236
         8419.5         12.979         55.076         72.446
         8420.0         12.986         56.378         72.307
         8420.5         12.992         59.217         72.930
         8421.0         12.998         61.779         73.622
         8421.5         13.005         62.166         73.252
         8422.0         13.011         58.645         72.576
         8422.5         13.018         55.268         71.899
         8423.0         13.024         52.730         71.409
         8423.5         13.030         54.531         71.418
         8424.0         13.037         56.333         71.538
         8424.5         13.043         58.134         71.546
         8425.0         13.039         57.598         71.426
         8425.5         13.032         56.297         71.169
         8426.0         13.025         54.997         70.912
         8426.5         13.018         53.697         71.303
         8427.0         13.011         55.098         71.842
         8427.5         13.004         62.330         72.381
         8428.0         12.997         68.808         73.498
         8428.5         12.990         75.220         74.791
         8429.0         12.983         81.448         76.085
         8429.5         12.976         87.609         76.789
         8430.0         12.969         93.771         76.969
         8430.5         12.962         94.941         75.219
         8431.0         12.955         90.306         72.015
         8431.5         12.948         78.925         70.170
         8432.0         12.941         67.544         69.611
         8432.5         12.933         62.031         69.543
         8433.0         12.923         64.313         69.476
         8433.5         12.912         66.596         69.408
         8434.0         12.901         68.878         70.038
         8434.5         12.890         75.556         71.184
         8435.0         12.879         82.671         72.150
         8435.5         12.868         89.787         71.398
         8436.0         12.857         89.442         67.112
         8436.5         12.846         79.341         62.213
         8437.0         12.835         57.675         56.933
         8437.5         12.824         36.009         55.963
         8438.0         12.813         33.007         57.000
         8438.5         12.802         37.875         61.825
         8439.0         12.792         53.539         66.807
         8439.5         12.781         69.203         72.199
         8440.0         12.770         82.776         72.783
         8440.5         12.759         86.329         71.528
         8441.0         12.748         79.989         70.273
         8441.5         12.737         73.649         69.491
         8442.0         12.733         67.414         69.230
         8442.5         12.735         66.204         69.100
         8443.0         12.737         64.995         69.185
         8443.5         12.738         63.717         69.206
         8444.0         12.740         61.960         68.087
         8444.5         12.742         60.202         67.000
         8445.0         12.744         58.444         66.416
         8445.5         12.746         56.687         66.107
         8446.0         12.748         54.929         66.128
         8446.5         12.750         54.653         65.721
         8447.0         12.752         54.549         63.770
         8447.5         12.754         49.543         61.375
         8448.0         12.755         42.410         58.965
         8448.5         12.755         35.277         57.938
         8449.0         12.756         35.739         60.020
         8449.5         12.757         43.373         62.172
         8450.0         12.757         57.011         65.071
         8450.5         12.758         68.302         68.019
         8451.0         12.759         79.592         70.968
         8451.5         12.760         90.883         73.916
         8452.0         12.760        100.676         75.679
         8452.5         12.761        104.171         75.473
         8453.0         12.762        101.218         74.459
         8453.5         12.762         95.274         73.445
         8454.0         12.763         88.627         72.431
         8454.5         12.764         82.021         70.792
         8455.0         12.765         75.414         69.042
         8455.5         12.765         70.675         68.021
         8456.0         12.766         71.635         67.762
         8456.5         12.767         74.782         68.350
         8457.0         12.767         77.930         68.022
         8457.5         12.768         77.128         66.276
         8458.0         12.769         74.895         64.529
         8458.5         12.769         70.392         62.783
