###############################################
##         ENVERUS                           ##
##         ESS - Open Hole                   ##
##         PERMIAN / DELAWARE                ##
##         Nov 02 2023  V4.0                 ##
##         42-301-31112-00-00                ##
###############################################
## Copyright 2017-2023  ENVERUS.  All Rights Reserved. 
## Confidential - Property of ENVERUS, use governed by terms and 
## conditions found within the existing Information Services Subscription Agreement 
## (as may be amended, the “ISSA”) between Customer and ENVERUS. 
## 
~VERSION INFORMATION
# MNEM.UNIT                               DATA : DESCRIPTION OF MNEMONIC
#-----.-----     ----------------------------- : -----------------------------
VERS.                                     2.00 : CWLS LOG ASCII STANDARD - VERSION 2.00
WRAP.                                       NO : MULTIPLE LINES PER DEPTH STEP
VEND.                                  ENVERUS : VENDOR
TYPE.                          ESS - OPEN HOLE : ENVERUS ESSENTIAL CURVES – ACCESSIBLE THROUGH ENVERUS PRISM(TM)
DOC.                                  31879965 : ENVERUS HEADER RAW DOCUMENT ID
#___________________________________________________________________________________________________ 
~WELL INFORMATION 
# p11foxtE5QnwhaJbtzBz2LJF4p4dkL7jzyXNzohJvMqLCglFSJK87xuVm3WB3m+8huK6qzS+fp5X73xeHrMy5w== 
# MNEM.UNIT                                              DATA : DESCRIPTION OF MNEMONIC 
#-----.-----                    ----------------------------- : ----------------------------- 
CNTY.                                                  LOVING : COUNTY 
STATE.                                                  TEXAS : STATE 
CNTRY.                                                    USA : COUNTRY 
API.                                             42-301-31112 : API (10 Digit) 
API_14.                                    42-301-31112-00-00 : API (14 Digits) 
API_14_std.                                 42-301-31112-0000 : API (14 Digits Standard) 
UWI.                                           42301311120000 : UNIQUE WELL ID 
WELL.                                                    JR 1 : WELL NAME
STRT.FT                                                3102.0 : START DEPTH
STOP.FT                                               15993.0 : STOP DEPTH
STEP.FT                                                   0.5 : STEP BETWEEN DEPTHS
NULL.                                                 -999.25 : NULL VALUE
LOC.                                                      UNK : LOCATION 
SRVC.                                                     UNK : SERVICE COMPANY
#___________________________________________________________________________________________________ 
~CURVE INFORMATION 
# MNEM.UNIT           : CURVE DESCRIPTION 
#-----.-----          : ----------------------------- 
 DEPT.FT               : MEASURED DEPTH 
 CALI.IN               : CALIPER (CAL - CAL) 
 GR.API                : GAMMA RAY (GR) 
 DT.US/FT              : SONIC DELTA TRANSIT TIME (DT) 
 #___________________________________________________________________________________________________ 
~A         DEPT           CALI             GR             DT
# ...
        15048.0       -999.250        101.602         90.974
        15048.5       -999.250         98.991         90.423
        15049.0       -999.250         95.910         89.846
        15049.5       -999.250         92.770         87.803
        15050.0       -999.250         92.718         85.498
        15050.5       -999.250         92.962         81.810
        15051.0       -999.250         92.497         78.091
        15051.5       -999.250         88.685         74.372
        15052.0       -999.250         84.898         72.458
        15052.5       -999.250         83.485         71.227
        15053.0       -999.250         82.073         70.332
        15053.5       -999.250         79.979         70.642
        15054.0       -999.250         79.825         73.997
        15054.5       -999.250         84.532         78.122
        15055.0       -999.250         90.793         81.986
        15055.5       -999.250         93.612         82.219
        15056.0       -999.250         90.678         79.998
        15056.5       -999.250         79.297         77.187
        15057.0       -999.250         77.049         75.652
        15057.5       -999.250         81.183         76.161
        15058.0       -999.250         89.183         78.848
        15058.5       -999.250         91.132         81.535
        15059.0       -999.250         88.685         82.201
        15059.5       -999.250         85.330         82.423
        15060.0       -999.250         87.126         82.645
        15060.5       -999.250         91.541         83.591
        15061.0       -999.250         93.353         85.240
        15061.5       -999.250         93.857         86.889
        15062.0       -999.250         94.360         88.539
        15062.5       -999.250         94.864         89.308
        15063.0       -999.250         94.247         88.640
        15063.5       -999.250         93.020         87.972
        15064.0       -999.250         91.427         87.320
        15064.5       -999.250         89.848         86.861
        15065.0       -999.250         90.525         86.402
        15065.5       -999.250         93.658         85.827
        15066.0       -999.250         93.938         84.114
        15066.5       -999.250         88.515         82.401
        15067.0       -999.250         82.178         82.469
        15067.5       -999.250         83.896         83.137
        15068.0       -999.250         89.578         82.220
        15068.5       -999.250         90.433         80.602
        15069.0       -999.250         87.720         78.985
        15069.5       -999.250         85.277         78.394
        15070.0       -999.250         86.718         77.946
        15070.5       -999.250         89.835         77.851
        15071.0       -999.250         91.923         78.378
        15071.5       -999.250         94.224         80.517
        15072.0       -999.250         96.833         83.106
        15072.5       -999.250         98.171         85.695
        15073.0       -999.250         97.631         87.053
        15073.5       -999.250         95.614         86.804
        15074.0       -999.250         94.172         86.575
        15074.5       -999.250         93.612         86.604
        15075.0       -999.250         93.052         85.970
        15075.5       -999.250         92.493         84.051
        15076.0       -999.250         92.324         82.131
        15076.5       -999.250         92.324         81.430
        15077.0       -999.250         91.060         81.682
        15077.5       -999.250         89.299         83.323
        15078.0       -999.250         88.423         84.322
        15078.5       -999.250         89.704         84.779
        15079.0       -999.250         91.720         84.468
        15079.5       -999.250         92.323         84.157
        15080.0       -999.250         90.339         83.845
        15080.5       -999.250         88.964         83.534
        15081.0       -999.250         91.125         83.703
        15081.5       -999.250         93.942         84.913
        15082.0       -999.250         96.115         85.672
        15082.5       -999.250         94.810         86.431
        15083.0       -999.250         93.538         86.768
        15083.5       -999.250         92.989         86.466
        15084.0       -999.250         92.439         85.820
        15084.5       -999.250         91.170         85.173
        15085.0       -999.250         89.279         84.527
        15085.5       -999.250         88.263         83.880
        15086.0       -999.250         88.437         84.308
        15086.5       -999.250         91.211         86.273
        15087.0       -999.250         94.481         88.237
        15087.5       -999.250         96.222         88.512
        15088.0       -999.250         93.605         87.527
        15088.5       -999.250         90.707         86.542
        15089.0       -999.250         88.928         85.558
        15089.5       -999.250         88.684         84.620
        15090.0       -999.250         88.815         84.758
        15090.5       -999.250         88.768         85.376
        15091.0       -999.250         88.559         86.288
        15091.5       -999.250         87.954         87.200
        15092.0       -999.250         87.014         87.931
        15092.5       -999.250         86.074         88.610
        15093.0       -999.250         85.714         89.289
        15093.5       -999.250         88.075         89.757
        15094.0       -999.250         91.922         89.974
        15094.5       -999.250         95.622         89.938
        15095.0       -999.250         97.449         89.866
        15095.5       -999.250         99.276         89.894
        15096.0       -999.250        102.895         89.942
        15096.5       -999.250        106.394         89.840
        15097.0       -999.250        106.430         89.696
        15097.5       -999.250        102.268         89.153
        15098.0       -999.250         95.765         88.465
        15098.5       -999.250         92.237         87.778
        15099.0       -999.250         90.580         87.090
        15099.5       -999.250         88.387         86.402
        15100.0       -999.250         84.969         85.905
        15100.5       -999.250         84.268         85.703
        15101.0       -999.250         84.036         85.501
        15101.5       -999.250         83.804         85.771
        15102.0       -999.250         84.140         87.491
        15102.5       -999.250         87.484         89.212
        15103.0       -999.250         92.458         90.314
        15103.5       -999.250         93.761         89.331
        15104.0       -999.250         91.097         88.348
        15104.5       -999.250         87.315         87.456
        15105.0       -999.250         86.267         87.477
        15105.5       -999.250         88.329         87.497
        15106.0       -999.250         90.695         88.138
        15106.5       -999.250         90.203         89.012
        15107.0       -999.250         89.159         89.859
        15107.5       -999.250         90.948         90.015
        15108.0       -999.250         96.543         90.170
        15108.5       -999.250         98.062         90.241
        15109.0       -999.250         96.123         89.972
        15109.5       -999.250         93.823         89.703
        15110.0       -999.250         91.334         89.434
        15110.5       -999.250         88.204         89.166
        15111.0       -999.250         87.574         88.897
        15111.5       -999.250         91.088         88.628
        15112.0       -999.250         95.697         88.473
        15112.5       -999.250         97.020         88.621
        15113.0       -999.250         98.194         88.768
        15113.5       -999.250         99.368         88.705
