#--------------------------------------------------#
#-------------------ENVERUS, INC.------------------#
#------------------WWW.ENVERUS.COM-----------------#
#------------------COPYRIGHT 2020------------------#
#--------------------------------------------------#
#THIS FILE MAY BE USED ONLY IN ACCORDANCE WITH A CURRENT SUBSCRIPTION AGREEMENT BETWEEN
#THE USER AND ENVERUS, INC. NO PART OF THIS FILE MAY BE REPRODUCED, USED, COPIED,
#MODIFIED, PROPAGATED, OR DISTRIBUTED EXCEPT IN ACCORDANCE WITH THE SUBSCRIPTION
#AGREEMENT. UNAUTHORIZED USE OR DISTRIBUTION OF ALL OR ANY PART OF THIS FILE MAY VIOLATE
#COPYRIGHT, TRADEMARK, AND/OR OTHER LAWS AND IS SUBJECT TO CIVIL AS WELL AS CRIMINAL
#SANCTIONS.
#--------------------------------------------------#
#THIS FILE IS PROVIDED "AS-IS" AND ALL WARRANTIES ARE EXPRESSLY DISCLAIMED, WHETHER
#EXPRESS, ORAL, IMPLIED, STATUTORY OR OTHERWISE, INCLUDING ANY IMPLIED WARRANTY OF FITNESS
#FOR A PARTICULAR PURPOSE, MERCHANTABILITY, TITLE OR NON-INFRINGEMENT, AND ANY WARRANTIES
#ARISING BY VIRTUE OF CUSTOM OF TRADE OR COURSE OF DEALING.  FURTHER, ENVERUS, INC.
#AND ITS LICENSORS DO NOT REPRESENT OR WARRANT THAT THIS FILE WILL MEET USER'S
#REQUIREMENTS OR ARE SUITABLE FOR USER'S NEEDS OR THAT THE DATA OR RESULTS PROVIDED IN
#CONJUNCTION THEREWITH ARE CORRECT, ACCURATE, TIMELY OR RELIABLE. THESE DISCLAIMERS SHALL
#APPLY REGARDLESS OF ANY FAILURE OF ESSENTIAL PURPOSE OF ANY LIMITED REMEDY.  SOME
#JURISDICTIONS DO NOT ALLOW THE EXCLUSION OF CERTAIN WARRANTIES SO SOME OF THE ABOVE
#EXCLUSIONS MAY NOT APPLY. IN NO EVENT SHALL ENVERUS, INC. OR ANY OF ITS AFFILIATES
#BE LIABLE UNDER ANY LEGAL THEORY, WHETHER IN TORT (INCLUDING WITHOUT LIMITATION
#NEGLIGENCE), CONTRACT, STRICT LIABILITY, STATUTORY OR OTHERWISE, FOR ANY SPECIAL,
#INCIDENTAL, CONSEQUENTIAL, EXEMPLARY, PUNITIVE OR INDIRECT DAMAGE OF ANY KIND, INCLUDING
#WITHOUT LIMITATION LOSS OF REVENUE, PROFITS, GOODWILL, USE, AND/OR DATA OR THE COST OF
#PROCUREMENT OF SUBSTITUTE GOODS OR SERVICES, EVEN IF APPRISED OF THE POSSIBILITY OF SUCH
#DAMAGES IN ADVANCE.
#--------------------------------------------------#

~VERSION INFORMATION
VERS. 2.0 : CWLS LOG ASCII STANDARD - VERSION 2.0
WRAP.  NO : ONE LINE PER DEPTH STEP
~WELL INFORMATION
#MNEMONIC     .UNIT              VALUE :DESCRIPTION
STRT       .FT                51 :START DEPTH
STOP       .FT                4494 :STOP DEPTH
STEP       .FT                   0.500 :STEP
NULL       .                  -999.990 :NULL
UWI        .              42389102200000 :UNIQUE WELL ID
API        .              42389102200000 :API NUMBER
COMP       .         GRUY PETROLEUM MANAGEMENT CO. :COMPANY
WELL       .        REEVES -AQ- FEE  2 :WELL
DATE       .                30-NOV-1992 :LOG DATE
~CURVE INFORMATION
#MNEMONIC     .UNIT      API CODE :CURVE DESCRIPTION
DEPTH       .FT                      :MEASURED DEPTH
CAL.INCH        UNKNOWN   :CAL
GR.API        UNKNOWN   :GR
DT.US/FT        UNKNOWN   :DT
~A    DEPTH    CAL    GR    DT
# ...
 156     -999.990   8.455   60.623
 156.5     -999.990   12.512   60.024
 157     -999.990   16.707   59.425
 157.5     -999.990   22.015   58.826
 158     -999.990   27.323   65.436
 158.5     -999.990   32.632   74.076
 159     -999.990   37.94   82.716
 159.5     -999.990   43.248   91.356
 160     -999.990   48.557   99.653
 160.5     -999.990   47.964   104.182
 161     -999.990   47.327   113.41
 161.5     -999.990   46.691   122.639
 162     -999.990   46.054   151.308
 162.5     -999.990   45.289   151.228
 163     -999.990   44.32   151.147
 163.5     -999.990   43.351   151.066
 164     -999.990   42.382   152.634
 164.5     -999.990   43.216   154.4
 165     -999.990   44.128   154.21
 165.5     -999.990   45.04   154.02
 166     -999.990   45.952   153.83
 166.5     -999.990   46.864   153.64
 167     -999.990   45.535   153.854
 167.5     -999.990   43.669   154.219
 168     -999.990   41.861   154.584
 168.5     -999.990   40.304   154.787
 169     -999.990   39.439   154.908
 169.5     -999.990   40.169   154.919
 170     -999.990   40.899   154.504
 170.5     -999.990   41.628   154.089
 171     -999.990   42.358   153.674
 171.5     -999.990   43.087   153.259
 172     -999.990   43.817   152.843
 172.5     -999.990   43.349   152.193
 173     -999.990   42.059   151.409
 173.5     -999.990   40.707   150.625
 174     -999.990   39.227   149.841
 174.5     -999.990   37.747   149.056
 175     -999.990   37.026   148.272
 175.5     -999.990   36.665   147.488
 176     -999.990   36.303   146.704
 176.5     -999.990   36.214   146.101
 177     -999.990   36.13   145.644
 177.5     -999.990   36.047   145.186
 178     -999.990   35.964   144.728
 178.5     -999.990   36.118   144.271
 179     -999.990   36.781   143.813
 179.5     -999.990   37.443   143.356
 180     -999.990   38.106   142.898
 180.5     -999.990   38.768   142.441
 181     -999.990   38.279   141.826
 181.5     -999.990   36.97   140.778
 182     -999.990   35.414   139.73
 182.5     -999.990   33.858   138.682
 183     -999.990   32.301   137.634
 183.5     -999.990   32.02   136.586
 184     -999.990   32.333   135.352
 184.5     -999.990   32.646   134.015
 185     -999.990   32.703   132.678
 185.5     -999.990   32.552   131.342
 186     -999.990   32.402   130.005
 186.5     -999.990   32.251   129.542
 187     -999.990   32.315   129.603
 187.5     -999.990   32.068   129.663
 188     -999.990   31.414   129.724
 188.5     -999.990   30.76   129.784
 189     -999.990   30.105   129.462
 189.5     -999.990   29.451   128.98
 190     -999.990   29.09   128.499
 190.5     -999.990   30.673   128.248
 191     -999.990   32.257   128.144
 191.5     -999.990   33.84   128.04
 192     -999.990   34.154   127.936
 192.5     -999.990   34.355   127.774
 193     -999.990   33.73   127.473
 193.5     -999.990   33.076   127.171
 194     -999.990   32.421   126.869
 194.5     -999.990   31.767   126.254
 195     -999.990   31.112   125.416
 195.5     -999.990   30.458   124.579
 196     -999.990   29.803   123.742
 196.5     -999.990   29.149   123.51
 197     -999.990   29.761   123.389
 197.5     -999.990   30.244   123.268
 198     -999.990   30.188   123.191
 198.5     -999.990   30.133   123.366
 199     -999.990   30.078   123.542
 199.5     -999.990   31.772   123.717
 200     -999.990   33.824   123.893
 200.5     -999.990   35.875   124.068
 201     -999.990   36.386   125.495
 201.5     -999.990   35.819   127.673
 202     -999.990   35.251   129.852
 202.5     -999.990   34.683   132.031
 203     -999.990   34.115   133.625
 203.5     -999.990   33.548   134.503
 204     -999.990   33.022   135.382
 204.5     -999.990   33.273   136.26
 205     -999.990   33.269   137.139
 205.5     -999.990   32.997   138.018
 206     -999.990   32.726   138.896
 206.5     -999.990   32.454   138.802
 207     -999.990   32.182   133.326
 207.5     -999.990   32.899   127.849
 208     -999.990   34.777   122.373
 208.5     -999.990   36.655   116.896
 209     -999.990   38.068   115.109
 209.5     -999.990   37.925   117.482
 210     -999.990   37.781   119.856
 210.5     -999.990   37.893   122.229
 211     -999.990   38.243   124.603
 211.5     -999.990   38.594   126.976
 212     -999.990   38.944   129.35
 212.5     -999.990   38.833   131.361
 213     -999.990   38.416   132.668
 213.5     -999.990   37.999   133.975
 214     -999.990   37.582   134.077
 214.5     -999.990   37.165   131.586
 215     -999.990   36.748   129.094
 215.5     -999.990   36.401   126.602
 216     -999.990   37.526   124.11
 216.5     -999.990   38.652   121.618
 217     -999.990   39.777   121.76
 217.5     -999.990   40.902   123.87
 218     -999.990   42.028   125.98
 218.5     -999.990   42.167   128.09
 219     -999.990   41.237   130.199
 219.5     -999.990   40.306   132.309
 220     -999.990   39.376   131.851
 220.5     -999.990   39.059   129.686
 221     -999.990   40.335   127.521
 221.5     -999.990   41.612   125.356
 222     -999.990   42.888   123.191
 222.5     -999.990   44.465   121.026
 223     -999.990   46.772   122.561
 223.5     -999.990   48.514   124.58
 224     -999.990   48.615   126.6
 224.5     -999.990   48.716   128.619
 225     -999.990   48.817   130.639
 225.5     -999.990   48.347   132.658
 226     -999.990   46.869   130.325
 226.5     -999.990   45.391   124.07
 227     -999.990   40.364   115.735
 227.5     -999.990   33.927   107.401
 228     -999.990   27.49   94.782
 228.5     -999.990   21.052   56.238
 229     -999.990   14.615   57.063
 229.5     -999.990   10.86   57.887
 230     -999.990   9.573   58.712
 230.5     -999.990   8.286   59.537
 231     -999.990   8.622   60.361
 231.5     -999.990   10.693   60.761
 232     -999.990   12.765   59.828
 232.5     -999.990   17.526   58.895
 233     -999.990   23.738   57.962
 233.5     -999.990   29.949   65.442
 234     -999.990   36.161   81.833
 234.5     -999.990   42.373   98.223
 235     -999.990   39.798   102.402
 235.5     -999.990   35.032   99.391
 236     -999.990   30.265   96.38
 236.5     -999.990   25.499   93.368
 237     -999.990   21.105   78.634
 237.5     -999.990   18.606   59.833
 238     -999.990   17.151   58.556
 238.5     -999.990   16.192   59.694
 239     -999.990   15.233   60.833
 239.5     -999.990   15.634   60.26
 240     -999.990   16.862   59.424
 240.5     -999.990   18.091   59.846
 241     -999.990   19.099   62.416
 241.5     -999.990   19.821   64.986
 242     -999.990   20.544   67.557
 242.5     -999.990   21.266   70.127
 243     -999.990   22.159   69.297
 243.5     -999.990   24.559   66.799
 244     -999.990   26.96   64.301
 244.5     -999.990   29.361   68.646
 245     -999.990   30.101   81.424
 245.5     -999.990   30.53   86.733
 246     -999.990   30.695   82.801
 246.5     -999.990   28.422   78.869
 247     -999.990   26.149   74.937
 247.5     -999.990   25.572   71.005
 248     -999.990   25.27   67.073
 248.5     -999.990   26.311   66.515
 249     -999.990   28.098   69.416
 249.5     -999.990   30.115   71.188
 250     -999.990   32.133   66.834
 250.5     -999.990   34.151   101.529
 251     -999.990   36.169   97.607
 251.5     -999.990   36.798   93.686
 252     -999.990   37.247   89.765
 252.5     -999.990   37.697   85.843
 253     -999.990   38.146   87.975
 253.5     -999.990   36.769   93.975
 254     -999.990   34.965   99.974
 254.5     -999.990   28.519   99.985
 255     -999.990   22.072   82.516
 255.5     -999.990   15.625   65.047
 256     -999.990   9.178   58.456
 256.5     -999.990   5.928   58.84
 257     -999.990   5.275   59.223
 257.5     -999.990   4.621   59.607
 258     -999.990   5.726   59.914
 258.5     -999.990   7.115   60.07
 259     -999.990   11.73   60.226
 259.5     -999.990   20.042   60.383
 260     -999.990   26.242   61.506
 260.5     -999.990   31.205   84.442
 261     -999.990   36.168   92.682
 261.5     -999.990   38.49   95.378
 262     -999.990   39.296   98.075
 262.5     -999.990   40.102   100.771
