###############################################
##         ENVERUS                           ##
##         ESS - Open Hole                   ##
##         PERMIAN / DELAWARE                ##
##         Nov 04 2023  V4.0                 ##
##         42-389-30422-00-00                ##
###############################################
## Copyright 2017-2023  ENVERUS.  All Rights Reserved. 
## Confidential - Property of ENVERUS, use governed by terms and 
## conditions found within the existing Information Services Subscription Agreement 
## (as may be amended, the “ISSA”) between Customer and ENVERUS. 
## 
~VERSION INFORMATION
# MNEM.UNIT                               DATA : DESCRIPTION OF MNEMONIC
#-----.-----     ----------------------------- : -----------------------------
VERS.                                     2.00 : CWLS LOG ASCII STANDARD - VERSION 2.00
WRAP.                                       NO : MULTIPLE LINES PER DEPTH STEP
VEND.                                  ENVERUS : VENDOR
TYPE.                          ESS - OPEN HOLE : ENVERUS ESSENTIAL CURVES – ACCESSIBLE THROUGH ENVERUS PRISM(TM)
DOC.                                  31749874 : ENVERUS HEADER RAW DOCUMENT ID
#___________________________________________________________________________________________________ 
~WELL INFORMATION 
# u82sU1u0B8de5w9HEAjaYOtqLlVzfD+KUeD2ZoqivGgiUzwSeb1LYInaR9MNeJxDUIxxjb7EPbXz9g+KH10l6Q== 
# MNEM.UNIT                                              DATA : DESCRIPTION OF MNEMONIC 
#-----.-----                    ----------------------------- : ----------------------------- 
CNTY.                                                  REEVES : COUNTY 
STATE.                                                  TEXAS : STATE 
CNTRY.                                                    USA : COUNTRY 
API.                                             42-389-30422 : API (10 Digit) 
API_14.                                    42-389-30422-00-00 : API (14 Digits) 
API_14_std.                                 42-389-30422-0000 : API (14 Digits Standard) 
UWI.                                           42389304220000 : UNIQUE WELL ID 
WELL.                                    BECKHAM  AGNES 26  1 : WELL NAME
STRT.FT                                                  89.0 : START DEPTH
STOP.FT                                               15719.0 : STOP DEPTH
STEP.FT                                                   0.5 : STEP BETWEEN DEPTHS
NULL.                                                 -999.25 : NULL VALUE
COMP.                                     WALSH & WATTS  INC. : COMPANY
#___________________________________________________________________________________________________ 
~CURVE INFORMATION 
# MNEM.UNIT           : CURVE DESCRIPTION 
#-----.-----          : ----------------------------- 
 DEPT.FT               : MEASURED DEPTH 
 CALI.IN               : CALIPER (CAL - CAL) 
 GR.API                : GAMMA RAY (GR) 
 DT.US/FT              : SONIC DELTA TRANSIT TIME (DT) 
 #___________________________________________________________________________________________________ 
~A         DEPT           CALI             GR             DT
# ...
        13883.0          9.007         65.017         75.152
        13883.5          9.027         64.095         73.447
        13884.0          9.046         63.173         71.741
        13884.5          9.065         62.251         70.036
        13885.0          9.084         61.833         68.331
        13885.5          9.103         67.757         66.625
        13886.0          9.122         73.682         64.920
        13886.5          9.142         73.743         67.440
        13887.0          9.161         72.410         70.107
        13887.5          9.180         71.077         72.738
        13888.0          9.199         69.744         75.081
        13888.5          9.218         68.412         77.425
        13889.0          9.238         67.079         79.768
        13889.5          9.257         72.862         82.111
        13890.0          9.276         86.219         84.377
        13890.5          9.295         89.470         86.416
        13891.0          9.314         92.717         88.454
        13891.5          9.334         91.731         90.492
        13892.0          9.353         90.744         90.860
        13892.5          9.372         89.758         90.747
        13893.0          9.391         88.772         90.634
        13893.5          9.365         87.786         90.521
        13894.0          9.319         86.800         90.408
        13894.5          9.274         84.235         90.296
        13895.0          9.229         80.515         89.177
        13895.5          9.184         76.796         87.733
        13896.0          9.138         73.076         86.290
        13896.5          9.093         69.356         84.846
        13897.0          9.048         66.674         83.403
        13897.5          9.037         66.849         60.091
        13898.0          9.037         67.025         61.616
        13898.5          9.037         67.200         63.141
        13899.0          9.037         67.375         64.666
        13899.5          9.037         67.551         66.190
        13900.0          9.037         67.726         69.659
        13900.5          9.037         66.070         73.737
        13901.0          9.037         64.160         73.347
        13901.5          9.037         62.249         72.958
        13902.0          9.037         60.338         72.568
        13902.5          9.037         58.427         72.179
        13903.0          9.037         58.272         71.789
        13903.5          9.037         59.238         71.399
        13904.0          9.037         60.204         71.010
        13904.5          9.037         61.301         70.620
        13905.0          9.037         63.240         71.666
        13905.5          9.040         65.178         75.484
        13906.0          9.048         67.117         76.134
        13906.5          9.055         69.055         74.703
        13907.0          9.063         70.994         73.273
        13907.5          9.070         72.932         71.842
        13908.0          9.078         74.871         70.411
        13908.5          9.085         77.047         75.663
        13909.0          9.093         83.271         83.075
        13909.5          9.100         89.495         88.274
        13910.0          9.108         95.719         89.271
        13910.5          9.115        101.943         90.269
        13911.0          9.123        108.166         91.187
        13911.5          9.130        114.390         91.347
        13912.0          9.138        120.614         91.508
        13912.5          9.145        125.541         91.669
        13913.0          9.153        117.215         91.830
        13913.5          9.160        108.889         91.377
        13914.0          9.175        100.563         90.030
        13914.5          9.196         92.237         88.684
        13915.0          9.218         84.951         87.338
        13915.5          9.239         80.106         85.992
        13916.0          9.260         78.712         86.248
        13916.5          9.281         80.388         87.616
        13917.0          9.303         82.065         88.983
        13917.5          9.324         83.742         90.351
        13918.0          9.306         85.418         91.146
        13918.5          9.257         87.095         91.083
        13919.0          9.207         85.354         91.020
        13919.5          9.158         82.451         90.957
        13920.0          9.109         79.548         89.677
        13920.5          9.060         76.646         88.105
        13921.0          9.011         73.743         86.532
        13921.5          8.962         70.841         84.959
        13922.0          8.912         67.938         83.387
        13922.5          8.863         65.036         81.029
        13923.0          8.814         62.133         74.164
        13923.5          8.765         63.636         67.300
        13924.0          8.716         72.625         60.435
        13924.5          8.770         81.615         60.988
        13925.0          8.876         90.605         68.278
        13925.5          8.982         95.394         86.012
        13926.0          9.089        100.052         88.428
        13926.5          9.195        104.709         90.816
        13927.0          9.301        104.572         91.639
        13927.5          9.331        100.141         91.414
        13928.0          9.329         96.252         91.189
        13928.5          9.326         94.973         90.964
        13929.0          9.323         93.694         90.738
        13929.5          9.321         92.984         90.513
        13930.0          9.318         93.920         90.288
        13930.5          9.315         94.855         90.369
        13931.0          9.313         95.790         90.484
        13931.5          9.310         96.725         90.599
        13932.0          9.307         97.660         90.715
        13932.5          9.305         98.596         90.830
        13933.0          9.302         98.149         90.944
        13933.5          9.299         97.508         90.969
        13934.0          9.297         96.868         90.993
        13934.5          9.294         97.074         91.018
        13935.0          9.291         98.630         91.042
        13935.5          9.289        100.186         91.067
        13936.0          9.286        101.741         91.092
        13936.5          9.283        103.297         91.116
        13937.0          9.281        104.853         91.141
        13937.5          9.278        106.409         91.165
        13938.0          9.275        106.776         91.190
        13938.5          9.273        105.603         91.214
        13939.0          9.270        104.430         91.239
        13939.5          9.261        103.257         91.263
        13940.0          9.252        102.084         91.288
        13940.5          9.242        100.911         91.313
        13941.0          9.233         99.738         91.337
        13941.5          9.223         98.565         91.362
        13942.0          9.214         97.392         91.386
        13942.5          9.204         96.220         91.122
        13943.0          9.195         95.047         90.666
        13943.5          9.185         97.436         90.210
        13944.0          9.187        100.016         89.754
        13944.5          9.189        102.595         89.298
        13945.0          9.192        105.175         88.842
        13945.5          9.194        107.754         89.139
        13946.0          9.196        107.025         89.453
        13946.5          9.199        105.172         89.767
        13947.0          9.201        103.319         90.081
        13947.5          9.203        101.465         90.394
        13948.0          9.205         99.612         90.676
        13948.5          9.208         97.759         90.837
