###############################################
##         ENVERUS                           ##
##         ESS - Open Hole                   ##
##         PERMIAN / DELAWARE                ##
##         Nov 04 2023  V4.0                 ##
##         42-389-32421-01-00                ##
###############################################
## Copyright 2017-2023  ENVERUS.  All Rights Reserved. 
## Confidential - Property of ENVERUS, use governed by terms and 
## conditions found within the existing Information Services Subscription Agreement 
## (as may be amended, the “ISSA”) between Customer and ENVERUS. 
## 
~VERSION INFORMATION
# MNEM.UNIT                               DATA : DESCRIPTION OF MNEMONIC
#-----.-----     ----------------------------- : -----------------------------
VERS.                                     2.00 : CWLS LOG ASCII STANDARD - VERSION 2.00
WRAP.                                       NO : MULTIPLE LINES PER DEPTH STEP
VEND.                                  ENVERUS : VENDOR
TYPE.                          ESS - OPEN HOLE : ENVERUS ESSENTIAL CURVES – ACCESSIBLE THROUGH ENVERUS PRISM(TM)
DOC.                                  51227099 : ENVERUS HEADER RAW DOCUMENT ID
#___________________________________________________________________________________________________ 
~WELL INFORMATION 
# zrraAS4ibxVPgm4F4FjILRFQbgMcjf5VKWH9QXz9oP+5l3DBeEvHFHP9dTNjNwXm2+WMaTXZz7qhRLDoyN0AVg== 
# MNEM.UNIT                                              DATA : DESCRIPTION OF MNEMONIC 
#-----.-----                    ----------------------------- : ----------------------------- 
CNTY.                                                  REEVES : COUNTY 
STATE.                                                  TEXAS : STATE 
CNTRY.                                                    USA : COUNTRY 
API.                                             42-389-32421 : API (10 Digit) 
API_14.                                    42-389-32421-01-00 : API (14 Digits) 
API_14_std.                                 42-389-32421-0100 : API (14 Digits Standard) 
UWI.                                           42389324210100 : UNIQUE WELL ID 
WELL.                                      ARMSTRONG STATE #1 : WELL NAME
STRT.FT                                                2000.0 : START DEPTH
STOP.FT                                               14700.0 : STOP DEPTH
STEP.FT                                                   0.5 : STEP BETWEEN DEPTHS
NULL.                                                 -999.25 : NULL VALUE
COMP.                                   BULLDOG OPERATING CO. : COMPANY 
FLD.                                                  WILDCAT : FIELD 
LOC.                                                3-59-2778 : LOCATION 
SRVC.                                            SCHLUMBERGER : SERVICE COMPANY 
DATE.                                              08/28/2006 : DATE 
PREV_APII.                                       423893242100 : API NUMBER 
PREV_UWI.                                        423893242100 : UWI NUMBER 
TVD.                                                       NO : TVD FLAG
#___________________________________________________________________________________________________ 
~PARAMETER INFORMATION 
# MNEM.UNIT                                              DATA : DESCRIPTION OF MNEMONIC 
#-----.-----                    ----------------------------- : ----------------------------- 
RUN.                                                      ONE : RUN NUMBER 
PDAT.                                                      GL : PERMANENT DATUM 
EPD.FT                                              3134.8000 : ELEVATION OF PERM. DATUM 
LMF.                                            KELLY BUSHING : LOG MEASURED FROM 
EKB.FT                                              3157.8000 : ELEVATION OF KELLY BUSHING 
DF.FT                                               3156.8000 : ELEVATION OF DERRICK FLOOR 
GL.FT                                               3134.8000 : ELEVATION OF GROUND LEVEL 
TD.FT                                              14700.0000 : TOTAL DEPTH 
BHT.DEGF                                               230.00 : BOTTOM HOLE TEMPERATURE 
BLI.FT                                             14700.0000 : BOTTOM LOG INTERVAL 
CSGSIZE.IN                                             9.6250 : CASING SIZE 
BITSIZE.IN                                              8.750 : BITSIZE 
CSGD.FT                                                  2014 : CASING BOTTOM (DRILLER) 1 
CSGL.FT                                                  2014 : CASING BOTTOM (LOGGER) 1 
MUD.                                                    BRINE : DRILLING FLUID TYPE 
MUDV.CP                                               31.0000 : DRILLING FLUID VISCOSITY 
MUDD.LB/USG                                            9.3000 : DRILLING FLUID DENSITY 
FL.ML/30MIN                                           13.0000 : DRILLING FLUID LOSS 
PH.                                                   10.0000 : DRILLING FLUID PH 
MUDS.                                        CIRCULATION TANK : MUD SAMPLE SOURCE 
RM.OHMM                                                0.0540 : RESISTIVITY OF MUD SAMPLE 
RMT.DEGF                                              90.0000 : MUD SAMPLE TEMPERATURE 
RMF.OHMM                                               0.0640 : MUD FILTRATE RESISTIVITY 
RMFT.DEGF                                             80.0000 : MUD FILTRATE SAMPLE TEMPERATURE
#___________________________________________________________________________________________________ 
~CURVE INFORMATION 
# MNEM.UNIT           : CURVE DESCRIPTION 
#-----.-----          : ----------------------------- 
 DEPT.FT               : MEASURED DEPTH 
 DT.US/FT              : SONIC DELTA TRANSIT TIME (DELTA T) 
 SPHI.V/V              : SONIC POROSITY (SONIC POROSITY) 
 #___________________________________________________________________________________________________ 
~A         DEPT             DT           SPHI
# ...
         2870.0         49.021        0.01300
         2870.5         48.889        0.01200
         2871.0         48.756        0.01100
         2871.5         48.624        0.01000
         2872.0         48.606        0.01000
         2872.5         48.743        0.01000
         2873.0         48.880        0.01100
         2873.5         49.017        0.01300
         2874.0         49.153        0.01400
         2874.5         49.154        0.01500
         2875.0         49.154        0.01400
         2875.5         49.155        0.01200
         2876.0         49.155        0.01300
         2876.5         49.155        0.01300
         2877.0         49.155        0.01400
         2877.5         49.155        0.01300
         2878.0         49.155        0.01100
         2878.5         49.587        0.01900
         2879.0         50.362        0.02100
         2879.5         50.350        0.02200
         2880.0         50.354        0.02200
         2880.5         50.360        0.02200
         2881.0         49.531        0.01500
         2881.5         48.431        0.00800
         2882.0         48.152        0.00700
         2882.5         48.150        0.00900
         2883.0         48.648        0.01200
         2883.5         49.087        0.01400
         2884.0         49.557        0.01400
         2884.5         49.325        0.01300
         2885.0         49.074        0.01300
         2885.5         49.045        0.01500
         2886.0         49.222        0.01600
         2886.5         49.399        0.01700
         2887.0         49.576        0.01700
         2887.5         49.753        0.01800
         2888.0         49.929        0.01800
         2888.5         50.106        0.01900
         2889.0         49.959        0.01900
         2889.5         49.667        0.01700
         2890.0         49.375        0.01400
         2890.5         49.082        0.01200
         2891.0         48.753        0.01100
         2891.5         48.825        0.01000
         2892.0         48.909        0.00900
         2892.5         48.992        0.01400
         2893.0         49.076        0.01300
         2893.5         49.155        0.01200
         2894.0         48.839        0.01000
         2894.5         48.551        0.01100
         2895.0         48.900        0.01200
         2895.5         49.234        0.01100
         2896.0         49.210        0.01000
         2896.5         48.584        0.01000
         2897.0         48.524        0.01100
         2897.5         48.803        0.01300
         2898.0         49.081        0.01400
         2898.5         49.356        0.01300
         2899.0         48.848        0.01100
         2899.5         48.352        0.00900
         2900.0         48.606        0.01000
         2900.5         48.859        0.01100
         2901.0         48.958        0.01100
         2901.5         48.956        0.01200
         2902.0         48.953        0.01200
         2902.5         48.950        0.01200
         2903.0         48.954        0.01200
         2903.5         48.618        0.01000
         2904.0         48.199        0.00800
         2904.5         48.099        0.00700
         2905.0         48.551        0.00800
         2905.5         48.551        0.00900
         2906.0         48.551        0.00800
         2906.5         48.551        0.00800
         2907.0         48.551        0.00900
         2907.5         48.551        0.01000
         2908.0         48.753        0.01100
         2908.5         49.088        0.01200
         2909.0         49.356        0.01200
         2909.5         48.887        0.01100
         2910.0         48.495        0.01000
         2910.5         48.104        0.00900
         2911.0         48.120        0.00900
         2911.5         48.408        0.00900
         2912.0         48.753        0.01000
         2912.5         48.685        0.01100
         2913.0         48.602        0.01000
         2913.5         48.518        0.00800
         2914.0         48.434        0.00700
         2914.5         48.351        0.00900
         2915.0         48.451        0.01000
         2915.5         48.552        0.01100
         2916.0         48.551        0.01200
         2916.5         48.551        0.01000
         2917.0         48.551        0.00900
         2917.5         48.551        0.00900
         2918.0         48.551        0.00900
         2918.5         48.551        0.00900
         2919.0         48.551        0.00900
         2919.5         48.551        0.00900
         2920.0         48.551        0.00900
         2920.5         48.551        0.00900
         2921.0         48.767        0.01100
         2921.5         49.126        0.01600
         2922.0         49.557        0.01700
         2922.5         49.598        0.01700
         2923.0         49.648        0.01600
         2923.5         49.698        0.01600
         2924.0         49.748        0.01700
         2924.5         49.799        0.01800
         2925.0         49.849        0.01900
         2925.5         49.899        0.02100
         2926.0         49.960        0.02100
         2926.5         49.777        0.01900
         2927.0         49.548        0.01700
         2927.5         49.320        0.01600
         2928.0         49.091        0.01400
         2928.5         48.987        0.01300
         2929.0         49.071        0.01400
         2929.5         49.155        0.01400
         2930.0         48.866        0.01200
         2930.5         48.580        0.00900
         2931.0         48.351        0.01000
         2931.5         48.681        0.01200
         2932.0         48.954        0.01300
         2932.5         49.226        0.01500
         2933.0         49.554        0.01600
         2933.5         49.410        0.01600
         2934.0         49.232        0.01300
         2934.5         49.054        0.01200
         2935.0         48.876        0.01200
         2935.5         48.698        0.01200
         2936.0         48.555        0.01100
         2936.5         48.807        0.01200
         2937.0         49.017        0.01300
         2937.5         49.226        0.01400
         2938.0         49.436        0.01500
         2938.5         49.561        0.01600
         2939.0         49.587        0.01700
         2939.5         49.613        0.01700
         2940.0         49.639        0.01800
         2940.5         49.665        0.01800
         2941.0         49.691        0.01900
         2941.5         49.718        0.01900
         2942.0         49.745        0.02000
         2942.5         49.689        0.02000
         2943.0         49.509        0.01800
         2943.5         49.330        0.01500
         2944.0         49.150        0.01300
         2944.5         48.971        0.01000
         2945.0         48.755        0.01100
         2945.5         48.848        0.01200
         2946.0         48.964        0.01300
         2946.5         49.080        0.01400
         2947.0         49.196        0.01500
         2947.5         49.313        0.01600
         2948.0         49.277        0.01500
         2948.5         49.140        0.01400
         2949.0         49.003        0.01300
         2949.5         48.862        0.01100
         2950.0         48.753        0.01000
         2950.5         48.903        0.01200
         2951.0         49.029        0.01300
         2951.5         49.155        0.01400
         2952.0         49.083        0.01400
         2952.5         49.011        0.01400
         2953.0         48.939        0.01400
         2953.5         48.867        0.01300
         2954.0         48.796        0.01200
         2954.5         48.844        0.01100
         2955.0         49.073        0.01200
         2955.5         49.301        0.01300
         2956.0         49.530        0.01500
         2956.5         49.759        0.01500
