###############################################
##         ENVERUS                           ##
##         ESS - Open Hole                   ##
##         PERMIAN / DELAWARE                ##
##         Nov 04 2023  V4.0                 ##
##         42-389-32421-01-00                ##
###############################################
## Copyright 2017-2023  ENVERUS.  All Rights Reserved. 
## Confidential - Property of ENVERUS, use governed by terms and 
## conditions found within the existing Information Services Subscription Agreement 
## (as may be amended, the “ISSA”) between Customer and ENVERUS. 
## 
~VERSION INFORMATION
# MNEM.UNIT                               DATA : DESCRIPTION OF MNEMONIC
#-----.-----     ----------------------------- : -----------------------------
VERS.                                     2.00 : CWLS LOG ASCII STANDARD - VERSION 2.00
WRAP.                                       NO : MULTIPLE LINES PER DEPTH STEP
VEND.                                  ENVERUS : VENDOR
TYPE.                          ESS - OPEN HOLE : ENVERUS ESSENTIAL CURVES – ACCESSIBLE THROUGH ENVERUS PRISM(TM)
DOC.                                  51226874 : ENVERUS HEADER RAW DOCUMENT ID
#___________________________________________________________________________________________________ 
~WELL INFORMATION 
# Tb73rb1SL3MkDZoC3l18/hn1AqNnLhXquKbAWMIBLpWCEGQs+cUq/9XFz1I3dh1trdNBSXyPtAuUBW0L3ONtkQ== 
# MNEM.UNIT                                              DATA : DESCRIPTION OF MNEMONIC 
#-----.-----                    ----------------------------- : ----------------------------- 
CNTY.                                                  REEVES : COUNTY 
STATE.                                                  TEXAS : STATE 
CNTRY.                                                    USA : COUNTRY 
API.                                             42-389-32421 : API (10 Digit) 
API_14.                                    42-389-32421-01-00 : API (14 Digits) 
API_14_std.                                 42-389-32421-0100 : API (14 Digits Standard) 
UWI.                                           42389324210100 : UNIQUE WELL ID 
WELL.                                      ARMSTRONG STATE  1 : WELL NAME
STRT.FT                                                 182.0 : START DEPTH
STOP.FT                                               14775.0 : STOP DEPTH
STEP.FT                                                   0.5 : STEP BETWEEN DEPTHS
NULL.                                                 -999.25 : NULL VALUE
PREV_UWI.                                      42389324210000 : UNIQUE WELL ID 
PREV_API.                                      42389324210000 : API NUMBER 
COMP.                                    STALEY OPERATING CO. : COMPANY 
DATE.                                             26-JUN-2006 : LOG DATE
#___________________________________________________________________________________________________ 
~CURVE INFORMATION 
# MNEM.UNIT           : CURVE DESCRIPTION 
#-----.-----          : ----------------------------- 
 DEPT.FT               : MEASURED DEPTH 
 CALI__A.IN            : CALIPER (CAL - CAL) 
 GR__A.API             : GAMMA RAY (GR) 
 DT__A.US/FT           : SONIC DELTA TRANSIT TIME (DT) 
 DPHI__A.V/V           : DENSITY POROSITY (DPHI) 
 NPHI__A.V/V           : NEUTRON POROSITY (NPHI) 
 RHOB__A.G/CC          : BULK DENSITY (RHOB) 
 #___________________________________________________________________________________________________ 
~A         DEPT        CALI__A          GR__A          DT__A        DPHI__A        NPHI__A        RHOB__A
# ...
         6262.0         10.556        107.627         59.926        0.06475        0.09529         2.6000
         6262.5         10.557         99.189         60.177        0.06377        0.08789         2.6030
         6263.0         10.560         93.702         60.185        0.06065        0.08013         2.6070
         6263.5         10.562         94.738         59.683        0.05709        0.06825         2.6180
         6264.0         10.564        108.757         59.182        0.05208        0.06699         2.6320
         6264.5         10.567        122.682         58.985        0.04338        0.07717         2.6440
         6265.0         10.569        124.867         60.208        0.03816        0.09550         2.6430
         6265.5         10.571        119.981         61.160        0.04110        0.11401         2.6420
         6266.0         10.574        106.054         60.910        0.04142        0.11969         2.6410
         6266.5         10.576         99.611         60.659        0.03945        0.11587         2.6410
         6267.0         10.578         98.644         60.408        0.03979        0.10937         2.6420
         6267.5         10.580         98.307         60.157        0.03966        0.09969         2.6430
         6268.0         10.583         92.144         59.906        0.03867        0.08955         2.6430
         6268.5         10.585         83.630         59.226        0.04066        0.07941         2.6430
         6269.0         10.585         75.563         58.060        0.03967        0.07010         2.6430
         6269.5         10.581         76.800         58.287        0.04137        0.06291         2.6410
         6270.0         10.576         92.962         58.986        0.03857        0.07052         2.6380
         6270.5         10.572        106.315         59.685        0.04268        0.08619         2.6350
         6271.0         10.567        115.726         60.384        0.04470        0.10245         2.6330
         6271.5         10.563        121.500         61.082        0.03855        0.11178         2.6580
         6272.0         10.558        119.054         61.091        0.02293        0.11962         2.6810
         6272.5         10.555        111.135         60.673        0.01391        0.11113         2.6750
         6273.0         10.552        111.151         60.916        0.01879        0.10266         2.6680
         6273.5         10.550        112.607         61.230        0.02725        0.09992         2.6620
         6274.0         10.547        114.934         61.544        0.03445        0.10472         2.6550
         6274.5         10.544        115.062         61.858        0.03789        0.11076         2.6490
         6275.0         10.560        113.960         62.039        0.03834        0.11278         2.6420
         6275.5         10.578        112.636         61.960        0.03653        0.11125         2.6590
         6276.0         10.596        109.732         61.881        0.02099        0.11353         2.6780
         6276.5         10.614        106.018         61.802        0.01609        0.11848         2.6770
         6277.0         10.591         98.929         61.723        0.01999        0.12020         2.6690
         6277.5         10.565         95.438         61.644        0.02514        0.12038         2.6610
         6278.0         10.545         91.947         61.181        0.03148        0.11567         2.6540
         6278.5         10.549         89.133         60.680        0.03552        0.11092         2.6490
         6279.0         10.554         90.562         60.179        0.03493        0.10719         2.6530
         6279.5         10.558         96.815         59.773        0.02606        0.10477         2.6580
         6280.0         10.563        104.110         59.773        0.02646        0.10459         2.6620
         6280.5         10.567        104.030         59.773        0.02441        0.10258         2.6670
         6281.0         10.571         98.268         59.647        0.02778        0.09782         2.6640
         6281.5         10.576         88.754         59.271        0.03062        0.09307         2.6600
         6282.0         10.580         86.519         58.932        0.03389        0.08921         2.6570
         6282.5         10.585         89.313         59.372        0.03415        0.09199         2.6530
         6283.0         10.589         92.594         59.812        0.03659        0.09827         2.6490
         6283.5         10.594         94.118         60.074        0.04303        0.09899         2.6450
         6284.0         10.598         91.414         60.281        0.04882        0.09684         2.6250
         6284.5         10.601         88.673         60.488        0.05390        0.09352         2.6220
         6285.0         10.594         87.997         60.695        0.05184        0.08791         2.6240
         6285.5         10.587         87.320         60.902        0.04868        0.08446         2.6270
         6286.0         10.581         85.958         60.780        0.04600        0.08302         2.6290
         6286.5         10.574         83.929         60.627        0.04633        0.08222         2.6270
         6287.0         10.568         81.989         60.475        0.04859        0.08141         2.6250
         6287.5         10.561         80.237         60.322        0.05071        0.07920         2.6310
         6288.0         10.557         77.760         60.169        0.04590        0.07601         2.6370
         6288.5         10.554         74.504         60.017        0.04349        0.07123         2.6430
         6289.0         10.551         74.072         59.944        0.03723        0.07555         2.6430
         6289.5         10.549         75.316         60.027        0.04180        0.08341         2.6370
         6290.0         10.546         78.106         60.111        0.04504        0.08567         2.6310
         6290.5         10.622         79.798         60.194        0.04916        0.08604         2.6270
         6291.0         10.557         78.310         60.744        0.04766        0.08268         2.6280
         6291.5         10.531         76.822         61.338        0.04622        0.07910         2.6300
         6292.0         10.533         78.510         61.933        0.04805        0.08137         2.6280
         6292.5         10.535         81.328         61.920        0.05049        0.08541         2.6250
         6293.0         10.537         88.313         61.735        0.05252        0.09152         2.6210
         6293.5         10.539         93.558         61.549        0.05233        0.09799         2.6180
         6294.0         10.542         97.060         61.363        0.05214        0.10205         2.6190
         6294.5         10.544         96.558         61.178        0.05147        0.10230         2.6220
         6295.0         10.546         93.375         60.992        0.05005        0.09372         2.6240
         6295.5         10.547         90.060         60.806        0.04922        0.08589         2.6250
         6296.0         10.549         86.745         60.613        0.05403        0.07901         2.6170
         6296.5         10.551         83.431         60.300        0.06275        0.07412         2.6090
         6297.0         10.553         81.717         59.986        0.06390        0.07203         2.6010
         6297.5         10.555         80.324         59.673        0.05927        0.07115         2.5940
         6298.0         10.557         79.564         59.360        0.05571        0.06989         2.6110
         6298.5         10.558         82.799         58.854        0.05240        0.06729         2.6350
         6299.0         10.560         89.251         58.144        0.04224        0.06469         2.6590
         6299.5         10.562         97.298         57.434        0.02821        0.06278         2.6840
