###############################################
##         ENVERUS                           ##
##         ESS - Open Hole                   ##
##         PERMIAN / DELAWARE                ##
##         Nov 04 2023  V4.0                 ##
##         42-389-32398-00-00                ##
###############################################
## Copyright 2017-2023  ENVERUS.  All Rights Reserved. 
## Confidential - Property of ENVERUS, use governed by terms and 
## conditions found within the existing Information Services Subscription Agreement 
## (as may be amended, the “ISSA”) between Customer and ENVERUS. 
## 
~VERSION INFORMATION
# MNEM.UNIT                               DATA : DESCRIPTION OF MNEMONIC
#-----.-----     ----------------------------- : -----------------------------
VERS.                                     2.00 : CWLS LOG ASCII STANDARD - VERSION 2.00
WRAP.                                       NO : MULTIPLE LINES PER DEPTH STEP
VEND.                                  ENVERUS : VENDOR
TYPE.                          ESS - OPEN HOLE : ENVERUS ESSENTIAL CURVES – ACCESSIBLE THROUGH ENVERUS PRISM(TM)
DOC.                                  31812117 : ENVERUS HEADER RAW DOCUMENT ID
#___________________________________________________________________________________________________ 
~WELL INFORMATION 
# uAwnbjLw6pKN5CeTb7gwROLhNOHLu74gercCwdGpUdKCBCGOTLsJuzWIBCYkU6KzQxtC+uHRBloynRtd0Ulspg== 
# MNEM.UNIT                                              DATA : DESCRIPTION OF MNEMONIC 
#-----.-----                    ----------------------------- : ----------------------------- 
CNTY.                                                  REEVES : COUNTY 
STATE.                                                  TEXAS : STATE 
CNTRY.                                                    USA : COUNTRY 
API.                                             42-389-32398 : API (10 Digit) 
API_14.                                    42-389-32398-00-00 : API (14 Digits) 
API_14_std.                                 42-389-32398-0000 : API (14 Digits Standard) 
UWI.                                           42389323980000 : UNIQUE WELL ID 
WELL.                                    BLOCK 58 STATE 32  1 : WELL NAME
STRT.FT                                                8311.0 : START DEPTH
STOP.FT                                               12834.0 : STOP DEPTH
STEP.FT                                                   0.5 : STEP BETWEEN DEPTHS
NULL.                                                 -999.25 : NULL VALUE
COMP.                                       SHELL WESTERN E&P : COMPANY 
DATE.                                             08-FEB-2006 : LOG DATE
#___________________________________________________________________________________________________ 
~CURVE INFORMATION 
# MNEM.UNIT           : CURVE DESCRIPTION 
#-----.-----          : ----------------------------- 
 DEPT.FT               : MEASURED DEPTH 
 CALI__B.IN            : CALIPER (CAL - CAL) 
 GR__B.API             : GAMMA RAY (GR) 
 DT__B.US/FT           : SONIC DELTA TRANSIT TIME (DT) 
 RESS__B.OHMM          : SHALLOW INDUCTION RESISTIVITY (ILS - ILS) 
 RESD__B.OHMM          : DEEP INDUCTION RESISTIVITY (ILD - ILD) 
 #___________________________________________________________________________________________________ 
~A         DEPT        CALI__B          GR__B          DT__B        RESS__B        RESD__B
# ...
        10819.0          8.304        110.636         72.198          8.491          8.606
        10819.5          8.304        111.911         72.532          8.327          8.470
        10820.0          8.303        112.947         72.917          8.164          8.392
        10820.5          8.303        113.957         73.303          8.001          8.314
        10821.0          8.303        114.710         73.568          7.926          8.237
        10821.5          8.303        115.464         73.651          7.863          8.159
        10822.0          8.303        116.782         73.359          7.800          8.081
        10822.5          8.303        118.289         72.815          7.737          8.003
        10823.0          8.303        118.846         71.978          7.290          7.498
        10823.5          8.303        116.328         71.345          7.077          7.382
        10824.0          8.303        110.421         70.827          7.914          8.494
        10824.5          8.303        103.266         70.563          8.751          9.607
        10825.0          8.303         97.254         70.298          9.231         10.288
        10825.5          8.303         95.195         70.157          9.307         10.143
        10826.0          8.303         94.649         70.033          9.383          9.999
        10826.5          8.303         96.533         69.534          9.681          9.854
        10827.0          8.302         98.107         68.766         10.036         10.176
        10827.5          8.302         99.163         68.347         10.391         10.725
        10828.0          8.301         98.162         68.499         10.745         11.274
        10828.5          8.301         96.274         68.855         11.031         11.824
        10829.0          8.301         96.411         69.392         11.175         12.130
        10829.5          8.300         97.455         69.860         10.765         11.574
        10830.0          8.300         99.588         70.026         10.356         11.017
        10830.5          8.300        102.750         70.052          9.947         10.461
        10831.0          8.299        103.406         69.779          9.538          9.905
        10831.5          8.299        102.853         69.505          9.888         10.177
        10832.0          8.299        100.839         69.331         10.398         10.440
        10832.5          8.298         98.826         69.331         10.716         10.634
        10833.0          8.298         97.549         69.332         10.716         10.735
        10833.5          8.298         99.312         69.317         10.461         10.781
        10834.0          8.297        102.649         69.186         10.417         10.826
        10834.5          8.297        105.505         69.054         10.604         10.872
        10835.0          8.297        105.288         68.924         10.786         10.945
        10835.5          8.296        102.453         68.887         10.897         11.056
        10836.0          8.296         99.517         68.849         10.775         11.166
        10836.5          8.296         96.581         68.753         10.879         11.276
        10837.0          8.295         96.870         68.645         11.127         11.386
        10837.5          8.295         97.322         68.785         11.426         11.497
        10838.0          8.295         97.774         69.132         11.724         11.884
        10838.5          8.294         99.057         69.607         11.728         12.570
        10839.0          8.294        100.887         69.911         11.482         12.128
        10839.5          8.293        101.726         70.144         10.894         11.448
        10840.0          8.293         99.247         69.590         10.306         10.768
        10840.5          8.293         96.618         68.931          9.719         10.087
        10841.0          8.292         93.990         68.271          9.406          9.407
        10841.5          8.292         91.361         68.097          9.598          9.851
        10842.0          8.292         89.721         68.516         10.611         11.303
        10842.5          8.291         91.661         69.172         11.146         11.256
        10843.0          8.291         95.022         69.785         10.486         10.664
        10843.5          8.291         98.059         70.390          9.825         10.073
        10844.0          8.290         95.483         70.426          9.164          9.481
        10844.5          8.290         92.907         70.299          9.102          9.500
        10845.0          8.290         90.873         70.249          9.449          9.787
        10845.5          8.289         90.872         70.470          9.796          9.767
        10846.0          8.289         90.871         70.733          9.788          9.583
        10846.5          8.289         93.613         70.707          9.627         10.010
        10847.0          8.288         95.614         70.627         10.087         10.438
        10847.5          8.288         92.669         70.547         10.547         10.865
        10848.0          8.288         89.724         70.467         11.011         11.293
        10848.5          8.287         86.779         70.563         11.530         11.720
        10849.0          8.287         87.595         70.708         10.358         11.249
        10849.5          8.287         89.102         70.853         10.294         10.301
        10850.0          8.286         91.807         70.838         10.231         10.364
        10850.5          8.286         95.708         70.745         10.016         10.426
        10851.0          8.285         99.609         71.101          9.747         10.047
        10851.5          8.285        102.685         71.389          9.467          9.237
        10852.0          8.285        104.737         71.106          9.109          8.920
        10852.5          8.284        105.491         70.823          9.025          8.911
        10853.0          8.284        106.245         70.540          8.942          8.901
        10853.5          8.284        105.119         70.258          8.838          8.891
        10854.0          8.283        102.894         70.141          8.503          8.882
        10854.5          8.283        100.669         70.030          8.788          8.949
        10855.0          8.283         99.278         70.011          9.072          9.400
        10855.5          8.284         98.900         70.128          9.385          9.852
        10856.0          8.286         98.521         70.245          9.730         10.303
        10856.5          8.288         98.860         70.361          9.614         10.754
        10857.0          8.289         99.408         70.509          9.473         10.305
        10857.5          8.291        102.253         70.661          9.324          9.829
        10858.0          8.293        103.181         70.737          9.174          9.353
        10858.5          8.294         98.044         70.814          9.053          9.594
        10859.0          8.296         92.907         70.970         10.133         10.767
        10859.5          8.298         87.770         71.144         10.791         11.624
        10860.0          8.299         89.826         71.565         10.556         11.986
        10860.5          8.301         94.722         72.003         10.204         10.997
        10861.0          8.301         99.619         72.084          9.241          9.798
        10861.5          8.301        104.187         71.745          8.548          8.758
        10862.0          8.301        102.959         71.235          8.833          9.151
        10862.5          8.301        100.587         70.771          9.117          9.544
