###############################################
##         ENVERUS                           ##
##         ESS - Open Hole                   ##
##         PERMIAN / DELAWARE                ##
##         Nov 04 2023  V4.0                 ##
##         42-389-30283-00-00                ##
###############################################
## Copyright 2017-2023  ENVERUS.  All Rights Reserved. 
## Confidential - Property of ENVERUS, use governed by terms and 
## conditions found within the existing Information Services Subscription Agreement 
## (as may be amended, the “ISSA”) between Customer and ENVERUS. 
## 
~VERSION INFORMATION
# MNEM.UNIT                               DATA : DESCRIPTION OF MNEMONIC
#-----.-----     ----------------------------- : -----------------------------
VERS.                                     2.00 : CWLS LOG ASCII STANDARD - VERSION 2.00
WRAP.                                       NO : MULTIPLE LINES PER DEPTH STEP
VEND.                                  ENVERUS : VENDOR
TYPE.                          ESS - OPEN HOLE : ENVERUS ESSENTIAL CURVES – ACCESSIBLE THROUGH ENVERUS PRISM(TM)
DOC.                                  32052778 : ENVERUS HEADER RAW DOCUMENT ID
#___________________________________________________________________________________________________ 
~WELL INFORMATION 
# CKTmoz7OsKELnwE/IP0i4B9qEmEewtam1JWnvb6ghWZsYWfxLv+2EOc67unJ6Yof0W+RqImtxqI23GomxkzDLA== 
# MNEM.UNIT                                              DATA : DESCRIPTION OF MNEMONIC 
#-----.-----                    ----------------------------- : ----------------------------- 
CNTY.                                                  REEVES : COUNTY 
STATE.                                                  TEXAS : STATE 
CNTRY.                                                    USA : COUNTRY 
API.                                             42-389-30283 : API (10 Digit) 
API_14.                                    42-389-30283-00-00 : API (14 Digits) 
API_14_std.                                 42-389-30283-0000 : API (14 Digits Standard) 
UWI.                                           42389302830000 : UNIQUE WELL ID 
WELL.                       RANDOLPH  A. T.  ET AL-STATE  1 L : WELL NAME
STRT.FT                                                 155.0 : START DEPTH
STOP.FT                                               15740.0 : STOP DEPTH
STEP.FT                                                   0.5 : STEP BETWEEN DEPTHS
NULL.                                                 -999.25 : NULL VALUE
COMP.                                     RIO PETROLEUM  INC. : COMPANY
#___________________________________________________________________________________________________ 
~CURVE INFORMATION 
# MNEM.UNIT           : CURVE DESCRIPTION 
#-----.-----          : ----------------------------- 
 DEPT.FT               : MEASURED DEPTH 
 CALI__A.IN            : CALIPER (CAL - CAL) 
 GR__A.API             : GAMMA RAY (GR) 
 SP__A.MV              : SPONTANEOUS POTENTIAL (SP) 
 DT__A.US/FT           : SONIC DELTA TRANSIT TIME (DT) 
 RESD__A.OHMM          : DEEP INDUCTION RESISTIVITY (ILD - ILD) 
 NPHI__A.V/V           : NEUTRON POROSITY (NPH - NPH) 
 #___________________________________________________________________________________________________ 
~A         DEPT        CALI__A          GR__A          SP__A          DT__A        RESD__A        NPHI__A
# ...
         4563.0         13.716         43.776       -999.250         67.767       -999.250     -999.25000
         4563.5         13.727         43.666       -999.250         68.916       -999.250     -999.25000
         4564.0         13.739         43.612       -999.250         69.917       -999.250     -999.25000
         4564.5         13.750         43.742       -999.250         69.831       -999.250     -999.25000
         4565.0         13.752         43.643       -999.250         69.745       -999.250     -999.25000
         4565.5         13.748         43.115       -999.250         69.659       -999.250     -999.25000
         4566.0         13.745         42.587       -999.250         69.966       -999.250     -999.25000
         4566.5         13.741         42.059       -999.250         70.498       -999.250     -999.25000
         4567.0         13.738         42.731       -999.250         71.031       -999.250     -999.25000
         4567.5         13.734         44.074       -999.250         71.563       -999.250     -999.25000
         4568.0         13.730         44.994       -999.250         71.385       -999.250     -999.25000
         4568.5         13.727         45.535       -999.250         71.116       -999.250     -999.25000
         4569.0         13.723         45.459       -999.250         69.983       -999.250     -999.25000
         4569.5         13.720         45.382       -999.250         68.401       -999.250     -999.25000
         4570.0         13.716         45.016       -999.250         66.818       -999.250     -999.25000
         4570.5         13.713         43.328       -999.250         66.888       -999.250     -999.25000
         4571.0         13.709         41.858       -999.250         69.668       -999.250     -999.25000
         4571.5         13.705         41.967       -999.250         71.561       -999.250     -999.25000
         4572.0         13.702         42.076       -999.250         71.352       -999.250     -999.25000
         4572.5         13.698         45.234       -999.250         71.142       -999.250     -999.25000
         4573.0         13.695         44.664       -999.250         70.933       -999.250     -999.25000
         4573.5         13.691         43.673       -999.250         70.567       -999.250     -999.25000
         4574.0         13.688         42.681       -999.250         70.032       -999.250     -999.25000
         4574.5         13.684         42.245       -999.250         69.497       -999.250     -999.25000
         4575.0         13.680         44.770       -999.250         68.963       -999.250     -999.25000
         4575.5         13.677         47.295       -999.250         68.431       -999.250     -999.25000
         4576.0         13.673         49.330       -999.250         69.196       -999.250     -999.25000
         4576.5         13.670         50.266       -999.250         69.960       -999.250     -999.25000
         4577.0         13.666         42.857       -999.250         70.725       -999.250     -999.25000
         4577.5         13.642         43.364       -999.250         71.490       -999.250     -999.25000
         4578.0         13.603         45.188       -999.250         69.835       -999.250     -999.25000
         4578.5         13.563         48.034       -999.250         68.074       -999.250     -999.25000
         4579.0         13.523         50.694       -999.250         66.314       -999.250     -999.25000
         4579.5         13.483         53.144       -999.250         64.554       -999.250     -999.25000
         4580.0         13.444         56.418       -999.250         62.845       -999.250     -999.25000
         4580.5         13.404         59.732       -999.250         63.083       -999.250     -999.25000
         4581.0         13.364         57.836       -999.250         63.320       -999.250     -999.25000
         4581.5         13.324         55.073       -999.250         63.558       -999.250     -999.25000
         4582.0         13.285         53.182       -999.250         63.710       -999.250     -999.25000
         4582.5         13.261         52.752       -999.250         63.605       -999.250     -999.25000
         4583.0         13.250         54.715       -999.250         63.500       -999.250     -999.25000
         4583.5         13.240         55.822       -999.250         63.395       -999.250     -999.25000
         4584.0         13.229         53.940       -999.250         63.196       -999.250     -999.25000
         4584.5         13.219         52.059       -999.250         62.883       -999.250     -999.25000
         4585.0         13.208         51.863       -999.250         62.569       -999.250     -999.25000
         4585.5         13.197         52.871       -999.250         62.255       -999.250     -999.25000
         4586.0         13.187         55.184       -999.250         61.942       -999.250     -999.25000
         4586.5         13.176         57.474       -999.250         61.651       -999.250     -999.25000
         4587.0         13.166         56.417       -999.250         61.968       -999.250     -999.25000
         4587.5         13.155         55.771       -999.250         62.286       -999.250     -999.25000
         4588.0         13.144         57.826       -999.250         62.603       -999.250     -999.25000
         4588.5         13.134         60.489       -999.250         62.921       -999.250     -999.25000
         4589.0         13.146         63.300       -999.250         63.169       -999.250     -999.25000
         4589.5         13.157         67.040       -999.250         63.275       -999.250     -999.25000
         4590.0         13.169         72.640       -999.250         63.380       -999.250     -999.25000
         4590.5         13.181         79.451       -999.250         63.486       -999.250     -999.25000
         4591.0         13.193         87.052       -999.250         64.342       -999.250     -999.25000
         4591.5         13.204         94.134       -999.250         65.837       -999.250     -999.25000
         4592.0         13.216         96.096       -999.250         67.332       -999.250     -999.25000
         4592.5         13.228         91.521       -999.250         68.294       -999.250     -999.25000
         4593.0         13.239         86.642       -999.250         68.657       -999.250     -999.25000
         4593.5         13.251         82.614       -999.250         68.641       -999.250     -999.25000
         4594.0         13.263         80.076       -999.250         67.734       -999.250     -999.25000
         4594.5         13.274         77.760       -999.250         67.110       -999.250     -999.25000
         4595.0         13.286         75.936       -999.250         66.487       -999.250     -999.25000
         4595.5         13.298         80.439       -999.250         65.864       -999.250     -999.25000
         4596.0         13.309         88.308       -999.250         66.207       -999.250     -999.25000
         4596.5         13.321         96.508       -999.250         66.823       -999.250     -999.25000
         4597.0         13.333        104.708       -999.250         67.438       -999.250     -999.25000
         4597.5         13.344        108.365       -999.250         68.054       -999.250     -999.25000
         4598.0         13.357         98.253       -999.250         68.406       -999.250     -999.25000
         4598.5         13.376         80.339       -999.250         68.371       -999.250     -999.25000
         4599.0         13.394         65.237       -999.250         68.336       -999.250     -999.25000
         4599.5         13.413         53.951       -999.250         67.861       -999.250     -999.25000
         4600.0         13.431         45.686       -999.250         67.032       -999.250     -999.25000
         4600.5         13.450         40.828       -999.250         65.671       -999.250     -999.25000
