#--------------------------------------------------#
#-------------------ENVERUS, INC.------------------#
#------------------WWW.ENVERUS.COM-----------------#
#------------------COPYRIGHT 2020------------------#
#--------------------------------------------------#
#THIS FILE MAY BE USED ONLY IN ACCORDANCE WITH A CURRENT SUBSCRIPTION AGREEMENT BETWEEN
#THE USER AND ENVERUS, INC. NO PART OF THIS FILE MAY BE REPRODUCED, USED, COPIED,
#MODIFIED, PROPAGATED, OR DISTRIBUTED EXCEPT IN ACCORDANCE WITH THE SUBSCRIPTION
#AGREEMENT. UNAUTHORIZED USE OR DISTRIBUTION OF ALL OR ANY PART OF THIS FILE MAY VIOLATE
#COPYRIGHT, TRADEMARK, AND/OR OTHER LAWS AND IS SUBJECT TO CIVIL AS WELL AS CRIMINAL
#SANCTIONS.
#--------------------------------------------------#
#THIS FILE IS PROVIDED "AS-IS" AND ALL WARRANTIES ARE EXPRESSLY DISCLAIMED, WHETHER
#EXPRESS, ORAL, IMPLIED, STATUTORY OR OTHERWISE, INCLUDING ANY IMPLIED WARRANTY OF FITNESS
#FOR A PARTICULAR PURPOSE, MERCHANTABILITY, TITLE OR NON-INFRINGEMENT, AND ANY WARRANTIES
#ARISING BY VIRTUE OF CUSTOM OF TRADE OR COURSE OF DEALING.  FURTHER, ENVERUS, INC.
#AND ITS LICENSORS DO NOT REPRESENT OR WARRANT THAT THIS FILE WILL MEET USER'S
#REQUIREMENTS OR ARE SUITABLE FOR USER'S NEEDS OR THAT THE DATA OR RESULTS PROVIDED IN
#CONJUNCTION THEREWITH ARE CORRECT, ACCURATE, TIMELY OR RELIABLE. THESE DISCLAIMERS SHALL
#APPLY REGARDLESS OF ANY FAILURE OF ESSENTIAL PURPOSE OF ANY LIMITED REMEDY.  SOME
#JURISDICTIONS DO NOT ALLOW THE EXCLUSION OF CERTAIN WARRANTIES SO SOME OF THE ABOVE
#EXCLUSIONS MAY NOT APPLY. IN NO EVENT SHALL ENVERUS, INC. OR ANY OF ITS AFFILIATES
#BE LIABLE UNDER ANY LEGAL THEORY, WHETHER IN TORT (INCLUDING WITHOUT LIMITATION
#NEGLIGENCE), CONTRACT, STRICT LIABILITY, STATUTORY OR OTHERWISE, FOR ANY SPECIAL,
#INCIDENTAL, CONSEQUENTIAL, EXEMPLARY, PUNITIVE OR INDIRECT DAMAGE OF ANY KIND, INCLUDING
#WITHOUT LIMITATION LOSS OF REVENUE, PROFITS, GOODWILL, USE, AND/OR DATA OR THE COST OF
#PROCUREMENT OF SUBSTITUTE GOODS OR SERVICES, EVEN IF APPRISED OF THE POSSIBILITY OF SUCH
#DAMAGES IN ADVANCE.
#--------------------------------------------------#

# EXPORTED FROM TRANSFORM SOFTWARE 5.2.0 ON 31-MAY-2019 BY USER BRIAN.UMLANG
# DI TRANSFORM - A PRODUCT OF DRILLINGINFO, INC. - WWW.DRILLINGINFO.COM
#
~VERSION INFORMATION
 VERS.        2.0 : LAS ASCII STANDARD - VERSION 2.0
 WRAP.         NO : ONE LINE PER DEPTH STEP

~WELL INFORMATION
#MNEM.UNIT       DATA TYPE       INFORMATION
#---------       ---------       -----------
 STRT.FT                 256 : START DEPTH
 STOP.FT                4706 : STOP DEPTH
 STEP.FT                 0.5 : STEP LENGTH
 NULL.               -999.25 : NULL VALUE
 UWI.         42301312890000 : UNIQUE WELL ID
 API.         42301312890000 : WELL IDENTIFIER
 COMP.                       : COMPANY
 WELL.  42301312890000_API14 : WELL NAME
 FLD.                        : FIELD NAME
 LOC.                        : WELL LOCATION
 CNTY.                       : COUNTY
 STAT.                       : STATE OR PROVINCE
 CTRY.                       : COUNTRY
 SRVC.                       : SERVICE COMPANY
 DATE.                       : DATE

~CURVE INFORMATION
#MNEM.UNIT       API CODE       CURVE DESCRIPTION
#---------       --------       -----------------
 DEPT.FT          : <MEASURED DEPTH>
 CAL.IN           : CALIPER
 DPHI.%           : DENSITY POROSITY
 DT.US/FT         : SONIC
 GR.GAPI          : GAMMA RAY
 ILD.OHMM         : DEEP RESISTIVITY
 ILS.OHMM         : SHALLOW RESISTIVITY
 NPHI.%           : NEUTRON POROSITY
 PE.B/ELEC        : PHOTOELECTRIC FACTOR
 RHOB.G/CM3       : DENSITY

~PARAMETER INFORMATION
#MNEM.UNIT       VALUE       DESCRIPTION
#---------       -----       -----------
 EKB.FT      2822 : ELEVATION ABOVE MSL

~A      DEPT         CAL        DPHI          DT          GR         ILD         ILS        NPHI          PE        RHOB
# ...
        4544        9.06     22.3462     81.6883     67.3653      3.3139      1.7978     23.5614      2.4248      2.3539
      4544.5        9.06     21.9084     82.2496     67.3653      3.3759      1.8513     23.7609      2.4248       2.357
        4545        9.06     21.1322     82.4048     67.6743      3.4778      1.8867     24.0053      2.4048      2.3674
      4545.5      9.0716     20.5291     82.2206     69.1617      3.6781      1.9407     24.1643      2.3848      2.3751
        4546      9.1128     20.7453     81.5525     68.7942      3.8435       2.028     22.0315      2.3848      2.3745
      4546.5      9.2481     21.4259      80.718     65.8914      3.8793       2.028     21.3968      2.3848      2.3675
        4547      9.4329     21.7502     79.8139     62.5217      3.8081      1.9837     21.7212      2.3848      2.3599
      4547.5      9.5165     21.8853      79.936     61.0778       3.689      1.9285      22.548      2.3647      2.3581
        4548        9.54     21.4671     80.1783     61.1947      3.5689      1.9006     23.1325      2.3246      2.3624
      4548.5        9.28     21.0565     80.7311     62.9267      3.5034      1.8741     24.1036      2.2846      2.3705
        4549        9.28     20.4863     80.9835     63.7725      3.5876      1.9006      23.731      2.2445      2.3808
      4549.5        9.28     19.2052      80.743     63.3026      3.7037      1.9006     22.0392      2.2459      2.4094
        4550        9.28     18.7437     77.8107     62.6859      3.9887      1.9843     19.1348      2.2846       2.419
      4550.5        9.28     17.9145     77.2869     63.6327      4.1661      2.1379     18.7373      2.3488      2.4206
        4551        9.28     18.5565     76.5609     66.4285      4.4471      2.2611      18.496      2.4048      2.4147
      4551.5        9.28     19.4023     76.7472     68.8623      4.4578      2.2665     19.3685      2.4048       2.406
        4552        9.28     20.6206     77.8488     69.1617      4.3425      2.2079     20.8659      2.4048       2.385
      4552.5        9.28      21.227     79.6084     67.9857      4.2167      2.1639     22.4198      2.3848      2.3745
        4553        9.28     21.5007     80.2806     67.9641      4.0664      2.1062     23.4569      2.3848      2.3676
      4553.5      9.2087      21.358     80.7185     68.2635      3.9887      2.0469     24.3278      2.3647      2.3673
        4554        9.18     20.8058     80.8016     67.9321      4.0258      2.0469     24.2621      2.3246      2.3728
      4554.5        9.18     20.1149     80.6579     66.7665      4.1011      2.0861     22.3542      2.2846      2.3798
        4555        9.18     19.6607     80.4373     67.2689      4.2204       2.126     21.8219      2.2645      2.3884
      4555.5        9.18     19.2516     79.7861     71.6852      4.5109      2.1868     21.6988      2.2645      2.3942
        4556        9.18     18.3865      79.288     76.1513      4.8172       2.378     21.5493      2.2645      2.4062
      4556.5      9.1795     17.6295     78.2221     77.5449      5.1921      2.4688     21.4525      2.2846      2.4207
        4557         9.2     17.6313     77.1926     74.2936      5.4657      2.6045      20.919      2.3246      2.4311
      4557.5         9.2     18.4433     76.9266      69.304      5.3996      2.6211     19.9885      2.3275      2.4111
        4558         9.2     20.0219     77.4258      66.055      5.1055      2.4328     19.6512      2.3848      2.3916
      4558.5      9.2036     20.7661     78.4907     65.5689      4.6951      2.3433     19.6177      2.3647      2.3801
        4559        9.26     20.7237     79.2623     66.6777      4.3803      2.1549     19.9888      2.3447      2.3782
      4559.5        9.26     20.5528     79.7496     67.8932      4.1393       2.071      20.503      2.2846      2.3779
        4560        9.26     20.7749     80.0657     67.9641      3.9689      1.9626     20.7562      2.2846      2.3741
      4560.5        9.26     21.7474     80.2405     66.8016      3.8793      1.9362     21.5114      2.2954      2.3614
        4561        9.26     22.3071     80.2661     65.5861      3.8435      1.9429     21.3953      2.3647       2.357
      4561.5        9.32      22.291      80.308     64.6707      3.8435      1.9006     20.9055      2.3848      2.3566
        4562        9.32      21.539       80.39     64.6522      3.8793      1.9183     21.1178      2.3848      2.3654
      4562.5        9.32     20.7566     80.4409     63.7361      3.9154      1.9542     21.8682      2.3647      2.3771
        4563      9.3244     20.2772     79.6342     62.5749      4.0633      2.0093     22.2882      2.3647      2.3878
      4563.5        9.32       19.63     78.6211     62.2754      4.1719       2.028     22.5406      2.3447      2.3938
        4564         9.3     19.5097     77.8697     62.6648      4.2167        2.03     22.3098      2.3447       2.395
      4564.5         9.3     19.7569     77.3964      64.533      4.2167      2.0292     21.8149      2.3647      2.3916
        4565         9.3     20.0738     77.5755     66.8053      4.1778      2.0096     21.4519      2.3647      2.3865
      4565.5         9.3      20.321     78.1964     68.2635      4.1393      1.9542     21.3288      2.3647      2.3839
        4566         9.3     20.2995     78.3567     67.5032      4.1011      1.9542     21.0167      2.3647      2.3839
      4566.5         9.3      20.337     78.3166     65.3895      4.1011      1.9542      20.133      2.3848      2.3829
        4567         9.3     20.4495     78.1889     63.8747      4.1071      1.9724     19.5377       2.393      2.3819
      4567.5         9.3      20.593     77.9065     63.1737      4.1393      1.9724     19.3862      2.4048        2.38
        4568         9.3     20.5414     77.7443     62.3419      4.1393      1.9724     20.3466      2.3647       2.382
      4568.5         9.3     20.2862     77.3888      60.827      4.1282      1.9724     21.0262      2.3647      2.3872
        4569         9.3     19.8693     76.7668     60.7784      4.0633      1.9542     21.0122      2.3447      2.3911
      4569.5      9.2976      19.451     75.8784     61.9632      4.0633      1.9542     20.3122      2.3447      2.3951
        4570         9.3     19.1158     75.1964     62.2754      3.9519      1.9542     20.1006      2.3246      2.4027
      4570.5        9.36     19.6833     74.6693     62.2525      3.8793      1.9362     20.0294      2.3246      2.3922
        4571        9.36     20.6269     75.2345     61.0778      3.8435      1.9183     20.6054      2.3447      2.3779
      4571.5      9.4357     21.4388     76.7815     61.0778       3.773      1.8734     21.4365      2.3447      2.3647
        4572      9.5369     21.7864     78.1992     61.3772      3.7037      1.8657     21.7009      2.3246      2.3583
      4572.5        9.64     22.3312     79.6084     61.3772      3.6695      1.8596     22.2852      2.3246      2.3548
        4573        9.64     22.4046     80.3048     61.3772      3.6695      1.8657     22.3843      2.3046      2.3484
      4573.5        9.64     22.8878     80.4095     60.3489      3.7988      1.9136     22.3366      2.2846      2.3332
        4574      9.7057     23.2192      79.507      58.982      4.2081      2.1198     22.0925      2.2846       2.337
      4574.5      9.5769     23.7031      77.335     58.6826      5.0267      2.4256     20.0476      2.2846      2.3462
        4575       9.187     21.9329     73.5355     59.4652      5.8579      2.7868     18.9491      2.2846      2.3869
      4575.5      9.0544     18.2791     70.8264     60.9801      6.3982      3.1058     16.1898      2.3356      2.4198
        4576      8.9532     17.4804     70.6594     62.1955      6.5786      3.1639     15.5866      2.4171      2.4325
      4576.5       8.852     17.7012     72.2202      63.411      6.1654      3.0772     17.6611      2.4713      2.4341
        4577      8.7507     19.4883     73.7454     64.9259      5.3031      2.6887     19.4531      2.4449      2.3972
