###############################################
##         ENVERUS                           ##
##         ESS - Open Hole                   ##
##         PERMIAN / DELAWARE                ##
##         Nov 04 2023  V4.0                 ##
##         42-389-32421-01-00                ##
###############################################
## Copyright 2017-2023  ENVERUS.  All Rights Reserved. 
## Confidential - Property of ENVERUS, use governed by terms and 
## conditions found within the existing Information Services Subscription Agreement 
## (as may be amended, the “ISSA”) between Customer and ENVERUS. 
## 
~VERSION INFORMATION
# MNEM.UNIT                               DATA : DESCRIPTION OF MNEMONIC
#-----.-----     ----------------------------- : -----------------------------
VERS.                                     2.00 : CWLS LOG ASCII STANDARD - VERSION 2.00
WRAP.                                       NO : MULTIPLE LINES PER DEPTH STEP
VEND.                                  ENVERUS : VENDOR
TYPE.                          ESS - OPEN HOLE : ENVERUS ESSENTIAL CURVES – ACCESSIBLE THROUGH ENVERUS PRISM(TM)
DOC.                                  51227099 : ENVERUS HEADER RAW DOCUMENT ID
#___________________________________________________________________________________________________ 
~WELL INFORMATION 
# zrraAS4ibxVPgm4F4FjILRFQbgMcjf5VKWH9QXz9oP+5l3DBeEvHFHP9dTNjNwXm2+WMaTXZz7qhRLDoyN0AVg== 
# MNEM.UNIT                                              DATA : DESCRIPTION OF MNEMONIC 
#-----.-----                    ----------------------------- : ----------------------------- 
CNTY.                                                  REEVES : COUNTY 
STATE.                                                  TEXAS : STATE 
CNTRY.                                                    USA : COUNTRY 
API.                                             42-389-32421 : API (10 Digit) 
API_14.                                    42-389-32421-01-00 : API (14 Digits) 
API_14_std.                                 42-389-32421-0100 : API (14 Digits Standard) 
UWI.                                           42389324210100 : UNIQUE WELL ID 
WELL.                                      ARMSTRONG STATE #1 : WELL NAME
STRT.FT                                                2000.0 : START DEPTH
STOP.FT                                               14700.0 : STOP DEPTH
STEP.FT                                                   0.5 : STEP BETWEEN DEPTHS
NULL.                                                 -999.25 : NULL VALUE
COMP.                                   BULLDOG OPERATING CO. : COMPANY 
FLD.                                                  WILDCAT : FIELD 
LOC.                                                3-59-2778 : LOCATION 
SRVC.                                            SCHLUMBERGER : SERVICE COMPANY 
DATE.                                              08/28/2006 : DATE 
PREV_APII.                                       423893242100 : API NUMBER 
PREV_UWI.                                        423893242100 : UWI NUMBER 
TVD.                                                       NO : TVD FLAG
#___________________________________________________________________________________________________ 
~PARAMETER INFORMATION 
# MNEM.UNIT                                              DATA : DESCRIPTION OF MNEMONIC 
#-----.-----                    ----------------------------- : ----------------------------- 
RUN.                                                      ONE : RUN NUMBER 
PDAT.                                                      GL : PERMANENT DATUM 
EPD.FT                                              3134.8000 : ELEVATION OF PERM. DATUM 
LMF.                                            KELLY BUSHING : LOG MEASURED FROM 
EKB.FT                                              3157.8000 : ELEVATION OF KELLY BUSHING 
DF.FT                                               3156.8000 : ELEVATION OF DERRICK FLOOR 
GL.FT                                               3134.8000 : ELEVATION OF GROUND LEVEL 
TD.FT                                              14700.0000 : TOTAL DEPTH 
BHT.DEGF                                               230.00 : BOTTOM HOLE TEMPERATURE 
BLI.FT                                             14700.0000 : BOTTOM LOG INTERVAL 
CSGSIZE.IN                                             9.6250 : CASING SIZE 
BITSIZE.IN                                              8.750 : BITSIZE 
CSGD.FT                                                  2014 : CASING BOTTOM (DRILLER) 1 
CSGL.FT                                                  2014 : CASING BOTTOM (LOGGER) 1 
MUD.                                                    BRINE : DRILLING FLUID TYPE 
MUDV.CP                                               31.0000 : DRILLING FLUID VISCOSITY 
MUDD.LB/USG                                            9.3000 : DRILLING FLUID DENSITY 
FL.ML/30MIN                                           13.0000 : DRILLING FLUID LOSS 
PH.                                                   10.0000 : DRILLING FLUID PH 
MUDS.                                        CIRCULATION TANK : MUD SAMPLE SOURCE 
RM.OHMM                                                0.0540 : RESISTIVITY OF MUD SAMPLE 
RMT.DEGF                                              90.0000 : MUD SAMPLE TEMPERATURE 
RMF.OHMM                                               0.0640 : MUD FILTRATE RESISTIVITY 
RMFT.DEGF                                             80.0000 : MUD FILTRATE SAMPLE TEMPERATURE
#___________________________________________________________________________________________________ 
~CURVE INFORMATION 
# MNEM.UNIT           : CURVE DESCRIPTION 
#-----.-----          : ----------------------------- 
 DEPT.FT               : MEASURED DEPTH 
 DT.US/FT              : SONIC DELTA TRANSIT TIME (DELTA T) 
 SPHI.V/V              : SONIC POROSITY (SONIC POROSITY) 
 #___________________________________________________________________________________________________ 
~A         DEPT             DT           SPHI
# ...
         6176.0         61.378        0.10500
         6176.5         62.300        0.10900
         6177.0         63.038        0.11400
         6177.5         62.837        0.11200
         6178.0         62.267        0.10900
         6178.5         61.697        0.10500
         6179.0         61.127        0.10200
         6179.5         60.557        0.09800
         6180.0         59.987        0.09500
         6180.5         59.416        0.09100
         6181.0         59.228        0.08700
         6181.5         59.039        0.08600
         6182.0         58.813        0.08500
         6182.5         59.215        0.08800
         6183.0         59.819        0.09000
         6183.5         59.551        0.09200
         6184.0         59.618        0.09000
         6184.5         59.953        0.09000
         6185.0         60.205        0.09200
         6185.5         59.775        0.09000
         6186.0         59.417        0.08600
         6186.5         59.332        0.08800
         6187.0         59.654        0.09000
         6187.5         59.976        0.09200
         6188.0         60.298        0.09500
         6188.5         60.620        0.09500
         6189.0         60.508        0.09500
         6189.5         60.392        0.09400
         6190.0         60.275        0.09300
         6190.5         60.159        0.09200
         6191.0         60.020        0.09100
         6191.5         59.618        0.08900
         6192.0         59.014        0.08600
         6192.5         59.023        0.08400
         6193.0         59.022        0.08400
         6193.5         59.020        0.08400
         6194.0         59.021        0.08300
         6194.5         58.847        0.08100
         6195.0         58.411        0.07900
         6195.5         57.975        0.07700
         6196.0         57.626        0.07800
         6196.5         58.468        0.08200
         6197.0         59.187        0.08700
         6197.5         59.388        0.08500
         6198.0         58.813        0.08100
         6198.5         58.238        0.07800
         6199.0         58.209        0.07700
         6199.5         58.813        0.08400
         6200.0         59.819        0.09200
         6200.5         60.825        0.10000
         6201.0         60.972        0.10000
         6201.5         60.546        0.09700
         6202.0         60.121        0.09300
         6202.5         59.695        0.09000
         6203.0         59.269        0.08600
         6203.5         59.106        0.08700
         6204.0         59.337        0.08800
         6204.5         59.567        0.08900
         6205.0         59.798        0.09000
         6205.5         60.029        0.09100
         6206.0         60.259        0.09300
         6206.5         60.490        0.09400
         6207.0         60.720        0.09600
         6207.5         60.951        0.09900
         6208.0         61.224        0.09900
         6208.5         60.973        0.09700
         6209.0         60.659        0.09600
         6209.5         60.345        0.09400
         6210.0         60.032        0.09300
         6210.5         59.718        0.09000
         6211.0         59.406        0.08600
         6211.5         59.301        0.08700
         6212.0         59.508        0.08800
         6212.5         59.143        0.08500
         6213.0         57.918        0.07600
         6213.5         56.690        0.06600
         6214.0         55.464        0.05900
         6214.5         56.013        0.06300
         6215.0         57.014        0.07100
         6215.5         58.013        0.07800
         6216.0         59.014        0.08600
         6216.5         60.020        0.09400
         6217.0         60.762        0.09900
         6217.5         61.328        0.10100
         6218.0         61.894        0.10400
         6218.5         62.658        0.11300
         6219.0         63.720        0.12100
         6219.5         64.782        0.12900
         6220.0         66.056        0.13600
         6220.5         66.190        0.14000
         6221.0         66.358        0.13800
         6221.5         66.258        0.13600
         6222.0         65.755        0.13200
         6222.5         65.252        0.12800
         6223.0         65.061        0.12700
         6223.5         65.078        0.12900
         6224.0         65.096        0.13000
         6224.5         65.116        0.13000
         6225.0         65.135        0.13000
         6225.5         65.155        0.13000
         6226.0         65.174        0.13000
         6226.5         65.192        0.13000
         6227.0         65.210        0.13000
         6227.5         65.229        0.12900
         6228.0         65.252        0.12900
         6228.5         64.483        0.12600
         6229.0         63.523        0.12300
         6229.5         62.563        0.11300
         6230.0         61.602        0.10400
         6230.5         60.926        0.09800
         6231.0         60.674        0.09700
         6231.5         60.423        0.09600
         6232.0         60.221        0.09500
         6232.5         60.221        0.09400
         6233.0         60.221        0.09300
         6233.5         59.752        0.09000
         6234.0         58.813        0.08500
         6234.5         58.612        0.08700
         6235.0         59.429        0.09100
         6235.5         60.246        0.09600
         6236.0         61.227        0.10000
         6236.5         60.976        0.09800
         6237.0         60.661        0.09700
         6237.5         60.347        0.09600
         6238.0         60.551        0.09800
         6238.5         61.099        0.10100
         6239.0         61.643        0.10400
         6239.5         62.194        0.10700
         6240.0         62.632        0.11000
         6240.5         62.690        0.11100
         6241.0         62.735        0.11100
         6241.5         62.780        0.11200
         6242.0         62.816        0.11200
         6242.5         61.777        0.10300
         6243.0         60.940        0.09400
         6243.5         60.423        0.09400
         6244.0         60.423        0.09600
         6244.5         60.724        0.10000
         6245.0         61.479        0.10700
         6245.5         62.233        0.10500
         6246.0         61.353        0.09900
         6246.5         60.473        0.09400
         6247.0         59.593        0.08800
         6247.5         58.712        0.08300
         6248.0         58.008        0.07900
         6248.5         58.063        0.07800
         6249.0         58.109        0.07800
         6249.5         58.154        0.07900
         6250.0         58.209        0.08400
         6250.5         59.148        0.09100
         6251.0         60.322        0.10000
         6251.5         60.959        0.10000
         6252.0         60.825        0.10000
         6252.5         59.618        0.09000
         6253.0         58.612        0.08200
         6253.5         57.606        0.07400
         6254.0         57.807        0.08000
         6254.5         58.679        0.08600
         6255.0         59.769        0.09200
         6255.5         60.456        0.09600
         6256.0         60.540        0.09600
         6256.5         60.624        0.09800
         6257.0         61.127        0.10100
         6257.5         61.630        0.10400
         6258.0         61.831        0.10200
         6258.5         61.277        0.10000
         6259.0         60.433        0.09800
         6259.5         60.569        0.09600
         6260.0         60.735        0.09900
         6260.5         60.745        0.09700
         6261.0         60.523        0.09400
         6261.5         60.299        0.09500
         6262.0         60.306        0.09500
         6262.5         60.490        0.09500
