#--------------------------------------------------#
#-------------------ENVERUS, INC.------------------#
#------------------WWW.ENVERUS.COM-----------------#
#------------------COPYRIGHT 2020------------------#
#--------------------------------------------------#
#THIS FILE MAY BE USED ONLY IN ACCORDANCE WITH A CURRENT SUBSCRIPTION AGREEMENT BETWEEN
#THE USER AND ENVERUS, INC. NO PART OF THIS FILE MAY BE REPRODUCED, USED, COPIED,
#MODIFIED, PROPAGATED, OR DISTRIBUTED EXCEPT IN ACCORDANCE WITH THE SUBSCRIPTION
#AGREEMENT. UNAUTHORIZED USE OR DISTRIBUTION OF ALL OR ANY PART OF THIS FILE MAY VIOLATE
#COPYRIGHT, TRADEMARK, AND/OR OTHER LAWS AND IS SUBJECT TO CIVIL AS WELL AS CRIMINAL
#SANCTIONS.
#--------------------------------------------------#
#THIS FILE IS PROVIDED "AS-IS" AND ALL WARRANTIES ARE EXPRESSLY DISCLAIMED, WHETHER
#EXPRESS, ORAL, IMPLIED, STATUTORY OR OTHERWISE, INCLUDING ANY IMPLIED WARRANTY OF FITNESS
#FOR A PARTICULAR PURPOSE, MERCHANTABILITY, TITLE OR NON-INFRINGEMENT, AND ANY WARRANTIES
#ARISING BY VIRTUE OF CUSTOM OF TRADE OR COURSE OF DEALING.  FURTHER, ENVERUS, INC.
#AND ITS LICENSORS DO NOT REPRESENT OR WARRANT THAT THIS FILE WILL MEET USER'S
#REQUIREMENTS OR ARE SUITABLE FOR USER'S NEEDS OR THAT THE DATA OR RESULTS PROVIDED IN
#CONJUNCTION THEREWITH ARE CORRECT, ACCURATE, TIMELY OR RELIABLE. THESE DISCLAIMERS SHALL
#APPLY REGARDLESS OF ANY FAILURE OF ESSENTIAL PURPOSE OF ANY LIMITED REMEDY.  SOME
#JURISDICTIONS DO NOT ALLOW THE EXCLUSION OF CERTAIN WARRANTIES SO SOME OF THE ABOVE
#EXCLUSIONS MAY NOT APPLY. IN NO EVENT SHALL ENVERUS, INC. OR ANY OF ITS AFFILIATES
#BE LIABLE UNDER ANY LEGAL THEORY, WHETHER IN TORT (INCLUDING WITHOUT LIMITATION
#NEGLIGENCE), CONTRACT, STRICT LIABILITY, STATUTORY OR OTHERWISE, FOR ANY SPECIAL,
#INCIDENTAL, CONSEQUENTIAL, EXEMPLARY, PUNITIVE OR INDIRECT DAMAGE OF ANY KIND, INCLUDING
#WITHOUT LIMITATION LOSS OF REVENUE, PROFITS, GOODWILL, USE, AND/OR DATA OR THE COST OF
#PROCUREMENT OF SUBSTITUTE GOODS OR SERVICES, EVEN IF APPRISED OF THE POSSIBILITY OF SUCH
#DAMAGES IN ADVANCE.
#--------------------------------------------------#

~VERSION INFORMATION
VERS. 2.0 : CWLS LOG ASCII STANDARD - VERSION 2.0
WRAP.  NO : ONE LINE PER DEPTH STEP
~WELL INFORMATION
#MNEMONIC     .UNIT              VALUE :DESCRIPTION
STRT       .FT                0 :START DEPTH
STOP       .FT                3396 :STOP DEPTH
STEP       .FT                   0.500 :STEP
NULL       .                  -999.250 :NULL
UWI        .              42389305140000 :UNIQUE WELL ID
API        .              42389305140000 :API NUMBER
COMP       .         SLEDGE BROS. OIL CO. :COMPANY
WELL       .        BOLLINGER  5 :WELL
DATE       .                            :LOG DATE
~CURVE INFORMATION
#MNEMONIC     .UNIT      API CODE :CURVE DESCRIPTION
DEPTH       .FT                      :MEASURED DEPTH
ILS.OHM        UNKNOWN   :ILS
GR.API        UNKNOWN   :GR
DT.US/FT        UNKNOWN   :DT
CAL.INCH        UNKNOWN   :CAL
ILD.OHM        UNKNOWN   :ILD
~A    DEPTH    ILS    GR    DT    CAL    ILD
# ...
 2562     -999.250   -999.99   49.348   6.985   -999.250
 2562.5     -999.250   -999.99   49.404   6.986   -999.250
 2563     -999.250   -999.99   49.458   6.986   -999.250
 2563.5     -999.250   -999.99   49.512   6.987   -999.250
 2564     -999.250   -999.99   49.566   6.988   -999.250
 2564.5     -999.250   -999.99   49.594   6.988   -999.250
 2565     -999.250   -999.99   49.544   6.989   -999.250
 2565.5     -999.250   -999.99   49.494   6.989   -999.250
 2566     -999.250   -999.99   49.444   6.99   -999.250
 2566.5     -999.250   -999.99   49.394   6.99   -999.250
 2567     -999.250   -999.99   49.344   6.991   -999.250
 2567.5     -999.250   -999.99   49.375   6.991   -999.250
 2568     -999.250   -999.99   49.433   6.992   -999.250
 2568.5     -999.250   -999.99   49.491   6.992   -999.250
 2569     -999.250   -999.99   49.55   6.993   -999.250
 2569.5     -999.250   -999.99   49.598   7.016   -999.250
 2570     -999.250   -999.99   49.49   7.046   -999.250
 2570.5     -999.250   -999.99   49.382   7.076   -999.250
 2571     -999.250   -999.99   49.275   7.106   -999.250
 2571.5     -999.250   -999.99   49.167   7.136   -999.250
 2572     -999.250   -999.99   49.441   7.088   -999.250
 2572.5     -999.250   -999.99   49.744   7.024   -999.250
 2573     -999.250   -999.99   50.046   6.96   -999.250
 2573.5     -999.250   -999.99   50.128   6.944   -999.250
 2574     -999.250   -999.99   50.181   6.954   -999.250
 2574.5     -999.250   -999.99   49.946   6.963   -999.250
 2575     -999.250   -999.99   49.696   6.972   -999.250
 2575.5     -999.250   -999.99   49.447   6.982   -999.250
 2576     -999.250   -999.99   49.198   6.991   -999.250
 2576.5     -999.250   -999.99   49.159   7   -999.250
 2577     -999.250   -999.99   49.283   7.01   -999.250
 2577.5     -999.250   -999.99   49.407   7.019   -999.250
 2578     -999.250   -999.99   49.53   7.029   -999.250
 2578.5     -999.250   -999.99   49.509   7.031   -999.250
 2579     -999.250   -999.99   49.484   7.031   -999.250
 2579.5     -999.250   -999.99   49.459   7.031   -999.250
 2580     -999.250   -999.99   49.434   7.032   -999.250
 2580.5     -999.250   -999.99   49.409   7.032   -999.250
 2581     -999.250   -999.99   49.384   7.032   -999.250
 2581.5     -999.250   -999.99   49.359   7.032   -999.250
 2582     -999.250   -999.99   49.334   7.032   -999.250
 2582.5     -999.250   -999.99   49.375   7.032   -999.250
 2583     -999.250   -999.99   49.442   7.032   -999.250
 2583.5     -999.250   -999.99   49.509   7.032   -999.250
 2584     -999.250   -999.99   49.577   7.032   -999.250
 2584.5     -999.250   -999.99   49.644   7.032   -999.250
 2585     -999.250   -999.99   49.712   7.032   -999.250
 2585.5     -999.250   -999.99   49.704   7.033   -999.250
 2586     -999.250   -999.99   49.656   7.033   -999.250
 2586.5     -999.250   -999.99   49.607   7.033   -999.250
 2587     -999.250   -999.99   49.559   7.033   -999.250
 2587.5     -999.250   -999.99   49.51   7.033   -999.250
 2588     -999.250   -999.99   49.588   7.033   -999.250
 2588.5     -999.250   -999.99   49.722   7.033   -999.250
 2589     -999.250   -999.99   49.856   7.033   -999.250
 2589.5     -999.250   -999.99   49.97   7.033   -999.250
 2590     -999.250   -999.99   50.053   7.033   -999.250
 2590.5     -999.250   -999.99   50.061   7.033   -999.250
 2591     -999.250   -999.99   50.041   7.034   -999.250
 2591.5     -999.250   -999.99   50.022   7.034   -999.250
 2592     -999.250   -999.99   50.002   6.932   -999.250
 2592.5     -999.250   9.625   49.982   6.934   -999.250
 2593     -999.250   9.586   50.163   6.936   -999.250
 2593.5     -999.250   8.9   50.131   6.939   -999.250
 2594     -999.250   8.213   50.184   6.941   -999.250
 2594.5     -999.250   7.526   50.047   6.943   -999.250
 2595     -999.250   7.269   49.845   6.945   -999.250
 2595.5     -999.250   7.225   49.558   6.947   -999.250
 2596     -999.250   7.181   49.27   6.95   -999.250
 2596.5     -999.250   7.103   49   6.952   -999.250
 2597     -999.250   7.252   49.105   6.954   -999.250
 2597.5     -999.250   7.991   49.232   6.956   -999.250
 2598     -999.250   8.73   49.375   6.955   -999.250
 2598.5     -999.250   8.592   49.517   6.955   -999.250
 2599     -999.250   7.74   49.628   6.954   -999.250
 2599.5     -999.250   6.888   49.417   6.954   -999.250
 2600     -999.250   7.161   49.205   6.954   -999.250
 2600.5     -999.250   8.527   49.028   6.953   -999.250
 2601     -999.250   9.893   48.915   6.953   -999.250
 2601.5     -999.250   9.789   48.854   6.952   -999.250
 2602     -999.250   8.867   48.879   6.952   -999.250
 2602.5     -999.250   7.945   48.934   6.951   -999.250
 2603     -999.250   7.022   49.006   6.951   -999.250
 2603.5     -999.250   6.1   49.031   6.951   -999.250
 2604     -999.250   5.371   49.042   6.95   -999.250
 2604.5     -999.250   5.37   49.043   6.95   -999.250
 2605     -999.250   6.065   49.09   6.949   -999.250
 2605.5     -999.250   7.126   49.164   6.949   -999.250
 2606     -999.250   8.664   49.408   6.949   -999.250
 2606.5     -999.250   10.697   49.764   6.948   -999.250
 2607     -999.250   12.661   50.12   6.948   -999.250
 2607.5     -999.250   12.073   50.31   6.947   -999.250
 2608     -999.250   11.171   50.338   6.948   -999.250
 2608.5     -999.250   10.269   50.323   6.948   -999.250
 2609     -999.250   10.903   50.57   6.948   -999.250
 2609.5     -999.250   11.342   51.071   6.948   -999.250
 2610     -999.250   9.795   51.519   6.949   -999.250
 2610.5     -999.250   7.996   51.597   6.949   -999.250
 2611     -999.250   6.197   51.327   6.949   -999.250
 2611.5     -999.250   4.523   50.57   6.95   -999.250
 2612     -999.250   4.371   50.353   6.95   -999.250
 2612.5     -999.250   4.219   50.125   6.95   -999.250
 2613     -999.250   4.338   49.705   6.95   -999.250
 2613.5     -999.250   4.902   49.241   6.951   -999.250
 2614     -999.250   5.466   48.774   6.951   -999.250
 2614.5     -999.250   6.029   48.442   6.953   -999.250
 2615     -999.250   6.593   48.54   6.956   -999.250
 2615.5     -999.250   6.492   48.603   6.959   -999.250
 2616     -999.250   6.258   48.666   6.963   -999.250
 2616.5     -999.250   6.024   48.729   6.966   -999.250
 2617     -999.250   6.248   48.792   6.969   -999.250
 2617.5     -999.250   6.507   48.855   6.973   -999.250
 2618     -999.250   6.767   48.918   6.976   -999.250
 2618.5     -999.250   7.027   48.92   6.979   -999.250
 2619     -999.250   7.287   48.859   6.983   -999.250
 2619.5     -999.250   7.547   48.797   6.986   -999.250
 2620     -999.250   7.686   48.76   6.989   -999.250
 2620.5     -999.250   7.344   48.731   6.993   -999.250
 2621     -999.250   7.003   48.702   6.996   -999.250
 2621.5     -999.250   7.186   48.852   6.999   -999.250
 2622     -999.250   7.489   49.025   7.003   -999.250
 2622.5     -999.250   7.793   49.197   7.006   -999.250
 2623     -999.250   7.255   49.37   7.009   -999.250
 2623.5     -999.250   6.371   49.435   7.013   -999.250
 2624     -999.250   5.487   49.493   7.016   -999.250
 2624.5     -999.250   5.515   49.552   7.019   -999.250
 2625     -999.250   5.949   49.574   7.022   -999.250
 2625.5     -999.250   6.384   49.495   7.022   -999.250
 2626     -999.250   6.472   49.415   7.022   -999.250
 2626.5     -999.250   5.996   49.335   7.022   -999.250
 2627     -999.250   5.521   49.251   7.021   -999.250
 2627.5     -999.250   5.046   48.996   7.021   -999.250
 2628     -999.250   5.921   48.741   7.021   -999.250
 2628.5     -999.250   6.862   48.486   7.021   -999.250
 2629     -999.250   7.803   48.231   7.021   -999.250
 2629.5     -999.250   7.564   48.232   7.021   -999.250
 2630     -999.250   6.696   48.66   7.021   -999.250
 2630.5     -999.250   5.827   49.088   7.02   -999.250
 2631     -999.250   5.624   49.516   7.02   -999.250
 2631.5     -999.250   5.625   49.815   7.023   -999.250
 2632     -999.250   6.536   49.816   7.027   -999.250
 2632.5     -999.250   7.446   49.816   7.032   -999.250
