~Version Information
 VERS.                  2.0:   CWLS log ASCII Standard -VERSION 2.0
 WRAP.                   NO:   One line per depth step
~Well Information Block
#MNEM.UNIT     VALUE/NAME     DESCRIPTION
#---------     -----------    ---------------------------
 STRT.F              8800.0000: START DEPTH
 STOP.F             14300.0000: STOP DEPTH
 STEP.F                 0.5000: STEP DEPTH
 NULL.                 -999.25: NULL VALUE
 LOC .     336'' FSL & 729' FWL:  LOCATION
 FL6 .        API 42-389-36322:  LOCATIONLINE6
 FL4 .           ABSTRACT 3622:  LOCATIONLINE4
 FL3 .        T&P RR CO SURVEY:  LOCATIONLINE3
 FL2 .     SECTION 36, BLOCK 58 T2:  LOCATIONLINE2
 FL1 .     336'' FSL & 729' FWL:  LOCATIONLINE1
 DMF .                      KB:  DRILL MEAS FROM
 PDAT.                      GL:  PERMANENT DATUM
 CNTY.                  REEVES:  COUNTY NAME
 FLD .     FORD, WEST (WOLFCAMP):  FIELD NAME
 WELL.        AVA STATE 36 #2H:  WELL NAME
 COMP.     CAPITAN ENERGY INC.:  COMPANY
 DATE.             01-Nov-2017:  DATE
 SVCO.             Halliburton:  SERVICECONAME
 PROV.                   TEXAS:  PROVINCE
 STAT.                   TEXAS:  STATE NAME
 CTRY.           UNITED STATES:  COUNTRY NAME
 HIDE.                        :  WELLNAMEOPERAT
 BASI.                 PERMIAN:  BASIN
 UWI .            42-389-36322LAT:  UNIQUE WELL IDENTIFIER
 API .            42-389-36322LAT:  API NUMBER
 RANG.                     N/A:  RANGE
 TOWN.                     N/A:  TOWNSHIP
 SECT.                     N/A:  SECTION
 SON .               904399722:  JOB NUMBER
 SRVC.             Halliburton:  SERVICE COMPANY
 LMF .                      KB:  LOG MEASURED FROM
 EGL .ft             3011.0000:  GROUND ELEVATION
 BAP .ft                0.0000:  GL ELEV ONSHORE
 GVFD.g                 1.0000:  GRAVITY FIELD
 EKB .ft             3037.0000:  KB ELEVATION
 EDF .ft             3036.0000:  DF ELEVATION
~Curve Information Block
#MNEM.UNIT                 API CODE     Curve Description
#---------               -----------    ---------------------------
 DEPT.F                 00 000 000 000:  Depth
 CCL .V                 00 000 000 000:  Casing Collar Locator
 NPHI_OH.pu             00 000 000 000:  NPHI_OH
 NPHI_CHI.pu            00 000 000 000:  NPHI_CHI
 GR_CHI.api             00 000 000 000:  GR_CHI
 GR_OH.api              00 000 000 000:  GR_OH
 RHOB_OH.g/cc           00 000 000 000:  RHOB_OH
 RHOB_CHI.g/cc          00 000 000 000:  RHOB_CHI
 PE_CHI.b/e             00 000 000 000:  PE_CHI
 PE_OH.b/e              00 000 000 000:  PE_OH
 DTC_OH.uspf            00 000 000 000:  DTC_OH
 DTC_CHI.uspf           00 000 000 000:  DTC_CHI
 SPHI_CHI.pu            00 000 000 000:  Acou Porosity CHI
 RT10_OH.ohmm           00 000 000 000:  RT10_OH
 RT10_CHI.ohmm          00 000 000 000:  RT10_CHI
 RT30_OH.ohmm           00 000 000 000:  RT30_OH
 RT30_CHI.ohmm          00 000 000 000:  RT30_CHI
 RT90_OH.ohmm           00 000 000 000:  RT90_OH
 RT90_CHI.ohmm          00 000 000 000:  RT90_CHI
 SGF .cu                00 000 000 000:  Formation Sigma
 CRNF.NONE              00 000 000 000:  CM GrsCaptRatio
 RIN .NONE              00 000 000 000:  CM GrsInelRatio
#Other Information
#
#WARRANTY: Halliburton will use its best efforts to furnish customers with 
#accurate information and interpretations that are part of, and incident to, the services 
#provided.  However, Halliburton cannot and does not warrant the accuracy 
#or correctness of such information and interpretations.  Under no circumstances should any 
#such information or interpretation be relied upon as the sole basis for any drilling, 
#completion, production, or financial decision or any procedure involving any risk to the 
#safety of any drilling venture, drilling rig or its crew or any other third party.  The 
#Customer has full responsibility for all drilling, completion and production operation.  
#Halliburton makes no representations or warranties, either expressed or 
#implied, including, but not limited to, the implied warranties of merchantability or fitness 
#for a particular purpose, with respect to the services rendered.  In no event will 
#Halliburton be liable for failure to obtain any particular results or for 
#any damages, including, but not limited to, indirect, special or consequential damages, 
#resulting from the use of any information or interpretation provided by Halliburton.
#
~A    DEPT      CCL   NPHI_OH NPHI_CHI   GR_CHI   GR_OH   RHOB_OH RHOB_CHI  PE_CHI   PE_OH  DTC_OH  DTC_CHI SPHI_CHI RT10_OH  RT10_CHI RT30_OH  RT30_CHI RT90_OH  RT90_CHI   SGF    CRNF   RIN   
# ...
   12097.0000  0.0000 -999.25   11.6123 125.3533  -999.25 -999.25    2.5613  3.8775 -999.25 -999.25 64.5776  12.0100  -999.25  44.5706  -999.25  47.4050  -999.25  51.9514 22.1897 0.9535 1.0345
   12097.5000  0.0000 -999.25   11.4274 119.6882  -999.25 -999.25    2.5632  3.9331 -999.25 -999.25 64.5417  11.9800  -999.25  44.1134  -999.25  46.5776  -999.25  50.9703 22.2065 0.9561 1.0379
   12098.0000  0.0000 -999.25   11.6680 130.1856  -999.25 -999.25    2.5622  3.9061 -999.25 -999.25 64.7718  12.1400  -999.25  44.0617  -999.25  46.8838  -999.25  51.2723 22.0819 0.9604 1.0416
   12098.5000  0.0000 -999.25   11.5826 129.1093  -999.25 -999.25    2.5634  3.9289 -999.25 -999.25 64.7362  12.1200  -999.25  43.7553  -999.25  46.3798  -999.25  50.6619 22.0055 0.9670 1.0447
   12099.0000  0.0000 -999.25   11.4075 124.1200  -999.25 -999.25    2.5653  3.9752 -999.25 -999.25 64.6652  12.0700  -999.25  43.2988  -999.25  45.5594  -999.25  49.6915 21.7990 0.9749 1.0481
   12099.5000  0.0000 -999.25   11.5214 125.9427  -999.25 -999.25    2.5643  3.9684 -999.25 -999.25 64.9495  12.2700  -999.25  43.1652  -999.25  45.4567  -999.25  49.5551 21.6131 0.9757 1.0483
   12100.0000  0.0000 -999.25   11.8841 131.8699  -999.25 -999.25    2.5606  3.9199 -999.25 -999.25 65.5848  12.7200  -999.25  43.3887  -999.25  46.0771  -999.25  50.2753 21.5855 0.9734 1.0440
   12100.5000  0.0000 -999.25   12.1747 131.9816  -999.25 -999.25    2.5568  3.8797 -999.25 -999.25 66.1989  13.1500  -999.25  43.6429  -999.25  46.5251  -999.25  50.8219 21.5441 0.9723 1.0373
   12101.0000  0.0000 -999.25   12.1148 125.5648  -999.25 -999.25    2.5564  3.8849 -999.25 -999.25 66.1594  13.1300  -999.25  43.7639  -999.25  46.4879  -999.25  50.8197 21.6367 0.9732 1.0335
   12101.5000  0.0000 -999.25   12.2236 131.1526  -999.25 -999.25    2.5558  3.8635 -999.25 -999.25 66.1776  13.1400  -999.25  43.9684  -999.25  47.0069  -999.25  51.4180 21.7482 0.9783 1.0336
   12102.0000  0.0000 -999.25   12.3063 139.2029  -999.25 -999.25    2.5560  3.8512 -999.25 -999.25 66.2543  13.1900  -999.25  43.8656  -999.25  47.1195  -999.25  51.5025 21.8774 0.9802 1.0375
   12102.5000  0.0000 -999.25   12.1374 133.3997  -999.25 -999.25    2.5575  3.8811 -999.25 -999.25 66.1046  13.0900  -999.25  43.5868  -999.25  46.4490  -999.25  50.7195 22.0002 0.9785 1.0391
   12103.0000  0.0000 -999.25   11.8468 119.5813  -999.25 -999.25    2.5594  3.9357 -999.25 -999.25 66.0137  13.0200  -999.25  43.0669  -999.25  45.1406  -999.25  49.2099 22.0317 0.9766 1.0396
   12103.5000  0.0000 -999.25   11.7878 114.8624  -999.25 -999.25    2.5593  3.9402 -999.25 -999.25 66.0501  13.0500  -999.25  42.9979  -999.25  44.8484  -999.25  48.8852 22.0381 0.9795 1.0379
   12104.0000  0.0000 -999.25   12.1821 130.9688  -999.25 -999.25    2.5566  3.8706 -999.25 -999.25 66.3863  13.2900  -999.25  43.4220  -999.25  46.0318  -999.25  50.2252 21.9943 0.9885 1.0379
   12104.5000  0.0000 -999.25   12.3659 141.5320  -999.25 -999.25    2.5558  3.8391 -999.25 -999.25 66.5497  13.4000  -999.25  43.6005  -999.25  46.6825  -999.25  50.9519 22.0122 0.9966 1.0393
   12105.0000  0.0000 -999.25   12.3998 143.2883  -999.25 -999.25    2.5558  3.8453 -999.25 -999.25 66.7266  13.5300  -999.25  43.3925  -999.25  46.4543  -999.25  50.6624 21.9115 0.9981 1.0410
   12105.5000  0.0000 -999.25   12.5538 146.6691  -999.25 -999.25    2.5548  3.8417 -999.25 -999.25 67.3216  13.9500  -999.25  43.0217  -999.25  46.0293  -999.25  50.1233 21.9393 0.9949 1.0423
   12106.0000  0.0000 -999.25   12.5539 142.0078  -999.25 -999.25    2.5545  3.8642 -999.25 -999.25 67.6180  14.1600  -999.25  42.5999  -999.25  45.2641  -999.25  49.2207 22.0359 0.9905 1.0429
   12106.5000  0.0000 -999.25   12.1211 123.0128  -999.25 -999.25    2.5576  3.9408 -999.25 -999.25 67.0873  13.7800  -999.25  42.0675  -999.25  43.7789  -999.25  47.5298 22.2127 0.9884 1.0446
   12107.0000  0.0000 -999.25   11.8875 115.3394  -999.25 -999.25    2.5593  3.9674 -999.25 -999.25 66.7097  13.5100  -999.25  42.0293  -999.25  43.4249  -999.25  47.1460 22.4822 0.9909 1.0445
   12107.5000  0.0000 -999.25   12.0396 122.8917  -999.25 -999.25    2.5581  3.9234 -999.25 -999.25 66.7249  13.5300  -999.25  42.4441  -999.25  44.2430  -999.25  48.0946 22.4970 0.9903 1.0429
   12108.0000  0.0000 -999.25   12.2565 128.9218  -999.25 -999.25    2.5557  3.8626 -999.25 -999.25 66.9023  13.6500  -999.25  42.9425  -999.25  45.1220  -999.25  49.1286 22.4611 0.9840 1.0385
   12108.5000  0.0000 -999.25   12.3552 127.7661  -999.25 -999.25    2.5541  3.8421 -999.25 -999.25 67.0968  13.7900  -999.25  43.0651  -999.25  45.2766  -999.25  49.3271 22.1873 0.9778 1.0350
   12109.0000  0.0000 -999.25   12.3293 124.9949  -999.25 -999.25    2.5538  3.8414 -999.25 -999.25 67.0324  13.7400  -999.25  43.1525  -999.25  45.3331  -999.25  49.4162 21.9210 0.9687 1.0330
   12109.5000  0.0000 -999.25   12.2078 126.1224  -999.25 -999.25    2.5556  3.8652 -999.25 -999.25 66.6372  13.4600  -999.25  43.2879  -999.25  45.6281  -999.25  49.7654 21.5895 0.9690 1.0353
   12110.0000  0.0000 -999.25   12.0738 126.7994  -999.25 -999.25    2.5574  3.8912 -999.25 -999.25 66.2287  13.1700  -999.25  43.3792  -999.25  45.8511  -999.25  50.0315 21.3723 0.9713 1.0377
   12110.5000  0.0000 -999.25   11.9814 130.2035  -999.25 -999.25    2.5589  3.9055 -999.25 -999.25 65.7369  12.8300  -999.25  43.6600  -999.25  46.4864  -999.25  50.7862 21.4131 0.9727 1.0395
   12111.0000  0.0000 -999.25   12.0906 133.8262  -999.25 -999.25    2.5581  3.8953 -999.25 -999.25 65.8528  12.9100  -999.25  43.7567  -999.25  46.8379  -999.25  51.1937 21.5372 0.9721 1.0391
   12111.5000  0.0000 -999.25   12.0644 127.7746  -999.25 -999.25    2.5574  3.8952 -999.25 -999.25 65.9157  12.9500  -999.25  43.8586  -999.25  46.7540  -999.25  51.1301 21.7201 0.9699 1.0352
   12112.0000  0.0000 -999.25   12.2625 130.7034  -999.25 -999.25    2.5550  3.8507 -999.25 -999.25 66.1870  13.1400  -999.25  44.1712  -999.25  47.3026  -999.25  51.7846 21.8105 0.9690 1.0311
   12112.5000  0.0000 -999.25   12.3722 132.8995  -999.25 -999.25    2.5536  3.8176 -999.25 -999.25 66.2899  13.2200  -999.25  44.4133  -999.25  47.7025  -999.25  52.2625 21.7138 0.9696 1.0285
   12113.0000  0.0000 -999.25   11.8574 116.0984  -999.25 -999.25    2.5575  3.8974 -999.25 -999.25 65.7246  12.8200  -999.25  44.0315  -999.25  46.5200  -999.25  50.9307 21.5505 0.9717 1.0286
   12113.5000  0.0000 -999.25   11.7452 115.3272  -999.25 -999.25    2.5591  3.9252 -999.25 -999.25 65.5658  12.7100  -999.25  43.8493  -999.25  46.2231  -999.25  50.5672 21.3860 0.9719 1.0319
   12114.0000  0.0000 -999.25   11.9361 123.7710  -999.25 -999.25    2.5583  3.9071 -999.25 -999.25 65.7301  12.8200  -999.25  43.8516  -999.25  46.5561  -999.25  50.9146 21.2772 0.9671 1.0348
   12114.5000  0.0000 -999.25   12.1476 129.5675  -999.25 -999.25    2.5565  3.8804 -999.25 -999.25 66.0163  13.0200  -999.25  43.9762  -999.25  47.0065  -999.25  51.4279 21.3237 0.9615 1.0340
   12115.0000  0.0000 -999.25   11.7439 114.0554  -999.25 -999.25    2.5593  3.9518 -999.25 -999.25 65.6489  12.7600  -999.25  43.7283  -999.25  46.1147  -999.25  50.4396 21.3668 0.9563 1.0326
   12115.5000  0.0000 -999.25   11.6906 113.2216  -999.25 -999.25    2.5595  3.9445 -999.25 -999.25 65.4314  12.6100  -999.25  44.0584  -999.25  46.5742  -999.25  51.0115 21.4419 0.9595 1.0299
   12116.0000  0.0000 -999.25   11.5936 114.3363  -999.25 -999.25    2.5607  3.9507 -999.25 -999.25 65.1109  12.3800  -999.25  44.1879  -999.25  46.7823  -999.25  51.2582 21.4805 0.9645 1.0313
   12116.5000  0.0000 -999.25   11.4117 113.9624  -999.25 -999.25    2.5629  3.9744 -999.25 -999.25 64.7253  12.1100  -999.25  44.1137  -999.25  46.6174  -999.25  51.0561 21.4029 0.9708 1.0348
   12117.0000  0.0000 -999.25   11.7136 123.8200  -999.25 -999.25    2.5609  3.9328 -999.25 -999.25 65.0880  12.3700  -999.25  44.0382  -999.25  46.8439  -999.25  51.2663 21.3552 0.9750 1.0373
   12117.5000  0.0000 -999.25   11.7815 124.7128  -999.25 -999.25    2.5606  3.9376 -999.25 -999.25 65.3493  12.5500  -999.25  43.7480  -999.25  46.4699  -999.25  50.8019 21.2240 0.9820 1.0390
