#--------------------------------------------------#
#-------------------ENVERUS, INC.------------------#
#------------------WWW.ENVERUS.COM-----------------#
#------------------COPYRIGHT 2020------------------#
#--------------------------------------------------#
#THIS FILE MAY BE USED ONLY IN ACCORDANCE WITH A CURRENT SUBSCRIPTION AGREEMENT BETWEEN
#THE USER AND ENVERUS, INC. NO PART OF THIS FILE MAY BE REPRODUCED, USED, COPIED,
#MODIFIED, PROPAGATED, OR DISTRIBUTED EXCEPT IN ACCORDANCE WITH THE SUBSCRIPTION
#AGREEMENT. UNAUTHORIZED USE OR DISTRIBUTION OF ALL OR ANY PART OF THIS FILE MAY VIOLATE
#COPYRIGHT, TRADEMARK, AND/OR OTHER LAWS AND IS SUBJECT TO CIVIL AS WELL AS CRIMINAL
#SANCTIONS.
#--------------------------------------------------#
#THIS FILE IS PROVIDED "AS-IS" AND ALL WARRANTIES ARE EXPRESSLY DISCLAIMED, WHETHER
#EXPRESS, ORAL, IMPLIED, STATUTORY OR OTHERWISE, INCLUDING ANY IMPLIED WARRANTY OF FITNESS
#FOR A PARTICULAR PURPOSE, MERCHANTABILITY, TITLE OR NON-INFRINGEMENT, AND ANY WARRANTIES
#ARISING BY VIRTUE OF CUSTOM OF TRADE OR COURSE OF DEALING.  FURTHER, ENVERUS, INC.
#AND ITS LICENSORS DO NOT REPRESENT OR WARRANT THAT THIS FILE WILL MEET USER'S
#REQUIREMENTS OR ARE SUITABLE FOR USER'S NEEDS OR THAT THE DATA OR RESULTS PROVIDED IN
#CONJUNCTION THEREWITH ARE CORRECT, ACCURATE, TIMELY OR RELIABLE. THESE DISCLAIMERS SHALL
#APPLY REGARDLESS OF ANY FAILURE OF ESSENTIAL PURPOSE OF ANY LIMITED REMEDY.  SOME
#JURISDICTIONS DO NOT ALLOW THE EXCLUSION OF CERTAIN WARRANTIES SO SOME OF THE ABOVE
#EXCLUSIONS MAY NOT APPLY. IN NO EVENT SHALL ENVERUS, INC. OR ANY OF ITS AFFILIATES
#BE LIABLE UNDER ANY LEGAL THEORY, WHETHER IN TORT (INCLUDING WITHOUT LIMITATION
#NEGLIGENCE), CONTRACT, STRICT LIABILITY, STATUTORY OR OTHERWISE, FOR ANY SPECIAL,
#INCIDENTAL, CONSEQUENTIAL, EXEMPLARY, PUNITIVE OR INDIRECT DAMAGE OF ANY KIND, INCLUDING
#WITHOUT LIMITATION LOSS OF REVENUE, PROFITS, GOODWILL, USE, AND/OR DATA OR THE COST OF
#PROCUREMENT OF SUBSTITUTE GOODS OR SERVICES, EVEN IF APPRISED OF THE POSSIBILITY OF SUCH
#DAMAGES IN ADVANCE.
#--------------------------------------------------#

~VERSION INFORMATION
VERS. 2.0 : CWLS LOG ASCII STANDARD - VERSION 2.0
WRAP.  NO : ONE LINE PER DEPTH STEP
~WELL INFORMATION
#MNEMONIC     .UNIT              VALUE :DESCRIPTION
STRT       .FT                24 :START DEPTH
STOP       .FT                5035 :STOP DEPTH
STEP       .FT                   0.500 :STEP
NULL       .                  -999.250 :NULL
UWI        .              42389314500000 :UNIQUE WELL ID
API        .              42389314500000 :API NUMBER
COMP       .         SLEDGE BROS. OIL CO. :COMPANY
WELL       .        ELIZABETH MITCHELL  1 :WELL
DATE       .                18-DEC-1983 :LOG DATE
~CURVE INFORMATION
#MNEMONIC     .UNIT      API CODE :CURVE DESCRIPTION
DEPTH       .FT                      :MEASURED DEPTH
CAL.INCH        UNKNOWN   :CAL
DT.US/FT        UNKNOWN   :DT
GR.API        UNKNOWN   :GR
~A    DEPTH    CAL    DT    GR
# ...
 4575     8.735   76.578   72.583
 4575.5     8.726   79.218   67.822
 4576     8.817   81.534   61.617
 4576.5     8.889   82.036   55.282
 4577     8.889   80.779   51.662
 4577.5     8.889   79.521   49.597
 4578     8.889   78.446   49.283
 4578.5     8.889   77.864   49.204
 4579     8.899   77.282   49.74
 4579.5     8.911   77.014   52.118
 4580     8.923   77.248   54.496
 4580.5     8.935   77.804   55.349
 4581     8.947   78.366   55.443
 4581.5     8.959   79.615   50.866
 4582     8.971   79.902   47.408
 4582.5     8.982   80.087   47.487
 4583     8.993   80.273   47.728
 4583.5     9.004   80.458   48.509
 4584     9.015   80.644   48.65
 4584.5     9.026   80.329   46.531
 4585     9.037   79.761   46.695
 4585.5     9.048   79.42   46.86
 4586     9.059   79.324   47.001
 4586.5     9.07   79.339   44.741
 4587     9.081   80.664   39.786
 4587.5     9.092   81.53   39.256
 4588     9.103   82.009   40.231
 4588.5     9.114   82.23   43.004
 4589     9.11   82.214   45.822
 4589.5     9.101   80.237   46.721
 4590     9.092   79.418   44.628
 4590.5     9.083   79.188   41.764
 4591     9.074   79.638   41.927
 4591.5     9.065   80.089   45.123
 4592     9.057   80.025   46.947
 4592.5     9.048   79.306   48.896
 4593     9.039   77.521   51.505
 4593.5     9.03   76.877   54.367
 4594     9.021   76.7   59.692
 4594.5     9.012   76.523   64.953
 4595     9.002   76.398   68.571
 4595.5     8.993   76.276   71.056
 4596     8.983   76.154   70.171
 4596.5     8.974   76.033   69.286
 4597     8.964   75.911   67.188
 4597.5     8.955   75.789   64.528
 4598     8.946   75.183   62.461
 4598.5     8.936   75.117   62.639
 4599     8.927   75.102   63.228
 4599.5     8.917   75.087   63.817
 4600     8.919   75.073   64.405
 4600.5     8.923   75.058   66.184
 4601     8.927   74.916   68.88
 4601.5     8.931   74.106   69.578
 4602     8.934   73.297   67.779
 4602.5     8.938   72.655   65.197
 4603     8.942   72.846   64.179
 4603.5     8.945   73.835   64.969
 4604     8.949   74.388   65.899
 4604.5     8.953   74.272   66.83
 4605     8.957   73.499   64.733
 4605.5     8.953   72.353   65.574
 4606     8.942   71.27   70.905
 4606.5     8.931   70.957   78.638
 4607     8.919   71.344   85.409
 4607.5     8.908   72.915   85.409
 4608     8.897   74.485   83.645
 4608.5     8.885   75.848   79.907
 4609     8.876   77.211   73.878
 4609.5     8.869   77.615   70.1
 4610     8.863   77.644   68.116
 4610.5     8.857   77.408   67.341
 4611     8.85   76.841   66.697
 4611.5     8.844   76.247   66.836
 4612     8.838   74.9   66.975
 4612.5     8.832   73.552   66.203
 4613     8.825   74.014   63.429
 4613.5     8.819   75.637   58.278
 4614     8.813   78.279   49.326
 4614.5     8.806   81.103   45.399
 4615     8.8   82.071   42.963
 4615.5     8.802   82.519   40.992
 4616     8.807   81.457   39.528
 4616.5     8.811   80.394   40.13
 4617     8.816   79.387   41.445
 4617.5     8.819   79.064   41.514
 4618     8.817   79.631   41.43
 4618.5     8.814   80.397   41.985
 4619     8.811   80.556   42.637
 4619.5     8.809   80.299   41.095
 4620     8.806   80.042   39.653
 4620.5     8.803   79.785   39.799
 4621     8.8   79.676   41.995
 4621.5     8.804   79.879   41.27
 4622     8.808   80.081   39.705
 4622.5     8.812   80.284   38.348
 4623     8.815   79.775   38.09
 4623.5     8.819   77.826   38.841
 4624     8.823   76.438   40.198
 4624.5     8.827   76.116   42.037
 4625     8.83   77.237   43.775
 4625.5     8.834   78.725   43.701
 4626     8.838   79.064   43.626
 4626.5     8.842   77.916   48.614
 4627     8.849   76.851   55.735
 4627.5     8.856   76.319   59.166
 4628     8.864   78.089   59.574
 4628.5     8.871   80.86   56.268
 4629     8.879   82.71   46.589
 4629.5     8.887   82.838   39.604
 4630     8.894   81.613   38.458
 4630.5     8.902   80.619   39.399
 4631     8.91   79.908   40.34
 4631.5     8.917   79.197   41.551
 4632     8.925   78.818   42.853
 4632.5     8.932   79.188   44.864
 4633     8.94   79.796   45.856
 4633.5     8.948   80.405   43.724
 4634     8.955   81.013   41.592
 4634.5     8.963   81.395   40.133
 4635     8.971   81.311   40.437
 4635.5     8.978   81.227   41.244
 4636     8.986   81.143   42.05
 4636.5     8.988   81.248   41.656
 4637     8.988   81.592   40.963
 4637.5     8.988   81.832   40.271
 4638     8.989   81.663   39.579
 4638.5     8.989   81.495   38.449
 4639     8.989   81.327   37.285
 4639.5     8.989   81.437   36.147
 4640     8.989   81.61   35.141
 4640.5     8.989   80.155   36.498
 4641     8.989   78.853   38.08
 4641.5     8.993   78.023   36.294
 4642     9.007   78.941   34.703
 4642.5     9.02   80.605   33.399
 4643     9.034   80.815   33.158
 4643.5     9.047   80.189   32.921
 4644     9.06   79.563   36.246
 4644.5     9.074   80.146   38.852
 4645     9.087   81.389   41.459
 4645.5     9.085   81.702   44.065
 4646     9.073   77.354   48.177
 4646.5     9.06   74.018   59.005
 4647     9.048   72.099   69.184
 4647.5     9.035   71.554   77.682
 4648     9.023   73.297   86.179
 4648.5     9.013   75.041   83.337
 4649     9.02   77.017   76.619
 4649.5     9.027   79.856   70.128
 4650     9.035   81.218   63.915
 4650.5     9.042   82.171   60.743
 4651     9.049   82.661   56.624
 4651.5     9.056   82.039   50.886
 4652     9.061   81.082   45.303
 4652.5     9.067   80.492   44.379
 4653     9.072   80.918   43.614
 4653.5     9.077   81.727   44.561
 4654     9.083   81.727   48.975
 4654.5     9.088   80.692   55.912
 4655     9.094   79.393   62.848
 4655.5     9.096   78.223   68.771
 4656     9.098   78.115   71.542
 4656.5     9.099   78.969   68.051
 4657     9.101   80.455   64.559
 4657.5     9.102   81.941   62.745
 4658     9.104   83.322   61.711
 4658.5     9.105   84.256   59.841
 4659     9.107   85.19   57.428
 4659.5     9.108   86.124   52.515
 4660     9.11   87.058   46.991
 4660.5     9.111   87.62   44.96
 4661     9.113   88.065   45.692
 4661.5     9.114   88.498   46.197
 4662     9.116   88.524   45.939
 4662.5     9.117   88.274   47.279
 4663     9.118   87.779   47.053
 4663.5     9.118   87.772   46.191
 4664     9.118   87.826   45.412
 4664.5     9.118   87.332   44.874
 4665     9.118   86.533   45.43
 4665.5     9.119   85.733   46.732
 4666     9.119   85.205   48.122
 4666.5     9.119   85.289   49.778
 4667     9.119   86.234   50.287
 4667.5     9.119   87.178   50.379
 4668     9.111   87.772   50.47
 4668.5     9.101   87.757   50.562
 4669     9.091   87.434   50.117
 4669.5     9.081   87.111   49.471
 4670     9.07   86.819   49.127
 4670.5     9.06   86.774   49.752
 4671     9.05   86.73   50.377
 4671.5     9.04   86.378   51.002
 4672     9.032   85.479   50.007
 4672.5     9.025   84.58   46.567
 4673     9.018   83.682   44.548
 4673.5     9.01   83.371   44.072
 4674     9.003   83.109   44.615
 4674.5     8.996   82.846   45.633
 4675     8.989   82.583   47.079
 4675.5     8.981   82.288   48.501
 4676     8.974   81.688   49.403
 4676.5     8.967   80.124   47.208
 4677     8.96   78.113   46.264
 4677.5     8.962   76.302   47.501
 4678     8.967   75.534   49.339
 4678.5     8.971   76.494   59.194
 4679     8.975   77.662   64.088
 4679.5     8.98   78.594   64.649
 4680     8.984   78.924   58.378
 4680.5     8.988   78.842   52.107
 4681     8.992   78.854   45.349
 4681.5     8.997   79.238   44.481
 4682     9.001   79.581   43.927
 4682.5     9.005   79.507   45.201
 4683     9.009   79.433   48.329
 4683.5     9.014   80.014   51.623
 4684     9.018   81.917   55.133
 4684.5     9.023   84.076   59.595
 4685     9.031   85.94   56.474
 4685.5     9.039   86.469   53.353
 4686     9.048   86.635   50.233
 4686.5     9.056   86.549   48.877
 4687     9.064   86.504   47.707
 4687.5     9.073   86.476   46.537
 4688     9.081   86.449   46.106
 4688.5     9.082   86.165   46.644
 4689     9.08   85.775   47.497
 4689.5     9.077   85.031   48.35
 4690     9.075   83.504   49.203
