#--------------------------------------------------#
#-------------------ENVERUS, INC.------------------#
#------------------WWW.ENVERUS.COM-----------------#
#------------------COPYRIGHT 2020------------------#
#--------------------------------------------------#
#THIS FILE MAY BE USED ONLY IN ACCORDANCE WITH A CURRENT SUBSCRIPTION AGREEMENT BETWEEN
#THE USER AND ENVERUS, INC. NO PART OF THIS FILE MAY BE REPRODUCED, USED, COPIED,
#MODIFIED, PROPAGATED, OR DISTRIBUTED EXCEPT IN ACCORDANCE WITH THE SUBSCRIPTION
#AGREEMENT. UNAUTHORIZED USE OR DISTRIBUTION OF ALL OR ANY PART OF THIS FILE MAY VIOLATE
#COPYRIGHT, TRADEMARK, AND/OR OTHER LAWS AND IS SUBJECT TO CIVIL AS WELL AS CRIMINAL
#SANCTIONS.
#--------------------------------------------------#
#THIS FILE IS PROVIDED "AS-IS" AND ALL WARRANTIES ARE EXPRESSLY DISCLAIMED, WHETHER
#EXPRESS, ORAL, IMPLIED, STATUTORY OR OTHERWISE, INCLUDING ANY IMPLIED WARRANTY OF FITNESS
#FOR A PARTICULAR PURPOSE, MERCHANTABILITY, TITLE OR NON-INFRINGEMENT, AND ANY WARRANTIES
#ARISING BY VIRTUE OF CUSTOM OF TRADE OR COURSE OF DEALING.  FURTHER, ENVERUS, INC.
#AND ITS LICENSORS DO NOT REPRESENT OR WARRANT THAT THIS FILE WILL MEET USER'S
#REQUIREMENTS OR ARE SUITABLE FOR USER'S NEEDS OR THAT THE DATA OR RESULTS PROVIDED IN
#CONJUNCTION THEREWITH ARE CORRECT, ACCURATE, TIMELY OR RELIABLE. THESE DISCLAIMERS SHALL
#APPLY REGARDLESS OF ANY FAILURE OF ESSENTIAL PURPOSE OF ANY LIMITED REMEDY.  SOME
#JURISDICTIONS DO NOT ALLOW THE EXCLUSION OF CERTAIN WARRANTIES SO SOME OF THE ABOVE
#EXCLUSIONS MAY NOT APPLY. IN NO EVENT SHALL ENVERUS, INC. OR ANY OF ITS AFFILIATES
#BE LIABLE UNDER ANY LEGAL THEORY, WHETHER IN TORT (INCLUDING WITHOUT LIMITATION
#NEGLIGENCE), CONTRACT, STRICT LIABILITY, STATUTORY OR OTHERWISE, FOR ANY SPECIAL,
#INCIDENTAL, CONSEQUENTIAL, EXEMPLARY, PUNITIVE OR INDIRECT DAMAGE OF ANY KIND, INCLUDING
#WITHOUT LIMITATION LOSS OF REVENUE, PROFITS, GOODWILL, USE, AND/OR DATA OR THE COST OF
#PROCUREMENT OF SUBSTITUTE GOODS OR SERVICES, EVEN IF APPRISED OF THE POSSIBILITY OF SUCH
#DAMAGES IN ADVANCE.
#--------------------------------------------------#

# EXPORTED FROM DI TRANSFORM
# DI TRANSFORM - A PRODUCT OF DRILLINGINFO, INC. - WWW.DRILLINGINFO.COM
#
~VERSION INFORMATION
 VERS.        2.0 : LAS ASCII STANDARD - VERSION 2.0
 WRAP.         NO : ONE LINE PER DEPTH STEP

~WELL INFORMATION
#MNEM.UNIT       DATA TYPE       INFORMATION
#---------       ---------       -----------
 STRT.FT                3800 : START DEPTH
 STOP.FT               10654 : STOP DEPTH
 STEP.FT                 0.5 : STEP LENGTH
 NULL.               -999.25 : NULL VALUE
 UWI.         42389340250000 : UNIQUE WELL ID
 API.         42389340250000 : WELL IDENTIFIER
 COMP.                       : COMPANY
 WELL.  42389340250000_API14 : WELL NAME
 FLD.                        : FIELD NAME
 LOC.                        : WELL LOCATION
 CNTY.                       : COUNTY
 STAT.                       : STATE OR PROVINCE
 CTRY.                       : COUNTRY
 SRVC.                       : SERVICE COMPANY
 DATE.                       : DATE

~CURVE INFORMATION
#MNEM.UNIT       API CODE       CURVE DESCRIPTION
#---------       --------       -----------------
 DEPT.FT        : <MEASURED DEPTH>
 CAL.IN         : CALIPER
 DT.US/FT       : SONIC
 GR.GAPI        : GAMMA RAY

~PARAMETER INFORMATION
#MNEM.UNIT       VALUE       DESCRIPTION
#---------       -----       -----------
 EKB.FT      3120.5 : ELEVATION ABOVE MSL

~A      DEPT         CAL          DT          GR
# ...
        5604      9.5928     63.4704     93.6099
      5604.5      9.6128     63.8292     85.0044
        5605      9.6128     64.3365     76.3989
      5605.5      9.6128      64.674     67.7935
        5606      9.6128     64.5737     68.7417
      5606.5      9.6128     64.4926     81.6956
        5607      9.6128     65.1488     94.6495
      5607.5      9.6128     65.4688    101.8248
        5608      9.6128     65.7755     94.1124
      5608.5      9.6128     65.8776     86.3999
        5609      9.6128     66.0782     78.6874
      5609.5      9.6128     66.3791     70.9749
        5610      9.6128     66.6011     76.2305
      5610.5      9.6264     66.9078     66.7246
        5611      9.6327     66.9809     57.2187
      5611.5      9.6327     67.3821     47.7128
        5612      9.6128     67.3821     38.2069
      5612.5      9.6128     67.4824     62.3848
        5613      9.6128     67.8516     87.0144
      5613.5      9.6128     69.2696    111.6441
        5614      9.6727     67.6803    136.2737
      5614.5      9.6954     66.7335    126.4934
        5615      9.7964     65.7983    109.8958
      5615.5      9.8723     65.1907     93.2982
        5616      9.8723      63.881     76.7006
      5616.5      9.8124     63.3737      60.103
        5617      9.7725     62.8686     51.7011
      5617.5      9.7228     62.4674     52.9463
        5618      9.6219     62.5539     51.0432
      5618.5      9.5329     62.1861     46.8742
        5619      9.5329     62.7189      45.007
      5619.5      9.5329     63.5016     43.1398
        5620      9.5684     64.0089     41.2726
      5620.5      9.6128     64.5162     51.5583
        5621      9.6306     65.8715     37.9773
      5621.5      9.7115     67.7087     48.6639
        5622      9.7525      68.646     59.2777
      5622.5      9.7525     68.8867     57.4105
        5623      9.7501     68.7145     53.6043
      5623.5      9.7325     68.1069     52.5973
        5624      9.7325     66.9482     53.3531
      5624.5      9.7325     66.2007     54.1089
        5625      9.7325     64.5737     54.8647
      5625.5      9.7325     64.3726     56.9929
        5626      9.7325     64.1788     46.4119
      5626.5      9.7325     64.7864     35.8309
        5627      9.7525      65.548     48.5452
      5627.5      9.7525     67.5061     42.8728
        5628      9.7525     69.0873      40.525
      5628.5      9.7525     70.3967     61.2139
        5629      9.7525     71.6359     81.9028
      5629.5      9.7444     71.7954    102.5917
        5630      9.7525      71.996    123.2806
      5630.5      9.7921      72.255    134.1956
        5631      9.7924     72.4975    108.5212
      5631.5      9.7924     72.4975     82.8468
        5632      9.7924     72.3213     57.1724
      5632.5      9.7924     72.7424     56.6017
        5633      9.7924     72.7392     58.2358
      5633.5      9.8523     69.7032     58.0607
        5634      9.9399     69.6891     57.8857
      5634.5      9.9521     70.6921     57.3348
        5635      9.9521     70.4605     56.6208
      5635.5      9.9721     69.4043     55.9069
        5636      9.9721     70.1686      55.193
      5636.5      9.9721     69.8897      54.479
        5637      9.9521     69.6891     53.7651
      5637.5      9.9521     69.7894     53.0511
        5638      9.9521     69.7894     60.2014
      5638.5      9.9521     69.7385     67.6869
        5639      9.9521     69.3882     75.3781
      5639.5      9.9521     69.1876     83.0693
        5640      9.8706     69.1876     90.7605
      5640.5      9.8523     69.1876     92.1926
        5641      9.8124     69.0873     73.9205
      5641.5      9.8124      68.615     55.6483
        5642      9.8124     67.6919     48.4229
      5642.5      9.8124      67.683     53.5059
        5643      9.8124      67.683     58.5889
      5643.5      9.8124     67.7919     63.6719
        5644      9.7924     68.2849     68.7549
      5644.5      9.7924     68.3852     73.8379
        5645      9.7924     68.7864      78.921
      5645.5      9.7525     69.4885     89.6301
        5646      9.7525     69.2755    110.5587
      5646.5      9.7525     69.2879    131.4872
        5647      9.7924     69.4373    112.0936
      5647.5      9.7924     69.5888     91.9784
        5648      9.7725     69.5888     82.9797
      5648.5      9.7725     69.0207     75.5037
        5649      9.7725     68.4131     66.9292
      5649.5       9.776      67.984     62.3778
        5650      9.8523     68.0843     63.7269
      5650.5      9.8723     68.1846     66.0921
        5651      9.8323     68.2849     68.4572
      5651.5      9.8323     67.5736     70.8224
        5652      9.7725     64.8678     73.1875
      5652.5      9.8124     64.5578     75.5527
        5653      9.8439     67.2818     92.2564
      5653.5      9.8723     66.2339    110.1818
        5654      9.8723     64.5821     92.9073
      5654.5      9.7974     67.1528     73.5561
        5655      9.6964     67.8249     72.3652
      5655.5      9.6727     68.0843     76.6183
        5656      9.6926     68.3852     80.8715
      5656.5      9.7521     68.6447     88.3112
        5657      9.7924     69.4885    107.7096
      5657.5      9.7924     69.6891    114.4575
        5658      9.8323     69.0348     104.499
      5658.5      9.8323      68.303     94.5404
        5659      9.8577     67.4068     84.5819
      5659.5      9.9586     66.7803     74.6233
        5660     10.0734     67.0805     65.2216
      5660.5     10.1805     68.2251     61.2841
        5661     10.2668      71.828     57.3467
      5661.5     10.2715     72.5978     53.4093
        5662     10.3636     73.0993     49.4719
      5662.5     10.1582     72.0553     50.5289
        5663     10.1064     69.8216      60.959
      5663.5     10.1401     69.1477     75.5377
        5664      9.8523     68.6861     90.1165
      5664.5      9.8523     68.2334    105.9698
        5665      9.8523      67.368    114.2031
      5665.5      9.8527     66.1643     93.0801
        5666      9.9122     66.4912     93.2036
      5666.5      9.9122     66.6568     94.5873
        5667      9.9122     65.3562     89.6858
      5667.5      9.9122     66.4231     86.9612
        5668      9.9122     68.2434     90.3222
      5668.5      9.9594     69.0873     93.6832
        5669       9.986      69.084     97.0442
      5669.5      9.8778      68.914    100.4052
        5670      9.8339     69.8043    105.0826
      5670.5     10.0383     70.0903    112.5516
        5671     10.2446     69.9635    120.0205
      5671.5      10.613     69.7894    127.4894
        5672     11.4782     69.1457    132.8264
      5672.5      12.191     68.0278    127.6307
        5673     10.8601     68.6354    122.4349
      5673.5     10.4987      69.243    117.2391
        5674     11.8884     69.5888    112.0433
      5674.5     11.1885     69.3211    112.0324
        5675     10.5731     69.2879    115.1889
      5675.5     10.6858     69.4452    118.3454
        5676      10.795     70.2275    121.5019
      5676.5     10.7304     70.5439    124.6584
        5677     10.3905     71.7869    127.8149
      5677.5     10.0355     72.4018    130.9715
        5678      9.8631     72.6981     134.128
      5678.5      9.7621     72.6981    132.0638
        5679      9.6865     72.9366    118.7265
      5679.5      9.7563     73.6255    107.6492
        5680      9.6727     74.4337     96.7355
      5680.5      9.5779     74.5675     85.8219
        5681      9.5329     73.5747     74.9083
      5681.5      9.5901     72.8508     63.9946
        5682      9.6327     71.2939     54.9592
      5682.5      9.6327     70.1718     53.5027
        5683      9.6327     68.3945     52.0463
      5683.5      9.6128     65.6935     50.5898
        5684      9.6128     64.8746     49.1334
      5684.5      9.5928     64.7743     50.2991
        5685      9.5928     64.5855     59.1017
      5685.5      9.5993     64.3731     67.9044
