#   WellGreen Tech Inc.   Digitizing Services
#   www.wellgreentech.com
#   email: sales@wellgreentech.com
#
~Version Information Block
 VERS.                2.00:     CWLS LOG ASCII STANDARD - VERSION 2.000000
 WRAP.                  NO:     One Line Per Depth Step
#
~Well Information Block
#MNEM.UNIT                     Data                         Information
#----------   ------------------------------------------   ----------------
 STRT.FT                                     4000.0000:     START DEPTH
 STOP.FT                                    15710.0000:     STOP DEPTH
 STEP.FT                                        0.5000:     STEP
 NULL.                                       -999.2500:     NULL VALUE
 COMP.                        THE SUPERIOR OIL COMPANY:     COMPANY
 WELL.                                FORTUNE STATE #1:     WELL
 FLD .                                    CHAPMAN DEEP:     FIELD
 LOC .                                                :     LOCATION
 CNTY.                                          REEVES:     COUNTY
 STAT.                                              TX:     STATE
 CTRY.                                             USA:     COUNTRY
 SRVC.                                    SCHLUMBERGER:     SERVICE COMPANY
 DATE.                                      11/10/1974:     DATE
 API .               42389302950000:    API NUMBER
 UWI .               42389302950000:    UWI NUMBER
 TVD .                                              NO:     TVD flag
 MATRIX .G/CC                  :    Matrix Density
#
~Curve Information Block
#MNEM.UNIT       API CODE      Curve Description
#----------    -------------   -------------------
 DEPT.FT                   :   Depth in Feet
 CALI.IN       70 280 01 01:   Caliper
 GR  .API      35 310 01 01:   Gamma Ray
 DT  .US/F     60 520 08 01:   Sonic transit time
#
~Parameter Information Block
#MNEM.UNIT            Value               Description
#----------    --------------------    -------------------
 RUN .                         ONE:    Run Number
 PDAT.                          GL:    Permanent Datum
 EPD .FT                  000.0000:    Elevation Of Perm. Datum
 LMF .               KELLY BUSHING:    Log Measured From
 EKB .FT                  3065.0:    Elevation Of Kelly Bushing
 DF .FT                    000.0:    Elevation Of Derrick Floor
 GL .FT                   3034.0:    Elevation Of Ground Level
 TD .FT                  15710.0000:    Total Depth
 BHT .DEGF               260.00 :  Bottom Hole Temperature
 BLI .FT               15710.0000:   Bottom Log Interval
 CSGSIZE.IN              9.6250:   Casing Size
 BITSIZE.IN               8.750 :  BitSize
 CSGD.FT                  4000.0:    Casing Bottom (Driller) 1
 CSGL.FT                  400.0:    Casing Bottom (Logger) 1
 MUD . BRINE                                :    Drilling Fluid Type
 MUDV .CP                  27.0:    Drilling Fluid Viscosity
 MUDD .LB/USG              9.25:    Drilling Fluid Density
 PH.                        6.2:    Drilling Fluid Ph
 FL .ML/30MIN              11.0:    Drilling Fluid Loss
 MUDS .FLOW LINE                        :    Mud Sample Source
 RM .OHMM                   0.09:    Resistivity Of Mud Sample
 RMT .DEGF                 60.00:    Mud Sample Temperature
 RMF .OHMM                  0.09:    Mud Filtrate Resistivity
 RMFT.DEGF                 60.00:    Mud Filtrate Sample Temperature
 RMC .OHMM                  0.00:    Mud Cake Resistivity
 RMCT.DEGF                 00.00:    Mud Cake Sample Temperature
 RMB .OHMM                 0.027:    Mud Resistivity At Bht
 TMAX .DEGF               260.00:    Bottom Hole Temperature
#
~Other Information Block
<DescLogPlotStart>   NEURALOG PLOT DEFINITION
PLOTDEFVERSION: 3
LASFILE: D:\nds\projects\G\DAVE\new work\RS Energy - Texas - May 17 - Folder 2\
DEPTHSCALE: 240.000000
RESOLUTION: 400
DEPTHLABELFREQ: 100.000000
HEAVYGRIDFREQ: 100.000000
MEDIUMGRIDFREQ: 50.000000
LIGHTGRIDFREQ: 10.000000
#
#   TRACK 1
#
STARTTRACK: 
 LEFTX: 0.500000 inch
 RIGHTX: 3.000000 inch
 SCALETYPE: Linear
 NUMCHARTDIVISIONS: 10
CURVE: CALI  6.000000   16.000000  (0,0,255)      Solid             2     N    
CURVE: GR    0.000000   125.000000 (0,131,131)    Dot               2     Y    
BACKUP: 125.000000 250.000000 (0,131,131)    Dot               2    
ENDTRACK: 
#
#   TRACK 2
#
STARTTRACK: 
 LEFTX: 3.500000 inch
 RIGHTX: 8.500000 inch
 SCALETYPE: Linear
 NUMCHARTDIVISIONS: 10
CURVE: DT    100.000000 40.000000  (255,0,255)    Solid             2     Y    
BACKUP: 160.000000 100.000000 (255,0,255)    Solid             2    
ENDTRACK: 
<DescLogPlotEnd>
~A DEPTH     CALI             GR               DT              
# ...
    7125.000 12.279           13.130           52.717          
    7125.500 12.279           12.917           53.226          
    7126.000 12.279           11.535           53.735          
    7126.500 12.279           10.321           54.244          
    7127.000 12.279           9.993            54.331          
    7127.500 12.279           10.476           53.823          
    7128.000 12.279           11.268           53.698          
    7128.500 12.279           13.803           53.666          
    7129.000 12.279           19.079           54.484          
    7129.500 12.279           25.377           59.253          
    7130.000 12.279           33.688           64.681          
    7130.500 12.279           44.025           68.134          
    7131.000 12.279           54.269           70.150          
    7131.500 12.279           61.368           71.735          
    7132.000 12.279           68.542           70.805          
    7132.500 12.279           75.391           69.985          
    7133.000 12.279           80.571           75.779          
    7133.500 12.279           84.649           78.937          
    7134.000 12.279           85.837           79.384          
    7134.500 12.279           89.951           81.500          
    7135.000 12.279           86.378           79.526          
    7135.500 12.279           81.234           76.834          
    7136.000 12.279           79.032           77.614          
    7136.500 12.280           79.602           79.603          
    7137.000 12.280           81.860           82.125          
    7137.500 12.280           91.844           84.647          
    7138.000 12.280           100.939          87.901          
    7138.500 12.280           108.496          87.415          
    7139.000 12.280           102.776          86.228          
    7139.500 12.280           101.174          84.428          
    7140.000 12.281           97.221           84.312          
    7140.500 12.281           93.244           86.226          
    7141.000 12.281           89.058           84.165          
    7141.500 12.281           83.848           81.898          
    7142.000 12.281           80.201           80.518          
    7142.500 12.281           84.271           78.834          
    7143.000 12.281           92.931           81.426          
    7143.500 12.282           99.458           83.983          
    7144.000 12.282           101.080          83.504          
    7144.500 12.282           101.081          84.897          
    7145.000 12.282           102.028          87.125          
    7145.500 12.282           104.018          89.358          
    7146.000 12.282           106.010          91.755          
    7146.500 12.283           107.341          87.593          
    7147.000 12.283           106.816          86.243          
    7147.500 12.283           104.681          85.336          
    7148.000 12.283           99.813           84.069          
    7148.500 12.283           96.944           81.941          
    7149.000 12.283           92.231           78.253          
    7149.500 12.283           79.479           74.565          
    7150.000 12.284           66.680           70.877          
    7150.500 12.284           55.618           67.594          
    7151.000 12.284           48.971           64.796          
    7151.500 12.284           40.116           64.033          
    7152.000 12.284           42.545           65.552          
    7152.500 12.284           46.449           67.652          
    7153.000 12.285           50.436           67.235          
    7153.500 12.285           48.661           66.336          
    7154.000 12.285           46.475           67.328          
    7154.500 12.285           46.911           68.445          
    7155.000 12.285           47.666           68.012          
    7155.500 12.285           49.533           67.491          
    7156.000 12.285           50.068           66.808          
    7156.500 12.286           49.415           66.611          
    7157.000 12.286           46.364           66.655          
    7157.500 12.286           47.676           65.174          
    7158.000 12.286           43.646           63.149          
    7158.500 12.286           38.990           61.543          
    7159.000 12.286           36.166           61.719          
    7159.500 12.287           40.563           63.650          
    7160.000 12.287           43.894           65.354          
    7160.500 12.287           46.104           65.730          
    7161.000 12.287           45.041           65.259          
    7161.500 12.287           43.964           64.924          
    7162.000 12.287           45.427           64.921          
    7162.500 12.287           47.620           64.946          
    7163.000 12.288           45.398           64.739          
    7163.500 12.288           42.633           63.226          
    7164.000 12.288           37.038           60.831          
    7164.500 12.288           31.519           58.571          
    7165.000 12.288           25.979           56.805          
    7165.500 12.288           24.345           55.987          
    7166.000 12.289           23.748           58.469          
    7166.500 12.289           24.998           58.706          
    7167.000 12.289           26.238           58.461          
    7167.500 12.288           26.696           57.074          
    7168.000 12.288           24.923           55.240          
    7168.500 12.288           23.141           54.468          
    7169.000 12.288           21.361           53.995          
    7169.500 12.288           19.580           52.763          
    7170.000 12.288           17.800           51.710          
    7170.500 12.288           16.020           52.380          
    7171.000 12.287           14.236           53.932          
    7171.500 12.287           13.117           55.812          
    7172.000 12.287           14.857           56.210          
    7172.500 12.287           16.582           55.638          
    7173.000 12.287           20.447           53.744          
    7173.500 12.287           27.852           54.518          
    7174.000 12.286           38.274           62.554          
    7174.500 12.286           51.298           70.955          
    7175.000 12.286           64.327           75.715          
    7175.500 12.286           77.351           80.356          
    7176.000 12.286           86.295           83.217          
    7176.500 12.286           87.578           83.696          
    7177.000 12.285           88.175           83.736          
    7177.500 12.285           88.066           83.008          
    7178.000 12.285           87.559           81.639          
    7178.500 12.285           83.908           79.952          
    7179.000 12.285           79.148           79.570          
    7179.500 12.285           75.640           79.404          
    7180.000 12.285           74.030           80.021          
    7180.500 12.284           72.174           79.577          
    7181.000 12.284           66.262           78.325          
    7181.500 12.284           66.159           77.510          
    7182.000 12.284           62.063           76.961          
    7182.500 12.284           63.687           76.625          
    7183.000 12.284           66.986           78.337          
    7183.500 12.283           70.252           78.763          
    7184.000 12.283           70.789           79.437          
    7184.500 12.283           70.137           80.364          
    7185.000 12.283           71.090           79.378          
    7185.500 12.283           70.453           78.661          
    7186.000 12.283           68.887           76.505          
    7186.500 12.282           66.871           77.421          
    7187.000 12.282           65.860           80.061          
