###############################################
##         ENVERUS                           ##
##         ESS - Open Hole                   ##
##         PERMIAN / DELAWARE                ##
##         Nov 04 2023  V4.0                 ##
##         42-389-32245-00-00                ##
###############################################
## Copyright 2017-2023  ENVERUS.  All Rights Reserved. 
## Confidential - Property of ENVERUS, use governed by terms and 
## conditions found within the existing Information Services Subscription Agreement 
## (as may be amended, the “ISSA”) between Customer and ENVERUS. 
## 
~VERSION INFORMATION
# MNEM.UNIT                               DATA : DESCRIPTION OF MNEMONIC
#-----.-----     ----------------------------- : -----------------------------
VERS.                                     2.00 : CWLS LOG ASCII STANDARD - VERSION 2.00
WRAP.                                       NO : MULTIPLE LINES PER DEPTH STEP
VEND.                                  ENVERUS : VENDOR
TYPE.                          ESS - OPEN HOLE : ENVERUS ESSENTIAL CURVES – ACCESSIBLE THROUGH ENVERUS PRISM(TM)
DOC.                                  24742630 : ENVERUS HEADER RAW DOCUMENT ID
#___________________________________________________________________________________________________ 
~WELL INFORMATION 
# u9Wg0OWXiPz858M7Kubpm0lpDPxjGuyhH3tqBPDGtvBYDDDqGrwiIchrhDPbdkpmsDZNCKsM7+2eKUVstoQO7Q== 
# MNEM.UNIT                                              DATA : DESCRIPTION OF MNEMONIC 
#-----.-----                    ----------------------------- : ----------------------------- 
CNTY.                                                  REEVES : COUNTY 
STATE.                                                  TEXAS : STATE 
CNTRY.                                                    USA : COUNTRY 
API.                                             42-389-32245 : API (10 Digit) 
API_14.                                    42-389-32245-00-00 : API (14 Digits) 
API_14_std.                                 42-389-32245-0000 : API (14 Digits Standard) 
UWI.                                           42389322450000 : UNIQUE WELL ID 
WELL.                          TEXAS PACIFIC LAND TRUST #25-1 : WELL NAME
STRT.FT                                                2530.0 : START DEPTH
STOP.FT                                               10610.0 : STOP DEPTH
STEP.FT                                                   0.5 : STEP BETWEEN DEPTHS
NULL.                                                 -999.25 : NULL VALUE
COMP.                                             CONOCO INC. : COMPANY 
FLD.                                            FORD WOLFCAMP : FIELD 
LOC.                                                 25-2S-58 : LOCATION 
SRVC.                                            SCHLUMBERGER : SERVICE COMPANY 
DATE.                                              03/21/2002 : DATE 
TVD.                                                       NO : TVD FLAG
#___________________________________________________________________________________________________ 
~PARAMETER INFORMATION 
# MNEM.UNIT                                              DATA : DESCRIPTION OF MNEMONIC 
#-----.-----                    ----------------------------- : ----------------------------- 
RUN.                                                      ONE : RUN NUMBER 
PDAT.                                                      GL : PERMANENT DATUM 
EPD.FT                                              2993.0000 : ELEVATION OF PERM. DATUM 
LMF.                                            KELLY BUSHING : LOG MEASURED FROM 
EKB.FT                                              3021.0000 : ELEVATION OF KELLY BUSHING 
DF.FT                                               3020.0000 : ELEVATION OF DERRICK FLOOR 
GL.FT                                               2993.0000 : ELEVATION OF GROUND LEVEL 
TD.FT                                              10610.0000 : TOTAL DEPTH 
BHT.DEGF                                               130.00 : BOTTOM HOLE TEMPERATURE 
BLI.FT                                             10610.0000 : BOTTOM LOG INTERVAL 
CSGSIZE.IN                                             9.6250 : CASING SIZE 
BITSIZE.IN                                              8.750 : BITSIZE 
CSGD.FT                                                  2642 : CASING BOTTOM (DRILLER) 1 
CSGL.FT                                                  2538 : CASING BOTTOM (LOGGER) 1 
MUD.                                                CUT BRINE : DRILLING FLUID TYPE 
MUDV.CP                                               28.0000 : DRILLING FLUID VISCOSITY 
MUDD.LB/USG                                           10.0000 : DRILLING FLUID DENSITY 
PH.                                                    8.5000 : DRILLING FLUID PH 
MUDS.                                        CIRCULATION TANK : MUD SAMPLE SOURCE 
RM.OHMM                                                0.0610 : RESISTIVITY OF MUD SAMPLE 
RMT.DEGF                                              75.0000 : MUD SAMPLE TEMPERATURE 
RMF.OHMM                                               0.0610 : MUD FILTRATE RESISTIVITY 
RMFT.DEGF                                             75.0000 : MUD FILTRATE SAMPLE TEMPERATURE
#___________________________________________________________________________________________________ 
~CURVE INFORMATION 
# MNEM.UNIT           : CURVE DESCRIPTION 
#-----.-----          : ----------------------------- 
 DEPT.FT               : MEASURED DEPTH 
 CALI.IN               : CALIPER (CALIPER) 
 GR.API                : GAMMA RAY (GAMMA RAY) 
 DT.US/FT              : SONIC DELTA TRANSIT TIME (DELTA T) 
 SPHI.V/V              : SONIC POROSITY (SONIC POROSITY) 
 #___________________________________________________________________________________________________ 
~A         DEPT           CALI             GR             DT           SPHI
# ...
         9473.0          8.980         92.900         73.460        0.18000
         9473.5          8.970         89.220         72.100        0.17000
         9474.0          8.970         87.420         72.360        0.17000
         9474.5          8.970         90.990         73.310        0.18000
         9475.0          8.970         95.510         74.270        0.20000
         9475.5          8.970         98.900         78.380        0.25000
         9476.0          8.960         95.780         87.280        0.28000
         9476.5          8.960         94.880         87.260        0.26000
         9477.0          8.960        100.520         82.930        0.23000
         9477.5          8.960        107.550         79.560        0.23000
         9478.0          8.960        114.770         80.530        0.24000
         9478.5          8.950        118.360         81.170        0.24000
         9479.0          8.950        117.560         80.740        0.23000
         9479.5          8.950        114.040         78.580        0.21000
         9480.0          8.950        105.830         75.910        0.19000
         9480.5          8.950         94.250         73.250        0.17000
         9481.0          8.940         80.790         70.570        0.15000
         9481.5          8.940         68.490         68.270        0.14000
         9482.0          8.940         68.760         67.880        0.14000
         9482.5          8.940         74.040         67.880        0.14000
         9483.0          8.940         77.230         67.820        0.14000
         9483.5          8.930         74.090         67.510        0.14000
         9484.0          8.930         68.620         67.360        0.16000
         9484.5          8.930         61.880         70.960        0.19000
         9485.0          8.930         67.030         74.990        0.22000
         9485.5          8.930         92.080         77.970        0.23000
         9486.0          8.920        102.670         80.670        0.24000
         9486.5          8.920        110.190         82.100        0.25000
         9487.0          8.920        115.040         81.090        0.22000
         9487.5          8.910        112.690         78.610        0.20000
         9488.0          8.910        105.360         74.250        0.18000
         9488.5          8.910         96.600         73.470        0.18000
         9489.0          8.900         87.170         73.880        0.19000
         9489.5          8.900         77.810         74.130        0.19000
         9490.0          8.890         77.390         73.460        0.18000
         9490.5          8.890         79.310         72.530        0.17000
         9491.0          8.880         83.010         71.600        0.17000
         9491.5          8.880         93.510         71.960        0.18000
         9492.0          8.880        101.320         73.230        0.19000
         9492.5          8.870        104.230         74.830        0.20000
         9493.0          8.870        106.090         77.690        0.23000
         9493.5          8.860        102.800         85.250        0.28000
         9494.0          8.860         99.450         92.010        0.30000
         9494.5          8.850         95.730         89.860        0.28000
         9495.0          8.850         92.980         83.830        0.23000
         9495.5          8.840         90.110         79.820        0.22000
         9496.0          8.840         86.960         78.190        0.21000
         9496.5          8.840         83.720         74.710        0.17000
         9497.0          8.830         80.480         70.550        0.14000
         9497.5          8.830         76.570         66.390        0.12000
         9498.0          8.830         68.470         62.790        0.10000
         9498.5          8.820         52.730         59.700        0.08000
         9499.0          8.820         39.890         58.030        0.07000
         9499.5          8.820         33.500         57.840        0.08000
         9500.0          8.820         33.530         60.220        0.09000
         9500.5          8.810         39.420         63.500        0.12000
         9501.0          8.810         44.940         66.780        0.15000
         9501.5          8.810         50.400         70.640        0.18000
         9502.0          8.810         56.350         77.750        0.25000
         9502.5          8.800         63.670         89.380        0.30000
         9503.0          8.800         70.820         98.550        0.30000
         9503.5          8.800         78.070         90.820        0.26000
         9504.0          8.790         81.500         80.400        0.23000
         9504.5          8.790         83.900         80.140        0.22000
         9505.0          8.790         86.290         77.470        0.20000
         9505.5          8.790         88.650         74.940        0.19000
         9506.0          8.790         88.600         72.040        0.17000
         9506.5          8.790         80.920         69.020        0.14000
         9507.0          8.790         72.460         65.990        0.11000
         9507.5          8.800         64.020         63.380        0.11000
         9508.0          8.800         55.580         63.380        0.16000
         9508.5          8.800         51.440         71.710        0.21000
         9509.0          8.800         56.310         82.420        0.25000
         9509.5          8.800         67.120         80.600        0.22000
         9510.0          8.800         77.890         78.050        0.20000
         9510.5          8.800         85.870         75.710        0.21000
         9511.0          8.800         86.650         77.310        0.22000
         9511.5          8.800         87.990         78.730        0.22000
         9512.0          8.810         93.330         79.160        0.22000
         9512.5          8.810         97.000         78.620        0.21000
         9513.0          8.810         89.470         76.700        0.19000
         9513.5          8.810         79.790         74.240        0.18000
         9514.0          8.810         67.230         71.790        0.17000
         9514.5          8.810         69.110         70.690        0.16000
         9515.0          8.810         72.380         70.360        0.16000
         9515.5          8.810         75.370         69.360        0.14000
         9516.0          8.810         76.760         67.170        0.13000
         9516.5          8.820         71.530         64.970        0.12000
         9517.0          8.820         66.980         63.620        0.11000
         9517.5          8.820         63.180         64.990        0.13000
         9518.0          8.820         68.500         67.430        0.15000
         9518.5          8.820         76.100         69.870        0.16000
         9519.0          8.820         81.470         72.320        0.18000
         9519.5          8.820         82.740         73.750        0.19000
         9520.0          8.820         81.950         73.750        0.18000
         9520.5          8.820         82.190         72.410        0.17000
         9521.0          8.830         81.800         70.910        0.16000
         9521.5          8.830         79.000         69.500        0.15000
         9522.0          8.830         74.010         68.610        0.14000
         9522.5          8.830         69.560         67.850        0.14000
         9523.0          8.830         70.330         67.680        0.14000
         9523.5          8.830         71.800         68.600        0.16000
         9524.0          8.830         72.510         70.770        0.17000
         9524.5          8.830         69.850         72.430        0.18000
         9525.0          8.830         67.440         71.920        0.17000
         9525.5          8.840         67.280         71.860        0.18000
