###############################################
##         ENVERUS                           ##
##         ESS - Open Hole                   ##
##         PERMIAN / DELAWARE                ##
##         Nov 04 2023  V4.0                 ##
##         42-389-32245-00-00                ##
###############################################
## Copyright 2017-2023  ENVERUS.  All Rights Reserved. 
## Confidential - Property of ENVERUS, use governed by terms and 
## conditions found within the existing Information Services Subscription Agreement 
## (as may be amended, the “ISSA”) between Customer and ENVERUS. 
## 
~VERSION INFORMATION
# MNEM.UNIT                               DATA : DESCRIPTION OF MNEMONIC
#-----.-----     ----------------------------- : -----------------------------
VERS.                                     2.00 : CWLS LOG ASCII STANDARD - VERSION 2.00
WRAP.                                       NO : MULTIPLE LINES PER DEPTH STEP
VEND.                                  ENVERUS : VENDOR
TYPE.                          ESS - OPEN HOLE : ENVERUS ESSENTIAL CURVES – ACCESSIBLE THROUGH ENVERUS PRISM(TM)
DOC.                                  31784178 : ENVERUS HEADER RAW DOCUMENT ID
#___________________________________________________________________________________________________ 
~WELL INFORMATION 
# v5kOeJgG8V8Fdrn76qwaaSXPAkEfLGq57aawfXlCwOXh55ROPeN2VCvB7JmY2/dENYnWxxZwl4Ma/Wu+4c2YGQ== 
# MNEM.UNIT                                              DATA : DESCRIPTION OF MNEMONIC 
#-----.-----                    ----------------------------- : ----------------------------- 
CNTY.                                                  REEVES : COUNTY 
STATE.                                                  TEXAS : STATE 
CNTRY.                                                    USA : COUNTRY 
API.                                             42-389-32245 : API (10 Digit) 
API_14.                                    42-389-32245-00-00 : API (14 Digits) 
API_14_std.                                 42-389-32245-0000 : API (14 Digits Standard) 
UWI.                                           42389322450000 : UNIQUE WELL ID 
WELL.                          TEXAS PACIFIC LAND TRUST 25 1H : WELL NAME
STRT.FT                                                2519.0 : START DEPTH
STOP.FT                                               10624.0 : STOP DEPTH
STEP.FT                                                   0.5 : STEP BETWEEN DEPTHS
NULL.                                                 -999.25 : NULL VALUE
#___________________________________________________________________________________________________ 
~CURVE INFORMATION 
# MNEM.UNIT           : CURVE DESCRIPTION 
#-----.-----          : ----------------------------- 
 DEPT.FT               : MEASURED DEPTH 
 CALI__B.IN            : CALIPER (CAL - CAL) 
 GR__B.API             : GAMMA RAY (GR) 
 DT__B.US/FT           : SONIC DELTA TRANSIT TIME (DT) 
 #___________________________________________________________________________________________________ 
~A         DEPT        CALI__B          GR__B          DT__B
# ...
         5225.0         13.640         89.658         65.228
         5225.5         13.619         89.948         65.025
         5226.0         13.597         90.593         65.420
         5226.5         13.576         91.656         65.816
         5227.0         13.555         89.216         65.510
         5227.5         13.533         82.419         64.794
         5228.0         13.512         74.422         64.228
         5228.5         13.490         64.970         64.043
         5229.0         13.469         55.517         64.587
         5229.5         13.464         48.950         65.302
         5230.0         13.463         47.578         65.537
         5230.5         13.461         51.512         65.598
         5231.0         13.459         56.806         65.660
         5231.5         13.458         62.099         65.839
         5232.0         13.456         59.883         66.118
         5232.5         13.455         53.640         66.397
         5233.0         13.453         48.415         66.399
         5233.5         13.452         46.956         66.217
         5234.0         13.450         45.497         66.226
         5234.5         13.448         44.038         66.262
         5235.0         13.447         42.579         66.297
         5235.5         13.445         45.886         66.595
         5236.0         13.444         49.314         66.612
         5236.5         13.421         52.742         65.629
         5237.0         13.388         56.170         64.479
         5237.5         13.355         59.598         64.085
         5238.0         13.342         63.332         64.343
         5238.5         13.330         68.836         64.897
         5239.0         13.318         74.341         65.450
         5239.5         13.306         85.301         65.952
         5240.0         13.294         94.709         66.271
         5240.5         13.282         99.473         66.590
         5241.0         13.270         99.757         66.853
         5241.5         13.258         95.906         66.817
         5242.0         13.246         92.054         66.780
         5242.5         13.233         90.040         66.744
         5243.0         13.221         96.085         66.708
         5243.5         13.209        105.955         67.073
         5244.0         13.197        114.957         72.876
         5244.5         13.183        123.960         77.515
         5245.0         13.168        119.696         81.210
         5245.5         13.153        114.011         81.442
         5246.0         13.139        108.577         81.098
         5246.5         13.126        117.946         80.710
         5247.0         13.116        127.316         80.759
         5247.5         13.113        124.282         76.497
         5248.0         13.148        113.080         70.918
         5248.5         13.183        100.732         68.323
         5249.0         13.218         84.380         68.586
         5249.5         13.253         65.900         68.849
         5250.0         13.288         51.911         69.007
         5250.5         13.323         44.682         68.848
         5251.0         13.358         41.016         68.722
         5251.5         13.393         44.081         69.630
         5252.0         13.428         47.125         70.816
         5252.5         13.463         49.428         71.753
         5253.0         13.498         49.272         71.919
         5253.5         13.533         47.977         71.526
         5254.0         13.554         46.682         70.700
         5254.5         13.552         46.927         69.875
         5255.0         13.551         48.376         68.993
         5255.5         13.549         49.436         67.865
         5256.0         13.548         46.995         67.149
         5256.5         13.546         45.190         66.931
         5257.0         13.545         43.924         66.959
         5257.5         13.543         42.658         67.197
         5258.0         13.542         41.391         66.803
         5258.5         13.540         41.358         65.615
         5259.0         13.539         41.358         64.427
         5259.5         13.537         41.012         63.948
         5260.0         13.536         39.839         64.282
         5260.5         13.534         38.829         64.973
         5261.0         13.533         40.182         65.664
         5261.5         13.531         41.536         65.952
         5262.0         13.530         41.235         65.865
         5262.5         13.528         39.848         65.777
         5263.0         13.527         39.451         65.690
         5263.5         13.525         40.707         65.602
         5264.0         13.524         41.964         65.664
         5264.5         13.523         41.187         65.823
         5265.0         13.521         40.218         65.841
         5265.5         13.520         39.988         65.841
         5266.0         13.518         40.626         65.841
         5266.5         13.517         41.265         65.741
         5267.0         13.515         41.674         65.253
         5267.5         13.514         40.197         65.043
         5268.0         13.512         38.719         65.113
         5268.5         13.511         38.611         65.833
         5269.0         13.509         46.941         66.554
         5269.5         13.523         62.558         67.274
         5270.0         13.537         78.175         68.152
         5270.5         13.552         93.792         69.093
         5271.0         13.567        133.282         69.068
         5271.5         13.582        123.657         68.739
         5272.0         13.596        114.031         68.410
         5272.5         13.611        104.405         67.463
         5273.0         13.626         85.876         65.174
         5273.5         13.640         62.591         62.885
         5274.0         13.655         44.223         62.080
         5274.5         13.676         35.897         62.614
         5275.0         13.714         33.481         64.389
         5275.5         13.752         38.772         66.163
         5276.0         13.790         44.062         67.586
         5276.5         13.828         47.387         68.548
         5277.0         13.866         49.208         69.509
         5277.5         13.904         48.609         70.471
         5278.0         13.942         48.010         71.375
         5278.5         13.980         47.411         71.058
         5279.0         14.018         49.007         69.757
         5279.5         14.022         53.510         68.970
         5280.0         14.022         58.014         68.890
         5280.5         14.022         58.289         69.477
         5281.0         14.022         57.059         70.810
         5281.5         14.022         55.829         71.671
         5282.0         14.022         57.708         71.875
         5282.5         14.022         60.185         71.959
         5283.0         14.044         61.607         71.875
         5283.5         14.072         57.057         71.663
         5284.0         14.100         52.507         72.033
         5284.5         14.128         47.956         72.404
         5285.0         14.155         47.322         72.775
         5285.5         14.183         49.340         73.201
         5286.0         14.211         50.255         73.841
         5286.5         14.239         49.189         74.360
         5287.0         14.267         48.123         74.484
         5287.5         14.295         47.586         73.174
         5288.0         14.316         51.373         71.532
         5288.5         14.325         58.061         69.889
         5289.0         14.334         68.432         68.837
         5289.5         14.344         75.094         68.138
         5290.0         14.353         78.471         68.311
         5290.5         14.362         75.175         68.483
