###############################################
##         ENVERUS                           ##
##         ESS - Open Hole                   ##
##         PERMIAN / DELAWARE                ##
##         Nov 02 2023  V4.0                 ##
##         42-301-31112-00-00                ##
###############################################
## Copyright 2017-2023  ENVERUS.  All Rights Reserved. 
## Confidential - Property of ENVERUS, use governed by terms and 
## conditions found within the existing Information Services Subscription Agreement 
## (as may be amended, the “ISSA”) between Customer and ENVERUS. 
## 
~VERSION INFORMATION
# MNEM.UNIT                               DATA : DESCRIPTION OF MNEMONIC
#-----.-----     ----------------------------- : -----------------------------
VERS.                                     2.00 : CWLS LOG ASCII STANDARD - VERSION 2.00
WRAP.                                       NO : MULTIPLE LINES PER DEPTH STEP
VEND.                                  ENVERUS : VENDOR
TYPE.                          ESS - OPEN HOLE : ENVERUS ESSENTIAL CURVES – ACCESSIBLE THROUGH ENVERUS PRISM(TM)
DOC.                                  31879965 : ENVERUS HEADER RAW DOCUMENT ID
#___________________________________________________________________________________________________ 
~WELL INFORMATION 
# p11foxtE5QnwhaJbtzBz2LJF4p4dkL7jzyXNzohJvMqLCglFSJK87xuVm3WB3m+8huK6qzS+fp5X73xeHrMy5w== 
# MNEM.UNIT                                              DATA : DESCRIPTION OF MNEMONIC 
#-----.-----                    ----------------------------- : ----------------------------- 
CNTY.                                                  LOVING : COUNTY 
STATE.                                                  TEXAS : STATE 
CNTRY.                                                    USA : COUNTRY 
API.                                             42-301-31112 : API (10 Digit) 
API_14.                                    42-301-31112-00-00 : API (14 Digits) 
API_14_std.                                 42-301-31112-0000 : API (14 Digits Standard) 
UWI.                                           42301311120000 : UNIQUE WELL ID 
WELL.                                                    JR 1 : WELL NAME
STRT.FT                                                3102.0 : START DEPTH
STOP.FT                                               15993.0 : STOP DEPTH
STEP.FT                                                   0.5 : STEP BETWEEN DEPTHS
NULL.                                                 -999.25 : NULL VALUE
LOC.                                                      UNK : LOCATION 
SRVC.                                                     UNK : SERVICE COMPANY
#___________________________________________________________________________________________________ 
~CURVE INFORMATION 
# MNEM.UNIT           : CURVE DESCRIPTION 
#-----.-----          : ----------------------------- 
 DEPT.FT               : MEASURED DEPTH 
 CALI.IN               : CALIPER (CAL - CAL) 
 GR.API                : GAMMA RAY (GR) 
 DT.US/FT              : SONIC DELTA TRANSIT TIME (DT) 
 #___________________________________________________________________________________________________ 
~A         DEPT           CALI             GR             DT
# ...
         9966.0         13.685         27.466         63.735
         9966.5         13.685         29.238         66.196
         9967.0         13.685         36.415         70.071
         9967.5         13.685         43.593         73.947
         9968.0         13.685         47.269         75.389
         9968.5         13.685         44.584         72.244
         9969.0         13.685         41.060         67.067
         9969.5         13.686         38.699         65.686
         9970.0         13.686         41.068         66.625
         9970.5         13.686         44.944         69.342
         9971.0         13.686         48.821         72.058
         9971.5         13.686         49.668         74.775
         9972.0         13.686         49.486         75.617
         9972.5         13.686         48.270         74.941
         9973.0         13.685         47.053         74.266
         9973.5         13.685         46.585         73.590
         9974.0         13.684         47.754         73.726
         9974.5         13.683         49.614         74.734
         9975.0         13.683         51.199         75.742
         9975.5         13.682         51.093         75.060
         9976.0         13.682         49.821         73.090
         9976.5         13.681         48.550         71.651
         9977.0         13.680         48.406         72.536
         9977.5         13.680         49.448         73.422
         9978.0         13.679         50.377         74.307
         9978.5         13.678         48.822         72.519
         9979.0         13.678         47.268         70.739
         9979.5         13.677         45.713         69.486
         9980.0         13.676         45.026         68.921
         9980.5         13.676         44.844         69.876
         9981.0         13.675         45.528         70.957
         9981.5         13.674         46.212         71.821
         9982.0         13.674         45.825         71.641
         9982.5         13.673         44.443         70.164
         9983.0         13.672         43.060         68.145
         9983.5         13.672         40.657         66.125
         9984.0         13.671         38.969         65.614
         9984.5         13.671         39.164         67.254
         9985.0         13.670         41.492         69.811
         9985.5         13.669         44.030         72.368
         9986.0         13.668         46.568         72.870
         9986.5         13.666         45.502         70.781
         9987.0         13.665         42.788         68.693
         9987.5         13.663         40.833         66.851
         9988.0         13.661         43.485         68.492
         9988.5         13.660         46.137         70.133
         9989.0         13.658         48.789         71.774
         9989.5         13.656         49.126         71.176
         9990.0         13.654         49.257         70.535
         9990.5         13.653         50.094         70.650
         9991.0         13.651         51.088         70.765
         9991.5         13.649         50.817         70.862
         9992.0         13.648         50.402         70.838
         9992.5         13.646         50.563         70.956
         9993.0         13.644         52.257         71.855
         9993.5         13.643         53.951         72.755
         9994.0         13.641         54.196         73.654
         9994.5         13.639         51.421         73.371
         9995.0         13.637         47.286         72.758
         9995.5         13.636         43.151         72.146
         9996.0         13.634         39.016         70.748
         9996.5         13.632         34.881         68.376
         9997.0         13.629         31.575         65.893
         9997.5         13.626         29.672         63.410
         9998.0         13.622         30.517         61.937
         9998.5         13.619         34.726         63.813
         9999.0         13.616         38.935         66.182
         9999.5         13.613         43.145         68.551
        10000.0         13.609         46.074         70.920
        10000.5         13.606         48.349         72.776
        10001.0         13.603         50.683         73.656
        10001.5         13.599         53.037         74.535
        10002.0         13.596         55.391         74.726
        10002.5         13.593         55.716         74.018
        10003.0         13.590         55.139         74.060
        10003.5         13.586         54.248         74.552
        10004.0         13.583         52.717         74.529
        10004.5         13.580         50.093         71.398
        10005.0         13.577         46.334         69.234
        10005.5         13.573         42.575         68.117
        10006.0         13.570         39.564         68.225
        10006.5         13.567         40.952         69.105
        10007.0         13.563         43.905         70.687
        10007.5         13.560         46.858         72.694
        10008.0         13.557         49.811         73.598
        10008.5         13.554         51.199         73.151
        10009.0         13.550         51.616         72.705
        10009.5         13.547         52.033         72.258
        10010.0         13.544         54.000         72.221
        10010.5         13.541         55.974         72.560
        10011.0         13.539         55.216         71.161
        10011.5         13.539         52.260         69.442
        10012.0         13.539         48.573         68.141
        10012.5         13.539         44.589         68.282
        10013.0         13.539         45.324         70.509
        10013.5         13.540         48.759         72.898
        10014.0         13.540         52.194         75.288
        10014.5         13.540         55.629         75.669
        10015.0         13.540         56.212         75.048
        10015.5         13.540         52.786         72.787
        10016.0         13.540         48.308         70.770
        10016.5         13.540         44.565         71.425
        10017.0         13.540         45.901         73.307
        10017.5         13.540         51.274         75.693
        10018.0         13.540         51.214         75.270
        10018.5         13.541         48.136         72.115
        10019.0         13.543         39.806         68.159
        10019.5         13.545         32.803         64.202
        10020.0         13.547         28.924         60.246
        10020.5         13.549         25.946         57.965
        10021.0         13.551         26.846         58.715
        10021.5         13.553         29.587         62.105
        10022.0         13.555         37.382         65.496
        10022.5         13.557         45.124         68.886
        10023.0         13.559         49.625         72.276
        10023.5         13.561         51.177         72.858
        10024.0         13.563         52.344         73.272
        10024.5         13.566         53.930         74.523
        10025.0         13.568         55.427         76.210
        10025.5         13.570         56.723         77.320
        10026.0         13.572         58.018         77.837
        10026.5         13.574         58.994         77.988
        10027.0         13.576         57.199         76.701
        10027.5         13.578         53.665         75.415
        10028.0         13.581         50.130         68.533
        10028.5         13.588         45.481         61.390
        10029.0         13.595         39.080         58.940
        10029.5         13.602         33.096         56.596
        10030.0         13.609         28.536         55.224
        10030.5         13.617         31.143         58.739
        10031.0         13.624         36.366         64.534
        10031.5         13.631         43.019         70.330
