###############################################
##         ENVERUS                           ##
##         ESS - Open Hole                   ##
##         PERMIAN / DELAWARE                ##
##         Nov 04 2023  V4.0                 ##
##         42-389-31270-00-00                ##
###############################################
## Copyright 2017-2023  ENVERUS.  All Rights Reserved. 
## Confidential - Property of ENVERUS, use governed by terms and 
## conditions found within the existing Information Services Subscription Agreement 
## (as may be amended, the “ISSA”) between Customer and ENVERUS. 
## 
~VERSION INFORMATION
# MNEM.UNIT                               DATA : DESCRIPTION OF MNEMONIC
#-----.-----     ----------------------------- : -----------------------------
VERS.                                     2.00 : CWLS LOG ASCII STANDARD - VERSION 2.00
WRAP.                                       NO : MULTIPLE LINES PER DEPTH STEP
VEND.                                  ENVERUS : VENDOR
TYPE.                          ESS - OPEN HOLE : ENVERUS ESSENTIAL CURVES – ACCESSIBLE THROUGH ENVERUS PRISM(TM)
DOC.                                  31950282 : ENVERUS HEADER RAW DOCUMENT ID
#___________________________________________________________________________________________________ 
~WELL INFORMATION 
# 0CODbT4LMl4UGLa7W4QP9cEC157HhgZEtdKI2U+cm8ET/zLKkJfEe4mvdgudHboWMGmWziBYTrzgVEWtCsCjWg== 
# MNEM.UNIT                                              DATA : DESCRIPTION OF MNEMONIC 
#-----.-----                    ----------------------------- : ----------------------------- 
CNTY.                                                  REEVES : COUNTY 
STATE.                                                  TEXAS : STATE 
CNTRY.                                                    USA : COUNTRY 
API.                                             42-389-31270 : API (10 Digit) 
API_14.                                    42-389-31270-00-00 : API (14 Digits) 
API_14_std.                                 42-389-31270-0000 : API (14 Digits Standard) 
UWI.                                           42389312700000 : UNIQUE WELL ID 
WELL.                                        FORTUNE UNIT  2R : WELL NAME
STRT.FT                                                3825.0 : START DEPTH
STOP.FT                                               13654.0 : STOP DEPTH
STEP.FT                                                   0.5 : STEP BETWEEN DEPTHS
NULL.                                                 -999.25 : NULL VALUE
COMP.                          SANDRIDGE EXPL. AND PROD.  LLC : COMPANY 
DATE.                                             19-AUG-2004 : LOG DATE
#___________________________________________________________________________________________________ 
~CURVE INFORMATION 
# MNEM.UNIT           : CURVE DESCRIPTION 
#-----.-----          : ----------------------------- 
 DEPT.FT               : MEASURED DEPTH 
 CALI__B.IN            : CALIPER (CAL - CAL) 
 GR__B.API             : GAMMA RAY (GR) 
 DT__B.US/FT           : SONIC DELTA TRANSIT TIME (DT) 
 #___________________________________________________________________________________________________ 
~A         DEPT        CALI__B          GR__B          DT__B
# ...
         8379.0         10.289         34.130         69.377
         8379.5         10.292         35.925         68.120
         8380.0         10.295         37.720         66.863
         8380.5         10.298         40.885         65.605
         8381.0         10.301         48.272         64.348
         8381.5         10.304         80.424         62.730
         8382.0         10.307         74.233         60.218
         8382.5         10.310         68.042         57.705
         8383.0         10.313         61.851         55.193
         8383.5         10.316         56.005         55.930
         8384.0         10.319         50.166         57.914
         8384.5         10.322         44.326         59.898
         8385.0         10.325         38.487         61.882
         8385.5         10.328         32.648         63.866
         8386.0         10.331         26.808         65.850
         8386.5         10.334         24.823         67.833
         8387.0         10.337         23.233         66.763
         8387.5         10.340         22.593         65.598
         8388.0         10.343         25.217         64.434
         8388.5         10.354         27.842         64.671
         8389.0         10.370         30.467         65.876
         8389.5         10.385         32.817         67.082
         8390.0         10.400         34.268         68.287
         8390.5         10.416         35.719         69.493
         8391.0         10.431         37.170         70.100
         8391.5         10.446         38.621         68.260
         8392.0         10.462         44.458         66.419
         8392.5         10.477         51.742         64.579
         8393.0         10.492         55.383         65.071
         8393.5         10.508         50.554         66.466
         8394.0         10.523         45.726         67.861
         8394.5         10.538         40.897         69.255
         8395.0         10.553         36.069         70.522
         8395.5         10.563         31.240         70.926
         8396.0         10.565         32.651         71.330
         8396.5         10.567         37.306         71.734
         8397.0         10.569         45.216         71.783
         8397.5         10.571         53.517         71.815
         8398.0         10.573         61.817         71.846
         8398.5         10.575         70.118         71.878
         8399.0         10.577         78.419         71.909
         8399.5         10.578         78.124         71.941
         8400.0         10.562         76.956         71.393
         8400.5         10.533         75.788         70.285
         8401.0         10.505         74.621         69.177
         8401.5         10.476         73.453         68.069
         8402.0         10.447         72.285         66.961
         8402.5         10.418         71.117         66.997
         8403.0         10.390         69.428         68.443
         8403.5         10.361         66.786         69.889
         8404.0         10.332         64.144         71.335
         8404.5         10.316         61.502         71.091
         8405.0         10.329         58.860         69.865
         8405.5         10.343         56.218         68.638
         8406.0         10.356         53.644         67.411
         8406.5         10.370         57.077         66.185
         8407.0         10.383         60.511         64.958
         8407.5         10.396         63.944         66.370
         8408.0         10.410         67.378         68.926
         8408.5         10.407         64.817         71.482
         8409.0         10.403         62.065         73.982
         8409.5         10.399         59.314         75.027
         8410.0         10.395         56.563         76.071
         8410.5         10.391         57.727         77.115
         8411.0         10.388         72.710         77.812
         8411.5         10.384         76.997         76.777
         8412.0         10.380         78.946         75.742
         8412.5         10.376         80.894         74.707
         8413.0         10.372         82.843         73.672
         8413.5         10.368         84.792         72.637
         8414.0         10.370         81.615         71.290
         8414.5         10.376         76.582         69.117
         8415.0         10.383         71.391         66.945
         8415.5         10.389         66.201         64.773
         8416.0         10.395         61.510         65.014
         8416.5         10.401         59.852         66.097
         8417.0         10.407         58.193         67.181
         8417.5         10.413         56.534         68.264
         8418.0         10.420         54.876         69.348
         8418.5         10.420         55.420         70.431
         8419.0         10.405         56.334         69.847
         8419.5         10.390         57.364         67.932
         8420.0         10.376         59.803         66.018
         8420.5         10.361         62.241         64.366
         8421.0         10.347         64.680         66.741
         8421.5         10.332         67.119         69.115
         8422.0         10.318         69.557         71.261
         8422.5         10.303         66.802         71.665
         8423.0         10.288         55.861         72.069
         8423.5         10.274         52.496         72.474
         8424.0         10.259         56.849         72.015
         8424.5         10.245         61.202         71.504
         8425.0         10.230         65.555         70.993
         8425.5         10.216         69.908         70.481
         8426.0         10.201         74.261         69.970
         8426.5         10.187         74.072         69.459
         8427.0         10.173         71.302         68.948
         8427.5         10.167         68.533         68.436
         8428.0         10.161         65.764         67.925
         8428.5         10.155         67.507         67.414
         8429.0         10.149         69.509         66.903
         8429.5         10.143         71.512         67.747
         8430.0         10.137         73.515         70.534
         8430.5         10.131         72.428         59.546
         8431.0         10.125         71.308         60.130
         8431.5         10.119         70.187         60.714
         8432.0         10.112         69.066         56.779
         8432.5         10.106         66.514         59.323
         8433.0         10.100         63.261         61.867
         8433.5         10.094         60.007         64.411
         8434.0         10.088         56.754         66.956
         8434.5         10.080         53.501         69.500
         8435.0         10.073         50.247         72.044
         8435.5         10.065         33.376         72.753
         8436.0         10.057         33.298         72.136
         8436.5         10.049         33.219         71.518
         8437.0         10.041         36.177         70.901
         8437.5         10.033         55.735         70.936
         8438.0         10.025         61.091         71.797
         8438.5         10.017         66.447         72.658
         8439.0         10.009         71.803         73.519
         8439.5         10.002         70.232         71.470
         8440.0          9.994         67.912         67.025
         8440.5          9.986         65.592         62.580
         8441.0          9.978         68.799         58.136
         8441.5          9.970         74.172         57.629
         8442.0          9.962         79.544         59.674
         8442.5          9.986         84.917         61.720
         8443.0         10.020         82.134         63.765
         8443.5         10.055         72.074         65.810
         8444.0         10.090         56.374         67.855
         8444.5         10.125         40.674         69.901
