#--------------------------------------------------#
#-------------------ENVERUS, INC.------------------#
#------------------WWW.ENVERUS.COM-----------------#
#------------------COPYRIGHT 2020------------------#
#--------------------------------------------------#
#THIS FILE MAY BE USED ONLY IN ACCORDANCE WITH A CURRENT SUBSCRIPTION AGREEMENT BETWEEN
#THE USER AND ENVERUS, INC. NO PART OF THIS FILE MAY BE REPRODUCED, USED, COPIED,
#MODIFIED, PROPAGATED, OR DISTRIBUTED EXCEPT IN ACCORDANCE WITH THE SUBSCRIPTION
#AGREEMENT. UNAUTHORIZED USE OR DISTRIBUTION OF ALL OR ANY PART OF THIS FILE MAY VIOLATE
#COPYRIGHT, TRADEMARK, AND/OR OTHER LAWS AND IS SUBJECT TO CIVIL AS WELL AS CRIMINAL
#SANCTIONS.
#--------------------------------------------------#
#THIS FILE IS PROVIDED "AS-IS" AND ALL WARRANTIES ARE EXPRESSLY DISCLAIMED, WHETHER
#EXPRESS, ORAL, IMPLIED, STATUTORY OR OTHERWISE, INCLUDING ANY IMPLIED WARRANTY OF FITNESS
#FOR A PARTICULAR PURPOSE, MERCHANTABILITY, TITLE OR NON-INFRINGEMENT, AND ANY WARRANTIES
#ARISING BY VIRTUE OF CUSTOM OF TRADE OR COURSE OF DEALING.  FURTHER, ENVERUS, INC.
#AND ITS LICENSORS DO NOT REPRESENT OR WARRANT THAT THIS FILE WILL MEET USER'S
#REQUIREMENTS OR ARE SUITABLE FOR USER'S NEEDS OR THAT THE DATA OR RESULTS PROVIDED IN
#CONJUNCTION THEREWITH ARE CORRECT, ACCURATE, TIMELY OR RELIABLE. THESE DISCLAIMERS SHALL
#APPLY REGARDLESS OF ANY FAILURE OF ESSENTIAL PURPOSE OF ANY LIMITED REMEDY.  SOME
#JURISDICTIONS DO NOT ALLOW THE EXCLUSION OF CERTAIN WARRANTIES SO SOME OF THE ABOVE
#EXCLUSIONS MAY NOT APPLY. IN NO EVENT SHALL ENVERUS, INC. OR ANY OF ITS AFFILIATES
#BE LIABLE UNDER ANY LEGAL THEORY, WHETHER IN TORT (INCLUDING WITHOUT LIMITATION
#NEGLIGENCE), CONTRACT, STRICT LIABILITY, STATUTORY OR OTHERWISE, FOR ANY SPECIAL,
#INCIDENTAL, CONSEQUENTIAL, EXEMPLARY, PUNITIVE OR INDIRECT DAMAGE OF ANY KIND, INCLUDING
#WITHOUT LIMITATION LOSS OF REVENUE, PROFITS, GOODWILL, USE, AND/OR DATA OR THE COST OF
#PROCUREMENT OF SUBSTITUTE GOODS OR SERVICES, EVEN IF APPRISED OF THE POSSIBILITY OF SUCH
#DAMAGES IN ADVANCE.
#--------------------------------------------------#

~VERSION INFORMATION
VERS. 2.0 : CWLS LOG ASCII STANDARD - VERSION 2.0
WRAP. NO : ONE LINE PER DEPTH STEP
~WELL INFORMATION
#MNEMONIC     .UNIT              VALUE :DESCRIPTION
STRT       .FT                2834.00000 :START DEPTH
STOP       .FT                7010.00000 :STOP DEPTH
STEP       .FT                0.50000 :STEP
NULL       .                -999.25000 :NULL VALUE
UWI       .                42389304120000 :UNIQUE WELL ID
API       .                42389304120000 :API NUMBER
COMP       .                 :COMPANY
WELL       .                 :WELL
FLD       .                 :FIELD
LOC       .                 :LOCATION
CNTY       .                 :COUNTY
STAT       .                 :STATE
CTRY       .                 :COUNTRY
SRVC       .                 :SERVICE COMPANY
DATE       .                 :DATE
~CURVE INFORMATION
#MNEMONIC     .UNIT      API CODE :CURVE DESCRIPTION
DEPTH       .FT                      :MEASURED DEPTH
CAL       .IN        UNKNOWN   :CAL
DT       .US/FT        UNKNOWN   :DT
GR       .GAPI        UNKNOWN   :GR
~A    DEPTH    CAL    DT    GR
# ...
6451.00000    12.97782    59.88491    44.38038
6451.50000    12.98333    58.49703    47.03308
6452.00000    12.98884    56.98982    49.68578
6452.50000    12.99436    55.48261    52.33848
6453.00000    12.99987    54.43331    54.99118
6453.50000    13.00538    57.07323    56.24830
6454.00000    13.01089    59.71315    57.27945
6454.50000    13.01640    62.35307    58.31061
6455.00000    13.02191    64.99299    57.62185
6455.50000    13.02742    67.63291    53.73039
6456.00000    13.03293    70.27283    49.83893
6456.50000    13.03844    72.91275    45.94746
6457.00000    13.04396    71.58668    42.05600
6457.50000    13.04947    64.34406    38.16453
6458.00000    13.05498    57.10144    34.27307
6458.50000    13.04952    52.84389    30.38160
6459.00000    13.03787    53.69591    32.53564
6459.50000    13.02623    54.54793    34.95250
6460.00000    13.01458    55.39995    37.36935
6460.50000    13.00293    56.25197    39.78621
6461.00000    12.99128    57.10399    42.26142
6461.50000    12.97963    57.95602    44.76149
6462.00000    12.96798    56.40591    47.26156
6462.50000    12.95633    54.65416    49.76163
6463.00000    12.94469    52.90241    52.26169
6463.50000    12.93304    52.79451    54.76176
6464.00000    12.92139    53.76306    57.26183
6464.50000    12.90974    54.73162    59.76190
6465.00000    12.89809    55.70017    61.78218
6465.50000    12.88645    56.66872    63.51264
6466.00000    12.87635    57.63728    65.24309
6466.50000    12.88947    58.60583    66.97355
6467.00000    12.90258    59.57438    68.70401
6467.50000    12.91570    60.54294    70.43447
6468.00000    12.92881    61.51149    69.18447
6468.50000    12.94192    62.48004    65.66840
6469.00000    12.95504    63.44860    62.15233
6469.50000    12.99179    60.02497    58.63627
6470.00000    13.08283    60.34231    55.12020
6470.50000    13.08696    60.72575    51.60413
6471.00000    13.09109    61.10919    48.08807
6471.50000    13.09523    61.49263    44.57200
6472.00000    13.09936    61.87607    41.05593
6472.50000    13.10350    62.25952    37.53986
6473.00000    13.10763    62.55363    34.02380
6473.50000    13.11176    62.57238    33.67030
6474.00000    13.11590    62.59114    33.90760
6474.50000    13.12003    62.60989    34.14491
6475.00000    13.12416    62.62864    34.38221
6475.50000    13.12829    62.64740    34.61951
6476.00000    13.13243    62.66615    34.85682
6476.50000    13.13656    62.68490    35.09412
6477.00000    13.14069    62.70365    35.33143
6477.50000    13.14483    61.85986    37.35177
6478.00000    13.14896    60.25184    39.81296
6478.50000    13.15309    58.64383    41.87033
6479.00000    13.15723    57.03582    42.69855
6479.50000    13.16136    55.88152    43.52677
6480.00000    13.16549    56.40244    44.35499
6480.50000    13.16963    56.92336    45.18321
6481.00000    13.17376    57.44428    46.01143
6481.50000    13.17789    57.96520    47.42206
6482.00000    13.18203    58.48611    48.85997
6482.50000    13.18616    59.00703    50.29789
6483.00000    13.19029    58.95952    51.73581
6483.50000    13.19443    58.02504    53.17373
6484.00000    13.19856    57.09056    54.61164
6484.50000    13.20269    56.15609    50.95020
6485.00000    13.20683    55.22161    46.46128
6485.50000    13.21096    54.28713    44.75778
6486.00000    13.21509    53.35266    43.48430
6486.50000    13.21293    53.93482    42.21082
6487.00000    13.20141    54.83429    40.93734
6487.50000    13.18989    55.73375    39.66386
6488.00000    13.17838    56.63321    39.78182
6488.50000    13.16686    57.53267    40.28669
6489.00000    13.15535    58.43214    40.79156
6489.50000    13.14383    58.91972    41.29643
6490.00000    13.13232    58.68467    41.80131
6490.50000    13.12080    58.44963    42.30618
6491.00000    13.10929    58.21459    42.81105
6491.50000    13.09777    57.97954    42.70525
6492.00000    13.08626    57.74450    40.56962
6492.50000    13.07474    57.50946    38.43399
6493.00000    13.06323    57.27441    36.29836
6493.50000    13.05171    57.03937    38.17516
6494.00000    13.04020    56.80432    40.34490
6494.50000    13.02868    56.69107    42.51465
6495.00000    13.01717    56.61672    44.68440
6495.50000    13.01489    56.54237    46.85415
6496.00000    13.01704    56.46802    49.02390
6496.50000    13.01918    56.18644    51.19364
6497.00000    13.02132    55.63285    53.36339
6497.50000    13.02347    55.07926    55.53314
6498.00000    13.02561    54.52567    57.70289
6498.50000    13.02775    53.97208    59.87264
6499.00000    13.02990    53.41849    58.52440
6499.50000    13.03204    52.86490    56.19578
6500.00000    13.03418    52.46150    53.86715
6500.50000    13.03633    52.93708    51.53852
6501.00000    13.03847    53.41265    49.20990
6501.50000    13.04061    53.88823    46.88127
6502.00000    13.04275    52.81447    45.09226
6502.50000    13.04490    51.22282    46.17744
6503.00000    13.04704    49.63116    47.26264
6503.50000    13.04918    48.03950    48.34782
6504.00000    13.05133    49.03453    49.43301
6504.50000    13.05347    50.32883    50.51820
6505.00000    13.05561    51.62312    51.60339
6505.50000    13.05776    52.91742    52.26570
6506.00000    13.05797    54.11911    50.23893
6506.50000    13.05244    52.43275    48.21217
6507.00000    13.04690    50.74640    46.18541
6507.50000    13.04137    50.96639    44.15865
6508.00000    13.03584    52.26582    43.75837
6508.50000    13.03030    53.56525    45.44231
6509.00000    13.02477    54.86468    47.12625
6509.50000    13.01924    56.16411    48.81019
6510.00000    13.01370    57.46354    50.49413
6510.50000    13.00817    58.76297    52.17807
6511.00000    13.00264    60.06240    53.86201
6511.50000    12.99710    61.36183    55.54595
6512.00000    12.99157    62.66127    57.22989
6512.50000    12.98604    63.96070    58.91383
6513.00000    12.98051    64.96200    60.59777
6513.50000    12.97497    62.67849    62.28171
6514.00000    12.96944    60.39498    63.96565
6514.50000    12.96391    58.11148    65.64959
6515.00000    12.95837    55.82797    67.33353
6515.50000    12.95284    53.54446    69.01747
6516.00000    12.94731    51.26096    66.35770
6516.50000    12.94177    48.97745    62.79902
6517.00000    12.93624    46.69394    59.24034
6517.50000    12.93071    44.41043    55.68167
6518.00000    12.92517    46.14017    52.12299
6518.50000    12.91964    48.33814    48.56432
6519.00000    12.91411    50.53610    54.31673
6519.50000    12.90857    52.73407    60.10591
6520.00000    12.90304    54.15032    65.89509
6520.50000    12.89751    53.43813    71.68428
6521.00000    12.89197    52.72595    75.44857
6521.50000    12.88644    52.01376    70.75663
6522.00000    12.88091    51.30158    66.06469
6522.50000    12.88356    50.58940    61.37275
6523.00000    12.89364    49.87721    61.03787
6523.50000    12.90372    49.16503    62.54456
6524.00000    12.91380    48.45284    64.05124
6524.50000    12.92388    47.74066    65.55792
6525.00000    12.93397    47.02848    63.71511
6525.50000    12.94405    46.31629    60.94989
6526.00000    12.95413    57.16467    58.18467
6526.50000    12.96421    55.83988    55.41944
6527.00000    12.97429    54.51509    52.65422
6527.50000    12.98437    53.19029    49.88900
6528.00000    12.99446    51.86550    47.41057
6528.50000    13.00454    50.54071    47.38262
6529.00000    13.01462    49.21592    47.35466
6529.50000    13.02470    47.89113    47.32671
6530.00000    13.03478    46.56633    47.29875
6530.50000    13.04486    45.24154    47.27080
6531.00000    13.05495    43.91675    47.24284
6531.50000    13.06503    42.59196    47.15225
6532.00000    13.07511    42.00527    46.95154
6532.50000    13.07969    43.61464    46.75084
6533.00000    13.06307    45.22400    46.55013
6533.50000    13.04646    46.83337    46.34943
6534.00000    13.02984    48.44273    46.14872
6534.50000    13.01322    50.05210    45.94802
6535.00000    12.99660    53.85022    45.74732
6535.50000    12.97998    58.90632    45.54661
6536.00000    12.96337    60.21185    45.34591
