#--------------------------------------------------#
#-------------------ENVERUS, INC.------------------#
#------------------WWW.ENVERUS.COM-----------------#
#------------------COPYRIGHT 2020------------------#
#--------------------------------------------------#
#THIS FILE MAY BE USED ONLY IN ACCORDANCE WITH A CURRENT SUBSCRIPTION AGREEMENT BETWEEN
#THE USER AND ENVERUS, INC. NO PART OF THIS FILE MAY BE REPRODUCED, USED, COPIED,
#MODIFIED, PROPAGATED, OR DISTRIBUTED EXCEPT IN ACCORDANCE WITH THE SUBSCRIPTION
#AGREEMENT. UNAUTHORIZED USE OR DISTRIBUTION OF ALL OR ANY PART OF THIS FILE MAY VIOLATE
#COPYRIGHT, TRADEMARK, AND/OR OTHER LAWS AND IS SUBJECT TO CIVIL AS WELL AS CRIMINAL
#SANCTIONS.
#--------------------------------------------------#
#THIS FILE IS PROVIDED "AS-IS" AND ALL WARRANTIES ARE EXPRESSLY DISCLAIMED, WHETHER
#EXPRESS, ORAL, IMPLIED, STATUTORY OR OTHERWISE, INCLUDING ANY IMPLIED WARRANTY OF FITNESS
#FOR A PARTICULAR PURPOSE, MERCHANTABILITY, TITLE OR NON-INFRINGEMENT, AND ANY WARRANTIES
#ARISING BY VIRTUE OF CUSTOM OF TRADE OR COURSE OF DEALING.  FURTHER, ENVERUS, INC.
#AND ITS LICENSORS DO NOT REPRESENT OR WARRANT THAT THIS FILE WILL MEET USER'S
#REQUIREMENTS OR ARE SUITABLE FOR USER'S NEEDS OR THAT THE DATA OR RESULTS PROVIDED IN
#CONJUNCTION THEREWITH ARE CORRECT, ACCURATE, TIMELY OR RELIABLE. THESE DISCLAIMERS SHALL
#APPLY REGARDLESS OF ANY FAILURE OF ESSENTIAL PURPOSE OF ANY LIMITED REMEDY.  SOME
#JURISDICTIONS DO NOT ALLOW THE EXCLUSION OF CERTAIN WARRANTIES SO SOME OF THE ABOVE
#EXCLUSIONS MAY NOT APPLY. IN NO EVENT SHALL ENVERUS, INC. OR ANY OF ITS AFFILIATES
#BE LIABLE UNDER ANY LEGAL THEORY, WHETHER IN TORT (INCLUDING WITHOUT LIMITATION
#NEGLIGENCE), CONTRACT, STRICT LIABILITY, STATUTORY OR OTHERWISE, FOR ANY SPECIAL,
#INCIDENTAL, CONSEQUENTIAL, EXEMPLARY, PUNITIVE OR INDIRECT DAMAGE OF ANY KIND, INCLUDING
#WITHOUT LIMITATION LOSS OF REVENUE, PROFITS, GOODWILL, USE, AND/OR DATA OR THE COST OF
#PROCUREMENT OF SUBSTITUTE GOODS OR SERVICES, EVEN IF APPRISED OF THE POSSIBILITY OF SUCH
#DAMAGES IN ADVANCE.
#--------------------------------------------------#

# EXPORTED FROM DI TRANSFORM
# DI TRANSFORM - A PRODUCT OF DRILLINGINFO, INC. - WWW.DRILLINGINFO.COM
#
~VERSION INFORMATION
 VERS.        2.0 : LAS ASCII STANDARD - VERSION 2.0
 WRAP.         NO : ONE LINE PER DEPTH STEP

~WELL INFORMATION
#MNEM.UNIT       DATA TYPE       INFORMATION
#---------       ---------       -----------
 STRT.FT          3310 : START DEPTH
 STOP.FT         11910 : STOP DEPTH
 STEP.FT           0.5 : STEP LENGTH
 NULL.         -999.25 : NULL VALUE
 UWI.   42389328760000 : UNIQUE WELL ID
 API.   42389328760000 : WELL IDENTIFIER
 COMP.                 : COMPANY
 WELL.          DRD_55 : WELL NAME
 FLD.                  : FIELD NAME
 LOC.                  : WELL LOCATION
 CNTY.                 : COUNTY
 STAT.                 : STATE OR PROVINCE
 CTRY.                 : COUNTRY
 SRVC.                 : SERVICE COMPANY
 DATE.                 : DATE

~CURVE INFORMATION
#MNEM.UNIT       API CODE       CURVE DESCRIPTION
#---------       --------       -----------------
 DEPT.FT        : <MEASURED DEPTH>
 CAL.IN         : CALIPER
 DT.US/FT       : SONIC
 GR.GAPI        : GAMMA RAY
 ILD.OHMM       : DEEP RESISTIVITY
 ILS.OHMM       : SHALLOW RESISTIVITY

~PARAMETER INFORMATION
#MNEM.UNIT       VALUE       DESCRIPTION
#---------       -----       -----------
 EKB.FT      3168.5 : ELEVATION ABOVE MSL

~A       DEPT         CAL          DT          GR         ILD         ILS
# ...
       7288.5      8.3904       80.85    134.0766    173.6448    175.1765
         7289      8.3904     77.6109    106.1389    229.5425    230.3995
       7289.5      8.3904     76.6286     86.6211     282.313    277.0292
         7290      8.3904     76.7456    105.0145    337.8368     386.356
       7290.5      8.3904     77.0856    112.5386    482.8314    448.6786
         7291      8.3904     77.5502    100.9247     470.451    428.7213
       7291.5      8.3904     78.0583     91.0038    464.9383    420.4867
         7292      8.3904     78.4571    105.4596    503.3228    473.6226
       7292.5      8.3904     78.9143    127.3301    500.6043    433.4628
         7293      8.3904     78.9143    143.7348    488.1026    432.0436
       7293.5      8.3956     78.1732    144.0771    586.8824    518.1721
         7294      8.4034     76.6286    128.3342    598.9535    537.0528
       7294.5      8.3904     75.2571     83.6014    586.2558     487.665
         7295      8.3904     75.2571     81.6309    503.2694    397.0722
       7295.5      8.4027     76.6118    110.6569    384.7342    345.3004
         7296      8.3964     78.4795    134.6317    358.3044     348.589
       7296.5      8.3904     80.3686    135.5547    362.0112    405.3352
         7297      8.3904     80.1851     133.684    379.4044    388.6242
       7297.5      8.3904     78.7746    139.3371    390.3861    360.2732
         7298      8.3904     77.3641    125.6422    401.2535    349.2491
       7298.5      8.3904     77.1832    103.3445    402.2756    355.0245
         7299      8.3904     77.1832     90.0913    485.5002    472.5567
       7299.5      8.3904      77.266    106.5273    366.3696    433.1981
         7300      8.3904      77.402    129.0339     242.986    249.4485
       7300.5      8.3904      77.402    144.2293    231.8406    200.0479
         7301      8.3904     76.5687    140.8963    232.6737    197.5009
       7301.5      8.3904      72.602    112.6737    302.2571    211.9754
         7302      8.3904     66.8345     62.4471    381.4817    482.7799
       7302.5      8.3904     65.0446      52.386    645.9394       597.2
         7303      8.3904     64.2933      58.676    467.8786    422.5725
       7303.5      8.3909     65.3692     75.3627    333.3861    294.4168
         7304      8.4081     66.8508     84.6509    269.2104    247.2564
       7304.5      8.3904     68.4325     83.4846    247.9801    236.5987
         7305      8.3904     69.7714     80.2919    243.8947    233.8813
       7305.5       8.398     69.4631     81.7997    239.4343    229.7373
         7306      8.3904     69.3143     84.6214    236.2238    224.0763
       7306.5      8.3904     69.7714     85.2925    225.3877    213.0936
         7307      8.3904     68.8571     84.3697    221.6672    211.0708
       7307.5      8.3904     68.8571     84.2629    226.5365    215.1565
         7308      8.3904     68.8571     84.3169    230.7567    220.4586
       7308.5      8.3904     68.8571      85.187    235.0554    220.5459
         7309      8.3904     68.7322     84.2642    243.8853    220.5459
       7309.5      8.3904     67.9429     80.7639    266.8304    229.9386
         7310      8.3904     67.0286     74.6139    328.4792    281.8907
       7310.5      8.3904     66.5145      64.484    350.4099    383.5636
         7311      8.3904     64.0227      54.459    500.8302    530.9165
       7311.5      8.3904      62.525     53.0299    595.3755    551.4976
         7312      8.3904     61.5926     59.4923    542.9107    530.7191
       7312.5      8.3904     62.0595     67.5501    455.9737    388.0737
         7313      8.3904      63.498     70.7276    379.6768    317.9506
       7313.5      8.3904     64.5004     70.5807    386.1609    326.2568
         7314      8.3904     64.9316     68.7979    412.2773     358.705
       7314.5      8.3904     64.9316     66.3447    416.5501    366.9924
         7315      8.3904     64.9316     68.4753    404.9882    361.4056
       7315.5      8.4673     64.6847     71.5425    386.3982    310.4395
         7316      8.3904      64.494     75.0589    368.6837    266.8318
       7316.5      8.3904     64.7128     73.5184    380.3502    288.8779
         7317      8.4022     64.9316     64.5189    467.8408    387.5952
       7317.5      8.3904     64.2552      49.315    605.3261    481.9248
         7318      8.3904      61.294     40.1759    659.4541    605.3289
       7318.5      8.4303      59.703     38.9651    937.5921    776.1118
         7319       8.435     59.4621     44.4274    797.5143    858.4364
       7319.5      8.3904     59.4775     61.6461    666.3445    587.8532
         7320      8.3904     60.4329     73.4496    634.0248    389.1401
       7320.5      8.3904     60.8653       71.07    609.3716    425.8256
         7321      8.3904     60.9936     54.2908    555.1313    564.4262
       7321.5      8.3904     60.2042     40.5154    839.6402    972.5472
         7322      8.3904     59.4621     35.9253    999.3369   1135.3211
       7322.5      8.4179     59.4621     40.2659    956.7749    909.2136
         7323      8.3904     60.8246     50.3484    752.6548     644.873
       7323.5      8.3904     61.1256     58.1667    534.5767    457.5767
         7324      8.3904     62.0525      64.734    485.7235     407.912
       7324.5      8.3904      63.103     64.9611    513.1632    421.7772
         7325      8.3904     63.1814     57.9782    573.5524    466.4677
       7325.5      8.4049     62.4827     44.7836    682.8598    555.9435
         7326      8.4056     60.4167     37.8053    817.7779     686.851
       7326.5      8.4056     59.2434     31.9092   1142.7234    929.5923
         7327      8.4056     58.5097     28.9325   1274.5199   1051.2874
       7327.5      8.4056     57.7733     29.4387   1287.3565    967.0407
         7328      8.3954     56.8054     32.0764   1374.9769   1019.6781
       7328.5      8.3904     56.3992     31.3467   1542.9557   1161.4416
         7329      8.3904     56.2027     26.7202   1655.6983   1311.3455
       7329.5      8.3904     55.3772     24.0878   1735.3112   1551.9949
         7330      8.3904     54.8678     24.4129   1790.4766    1444.142
       7330.5      8.3904     54.8678     25.9333   1187.1952    906.8973
         7331      8.3904     54.8678     27.7344     890.891    625.6483
       7331.5      8.4097     54.6355     25.5727    728.7881    526.4169
         7332      8.3904     54.2115     21.7881    672.5312    517.5037
       7332.5      8.3904     54.2115     19.9771     722.846    567.5488
         7333      8.3904     54.3624     21.0546    770.1284    709.5854
       7333.5      8.3904     55.4072     35.2749    921.1389    695.0581
         7334      8.3904     56.0822     55.8392     745.266     440.646
       7334.5      8.3904     60.5564     78.2708    329.3619    246.9193
         7335      8.3904      102.44    101.6712     225.762    164.4807
       7335.5      8.3904     87.3016    116.3979    178.7865    134.8679
         7336      8.3904     82.2151    118.3712    168.6094    132.6037
       7336.5      8.4273     82.2865    114.0249    171.5134    144.8722
         7337      8.4589     82.4339    108.3822    176.6816    152.5119
       7337.5      8.4461     81.7447    102.8797    160.8948    138.9781
         7338      8.4375     81.0311     105.879    137.8276    120.2371
       7338.5      8.4289     80.8556    106.9117    120.0766    103.7401
         7339      8.4287     80.4649    105.1986     98.6377       84.88
       7339.5      8.4303     81.0101    103.2893     88.7315     75.1643
         7340      8.4303     81.4664    105.6576      84.028     69.1121
       7340.5      8.4303     81.7776     113.147      84.045     67.6851
         7341      8.4303     81.5725    115.8297      86.474     67.9299
       7341.5      8.4303     80.9024    116.5339     95.0181     73.3701
         7342      8.4303     79.8202    115.7182    107.7417     84.6305
       7342.5      8.4303     75.9793    109.7713    124.6109     96.6634
