###############################################
##         ENVERUS                           ##
##         ESS - Open Hole                   ##
##         PERMIAN / DELAWARE                ##
##         Nov 04 2023  V4.0                 ##
##         42-389-30259-00-00                ##
###############################################
## Copyright 2017-2023  ENVERUS.  All Rights Reserved. 
## Confidential - Property of ENVERUS, use governed by terms and 
## conditions found within the existing Information Services Subscription Agreement 
## (as may be amended, the “ISSA”) between Customer and ENVERUS. 
## 
~VERSION INFORMATION
# MNEM.UNIT                               DATA : DESCRIPTION OF MNEMONIC
#-----.-----     ----------------------------- : -----------------------------
VERS.                                     2.00 : CWLS LOG ASCII STANDARD - VERSION 2.00
WRAP.                                       NO : MULTIPLE LINES PER DEPTH STEP
VEND.                                  ENVERUS : VENDOR
TYPE.                          ESS - OPEN HOLE : ENVERUS ESSENTIAL CURVES – ACCESSIBLE THROUGH ENVERUS PRISM(TM)
DOC.                                  32063127 : ENVERUS HEADER RAW DOCUMENT ID
#___________________________________________________________________________________________________ 
~WELL INFORMATION 
# gPsidqVjAScFWwbHY3NvrhVb9Q0dnpAvxUas8qP1mSjKWoj7hBgJ2nw/4lW9Nf69eTG+8mlPQw3CFq6Jh/Hagw== 
# MNEM.UNIT                                              DATA : DESCRIPTION OF MNEMONIC 
#-----.-----                    ----------------------------- : ----------------------------- 
CNTY.                                                  REEVES : COUNTY 
STATE.                                                  TEXAS : STATE 
CNTRY.                                                    USA : COUNTRY 
API.                                             42-389-30259 : API (10 Digit) 
API_14.                                    42-389-30259-00-00 : API (14 Digits) 
API_14_std.                                 42-389-30259-0000 : API (14 Digits Standard) 
UWI.                                           42389302590000 : UNIQUE WELL ID 
WELL.                                         FORTUNE UNIT  1 : WELL NAME
STRT.FT                                                     0 : START DEPTH
STOP.FT                                               15675.0 : STOP DEPTH
STEP.FT                                                   0.5 : STEP BETWEEN DEPTHS
NULL.                                                 -999.25 : NULL VALUE
COMP.                          SANDRIDGE EXPL. AND PROD.  LLC : COMPANY 
DATE.                                             19-FEB-2007 : LOG DATE
#___________________________________________________________________________________________________ 
~CURVE INFORMATION 
# MNEM.UNIT           : CURVE DESCRIPTION 
#-----.-----          : ----------------------------- 
 DEPT.FT               : MEASURED DEPTH 
 CALI__B.IN            : CALIPER (CAL - CAL) 
 GR__B.API             : GAMMA RAY (GR) 
 DT__B.US/FT           : SONIC DELTA TRANSIT TIME (DT) 
 #___________________________________________________________________________________________________ 
~A         DEPT        CALI__B          GR__B          DT__B
# ...
        10164.0         12.668         65.550         81.933
        10164.5         12.665         57.723         82.596
        10165.0         12.663         53.704         83.076
        10165.5         12.660         47.232         82.483
        10166.0         12.658         37.816         80.108
        10166.5         12.655         34.649         74.052
        10167.0         12.653         38.326         70.306
        10167.5         12.650         43.555         70.296
        10168.0         12.648         48.622         72.147
        10168.5         12.645         52.846         76.571
        10169.0         12.643         56.385         79.134
        10169.5         12.640         57.109         78.482
        10170.0         12.637         57.833         78.314
        10170.5         12.635         67.441         78.441
        10171.0         12.632         66.156         79.232
        10171.5         12.630         63.880         80.416
        10172.0         12.627         64.878         80.571
        10172.5         12.625         66.750         80.203
        10173.0         12.622         68.057         80.582
        10173.5         12.620         66.948         81.057
        10174.0         12.617         65.744         81.135
        10174.5         12.615         64.531         80.889
        10175.0         12.612         62.430         80.114
        10175.5         12.610         59.577         79.451
        10176.0         12.607         63.255         79.107
        10176.5         12.605         64.724         79.492
        10177.0         12.602         64.965         79.877
        10177.5         12.600         66.171         80.100
        10178.0         12.597         69.012         79.894
        10178.5         12.595         71.646         79.315
        10179.0         12.592         72.137         79.138
        10179.5         12.590         70.837         78.961
        10180.0         12.587         68.398         78.609
        10180.5         12.585         64.505         77.939
        10181.0         12.582         58.216         76.097
        10181.5         12.581         45.583         73.456
        10182.0         12.583         37.297         66.541
        10182.5         12.586         29.939         60.979
        10183.0         12.588         26.445         58.154
        10183.5         12.591         27.067         57.897
        10184.0         12.593         28.100         58.324
        10184.5         12.596         28.486         58.752
        10185.0         12.598         30.469         58.752
        10185.5         12.600         39.262         61.337
        10186.0         12.603         48.182         65.360
        10186.5         12.605         57.101         71.010
        10187.0         12.608         66.678         76.562
        10187.5         12.610         62.910         78.082
        10188.0         12.612         59.402         77.653
        10188.5         12.615         59.606         76.671
        10189.0         12.617         59.810         77.088
        10189.5         12.620         60.136         76.881
        10190.0         12.622         60.800         76.579
        10190.5         12.624         60.388         76.150
        10191.0         12.627         59.162         75.002
        10191.5         12.629         60.724         74.933
        10192.0         12.632         62.287         75.209
        10192.5         12.634         60.262         74.887
        10193.0         12.636         56.358         74.963
        10193.5         12.639         56.121         75.249
        10194.0         12.641         59.148         75.986
        10194.5         12.644         59.758         77.545
        10195.0         12.646         56.117         79.501
        10195.5         12.648         54.558         79.317
        10196.0         12.651         56.780         79.152
        10196.5         12.653         59.998         79.824
        10197.0         12.656         62.631         79.897
        10197.5         12.658         65.148         79.999
        10198.0         12.660         64.969         80.192
        10198.5         12.663         61.423         79.889
        10199.0         12.665         58.227         79.070
        10199.5         12.666         58.094         79.258
        10200.0         12.667         57.961         79.251
        10200.5         12.667         56.338         78.418
        10201.0         12.667         54.635         78.330
        10201.5         12.667         54.341         76.517
        10202.0         12.668         55.004         76.510
        10202.5         12.668         61.609         77.903
        10203.0         12.668         62.375         79.295
        10203.5         12.669         61.039         81.068
        10204.0         12.669         57.729         82.008
        10204.5         12.669         54.605         81.365
        10205.0         12.669         55.268         80.634
        10205.5         12.670         59.322         81.121
        10206.0         12.670         61.675         81.066
        10206.5         12.670         61.675         82.103
        10207.0         12.670         61.675         83.597
        10207.5         12.671         58.326         84.617
        10208.0         12.671         52.899         84.410
        10208.5         12.671         44.937         82.097
        10209.0         12.672         36.975         78.774
        10209.5         12.672         30.185         69.816
        10210.0         12.672         29.707         65.879
        10210.5         12.672         36.213         62.428
        10211.0         12.673         42.566         63.881
        10211.5         12.673         48.523         67.519
        10212.0         12.673         52.386         73.040
        10212.5         12.673         56.249         75.023
        10213.0         12.674         60.112         77.006
        10213.5         12.674         62.297         79.986
        10214.0         12.674         62.408         82.969
        10214.5         12.674         62.518         87.019
        10215.0         12.675         60.220         85.474
        10215.5         12.675         60.122         83.152
        10216.0         12.675         61.884         82.912
        10216.5         12.676         63.647         83.412
        10217.0         12.676         63.491         84.283
        10217.5         12.676         60.937         84.904
        10218.0         12.676         56.316         83.479
        10218.5         12.677         54.107         81.416
        10219.0         12.677         53.217         79.968
        10219.5         12.677         56.086         80.065
        10220.0         12.677         59.637         80.000
        10220.5         12.678         58.794         81.337
        10221.0         12.678         56.749         82.673
        10221.5         12.678         54.925         81.748
        10222.0         12.679         52.704         79.340
        10222.5         12.679         50.017         77.382
        10223.0         12.679         47.528         76.000
        10223.5         12.679         45.447         76.556
        10224.0         12.680         43.818         77.008
        10224.5         12.680         42.865         76.453
        10225.0         12.680         34.064         70.438
        10225.5         12.680         31.605         65.286
        10226.0         12.681         35.676         64.132
        10226.5         12.681         39.824         67.136
        10227.0         12.681         45.863         71.493
        10227.5         12.682         51.901         77.864
        10228.0         12.682         56.326         80.427
        10228.5         12.682         57.647         83.895
        10229.0         12.682         57.075         87.621
        10229.5         12.683         56.407         86.814
