#--------------------------------------------------#
#-------------------ENVERUS, INC.------------------#
#------------------WWW.ENVERUS.COM-----------------#
#------------------COPYRIGHT 2020------------------#
#--------------------------------------------------#
#THIS FILE MAY BE USED ONLY IN ACCORDANCE WITH A CURRENT SUBSCRIPTION AGREEMENT BETWEEN
#THE USER AND ENVERUS, INC. NO PART OF THIS FILE MAY BE REPRODUCED, USED, COPIED,
#MODIFIED, PROPAGATED, OR DISTRIBUTED EXCEPT IN ACCORDANCE WITH THE SUBSCRIPTION
#AGREEMENT. UNAUTHORIZED USE OR DISTRIBUTION OF ALL OR ANY PART OF THIS FILE MAY VIOLATE
#COPYRIGHT, TRADEMARK, AND/OR OTHER LAWS AND IS SUBJECT TO CIVIL AS WELL AS CRIMINAL
#SANCTIONS.
#--------------------------------------------------#
#THIS FILE IS PROVIDED "AS-IS" AND ALL WARRANTIES ARE EXPRESSLY DISCLAIMED, WHETHER
#EXPRESS, ORAL, IMPLIED, STATUTORY OR OTHERWISE, INCLUDING ANY IMPLIED WARRANTY OF FITNESS
#FOR A PARTICULAR PURPOSE, MERCHANTABILITY, TITLE OR NON-INFRINGEMENT, AND ANY WARRANTIES
#ARISING BY VIRTUE OF CUSTOM OF TRADE OR COURSE OF DEALING.  FURTHER, ENVERUS, INC.
#AND ITS LICENSORS DO NOT REPRESENT OR WARRANT THAT THIS FILE WILL MEET USER'S
#REQUIREMENTS OR ARE SUITABLE FOR USER'S NEEDS OR THAT THE DATA OR RESULTS PROVIDED IN
#CONJUNCTION THEREWITH ARE CORRECT, ACCURATE, TIMELY OR RELIABLE. THESE DISCLAIMERS SHALL
#APPLY REGARDLESS OF ANY FAILURE OF ESSENTIAL PURPOSE OF ANY LIMITED REMEDY.  SOME
#JURISDICTIONS DO NOT ALLOW THE EXCLUSION OF CERTAIN WARRANTIES SO SOME OF THE ABOVE
#EXCLUSIONS MAY NOT APPLY. IN NO EVENT SHALL ENVERUS, INC. OR ANY OF ITS AFFILIATES
#BE LIABLE UNDER ANY LEGAL THEORY, WHETHER IN TORT (INCLUDING WITHOUT LIMITATION
#NEGLIGENCE), CONTRACT, STRICT LIABILITY, STATUTORY OR OTHERWISE, FOR ANY SPECIAL,
#INCIDENTAL, CONSEQUENTIAL, EXEMPLARY, PUNITIVE OR INDIRECT DAMAGE OF ANY KIND, INCLUDING
#WITHOUT LIMITATION LOSS OF REVENUE, PROFITS, GOODWILL, USE, AND/OR DATA OR THE COST OF
#PROCUREMENT OF SUBSTITUTE GOODS OR SERVICES, EVEN IF APPRISED OF THE POSSIBILITY OF SUCH
#DAMAGES IN ADVANCE.
#--------------------------------------------------#

~VERSION INFORMATION
VERS. 2.0 : CWLS LOG ASCII STANDARD - VERSION 2.0
WRAP.  NO : ONE LINE PER DEPTH STEP
~WELL INFORMATION
#MNEMONIC     .UNIT              VALUE :DESCRIPTION
STRT       .FT                0 :START DEPTH
STOP       .FT                15761 :STOP DEPTH
STEP       .FT                   0.500 :STEP
NULL       .                  -999.250 :NULL
UWI        .              42389302550000 :UNIQUE WELL ID
API        .              42389302550000 :API NUMBER
COMP       .         COASTAL STATES GAS PROD. CO. :COMPANY
WELL       .        CHAPMAN  MCGUIRE & WYNNE  3B :WELL
DATE       .                            :LOG DATE
~CURVE INFORMATION
#MNEMONIC     .UNIT      API CODE :CURVE DESCRIPTION
DEPTH       .FT                      :MEASURED DEPTH
GR.API        UNKNOWN   :GR
DT.US/FT        UNKNOWN   :DT
CAL.INCH        UNKNOWN   :CAL
~A    DEPTH    GR    DT    CAL
# ...
 11910     74.436   73.14   -999.250
 11910.5     74.911   74.709   -999.250
 11911     72.598   74.589   -999.250
 11911.5     69.629   74.581   -999.250
 11912     66.661   74.304   -999.250
 11912.5     63.692   74.188   -999.250
 11913     62.531   72.809   -999.250
 11913.5     62.326   71.43   -999.250
 11914     64.979   70.873   -999.250
 11914.5     67.631   71.917   -999.250
 11915     70.284   73.115   -999.250
 11915.5     72.29   73.722   -999.250
 11916     72.291   72.989   -999.250
 11916.5     72.323   72.386   -999.250
 11917     78.157   74.662   -999.250
 11917.5     83.991   76.985   -999.250
 11918     86.235   79.424   -999.250
 11918.5     83.9   82.341   -999.250
 11919     82.634   81.69   -999.250
 11919.5     81.682   80.648   -999.250
 11920     80.604   79.606   -999.250
 11920.5     79.173   78.563   -999.250
 11921     77.741   77.474   -999.250
 11921.5     76.31   76.168   -999.250
 11922     69.582   74.863   -999.250
 11922.5     62.366   71.971   -999.250
 11923     55.151   68.051   -999.250
 11923.5     47.935   63.255   -999.250
 11924     48.961   58.46   -999.250
 11924.5     53.843   62.444   -999.250
 11925     61.613   66.689   -999.250
 11925.5     69.382   70.852   -999.250
 11926     71.852   74.221   -999.250
 11926.5     73.131   75.366   -999.250
 11927     74.389   75.522   -999.250
 11927.5     72.855   74.835   -999.250
 11928     71.32   73.314   -999.250
 11928.5     69.786   71.318   -999.250
 11929     68.705   69.323   -999.250
 11929.5     71.432   71.208   -999.250
 11930     74.218   71.842   -999.250
 11930.5     77.398   74.332   -999.250
 11931     80.577   76.822   -999.250
 11931.5     80.077   78.058   -999.250
 11932     76.995   75.967   -999.250
 11932.5     60.058   70.473   -999.250
 11933     52.47   62.959   -999.250
 11933.5     47.525   57.689   -999.250
 11934     47.674   55.38   -999.250
 11934.5     56.013   58.557   -999.250
 11935     64.351   64.391   -999.250
 11935.5     72.69   69.116   -999.250
 11936     76.435   72.892   -999.250
 11936.5     72.1   71.877   -999.250
 11937     67.765   72.033   -999.250
 11937.5     71.045   73.553   -999.250
 11938     75.4   76.791   -999.250
 11938.5     75.408   75.016   -999.250
 11939     72.167   72.073   -999.250
 11939.5     67.361   70.668   -999.250
 11940     63.569   68.349   -999.250
 11940.5     62.28   69.494   -999.250
 11941     64.136   69.846   -999.250
 11941.5     66.358   72.21   -999.250
 11942     68.58   73.699   -999.250
 11942.5     68.395   73.241   -999.250
 11943     68.74   73.144   -999.250
 11943.5     69.629   72.237   -999.250
 11944     70.518   71.411   -999.250
 11944.5     70.537   72.667   -999.250
 11945     68.616   69.396   -999.250
 11945.5     66.695   66.232   -999.250
 11946     64.775   65.581   -999.250
 11946.5     64.35   65.145   -999.250
 11947     66.03   67.09   -999.250
 11947.5     67.711   69.773   -999.250
 11948     69.392   69.047   -999.250
 11948.5     71.073   70.377   -999.250
 11949     72.592   72.419   -999.250
 11949.5     71.968   72.03   -999.250
 11950     71.344   70.073   -999.250
 11950.5     70.72   68.829   -999.250
 11951     72.745   69.274   -999.250
 11951.5     75.819   72.223   -999.250
 11952     78.894   74.784   -999.250
 11952.5     75.951   73.764   -999.250
 11953     73.868   71.099   -999.250
 11953.5     73.333   69.465   -999.250
 11954     72.798   69.292   -999.250
 11954.5     69.682   67.679   -999.250
 11955     65.989   68.225   -999.250
 11955.5     70.062   69.958   -999.250
 11956     73.6   71.475   -999.250
 11956.5     70.162   70.578   -999.250
 11957     66.723   68.701   -999.250
 11957.5     63.455   67.678   -999.250
 11958     66.984   67.687   -999.250
 11958.5     70.512   70.102   -999.250
 11959     74.041   72.516   -999.250
 11959.5     74.973   71.242   -999.250
 11960     74.378   69.613   -999.250
 11960.5     74.096   73.004   -999.250
 11961     76.222   71.533   -999.250
 11961.5     77.801   70.341   -999.250
 11962     76.078   72.692   -999.250
 11962.5     75.307   70.354   -999.250
 11963     74.849   73.448   -999.250
 11963.5     73.904   74.587   -999.250
 11964     70.057   71.117   -999.250
 11964.5     64.898   66.402   -999.250
 11965     59.74   61.63   -999.250
 11965.5     57.899   60.577   -999.250
 11966     61.667   63.911   -999.250
 11966.5     65.435   69.842   -999.250
 11967     69.203   72.168   -999.250
 11967.5     72.971   70.243   -999.250
 11968     72.664   69.34   -999.250
 11968.5     71.592   69.96   -999.250
 11969     74.834   71.271   -999.250
 11969.5     80.851   77.169   -999.250
 11970     86.869   78.709   -999.250
 11970.5     87.526   77.222   -999.250
 11971     82.232   75.006   -999.250
 11971.5     78.738   73.541   -999.250
 11972     80.137   73.648   -999.250
 11972.5     81.536   75.978   -999.250
 11973     82.935   76.334   -999.250
 11973.5     84.333   77.009   -999.250
 11974     83.672   76.483   -999.250
 11974.5     82.404   75.101   -999.250
 11975     81.136   72.126   -999.250
 11975.5     75.518   69.484   -999.250
 11976     71.598   69.006   -999.250
 11976.5     74.602   70.586   -999.250
 11977     77.606   74.296   -999.250
 11977.5     80.61   76.057   -999.250
 11978     79.646   75.071   -999.250
 11978.5     79.07   75.058   -999.250
 11979     78.494   74.559   -999.250
 11979.5     77.918   74.665   -999.250
 11980     75.424   72.301   -999.250
 11980.5     72.321   71.336   -999.250
 11981     72.805   70.386   -999.250
 11981.5     76.332   71.779   -999.250
 11982     79.859   75.172   -999.250
 11982.5     77.642   73.643   -999.250
 11983     75.39   74.514   -999.250
 11983.5     73.139   74.025   -999.250
 11984     75.775   74.353   -999.250
 11984.5     78.744   78.274   -999.250
 11985     81.713   78.724   -999.250
 11985.5     84.682   80.444   -999.250
 11986     82.653   81.308   -999.250
 11986.5     78.477   80.938   -999.250
 11987     78.146   80.343   -999.250
 11987.5     79.001   79.697   -999.250
 11988     79.857   79.05   -999.250
 11988.5     78.243   78.404   -999.250
 11989     78.304   77.757   -999.250
 11989.5     77.661   77.106   -999.250
 11990     76.214   76.392   -999.250
 11990.5     74.468   75.678   -999.250
 11991     72.721   73.295   -999.250
 11991.5     67.347   69.79   -999.250
 11992     61.198   65.676   -999.250
 11992.5     55.049   61.29   -999.250
 11993     48.899   57.863   -999.250
 11993.5     49.277   59.053   -999.250
 11994     55.058   62.752   -999.250
 11994.5     60.839   68.301   -999.250
 11995     66.619   74.074   -999.250
 11995.5     66.29   73.654   -999.250
 11996     63.598   70.13   -999.250
 11996.5     60.905   65.312   -999.250
 11997     66.541   64.431   -999.250
 11997.5     72.677   67.351   -999.250
 11998     78.813   72.823   -999.250
 11998.5     83.189   75.164   -999.250
 11999     81.848   75.67   -999.250
 11999.5     80.506   75.443   -999.250
 12000     79.164   75.216   -999.250
 12000.5     77.652   75.184   -999.250
 12001     76.119   75.774   -999.250
 12001.5     77.407   74.635   -999.250
 12002     78.873   73.497   -999.250
 12002.5     78.333   72.932   -999.250
 12003     76.902   72.397   -999.250
 12003.5     76.984   70.322   -999.250
 12004     79.626   71.627   -999.250
 12004.5     79.627   73.596   -999.250
 12005     80.522   72.29   -999.250
 12005.5     82.276   73.208   -999.250
 12006     82.083   72.748   -999.250
 12006.5     81.89   72.543   -999.250
 12007     81.82   74.19   -999.250
 12007.5     82.213   74.225   -999.250
 12008     79.821   73.869   -999.250
 12008.5     77.428   72.596   -999.250
 12009     73.554   69.701   -999.250
 12009.5     68.454   67.24   -999.250
 12010     63.353   66.072   -999.250
 12010.5     63.636   64.903   -999.250
 12011     65.357   67.605   -999.250
 12011.5     67.078   69.898   -999.250
 12012     68.497   69.986   -999.250
 12012.5     67.963   68.888   -999.250
 12013     67.43   68.121   -999.250
