###############################################
##         ENVERUS                           ##
##         ESS - Open Hole                   ##
##         PERMIAN / DELAWARE                ##
##         Nov 04 2023  V4.0                 ##
##         42-389-32484-00-00                ##
###############################################
## Copyright 2017-2023  ENVERUS.  All Rights Reserved. 
## Confidential - Property of ENVERUS, use governed by terms and 
## conditions found within the existing Information Services Subscription Agreement 
## (as may be amended, the “ISSA”) between Customer and ENVERUS. 
## 
~VERSION INFORMATION
# MNEM.UNIT                               DATA : DESCRIPTION OF MNEMONIC
#-----.-----     ----------------------------- : -----------------------------
VERS.                                     2.00 : CWLS LOG ASCII STANDARD - VERSION 2.00
WRAP.                                       NO : MULTIPLE LINES PER DEPTH STEP
VEND.                                  ENVERUS : VENDOR
TYPE.                          ESS - OPEN HOLE : ENVERUS ESSENTIAL CURVES – ACCESSIBLE THROUGH ENVERUS PRISM(TM)
DOC.                                  31780441 : ENVERUS HEADER RAW DOCUMENT ID
#___________________________________________________________________________________________________ 
~WELL INFORMATION 
# aTsA/KVwhIqB1dg6n/zy22zTJjsJnyaNqg27ywuj9UrTfzbM7gscpQTlR+gOLN+9jERwUBAE6KvHEXpIT+cpyg== 
# MNEM.UNIT                                              DATA : DESCRIPTION OF MNEMONIC 
#-----.-----                    ----------------------------- : ----------------------------- 
CNTY.                                                  REEVES : COUNTY 
STATE.                                                  TEXAS : STATE 
CNTRY.                                                    USA : COUNTRY 
API.                                             42-389-32484 : API (10 Digit) 
API_14.                                    42-389-32484-00-00 : API (14 Digits) 
API_14_std.                                 42-389-32484-0000 : API (14 Digits Standard) 
UWI.                                           42389324840000 : UNIQUE WELL ID 
WELL.                                        BLK 59 ST 37  1H : WELL NAME
STRT.FT                                                 236.0 : START DEPTH
STOP.FT                                               12079.0 : STOP DEPTH
STEP.FT                                                   0.5 : STEP BETWEEN DEPTHS
NULL.                                                 -999.25 : NULL VALUE
COMP.                                       SHELL WESTERN E&P : COMPANY 
DATE.                                             05-SEP-2007 : LOG DATE
#___________________________________________________________________________________________________ 
~CURVE INFORMATION 
# MNEM.UNIT           : CURVE DESCRIPTION 
#-----.-----          : ----------------------------- 
 DEPT.FT               : MEASURED DEPTH 
 CALI.IN               : CALIPER (CAL - CAL) 
 GR.API                : GAMMA RAY (GR) 
 DT.US/FT              : SONIC DELTA TRANSIT TIME (DT) 
 DPHI.V/V              : DENSITY POROSITY (DPHI) 
 NPHI.V/V              : NEUTRON POROSITY (NPHI) 
 RHOB.G/CC             : BULK DENSITY (RHOB) 
 #___________________________________________________________________________________________________ 
~A         DEPT           CALI             GR             DT           DPHI           NPHI           RHOB
# ...
         8558.0         12.571        105.328       -999.250        0.07253        0.11723         2.5370
         8558.5         12.569        114.296       -999.250        0.09342        0.12419         2.5260
         8559.0         12.558        120.305       -999.250        0.10489        0.13067         2.5260
         8559.5         12.548        122.483       -999.250        0.10883        0.18070         2.5290
         8560.0         12.538        124.565       -999.250        0.10839        0.19800         2.5470
         8560.5         12.532        122.217       -999.250        0.11111        0.19453         2.5640
         8561.0         12.552        117.081       -999.250        0.11091        0.18896         2.5750
         8561.5         12.572        111.945       -999.250        0.10534        0.18291         2.5670
         8562.0         12.592        105.174       -999.250        0.08891        0.17673         2.5590
         8562.5         12.582         99.897       -999.250        0.07643        0.16314         2.5510
         8563.0         12.570         92.915       -999.250        0.07795        0.14224         2.5430
         8563.5         12.564         82.425       -999.250        0.08498        0.12416         2.5570
         8564.0         12.557         73.578       -999.250        0.09551        0.10608         2.5710
         8564.5         12.551         67.097       -999.250        0.10129        0.09615         2.5850
         8565.0         12.545         65.870       -999.250        0.09805        0.09233         2.5990
         8565.5         12.538         64.570       -999.250        0.08386        0.08816         2.6130
         8566.0         12.532         58.031       -999.250        0.06461        0.08368         2.6260
         8566.5         12.527         52.056       -999.250        0.05608        0.07920         2.6180
         8567.0         12.525         54.429       -999.250        0.05480        0.06997         2.6030
         8567.5         12.524         70.926       -999.250        0.05214        0.06002         2.5890
         8568.0         12.522         85.957       -999.250        0.04905        0.06135         2.5750
         8568.5         12.520         98.571       -999.250        0.05543        0.10065         2.5600
         8569.0         12.518        109.901       -999.250        0.07474        0.14508         2.5460
         8569.5         12.517        111.068       -999.250        0.09780        0.16099         2.5320
         8570.0         12.515        110.014       -999.250        0.10732        0.15498         2.5340
         8570.5         12.513        108.416       -999.250        0.11299        0.14368         2.5840
         8571.0         12.511        105.676       -999.250        0.10634        0.14592         2.6340
         8571.5         12.510         91.438       -999.250        0.06929        0.14557         2.6640
         8572.0         12.508         75.171       -999.250        0.03401        0.13627         2.6580
         8572.5         12.506         69.645       -999.250        0.02211        0.11942         2.6520
         8573.0         12.505         76.935       -999.250        0.03077        0.08968         2.6460
         8573.5         12.503         87.907       -999.250        0.03959        0.06144         2.6310
         8574.0         12.501         94.523       -999.250        0.03444        0.10145         2.6080
         8574.5         12.499         96.864       -999.250        0.03541        0.12890         2.5850
         8575.0         12.498         99.796       -999.250        0.04942        0.14115         2.5620
         8575.5         12.496        105.566       -999.250        0.07576        0.13736         2.5690
         8576.0         12.494        107.580       -999.250        0.08822        0.13793         2.5830
         8576.5         12.492         93.738       -999.250        0.08549        0.14344         2.5970
         8577.0         12.491         74.946       -999.250        0.07430        0.14058         2.6100
         8577.5         12.489         48.115       -999.250        0.06311        0.12473         2.6240
         8578.0         12.487         44.352       -999.250        0.05505        0.09764         2.6380
         8578.5         12.485         40.589       -999.250        0.04798        0.07056         2.6310
         8579.0         12.484         38.198       -999.250        0.04092        0.05653         2.6100
         8579.5         12.482         39.534       -999.250        0.03958        0.05035         2.5890
         8580.0         12.480         54.929       -999.250        0.04666        0.05238         2.5680
         8580.5         12.531         70.101       -999.250        0.06612        0.05605         2.5580
         8581.0         12.556         91.615       -999.250        0.08559        0.07326         2.5650
         8581.5         12.492         95.584       -999.250        0.09002        0.10763         2.5720
         8582.0         12.462         78.036       -999.250        0.08662        0.13269         2.5690
         8582.5         12.472         58.505       -999.250        0.08323        0.13244         2.5680
         8583.0         12.482         43.709       -999.250        0.08109        0.10541         2.5760
         8583.5         12.492         39.347       -999.250        0.08110        0.08289         2.5840
         8584.0         12.503         36.055       -999.250        0.08110        0.06278         2.5930
         8584.5         12.531         36.700       -999.250        0.07487        0.05419         2.6010
         8585.0         12.559         41.592       -999.250        0.06972        0.05564         2.5990
         8585.5         12.588         53.217       -999.250        0.06478        0.05709         2.5940
         8586.0         12.616         64.530       -999.250        0.06284        0.06574         2.5890
         8586.5         12.645         75.209       -999.250        0.06959        0.07611         2.5850
         8587.0         12.660         86.436       -999.250        0.07181        0.09528         2.6040
         8587.5         12.662         97.664       -999.250        0.07254        0.11445         2.6070
         8588.0         12.664         99.264       -999.250        0.06535        0.12057         2.6010
         8588.5         12.666         91.794       -999.250        0.05909        0.11532         2.5950
         8589.0         12.668         84.096       -999.250        0.06256        0.10306         2.5890
         8589.5         12.670         75.587       -999.250        0.06890        0.09102         2.6000
         8590.0         12.671         67.078       -999.250        0.07428        0.08776         2.6040
         8590.5         12.673         64.188       -999.250        0.06128        0.08301         2.5950
         8591.0         12.675         65.263       -999.250        0.06100        0.07884         2.5850
         8591.5         12.677         68.927       -999.250        0.06391        0.08423         2.5760
         8592.0         12.679         69.578       -999.250        0.06882        0.08961         2.5800
         8592.5         12.675         66.207       -999.250        0.07340        0.08787         2.5830
         8593.0         12.663         62.604       -999.250        0.07708        0.08524         2.5890
         8593.5         12.651         59.001       -999.250        0.07968        0.08223         2.6030
         8594.0         12.638         55.511       -999.250        0.07390        0.07797         2.6170
         8594.5         12.626         54.098       -999.250        0.06618        0.07767         2.6310
         8595.0         12.614         53.625       -999.250        0.05264        0.08004         2.6450
         8595.5         12.602         55.049       -999.250        0.03925        0.08183         2.6220
