###############################################
##         ENVERUS                           ##
##         ESS - Open Hole                   ##
##         PERMIAN / DELAWARE                ##
##         Nov 04 2023  V4.0                 ##
##         42-389-32421-01-00                ##
###############################################
## Copyright 2017-2023  ENVERUS.  All Rights Reserved. 
## Confidential - Property of ENVERUS, use governed by terms and 
## conditions found within the existing Information Services Subscription Agreement 
## (as may be amended, the “ISSA”) between Customer and ENVERUS. 
## 
~VERSION INFORMATION
# MNEM.UNIT                               DATA : DESCRIPTION OF MNEMONIC
#-----.-----     ----------------------------- : -----------------------------
VERS.                                     2.00 : CWLS LOG ASCII STANDARD - VERSION 2.00
WRAP.                                       NO : MULTIPLE LINES PER DEPTH STEP
VEND.                                  ENVERUS : VENDOR
TYPE.                          ESS - OPEN HOLE : ENVERUS ESSENTIAL CURVES – ACCESSIBLE THROUGH ENVERUS PRISM(TM)
DOC.                                  51226874 : ENVERUS HEADER RAW DOCUMENT ID
#___________________________________________________________________________________________________ 
~WELL INFORMATION 
# Tb73rb1SL3MkDZoC3l18/hn1AqNnLhXquKbAWMIBLpWCEGQs+cUq/9XFz1I3dh1trdNBSXyPtAuUBW0L3ONtkQ== 
# MNEM.UNIT                                              DATA : DESCRIPTION OF MNEMONIC 
#-----.-----                    ----------------------------- : ----------------------------- 
CNTY.                                                  REEVES : COUNTY 
STATE.                                                  TEXAS : STATE 
CNTRY.                                                    USA : COUNTRY 
API.                                             42-389-32421 : API (10 Digit) 
API_14.                                    42-389-32421-01-00 : API (14 Digits) 
API_14_std.                                 42-389-32421-0100 : API (14 Digits Standard) 
UWI.                                           42389324210100 : UNIQUE WELL ID 
WELL.                                      ARMSTRONG STATE  1 : WELL NAME
STRT.FT                                                 182.0 : START DEPTH
STOP.FT                                               14775.0 : STOP DEPTH
STEP.FT                                                   0.5 : STEP BETWEEN DEPTHS
NULL.                                                 -999.25 : NULL VALUE
PREV_UWI.                                      42389324210000 : UNIQUE WELL ID 
PREV_API.                                      42389324210000 : API NUMBER 
COMP.                                    STALEY OPERATING CO. : COMPANY 
DATE.                                             26-JUN-2006 : LOG DATE
#___________________________________________________________________________________________________ 
~CURVE INFORMATION 
# MNEM.UNIT           : CURVE DESCRIPTION 
#-----.-----          : ----------------------------- 
 DEPT.FT               : MEASURED DEPTH 
 CALI__A.IN            : CALIPER (CAL - CAL) 
 GR__A.API             : GAMMA RAY (GR) 
 DT__A.US/FT           : SONIC DELTA TRANSIT TIME (DT) 
 DPHI__A.V/V           : DENSITY POROSITY (DPHI) 
 NPHI__A.V/V           : NEUTRON POROSITY (NPHI) 
 RHOB__A.G/CC          : BULK DENSITY (RHOB) 
 #___________________________________________________________________________________________________ 
~A         DEPT        CALI__A          GR__A          DT__A        DPHI__A        NPHI__A        RHOB__A
# ...
         4552.0         13.532         80.325         71.843        0.11153        0.14358         2.5160
         4552.5         13.516         73.367         71.484        0.11441        0.14499         2.5140
         4553.0         13.501         63.160         72.445        0.12728        0.14428         2.4900
         4553.5         13.485         55.782         74.100        0.14225        0.14358         2.4460
         4554.0         13.470         52.885         75.755        0.15972        0.15666         2.4010
         4554.5         13.454         52.892         76.914        0.17890        0.17111         2.4030
         4555.0         13.445         52.363         77.634        0.18351        0.17509         2.4080
         4555.5         13.436         51.410         77.970        0.18189        0.17396         2.4130
         4556.0         13.427         50.513         77.970        0.17716        0.17095         2.4180
         4556.5         13.419         50.946         77.655        0.17244        0.16794         2.4170
         4557.0         13.413         52.472         76.404        0.17173        0.16409         2.4120
         4557.5         13.423         53.785         75.152        0.17626        0.16541         2.4060
         4558.0         13.433         54.190         75.793        0.18084        0.17002         2.4010
         4558.5         13.443         54.332         76.521        0.18554        0.17731         2.3970
         4559.0         13.454         54.263         77.058        0.19036        0.17556         2.3930
         4559.5         13.464         53.656         77.298        0.19313        0.17166         2.3890
         4560.0         13.474         52.933         77.538        0.19350        0.16793         2.3850
         4560.5         13.483         52.723         77.777        0.19250        0.17662         2.3840
         4561.0         13.486         53.650         78.017        0.18940        0.18499         2.3860
         4561.5         13.489         55.853         78.257        0.18806        0.19075         2.3880
         4562.0         13.491         56.741         78.402        0.18538        0.19043         2.3910
         4562.5         13.494         56.102         78.402        0.18708        0.18742         2.3930
         4563.0         13.496         55.303         78.261        0.18881        0.18337         2.3930
         4563.5         13.497         54.599         77.908        0.18807        0.18381         2.3920
         4564.0         13.495         55.408         77.554        0.18647        0.18515         2.3950
         4564.5         13.493         55.739         77.201        0.18486        0.18716         2.3990
         4565.0         13.491         55.327         76.847        0.18325        0.18372         2.4020
         4565.5         13.490         54.760         76.494        0.18164        0.17748         2.3950
         4566.0         13.488         54.150         76.140        0.18170        0.17029         2.3860
         4566.5         13.486         53.209         75.787        0.18681        0.16979         2.3780
         4567.0         13.484         52.268         76.097        0.19219        0.16966         2.3720
         4567.5         13.476         50.888         76.727        0.19758        0.16751         2.3750
         4568.0         13.466         49.836         76.996        0.20036        0.16416         2.3780
         4568.5         13.456         49.911         76.709        0.19603        0.16484         2.3810
         4569.0         13.445         51.137         76.422        0.19139        0.16674         2.3840
         4569.5         13.446         52.362         76.135        0.18675        0.16864         2.3870
         4570.0         13.455         53.201         75.960        0.18588        0.17080         2.3910
         4570.5         13.465         53.876         75.960        0.18883        0.17297         2.3910
         4571.0         13.475         54.092         76.455        0.19102        0.17499         2.3900
         4571.5         13.484         54.092         77.719        0.18843        0.17700         2.3890
         4572.0         13.494         54.092         78.254        0.18843        0.17710         2.3880
         4572.5         13.504         54.366         78.455        0.19170        0.17619         2.3880
         4573.0         13.513         53.524         78.656        0.19191        0.17835         2.3890
         4573.5         13.523         51.059         78.857        0.18813        0.18011         2.3940
         4574.0         13.555         48.476         78.717        0.18587        0.18346         2.3990
         4574.5         13.603         49.370         78.072        0.18428        0.18368         2.4030
         4575.0         13.627         54.325         77.427        0.17929        0.17880         2.4180
         4575.5         13.549         61.956         76.781        0.16703        0.17259         2.4430
         4576.0         13.433         71.812         75.363        0.14313        0.16638         2.4690
         4576.5         13.243         84.146         72.768        0.12383        0.15501         2.4940
         4577.0         13.053         91.631         70.174        0.10748        0.15161         2.5200
         4577.5         13.023         96.747         68.550        0.09527        0.15126         2.5450
         4578.0         13.006        101.361         67.834        0.09707        0.15091         2.5620
         4578.5         12.989        103.079         67.834        0.09887        0.15056         2.5580
         4579.0         12.971         92.910         68.516        0.10156        0.14964         2.5340
         4579.5         12.954         87.343         69.197        0.11320        0.14691         2.5100
         4580.0         12.951         81.795         69.879        0.12520        0.14122         2.5010
         4580.5         12.949         78.780         70.561        0.13015        0.13565         2.4910
         4581.0         12.946         75.832         71.676        0.12986        0.13922         2.4740
         4581.5         12.944         72.030         73.008        0.14799        0.15282         2.4420
         4582.0         12.941         65.718         74.339        0.16105        0.15726         2.4310
         4582.5         12.946         58.422         74.931        0.16246        0.15277         2.4360
         4583.0         12.991         53.780         74.885        0.15805        0.14479         2.4420
         4583.5         13.035         52.538         74.840        0.15693        0.13652         2.4380
         4584.0         13.080         52.088         75.040        0.16096        0.13861         2.4100
         4584.5         13.124         52.024         75.616        0.17322        0.14427         2.4150
         4585.0         13.169         52.813         75.915        0.17392        0.14825         2.4210
         4585.5         13.214         53.691         75.799        0.17151        0.14865         2.4260
         4586.0         13.257         54.574         75.683        0.16910        0.14905         2.4220
         4586.5         13.280         55.458         75.567        0.17215        0.15963         2.4070
         4587.0         13.303         55.904         76.136        0.17788        0.17086         2.3970
         4587.5         13.327         56.764         77.019        0.18496        0.17405         2.3970
         4588.0         13.350         57.623         77.604        0.18432        0.17673         2.3970
         4588.5         13.374         58.483         77.753        0.18458        0.17652         2.3980
         4589.0         13.396         58.623         77.902        0.18297        0.17631         2.3980
         4589.5         13.419         58.729         78.051        0.18263        0.17765         2.3980
