###############################################
##         ENVERUS                           ##
##         ESS - Open Hole                   ##
##         PERMIAN / DELAWARE                ##
##         Nov 04 2023  V4.0                 ##
##         42-389-30414-00-00                ##
###############################################
## Copyright 2017-2023  ENVERUS.  All Rights Reserved. 
## Confidential - Property of ENVERUS, use governed by terms and 
## conditions found within the existing Information Services Subscription Agreement 
## (as may be amended, the “ISSA”) between Customer and ENVERUS. 
## 
~VERSION INFORMATION
# MNEM.UNIT                               DATA : DESCRIPTION OF MNEMONIC
#-----.-----     ----------------------------- : -----------------------------
VERS.                                     2.00 : CWLS LOG ASCII STANDARD - VERSION 2.00
WRAP.                                       NO : MULTIPLE LINES PER DEPTH STEP
VEND.                                  ENVERUS : VENDOR
TYPE.                          ESS - OPEN HOLE : ENVERUS ESSENTIAL CURVES – ACCESSIBLE THROUGH ENVERUS PRISM(TM)
DOC.                                  31965441 : ENVERUS HEADER RAW DOCUMENT ID
#___________________________________________________________________________________________________ 
~WELL INFORMATION 
# 4Nagw4FJNzCtYOfTAudVsymR6uv0ccMrNFKiy1Vrqa1gQVNLoB6NNR/Tzdk8H0Jxf2Akv2rjPRKaT9zVNBkTiw== 
# MNEM.UNIT                                              DATA : DESCRIPTION OF MNEMONIC 
#-----.-----                    ----------------------------- : ----------------------------- 
CNTY.                                                  REEVES : COUNTY 
STATE.                                                  TEXAS : STATE 
CNTRY.                                                    USA : COUNTRY 
API.                                             42-389-30414 : API (10 Digit) 
API_14.                                    42-389-30414-00-00 : API (14 Digits) 
API_14_std.                                 42-389-30414-0000 : API (14 Digits Standard) 
UWI.                                           42389304140000 : UNIQUE WELL ID 
WELL.                                            TXL 17-39  2 : WELL NAME
STRT.FT                                                 237.0 : START DEPTH
STOP.FT                                               13872.0 : STOP DEPTH
STEP.FT                                                   0.5 : STEP BETWEEN DEPTHS
NULL.                                                 -999.25 : NULL VALUE
COMP.                          ENDEAVOR ENERGY RESOURCES L.P. : COMPANY
#___________________________________________________________________________________________________ 
~CURVE INFORMATION 
# MNEM.UNIT           : CURVE DESCRIPTION 
#-----.-----          : ----------------------------- 
 DEPT.FT               : MEASURED DEPTH 
 CALI.IN               : CALIPER (CAL - CAL) 
 GR.API                : GAMMA RAY (GR) 
 DT.US/FT              : SONIC DELTA TRANSIT TIME (DT) 
 RESS.OHMM             : SHALLOW INDUCTION RESISTIVITY (ILS - ILS) 
 RESD.OHMM             : DEEP INDUCTION RESISTIVITY (ILD - ILD) 
 #___________________________________________________________________________________________________ 
~A         DEPT           CALI             GR             DT           RESS           RESD
# ...
         9697.0         10.296         65.760         70.591         32.573         31.925
         9697.5         10.300         59.056         68.730         37.036         40.521
         9698.0         10.305         52.352         66.456         41.499         51.607
         9698.5         10.309         50.023         64.181         75.569        233.608
         9699.0         10.314         48.240         61.907        120.457        573.586
         9699.5         10.318         46.457         59.583        165.345        913.564
         9700.0         10.323         47.146         57.231        210.233        975.791
         9700.5         10.326         54.520         55.705        245.352        938.349
         9701.0         10.328         61.893         58.194        276.925        771.903
         9701.5         10.331         69.267         60.682        239.849        326.535
         9702.0         10.333         76.641         63.170        167.757         83.577
         9702.5         10.335         84.015         68.109         95.665         73.594
         9703.0         10.337         91.389         73.236         65.224         63.611
         9703.5         10.339         98.762         74.479         59.691         53.628
         9704.0         10.341        104.144         75.486         58.029         55.394
         9704.5         10.343        106.132         75.476         58.601         61.641
         9705.0         10.345        108.121         75.054         59.173         67.887
         9705.5         10.347        110.109         74.631         60.728         74.134
         9706.0         10.349        112.097         74.858         63.669         80.380
         9706.5         10.351        116.664         76.935         66.610         86.627
         9707.0         10.353        121.853         79.013         69.501         92.874
         9707.5         10.355        127.042         81.090         69.954         99.120
         9708.0         10.357        129.642         83.167         70.407        105.367
         9708.5         10.359        126.540         82.814         70.859        103.481
         9709.0         10.361        121.423         81.303         71.312         99.042
         9709.5         10.363        109.565         79.791         71.537         94.603
         9710.0         10.365        104.906         78.280         69.088         90.164
         9710.5         10.367        105.164         76.372         66.639         85.725
         9711.0         10.369        105.271         74.158         64.191         81.286
         9711.5         10.371        101.387         72.385         62.635         76.847
         9712.0         10.373         97.503         71.039         65.828         66.875
         9712.5         10.375         93.619         72.218         62.254         50.982
         9713.0         10.377         89.734         73.397         41.074         35.088
         9713.5         10.379         85.850         74.576         37.550         31.133
         9714.0         10.381         81.966         74.286         34.027         29.035
         9714.5         10.383         78.082         72.832         30.503         26.938
         9715.0         10.385         76.084         71.377         27.000         25.891
         9715.5         10.387         74.834         70.341         28.721         28.967
         9716.0         10.389         73.584         71.077         30.441         32.043
         9716.5         10.391         72.334         71.813         32.162         35.119
         9717.0         10.393         73.575         72.549         33.882         38.195
         9717.5         10.388         76.538         73.285         35.603         34.959
         9718.0         10.380         79.500         74.021         36.875         31.281
         9718.5         10.372         82.463         74.757         32.878         27.603
         9719.0         10.364         85.425         75.493         28.881         23.925
         9719.5         10.356         88.387         75.322         24.884         20.247
         9720.0         10.348         91.241         74.665         20.887         22.961
         9720.5         10.339         90.706         74.009         21.881         25.865
         9721.0         10.331         90.171         73.583         24.209         28.769
         9721.5         10.323         89.635         73.973         26.542         31.674
         9722.0         10.315         87.806         74.363         28.876         34.578
         9722.5         10.307         84.298         74.753         31.209         37.150
         9723.0         10.299         80.789         75.143         32.576         37.960
         9723.5         10.291         77.280         74.705         33.924         38.771
         9724.0         10.283         73.772         74.088         35.273         39.581
         9724.5         10.275         70.263         73.471         36.983         40.392
         9725.0         10.267         66.755         72.853         39.314         41.202
         9725.5         10.258         63.246         70.327         41.645         51.255
         9726.0         10.250         59.737         66.108         46.322         67.235
         9726.5         10.242         56.776         61.890         60.457         83.215
         9727.0         10.234         65.537         59.255         74.592         99.195
         9727.5         10.226         74.299         59.406         88.727         99.184
         9728.0         10.218         83.060         73.448        102.862         82.266
         9728.5         10.210         91.822         74.241         74.468         65.349
         9729.0         10.202        100.584         75.034         50.052         48.431
         9729.5         10.194        104.883         75.887         46.513         44.384
         9730.0         10.185        106.801         76.778         42.973         47.535
         9730.5         10.177        108.718         77.668         44.284         50.686
         9731.0         10.169        110.635         78.559         46.861         51.658
         9731.5         10.161        107.963         79.449         49.298         50.538
         9732.0         10.153        102.147         80.339         48.730         49.418
         9732.5         10.145         96.524         81.230         48.161         48.297
         9733.0         10.137         91.110         78.474         47.593         47.177
         9733.5         10.129         85.695         75.505         44.960         46.057
         9734.0         10.121         80.280         72.537         40.875         44.937
         9734.5         10.113         74.865         70.499         38.171         43.817
         9735.0         10.104         69.450         68.876         43.664         48.807
         9735.5         10.096         65.304         67.253         49.158         60.288
         9736.0         10.088         68.084         68.488         54.652         71.770
         9736.5         10.080         70.863         70.646         60.146         63.931
         9737.0         10.074         72.966         72.804         65.640         52.359
         9737.5         10.069         70.301         71.447         57.938         40.787
         9738.0         10.064         67.637         70.088         49.480         44.570
         9738.5         10.059         64.973         68.729         41.022         50.525
         9739.0         10.054         66.015         67.369         44.416         62.048
         9739.5         10.049         70.939         66.010         58.328         99.098
         9740.0         10.044         75.864         69.883         72.240         96.329
         9740.5         10.039         80.789         74.112         86.152         81.414
