#--------------------------------------------------#
#-------------------ENVERUS, INC.------------------#
#------------------WWW.ENVERUS.COM-----------------#
#------------------COPYRIGHT 2020------------------#
#--------------------------------------------------#
#THIS FILE MAY BE USED ONLY IN ACCORDANCE WITH A CURRENT SUBSCRIPTION AGREEMENT BETWEEN
#THE USER AND ENVERUS, INC. NO PART OF THIS FILE MAY BE REPRODUCED, USED, COPIED,
#MODIFIED, PROPAGATED, OR DISTRIBUTED EXCEPT IN ACCORDANCE WITH THE SUBSCRIPTION
#AGREEMENT. UNAUTHORIZED USE OR DISTRIBUTION OF ALL OR ANY PART OF THIS FILE MAY VIOLATE
#COPYRIGHT, TRADEMARK, AND/OR OTHER LAWS AND IS SUBJECT TO CIVIL AS WELL AS CRIMINAL
#SANCTIONS.
#--------------------------------------------------#
#THIS FILE IS PROVIDED "AS-IS" AND ALL WARRANTIES ARE EXPRESSLY DISCLAIMED, WHETHER
#EXPRESS, ORAL, IMPLIED, STATUTORY OR OTHERWISE, INCLUDING ANY IMPLIED WARRANTY OF FITNESS
#FOR A PARTICULAR PURPOSE, MERCHANTABILITY, TITLE OR NON-INFRINGEMENT, AND ANY WARRANTIES
#ARISING BY VIRTUE OF CUSTOM OF TRADE OR COURSE OF DEALING.  FURTHER, ENVERUS, INC.
#AND ITS LICENSORS DO NOT REPRESENT OR WARRANT THAT THIS FILE WILL MEET USER'S
#REQUIREMENTS OR ARE SUITABLE FOR USER'S NEEDS OR THAT THE DATA OR RESULTS PROVIDED IN
#CONJUNCTION THEREWITH ARE CORRECT, ACCURATE, TIMELY OR RELIABLE. THESE DISCLAIMERS SHALL
#APPLY REGARDLESS OF ANY FAILURE OF ESSENTIAL PURPOSE OF ANY LIMITED REMEDY.  SOME
#JURISDICTIONS DO NOT ALLOW THE EXCLUSION OF CERTAIN WARRANTIES SO SOME OF THE ABOVE
#EXCLUSIONS MAY NOT APPLY. IN NO EVENT SHALL ENVERUS, INC. OR ANY OF ITS AFFILIATES
#BE LIABLE UNDER ANY LEGAL THEORY, WHETHER IN TORT (INCLUDING WITHOUT LIMITATION
#NEGLIGENCE), CONTRACT, STRICT LIABILITY, STATUTORY OR OTHERWISE, FOR ANY SPECIAL,
#INCIDENTAL, CONSEQUENTIAL, EXEMPLARY, PUNITIVE OR INDIRECT DAMAGE OF ANY KIND, INCLUDING
#WITHOUT LIMITATION LOSS OF REVENUE, PROFITS, GOODWILL, USE, AND/OR DATA OR THE COST OF
#PROCUREMENT OF SUBSTITUTE GOODS OR SERVICES, EVEN IF APPRISED OF THE POSSIBILITY OF SUCH
#DAMAGES IN ADVANCE.
#--------------------------------------------------#

# EXPORTED FROM DI TRANSFORM
# DI TRANSFORM - A PRODUCT OF DRILLINGINFO, INC. - WWW.DRILLINGINFO.COM
#
~VERSION INFORMATION
 VERS.        2.0 : LAS ASCII STANDARD - VERSION 2.0
 WRAP.         NO : ONE LINE PER DEPTH STEP

~WELL INFORMATION
#MNEM.UNIT       DATA TYPE       INFORMATION
#---------       ---------       -----------
 STRT.FT          3310 : START DEPTH
 STOP.FT         11910 : STOP DEPTH
 STEP.FT           0.5 : STEP LENGTH
 NULL.         -999.25 : NULL VALUE
 UWI.   42389328760000 : UNIQUE WELL ID
 API.   42389328760000 : WELL IDENTIFIER
 COMP.                 : COMPANY
 WELL.          DRD_55 : WELL NAME
 FLD.                  : FIELD NAME
 LOC.                  : WELL LOCATION
 CNTY.                 : COUNTY
 STAT.                 : STATE OR PROVINCE
 CTRY.                 : COUNTRY
 SRVC.                 : SERVICE COMPANY
 DATE.                 : DATE

~CURVE INFORMATION
#MNEM.UNIT       API CODE       CURVE DESCRIPTION
#---------       --------       -----------------
 DEPT.FT        : <MEASURED DEPTH>
 CAL.IN         : CALIPER
 DT.US/FT       : SONIC
 GR.GAPI        : GAMMA RAY
 ILD.OHMM       : DEEP RESISTIVITY
 ILS.OHMM       : SHALLOW RESISTIVITY

~PARAMETER INFORMATION
#MNEM.UNIT       VALUE       DESCRIPTION
#---------       -----       -----------
 EKB.FT      3168.5 : ELEVATION ABOVE MSL

~A       DEPT         CAL          DT          GR         ILD         ILS
# ...
         8433      8.4303     61.1834     88.6119    211.3088    159.7186
       8433.5      8.4303     63.5266    107.7013    200.0947    147.4931
         8434      8.4303     65.8697    111.7773    194.4723    143.5399
       8434.5      8.4303     69.9208    114.8181    198.4036     141.657
         8435      8.4303     70.7729    115.1244    207.9454    151.3564
       8435.5      8.4303     71.4689    113.0354    217.9378    162.5176
         8436      8.4303     71.6462    107.9003    222.3935    166.4358
       8436.5      8.4303     70.9978    101.0286    226.5365    170.5655
         8437      8.4303     69.9098     95.8954    230.7567    173.6324
       8437.5      8.4303     68.7442     94.0525    230.7567    175.2624
         8438      8.4303     66.9602     88.3766    237.7847    176.8359
       8438.5      8.4303      64.747     75.5436     240.181    176.9832
         8439      8.4303     63.7307     64.1224    239.4343    175.6701
       8439.5      8.4303     63.2732     62.8313    229.6778    171.6978
         8440      8.4303     63.6621       79.36    219.1407    164.7691
       8440.5      8.4303     64.8287     92.5646    206.5159    154.2702
         8441      8.4303     66.0061     94.3865    177.6978    136.4934
       8441.5      8.4303     66.6826     89.2061    158.2661    117.4066
         8442      8.4303     66.8617     84.8889    156.5413    111.6842
       8442.5      8.4303     66.4038     81.3939    159.5268    118.8423
         8443      8.4303     66.2443     76.6954    159.3386    126.5428
       8443.5      8.4303     66.2443      77.884    159.2851    134.7574
         8444      8.4303     66.2443     84.6487    169.0891    140.4928
       8444.5      8.4303     67.0478     92.3933    171.7504    143.2278
         8445      8.4303     68.0729     80.8752      162.33    157.4537
       8445.5      8.4303     70.9771     73.3185     50.4065    162.1567
         8446      8.4303     74.4736     77.6819      37.634      29.004
       8446.5      8.4303     77.5646     84.9283     33.9243     27.3031
         8447      8.4303      77.139     98.4837      33.837     26.1517
       8447.5      8.4303     75.3525    102.8355     41.9873     36.8997
         8448      8.4303     74.1292     97.6955     79.3322     69.5027
       8448.5      8.4303     67.5665     93.4366     90.2749     80.0116
         8449      8.4303     62.0091     87.9228    104.9262     87.7807
       8449.5      8.4303     59.9171     75.8652    135.8121    100.8537
         8450      8.4303     57.2966      63.819    157.3641    125.6789
       8450.5      8.4303     56.7735     49.8218    182.1082    144.9456
         8451      8.4303     56.2138     43.7383    267.3304    187.4077
       8451.5      8.4303     55.9287      38.569    279.7096    217.9609
         8452      8.4303     55.7105     39.9554    249.0923    183.6119
       8452.5      8.4303     57.1805     48.2446    221.7841    160.2603
         8453      8.4303     60.6538     61.2841    148.3057    102.7812
       8453.5      8.4303     63.5727     71.9745    120.4311     75.9069
         8454      8.4303     65.0875     82.4024    118.7345     74.2466
       8454.5      8.4303     65.7041     97.3912    122.9133     76.3142
         8455      8.4303     65.7041     92.3714    155.0113    112.7684
       8455.5      8.4303     65.7825     84.7566    150.9847    110.1683
         8456      8.4303     65.9742     75.7441    137.0948     98.3782
       8456.5      8.4303     65.9742     86.1563    129.9023     95.1717
         8457      8.4303     66.9759     99.0236    113.6266     81.4324
       8457.5      8.4303     68.9452       103.2    102.0895     76.3628
         8458      8.4303     69.2153    101.5445     95.0091     71.9996
       8458.5      8.4303     68.6938     98.7068     89.3622     68.0853
         8459      8.4303     67.2391      89.498     84.4284     60.9748
       8459.5      8.4303     65.7932     74.6216     87.6288     66.3268
         8460      8.4303     64.3473     62.1942    100.0327     82.2091
       8460.5      8.4303     62.5667     50.8357    116.8341    105.7447
         8461      8.4303     61.1003     43.2725    148.5929    124.1397
       8461.5      8.4303     60.5722      42.548    157.8341    126.4984
         8462      8.4303     60.5722     48.0756    131.5772    117.3163
       8462.5      8.4303     60.5722      62.446    113.7179     83.4089
         8463      8.4303     63.6131     88.8407    104.6751     71.1003
       8463.5      8.4303     68.7641    105.3914    103.1478     68.5071
         8464      8.4303     70.4119    124.1829    113.8413     84.8829
       8464.5      8.4303      71.106    117.7736    167.3402    116.6044
         8465      8.4303     70.7834     86.5629    230.8596    159.3831
       8465.5      8.4701     65.9824     52.7547     289.604    188.5641
         8466      8.4701     60.3506     34.7915    380.4845    285.4469
       8466.5      8.4701     56.7008     30.1286    469.3181    346.1303
         8467      8.4774     56.5208     33.1689    455.2994    337.5434
       8467.5        8.51     56.5208     42.7263    434.4172    321.2298
         8468        8.51     57.2206     51.8723    404.9225    317.6643
       8468.5        8.51     60.9459     67.0972    354.5185    313.1216
         8469        8.51     65.6014     82.1782     318.316    274.1569
       8469.5        8.51     68.5202     93.3402    263.5416    185.0977
         8470        8.51     70.2777    103.4567    265.8782    190.7231
       8470.5        8.51     70.8393    106.9642       287.9    210.0766
         8471        8.51     71.5182    104.5184    301.7782    231.4741
       8471.5        8.51     71.6462     99.1557    316.2778    239.1748
         8472        8.51     70.8319     93.3818    336.5139    245.7305
       8472.5        8.51     67.5852     82.2127    353.8972    262.6893
         8473      8.5498     64.6237      61.828    370.9161    280.3844
       8473.5      8.5498     64.3362     49.5181    394.2486    302.1136
         8474      8.5498     62.6496     47.7853    410.8261    337.3692
       8474.5      8.5498     63.2131      52.834    378.5687    325.6077
         8475      8.5498     65.6471     66.5632     344.604    292.2435
       8475.5      8.5498     67.2908     88.6476    305.6217    240.3428
         8476      8.5498     68.0226    106.1183     282.827    220.7078
       8476.5      8.5498     69.2153     93.8325    269.8633    225.5321
         8477      8.5498     69.0235     75.4042     257.176     230.512
       8477.5      8.5498     68.3465     70.9471    226.1024     210.248
         8478      8.5498     67.5131     76.9757    197.4388    173.5966
       8478.5      8.5498     66.5346     79.4507    179.2147    153.1246
         8479      8.5498     65.7041     72.2492    174.9499    153.1638
       8479.5      8.5498     66.8758     72.9848     166.862    160.3627
         8480      8.5498      68.161     84.9242    146.4039    134.1389
       8480.5      8.5498      68.808    105.3202    140.1914    123.7346
         8481      8.5498     69.2029    110.2406    140.1914    123.1558
       8481.5      8.5498     68.9519     92.3171    145.1641    137.1914
         8482      8.5498     67.6896     72.7324    180.9382    165.0541
       8482.5      8.5498     64.8645        66.2    191.6885    189.1885
         8483      8.5498      63.259      59.237    175.7187     187.945
       8483.5      8.5498     63.0031     55.7519    162.0876     162.154
         8484      8.5498     63.0031      58.703    147.1876    119.4557
       8484.5      8.5498     63.9967     64.4181    122.6891    109.3752
         8485      8.5498      65.479     69.3036    113.5553    104.8985
       8485.5      8.5498     66.5079     77.6227     91.2728     91.9908
         8486      8.5498     68.0461     83.4124     73.9681     66.1734
       8486.5      8.5498      69.657     94.4893      69.008     64.9474
         8487      8.5498     71.3335    101.4515     65.8402     63.4298
