#--------------------------------------------------#
#-------------------ENVERUS, INC.------------------#
#------------------WWW.ENVERUS.COM-----------------#
#------------------COPYRIGHT 2020------------------#
#--------------------------------------------------#
#THIS FILE MAY BE USED ONLY IN ACCORDANCE WITH A CURRENT SUBSCRIPTION AGREEMENT BETWEEN
#THE USER AND ENVERUS, INC. NO PART OF THIS FILE MAY BE REPRODUCED, USED, COPIED,
#MODIFIED, PROPAGATED, OR DISTRIBUTED EXCEPT IN ACCORDANCE WITH THE SUBSCRIPTION
#AGREEMENT. UNAUTHORIZED USE OR DISTRIBUTION OF ALL OR ANY PART OF THIS FILE MAY VIOLATE
#COPYRIGHT, TRADEMARK, AND/OR OTHER LAWS AND IS SUBJECT TO CIVIL AS WELL AS CRIMINAL
#SANCTIONS.
#--------------------------------------------------#
#THIS FILE IS PROVIDED "AS-IS" AND ALL WARRANTIES ARE EXPRESSLY DISCLAIMED, WHETHER
#EXPRESS, ORAL, IMPLIED, STATUTORY OR OTHERWISE, INCLUDING ANY IMPLIED WARRANTY OF FITNESS
#FOR A PARTICULAR PURPOSE, MERCHANTABILITY, TITLE OR NON-INFRINGEMENT, AND ANY WARRANTIES
#ARISING BY VIRTUE OF CUSTOM OF TRADE OR COURSE OF DEALING.  FURTHER, ENVERUS, INC.
#AND ITS LICENSORS DO NOT REPRESENT OR WARRANT THAT THIS FILE WILL MEET USER'S
#REQUIREMENTS OR ARE SUITABLE FOR USER'S NEEDS OR THAT THE DATA OR RESULTS PROVIDED IN
#CONJUNCTION THEREWITH ARE CORRECT, ACCURATE, TIMELY OR RELIABLE. THESE DISCLAIMERS SHALL
#APPLY REGARDLESS OF ANY FAILURE OF ESSENTIAL PURPOSE OF ANY LIMITED REMEDY.  SOME
#JURISDICTIONS DO NOT ALLOW THE EXCLUSION OF CERTAIN WARRANTIES SO SOME OF THE ABOVE
#EXCLUSIONS MAY NOT APPLY. IN NO EVENT SHALL ENVERUS, INC. OR ANY OF ITS AFFILIATES
#BE LIABLE UNDER ANY LEGAL THEORY, WHETHER IN TORT (INCLUDING WITHOUT LIMITATION
#NEGLIGENCE), CONTRACT, STRICT LIABILITY, STATUTORY OR OTHERWISE, FOR ANY SPECIAL,
#INCIDENTAL, CONSEQUENTIAL, EXEMPLARY, PUNITIVE OR INDIRECT DAMAGE OF ANY KIND, INCLUDING
#WITHOUT LIMITATION LOSS OF REVENUE, PROFITS, GOODWILL, USE, AND/OR DATA OR THE COST OF
#PROCUREMENT OF SUBSTITUTE GOODS OR SERVICES, EVEN IF APPRISED OF THE POSSIBILITY OF SUCH
#DAMAGES IN ADVANCE.
#--------------------------------------------------#

~VERSION INFORMATION
VERS. 2.0 : CWLS LOG ASCII STANDARD - VERSION 2.0
WRAP.  NO : ONE LINE PER DEPTH STEP
~WELL INFORMATION
#MNEMONIC     .UNIT              VALUE :DESCRIPTION
STRT       .FT                25 :START DEPTH
STOP       .FT                17136 :STOP DEPTH
STEP       .FT                   0.500 :STEP
NULL       .                  -999.250 :NULL
UWI        .              42389302310000 :UNIQUE WELL ID
API        .              42389302310000 :API NUMBER
COMP       .         EDISTO RESOURCES CORPORATION :COMPANY
WELL       .        WIGGINS  ORLA  1 :WELL
DATE       .                            :LOG DATE
~CURVE INFORMATION
#MNEMONIC     .UNIT      API CODE :CURVE DESCRIPTION
DEPTH       .FT                      :MEASURED DEPTH
CAL.INCH        UNKNOWN   :CAL
ILS.OHM        UNKNOWN   :ILS
SP.MV        UNKNOWN   :SP
DT.US/FT        UNKNOWN   :DT
GR.API        UNKNOWN   :GR
ILD.OHM        UNKNOWN   :ILD
~A    DEPTH    CAL    ILS    SP    DT    GR    ILD
# ...
 14262     10.655   -999.99   -39.805   66.613   47.384   10.374
 14262.5     10.719   -999.99   -39.77   65.711   47.681   10.897
 14263     10.783   -999.99   -39.736   69.577   58.485   11.42
 14263.5     10.802   -999.99   -39.701   70.375   66.646   11.42
 14264     10.805   -999.99   -39.667   71.173   61.392   11.24
 14264.5     10.809   -999.99   -39.632   71.97   54.106   10.278
 14265     10.813   -999.99   -39.598   74.686   54.906   9.093
 14265.5     10.816   -999.99   -39.563   77.276   56.156   7.909
 14266     10.82   -999.99   -39.529   77.481   57.406   7.64
 14266.5     10.823   -999.99   -39.494   77.686   56.269   7.625
 14267     10.827   -999.99   -39.46   69.476   52.98   7.611
 14267.5     10.851   -999.99   -39.425   66.516   49.611   7.597
 14268     10.895   -999.99   -39.391   63.556   46.242   7.361
 14268.5     10.94   -999.99   -39.356   65.044   45.679   6.928
 14269     10.984   -999.99   -39.185   70.399   51.16   6.495
 14269.5     11.022   -999.99   -38.828   79.419   58.758   6.063
 14270     11.039   -999.99   -38.47   88.301   65.924   5.63
 14270.5     11.055   -999.99   -38.113   88.901   70.604   5.2
 14271     11.071   -999.99   -37.92   89.486   70.327   4.771
 14271.5     11.088   -999.99   -37.902   90.058   69.75   4.342
 14272     11.104   -999.99   -37.884   90.144   68.359   3.913
 14272.5     11.12   -999.99   -37.866   89.285   65.78   3.756
 14273     11.136   -999.99   -37.848   86.702   63.099   3.786
 14273.5     11.153   -999.99   -37.83   83.534   60.928   3.797
 14274     11.169   -999.99   -37.812   83.298   60.976   3.797
 14274.5     11.185   -999.99   -37.794   83.126   61.207   3.796
 14275     11.221   -999.99   -37.776   85.068   62.828   3.721
 14275.5     11.315   -999.99   -37.767   87.907   65.01   3.613
 14276     11.409   -999.99   -37.877   90.747   67.192   3.504
 14276.5     11.378   -999.99   -37.987   90.91   70.785   3.356
 14277     11.316   -999.99   -38.097   90.938   74.694   3.177
 14277.5     11.253   -999.99   -38.208   90.966   75.556   2.999
 14278     11.191   -999.99   -38.318   90.994   75.491   2.841
 14278.5     11.201   -999.99   -38.428   91.022   74.906   2.742
 14279     11.242   -999.99   -38.422   91.05   73.027   2.642
 14279.5     11.283   -999.99   -38.331   91.078   71.148   2.542
 14280     11.321   -999.99   -38.24   91.106   73.242   2.47
 14280.5     11.307   -999.99   -38.149   91.134   76.661   2.458
 14281     11.295   -999.99   -38.058   91.162   79.73   2.445
 14281.5     11.29   -999.99   -37.967   91.19   76.892   2.444
 14282     11.286   -999.99   -37.876   91.218   76.487   2.482
 14282.5     11.264   -999.99   -37.785   91.246   77.328   2.52
 14283     11.211   -999.99   -37.694   91.274   78.299   2.558
 14283.5     11.157   -999.99   -37.603   91.302   78.415   2.596
 14284     11.104   -999.99   -37.512   91.33   77.905   2.634
 14284.5     11.051   -999.99   -37.421   91.358   77.395   2.681
 14285     10.998   -999.99   -37.33   91.386   76.884   2.737
 14285.5     10.971   -999.99   -37.239   89.197   76.443   2.794
 14286     11.01   -999.99   -37.148   86.865   76.204   2.85
 14286.5     11.049   -999.99   -37.109   87.16   75.964   2.907
 14287     11.087   -999.99   -37.311   88.41   75.896   2.963
 14287.5     11.126   -999.99   -37.513   89.659   76.453   3.02
 14288     11.16   -999.99   -37.714   90.081   78.031   3.076
 14288.5     11.191   -999.99   -37.916   88.964   76.926   3.117
 14289     11.222   -999.99   -38.118   87.668   75.778   3.092
 14289.5     11.253   -999.99   -38.15   85.613   74.627   3.068
 14290     11.284   -999.99   -37.014   85.315   73.647   3.028
 14290.5     11.315   -999.99   -37.144   86.693   73.78   2.939
 14291     11.347   -999.99   -37.273   88.13   74.577   2.851
 14291.5     11.378   -999.99   -37.403   91.012   75.524   2.762
 14292     11.409   -999.99   -37.532   91.054   76.103   2.674
 14292.5     11.44   -999.99   -37.661   91.096   75.745   2.585
 14293     11.471   -999.99   -37.788   91.138   73.202   2.497
 14293.5     11.405   -999.99   -37.147   91.18   68.249   2.409
 14294     11.313   -999.99   -37.016   91.222   68.75   2.395
 14294.5     11.221   -999.99   -37.181   90.377   69.651   2.395
 14295     11.243   -999.99   -37.345   90.881   71.322   2.395
 14295.5     11.282   -999.99   -37.51   91.336   72.314   2.386
 14296     11.322   -999.99   -37.674   91.331   70.801   2.372
 14296.5     11.361   -999.99   -37.839   91.326   70.4   2.357
 14297     11.394   -999.99   -38.004   91.321   71.197   2.343
 14297.5     11.301   -999.99   -38.168   91.316   73.716   2.328
 14298     11.209   -999.99   -38.333   91.311   74.988   2.301
 14298.5     11.129   -999.99   -38.497   91.307   75.469   2.261
 14299     11.14   -999.99   -38.662   91.302   75.875   2.222
 14299.5     11.251   -999.99   -38.629   91.297   76.197   2.208
 14300     11.362   -999.99   -38.563   91.292   76.508   2.234
 14300.5     11.363   -999.99   -38.498   91.287   76.798   2.259
 14301     11.331   -999.99   -38.432   91.282   77.088   2.285
 14301.5     11.3   -999.99   -38.366   91.277   75.696   2.311
 14302     11.269   -999.99   -38.294   91.272   73.005   2.337
 14302.5     11.237   -999.99   -38.215   91.267   73.506   2.363
 14303     11.248   -999.99   -38.137   91.262   74.007   2.386
 14303.5     11.281   -999.99   -38.059   91.257   74.508   2.409
 14304     11.315   -999.99   -37.98   91.253   74.918   2.431
 14304.5     11.348   -999.99   -37.902   91.248   75.008   2.453
 14305     11.382   -999.99   -37.823   91.243   75.546   2.475
 14305.5     11.415   -999.99   -37.745   91.238   77.512   2.497
 14306     11.412   -999.99   -37.666   91.233   79.478   2.519
 14306.5     11.376   -999.99   -37.725   91.228   79.514   2.541
 14307     11.34   -999.99   -37.854   91.223   79.62   2.563
 14307.5     11.305   -999.99   -37.983   91.218   79.831   2.566
 14308     11.269   -999.99   -38.112   91.213   82.307   2.566
 14308.5     11.233   -999.99   -38.156   91.208   84.33   2.566
 14309     11.197   -999.99   -38.132   91.204   83.775   2.565
 14309.5     11.163   -999.99   -38.107   91.199   82.204   2.565
 14310     11.172   -999.99   -38.083   91.194   79.224   2.565
 14310.5     11.181   -999.99   -38.058   91.189   77.559   2.565
 14311     11.19   -999.99   -38.034   91.184   77.224   2.565
 14311.5     11.199   -999.99   -38.009   91.179   77.571   2.565
 14312     11.19   -999.99   -37.895   91.174   77.857   2.565
 14312.5     11.16   -999.99   -37.743   91.169   78.118   2.585
 14313     11.129   -999.99   -37.591   91.164   77.718   2.608
 14313.5     11.099   -999.99   -37.439   91.159   77.089   2.631
 14314     11.083   -999.99   -37.312   91.154   75.591   2.654
 14314.5     11.081   -999.99   -37.437   91.15   74.071   2.677
 14315     11.079   -999.99   -37.563   91.145   74.697   2.699
 14315.5     11.077   -999.99   -37.689   90.507   76.065   2.722
 14316     11.076   -999.99   -37.815   90.476   77.972   2.745
 14316.5     11.074   -999.99   -37.941   90.94   79.41   2.768
 14317     11.06   -999.99   -38.011   91.305   80.833   2.791
 14317.5     11.009   -999.99   -38.012   89.516   81.054   2.813
 14318     10.964   -999.99   -38.013   87.726   77.557   3.04
 14318.5     10.963   -999.99   -38.014   85.267   74.209   3.273
 14319     10.961   -999.99   -38.015   80.226   70.861   3.506
 14319.5     10.96   -999.99   -38.016   75.818   67.513   3.739
 14320     10.958   -999.99   -38.017   77.528   64.595   3.916
 14320.5     10.956   -999.99   -38.017   79.689   61.73   4.02
 14321     10.955   -999.99   -38.018   82.724   58.864   4.068
 14321.5     10.956   -999.99   -37.931   85.759   63.25   4.114
 14322     11.005   -999.99   -37.696   88.795   69.534   4.16
 14322.5     11.054   -999.99   -37.46   91.085   73.261   3.877
 14323     11.102   -999.99   -37.225   91.155   72.679   3.321
 14323.5     11.144   -999.99   -36.99   91.224   72.096   3.003
 14324     11.152   -999.99   -36.754   91.294   71.514   2.891
