###############################################
##         ENVERUS                           ##
##         ESS - Open Hole                   ##
##         PERMIAN / DELAWARE                ##
##         Nov 04 2023  V4.0                 ##
##         42-389-32245-00-00                ##
###############################################
## Copyright 2017-2023  ENVERUS.  All Rights Reserved. 
## Confidential - Property of ENVERUS, use governed by terms and 
## conditions found within the existing Information Services Subscription Agreement 
## (as may be amended, the “ISSA”) between Customer and ENVERUS. 
## 
~VERSION INFORMATION
# MNEM.UNIT                               DATA : DESCRIPTION OF MNEMONIC
#-----.-----     ----------------------------- : -----------------------------
VERS.                                     2.00 : CWLS LOG ASCII STANDARD - VERSION 2.00
WRAP.                                       NO : MULTIPLE LINES PER DEPTH STEP
VEND.                                  ENVERUS : VENDOR
TYPE.                          ESS - OPEN HOLE : ENVERUS ESSENTIAL CURVES – ACCESSIBLE THROUGH ENVERUS PRISM(TM)
DOC.                                  31784178 : ENVERUS HEADER RAW DOCUMENT ID
#___________________________________________________________________________________________________ 
~WELL INFORMATION 
# v5kOeJgG8V8Fdrn76qwaaSXPAkEfLGq57aawfXlCwOXh55ROPeN2VCvB7JmY2/dENYnWxxZwl4Ma/Wu+4c2YGQ== 
# MNEM.UNIT                                              DATA : DESCRIPTION OF MNEMONIC 
#-----.-----                    ----------------------------- : ----------------------------- 
CNTY.                                                  REEVES : COUNTY 
STATE.                                                  TEXAS : STATE 
CNTRY.                                                    USA : COUNTRY 
API.                                             42-389-32245 : API (10 Digit) 
API_14.                                    42-389-32245-00-00 : API (14 Digits) 
API_14_std.                                 42-389-32245-0000 : API (14 Digits Standard) 
UWI.                                           42389322450000 : UNIQUE WELL ID 
WELL.                          TEXAS PACIFIC LAND TRUST 25 1H : WELL NAME
STRT.FT                                                2519.0 : START DEPTH
STOP.FT                                               10624.0 : STOP DEPTH
STEP.FT                                                   0.5 : STEP BETWEEN DEPTHS
NULL.                                                 -999.25 : NULL VALUE
#___________________________________________________________________________________________________ 
~CURVE INFORMATION 
# MNEM.UNIT           : CURVE DESCRIPTION 
#-----.-----          : ----------------------------- 
 DEPT.FT               : MEASURED DEPTH 
 CALI__B.IN            : CALIPER (CAL - CAL) 
 GR__B.API             : GAMMA RAY (GR) 
 DT__B.US/FT           : SONIC DELTA TRANSIT TIME (DT) 
 #___________________________________________________________________________________________________ 
~A         DEPT        CALI__B          GR__B          DT__B
# ...
        10571.0         12.659        127.248         87.632
        10571.5         12.637        127.255         83.905
        10572.0         12.614        127.261         80.178
        10572.5         12.592        127.268         82.291
        10573.0         12.581        127.274         85.257
        10573.5         12.579        127.281         87.605
        10574.0         12.576        127.288         89.108
        10574.5         12.573        127.294         90.611
        10575.0         12.570        127.301         91.607
        10575.5         12.567        127.307         91.719
        10576.0         12.564        127.314         92.661
        10576.5         12.561        127.321         92.624
        10577.0         12.563        127.327         89.607
        10577.5         12.565        127.334         87.087
        10578.0         12.567        127.340         86.032
        10578.5         12.569        127.347         82.917
        10579.0         12.571        127.354         78.530
        10579.5         12.573        127.360         74.329
        10580.0         12.575        127.367         75.752
        10580.5         12.577        127.373         82.880
        10581.0         12.579        127.380         88.693
        10581.5         12.581        127.387         89.709
        10582.0         12.583        127.393         89.503
        10582.5         12.585        127.400         88.980
        10583.0         12.587        127.406         88.710
        10583.5         12.589        127.413         88.921
        10584.0         12.591        127.420         90.106
        10584.5         12.593        127.426         90.089
        10585.0         12.595        127.433         89.532
        10585.5         12.597        127.439         88.662
        10586.0         12.599        127.446         87.532
        10586.5         12.601        127.453         86.386
        10587.0         12.603        127.459         84.907
        10587.5         12.605        127.466         83.086
        10588.0         12.606        127.472         82.056
        10588.5         12.606        127.479         85.342
        10589.0         12.606        127.486         88.579
        10589.5         12.606        127.492         91.130
        10590.0         12.606        127.499         90.995
        10590.5         12.606        127.505         90.653
        10591.0         12.606        127.512         90.579
        10591.5         12.606        127.519         89.021
        10592.0         12.606        127.525         87.305
        10592.5         12.606        127.532         87.053
        10593.0         12.606        127.538         88.353
        10593.5         12.606        127.545         88.045
        10594.0         12.606        127.552         86.337
        10594.5         12.606        127.558         84.628
        10595.0         12.606        127.565         84.492
        10595.5         12.606        127.571         85.762
        10596.0         12.607        127.578         86.357
        10596.5         12.607        127.585         86.785
        10597.0         12.607        127.591         88.872
        10597.5         12.607        127.598         91.595
        10598.0         12.607        127.604         91.160
        10598.5         12.607        127.611         90.122
        10599.0         12.607        127.618         89.696
        10599.5         12.607        127.614         89.560
        10600.0         12.607        127.606         89.424
        10600.5         12.607        127.599         89.288
        10601.0         12.607        127.591         89.581
        10601.5         12.607        127.583         90.133
        10602.0         12.607        127.576         89.924
        10602.5         12.607        127.568         87.329
        10603.0         12.607        127.560         84.913
        10603.5         12.607        127.553         84.399
        10604.0         12.607        127.545         83.885
        10604.5         12.607        127.537         83.372
        10605.0         12.607        127.529         83.343
        10605.5         12.607        127.522         83.917
        10606.0         12.607        127.514         84.600
        10606.5         12.607        127.506         84.721
        10607.0         12.607        127.499         84.475
        10607.5         12.607        127.491         84.209
        10608.0         12.607        127.483         83.943
        10608.5         12.607        127.476         83.906
        10609.0         12.607        127.468         84.134
        10609.5         12.607        127.460         84.487
        10610.0         12.607        127.453         84.531
        10610.5         12.607        127.445         82.744
        10611.0         12.607        127.437         80.956
        10611.5         12.607        127.430         79.168
        10612.0         12.607        127.422         78.133
        10612.5         12.607        127.414         77.689
        10613.0         12.607        127.406         77.531
        10613.5         12.607        127.399         77.606
        10614.0         12.607        127.391         77.682
        10614.5         12.607        127.383         77.638
        10615.0         12.607        127.376         77.605
        10615.5         12.607        127.368         77.606
        10616.0         12.607        127.360         77.608
        10616.5         12.607        127.353         77.610
        10617.0         12.607        127.345         77.612
        10617.5         12.607        127.337         77.613
        10618.0         12.607        127.330         77.615
        10618.5         12.607        127.322         77.617
        10619.0         12.607        127.314         77.618
        10619.5         12.607        127.307         77.620
        10620.0         12.607        127.299         77.622
        10620.5         12.607        127.291         77.624
        10621.0         12.607        127.283         77.625
        10621.5         12.607        127.276         77.627
        10622.0         12.607        127.268         77.629
        10622.5         12.607        127.260         77.631
        10623.0         12.607        127.253         77.632
        10623.5         12.607        127.245         77.634
        10624.0         12.607        127.237         77.636
