#--------------------------------------------------#
#-------------------ENVERUS, INC.------------------#
#------------------WWW.ENVERUS.COM-----------------#
#------------------COPYRIGHT 2020------------------#
#--------------------------------------------------#
#THIS FILE MAY BE USED ONLY IN ACCORDANCE WITH A CURRENT SUBSCRIPTION AGREEMENT BETWEEN
#THE USER AND ENVERUS, INC. NO PART OF THIS FILE MAY BE REPRODUCED, USED, COPIED,
#MODIFIED, PROPAGATED, OR DISTRIBUTED EXCEPT IN ACCORDANCE WITH THE SUBSCRIPTION
#AGREEMENT. UNAUTHORIZED USE OR DISTRIBUTION OF ALL OR ANY PART OF THIS FILE MAY VIOLATE
#COPYRIGHT, TRADEMARK, AND/OR OTHER LAWS AND IS SUBJECT TO CIVIL AS WELL AS CRIMINAL
#SANCTIONS.
#--------------------------------------------------#
#THIS FILE IS PROVIDED "AS-IS" AND ALL WARRANTIES ARE EXPRESSLY DISCLAIMED, WHETHER
#EXPRESS, ORAL, IMPLIED, STATUTORY OR OTHERWISE, INCLUDING ANY IMPLIED WARRANTY OF FITNESS
#FOR A PARTICULAR PURPOSE, MERCHANTABILITY, TITLE OR NON-INFRINGEMENT, AND ANY WARRANTIES
#ARISING BY VIRTUE OF CUSTOM OF TRADE OR COURSE OF DEALING.  FURTHER, ENVERUS, INC.
#AND ITS LICENSORS DO NOT REPRESENT OR WARRANT THAT THIS FILE WILL MEET USER'S
#REQUIREMENTS OR ARE SUITABLE FOR USER'S NEEDS OR THAT THE DATA OR RESULTS PROVIDED IN
#CONJUNCTION THEREWITH ARE CORRECT, ACCURATE, TIMELY OR RELIABLE. THESE DISCLAIMERS SHALL
#APPLY REGARDLESS OF ANY FAILURE OF ESSENTIAL PURPOSE OF ANY LIMITED REMEDY.  SOME
#JURISDICTIONS DO NOT ALLOW THE EXCLUSION OF CERTAIN WARRANTIES SO SOME OF THE ABOVE
#EXCLUSIONS MAY NOT APPLY. IN NO EVENT SHALL ENVERUS, INC. OR ANY OF ITS AFFILIATES
#BE LIABLE UNDER ANY LEGAL THEORY, WHETHER IN TORT (INCLUDING WITHOUT LIMITATION
#NEGLIGENCE), CONTRACT, STRICT LIABILITY, STATUTORY OR OTHERWISE, FOR ANY SPECIAL,
#INCIDENTAL, CONSEQUENTIAL, EXEMPLARY, PUNITIVE OR INDIRECT DAMAGE OF ANY KIND, INCLUDING
#WITHOUT LIMITATION LOSS OF REVENUE, PROFITS, GOODWILL, USE, AND/OR DATA OR THE COST OF
#PROCUREMENT OF SUBSTITUTE GOODS OR SERVICES, EVEN IF APPRISED OF THE POSSIBILITY OF SUCH
#DAMAGES IN ADVANCE.
#--------------------------------------------------#

~VERSION INFORMATION
VERS. 2.0 : CWLS LOG ASCII STANDARD - VERSION 2.0
WRAP.  NO : ONE LINE PER DEPTH STEP
~WELL INFORMATION
#MNEMONIC     .UNIT              VALUE :DESCRIPTION
STRT       .FT                145 :START DEPTH
STOP       .FT                15608 :STOP DEPTH
STEP       .FT                   0.500 :STEP
NULL       .                  -999.250 :NULL
UWI        .              42389304120000 :UNIQUE WELL ID
API        .              42389304120000 :API NUMBER
COMP       .         BTA OIL PRODUCERS :COMPANY
WELL       .        7607 JV-P ORLA  1 :WELL
DATE       .                            :LOG DATE
~CURVE INFORMATION
#MNEMONIC     .UNIT      API CODE :CURVE DESCRIPTION
DEPTH       .FT                      :MEASURED DEPTH
DT.US/FT        UNKNOWN   :DT
CAL.INCH        UNKNOWN   :CAL
GR.API        UNKNOWN   :GR
~A    DEPTH    DT    CAL    GR
# ...
 6242.5     64.216   14.06   50.378
 6243     64.034   14.066   48.866
 6243.5     64.222   14.071   47.233
 6244     64.41   14.077   49.569
 6244.5     64.598   14.083   52.056
 6245     64.561   14.089   54.544
 6245.5     64.216   14.095   57.032
 6246     63.904   14.101   59.205
 6246.5     63.935   14.105   60.808
 6247     63.966   14.093   62.412
 6247.5     63.997   14.081   60.789
 6248     64.028   14.069   58.796
 6248.5     63.36   14.057   56.093
 6249     62.479   14.045   53.327
 6249.5     61.599   14.033   50.562
 6250     60.718   14.021   47.797
 6250.5     60.29   14.009   46.114
 6251     60.624   13.997   45.019
 6251.5     61.257   13.985   44.84
 6252     61.891   13.973   45.077
 6252.5     62.524   13.961   45.314
 6253     63.103   13.949   45.733
 6253.5     63.201   13.937   46.253
 6254     63.298   13.925   46.773
 6254.5     63.395   13.913   47.293
 6255     63.493   13.901   47.813
 6255.5     63.166   13.889   48.085
 6256     62.831   13.877   46.632
 6256.5     62.496   13.865   45.819
 6257     62.366   13.853   48.468
 6257.5     62.577   13.842   51.117
 6258     62.788   13.83   53.287
 6258.5     62.999   13.818   53.288
 6259     63.21   13.806   53.289
 6259.5     63.421   13.794   53.29
 6260     63.632   13.782   52.743
 6260.5     63.722   13.77   52.102
 6261     63.624   13.758   51.461
 6261.5     63.526   13.746   50.982
 6262     63.429   13.734   50.661
 6262.5     61.787   13.722   50.341
 6263     60.079   13.71   49.672
 6263.5     58.371   13.698   47.275
 6264     59.008   13.686   44.878
 6264.5     60.315   13.674   44.354
 6265     61.623   13.662   47.633
 6265.5     62.321   13.65   50.911
 6266     62.513   13.638   54.189
 6266.5     62.705   13.626   54.66
 6267     62.897   13.614   54.569
 6267.5     63.089   13.603   54.477
 6268     62.93   13.592   54.386
 6268.5     62.021   13.581   52.808
 6269     61.111   13.57   51.146
 6269.5     60.523   13.559   49.485
 6270     61.075   13.548   48.618
 6270.5     61.677   13.537   49.739
 6271     62.28   13.527   50.859
 6271.5     62.883   13.516   51.979
 6272     63.409   13.505   51.751
 6272.5     63.32   13.494   49.851
 6273     63.23   13.483   47.951
 6273.5     63.164   13.472   46.44
 6274     63.304   13.461   45.165
 6274.5     63.444   13.46   45.349
 6275     63.584   13.477   47.936
 6275.5     63.724   13.495   50.523
 6276     63.612   13.512   53.11
 6276.5     62.97   13.53   55.697
 6277     62.594   13.548   58.283
 6277.5     63.099   13.565   58.74
 6278     63.603   13.583   56.288
 6278.5     63.935   13.6   53.836
 6279     64.14   13.618   51.384
 6279.5     63.863   13.636   48.932
 6280     63.281   13.653   47.827
 6280.5     62.977   13.671   49.668
 6281     63.3   13.688   51.508
 6281.5     63.624   13.706   53.711
 6282     63.947   13.724   56.168
 6282.5     63.9   13.741   55.104
 6283     63.584   13.759   52.473
 6283.5     62.729   13.776   49.841
 6284     62.396   13.794   47.342
 6284.5     62.835   13.812   44.945
 6285     63.374   13.829   42.548
 6285.5     64.035   13.801   40.912
 6286     64.696   13.766   39.563
 6286.5     65.284   13.731   38.214
 6287     65.245   13.697   36.865
 6287.5     65.205   13.662   35.516
 6288     65.166   13.627   35.928
 6288.5     65.127   13.593   36.429
 6289     65.088   13.558   36.929
 6289.5     63.475   13.523   38.026
 6290     61.757   13.489   40.161
 6290.5     61.299   13.454   42.295
 6291     61.284   13.42   44.43
 6291.5     62.109   13.385   46.565
 6292     62.935   13.35   48.7
 6292.5     63.72   13.316   54.56
 6293     64.159   13.281   62.356
 6293.5     64.644   13.246   70.153
 6294     65.479   13.212   77.949
 6294.5     64.735   13.177   85.746
 6295     63.982   13.142   93.82
 6295.5     63.519   13.108   102.788
 6296     63.348   13.073   103.782
 6296.5     63.219   13.039   103.254
 6297     63.342   13.027   100.033
 6297.5     63.466   13.04   98.507
 6298     62.309   13.053   100.855
 6298.5     62.96   13.066   103.204
 6299     63.611   13.079   111.129
 6299.5     63.575   13.092   119.382
 6300     62.85   13.105   120.69
 6300.5     63.25   13.118   121.233
 6301     63.874   13.131   117.631
 6301.5     64.497   13.144   114.028
 6302     64.605   13.157   110.844
 6302.5     64.508   13.17   107.972
 6303     64.412   13.183   104.071
 6303.5     64.129   13.196   99.418
 6304     63.831   13.209   94.765
 6304.5     63.534   13.222   90.113
 6305     63.013   13.235   52.6
 6305.5     62.004   13.248   48.348
 6306     61.045   13.261   44.897
 6306.5     60.993   13.274   45.37
 6307     60.94   13.287   45.843
 6307.5     60.387   13.3   46.604
 6308     59.271   13.313   49.254
 6308.5     58.519   13.326   51.904
 6309     58.386   13.339   54.554
 6309.5     59.227   13.352   57.204
 6310     60.746   13.365   59.854
 6310.5     62.264   13.378   61.966
 6311     63.783   13.391   61.67
 6311.5     63.794   13.404   61.375
 6312     63.439   13.417   61.08
 6312.5     63.055   13.429   61.108
 6313     63.117   13.442   61.383
 6313.5     63.178   13.455   61.657
 6314     63.24   13.468   61.931
 6314.5     63.302   13.481   62.206
 6315     63.363   13.494   61.762
 6315.5     62.817   13.507   59.756
 6316     61.865   13.52   57.751
 6316.5     60.913   13.533   55.746
 6317     61.212   13.546   56.198
 6317.5     61.806   13.556   56.851
 6318     62.525   13.534   55.07
 6318.5     63.245   13.513   52.357
 6319     63.778   13.491   50.454
 6319.5     63.743   13.469   48.93
 6320     63.646   13.448   48.206
 6320.5     63.41   13.426   47.483
 6321     63.173   13.405   46.76
 6321.5     62.937   13.383   46.037
 6322     61.467   13.362   45.313
 6322.5     59.854   13.34   44.59
 6323     59.784   13.319   47.127
 6323.5     59.887   13.297   50.025
 6324     61.796   13.275   52.923
 6324.5     62.846   13.254   55.821
 6325     62.982   13.232   58.719
 6325.5     63.378   13.211   61.617
 6326     63.981   13.189   59.501
 6326.5     64.584   13.179   57.206
 6327     64.766   13.171   54.911
 6327.5     64.734   13.163   56.045
 6328     64.597   13.155   59.121
 6328.5     64.361   13.148   67.091
 6329     64.125   13.14   75.062
 6329.5     63.899   13.132   83.032
 6330     63.773   13.124   89.465
 6330.5     63.648   13.117   93.009
 6331     63.211   13.109   96.553
 6331.5     62.76   13.101   100.098
 6332     62.879   13.093   103.642
 6332.5     63.642   13.085   107.186
 6333     64.097   13.078   108.679
 6333.5     64.553   13.07   100.873
 6334     63.942   13.062   93.068
 6334.5     62.756   13.054   85.262
 6335     61.287   13.046   77.456
 6335.5     59.639   13.039   70.361
 6336     59.866   13.031   70.507
 6336.5     61.255   13.023   70.653
 6337     62.645   13.015   69.667
 6337.5     63.526   13.007   67.921
 6338     61.354   13   67.577
 6338.5     59.609   12.992   69.911
 6339     59.609   12.984   72.245
 6339.5     61.071   12.976   74.578
 6340     62.691   12.979   76.912
 6340.5     64.169   13.012   76.225
 6341     64.168   13.044   68.999
 6341.5     61.914   13.077   62.818
 6342     60.199   13.11   63.32
 6342.5     61.351   13.142   63.821
 6343     62.503   13.175   64.041
 6343.5     63.655   13.208   60.105
 6344     62.282   13.241   56.169
 6344.5     60.866   13.273   52.233
 6345     60.571   13.306   53.999
 6345.5     60.276   13.339   59.437
 6346     60.166   13.371   64.874
 6346.5     62.255   13.404   70.312
 6347     64.345   13.437   75.749
 6347.5     65.377   13.469   74.453
 6348     65.888   13.502   68.697
 6348.5     66.399   13.535   57.223
 6349     66.963   13.568   41.061
 6349.5     67.89   13.6   38.944
 6350     68.124   13.63   38.212
 6350.5     66.889   13.622   39.015
 6351     65.654   13.614   39.885
 6351.5     64.419   13.606   40.755
 6352     63.608   13.597   41.626
 6352.5     64.823   13.589   42.509
 6353     66.366   13.581   44.763
 6353.5     65.856   13.573   47.016
 6354     65.248   13.565   49.27
