#--------------------------------------------------#
#-------------------ENVERUS, INC.------------------#
#------------------WWW.ENVERUS.COM-----------------#
#------------------COPYRIGHT 2020------------------#
#--------------------------------------------------#
#THIS FILE MAY BE USED ONLY IN ACCORDANCE WITH A CURRENT SUBSCRIPTION AGREEMENT BETWEEN
#THE USER AND ENVERUS, INC. NO PART OF THIS FILE MAY BE REPRODUCED, USED, COPIED,
#MODIFIED, PROPAGATED, OR DISTRIBUTED EXCEPT IN ACCORDANCE WITH THE SUBSCRIPTION
#AGREEMENT. UNAUTHORIZED USE OR DISTRIBUTION OF ALL OR ANY PART OF THIS FILE MAY VIOLATE
#COPYRIGHT, TRADEMARK, AND/OR OTHER LAWS AND IS SUBJECT TO CIVIL AS WELL AS CRIMINAL
#SANCTIONS.
#--------------------------------------------------#
#THIS FILE IS PROVIDED "AS-IS" AND ALL WARRANTIES ARE EXPRESSLY DISCLAIMED, WHETHER
#EXPRESS, ORAL, IMPLIED, STATUTORY OR OTHERWISE, INCLUDING ANY IMPLIED WARRANTY OF FITNESS
#FOR A PARTICULAR PURPOSE, MERCHANTABILITY, TITLE OR NON-INFRINGEMENT, AND ANY WARRANTIES
#ARISING BY VIRTUE OF CUSTOM OF TRADE OR COURSE OF DEALING.  FURTHER, ENVERUS, INC.
#AND ITS LICENSORS DO NOT REPRESENT OR WARRANT THAT THIS FILE WILL MEET USER'S
#REQUIREMENTS OR ARE SUITABLE FOR USER'S NEEDS OR THAT THE DATA OR RESULTS PROVIDED IN
#CONJUNCTION THEREWITH ARE CORRECT, ACCURATE, TIMELY OR RELIABLE. THESE DISCLAIMERS SHALL
#APPLY REGARDLESS OF ANY FAILURE OF ESSENTIAL PURPOSE OF ANY LIMITED REMEDY.  SOME
#JURISDICTIONS DO NOT ALLOW THE EXCLUSION OF CERTAIN WARRANTIES SO SOME OF THE ABOVE
#EXCLUSIONS MAY NOT APPLY. IN NO EVENT SHALL ENVERUS, INC. OR ANY OF ITS AFFILIATES
#BE LIABLE UNDER ANY LEGAL THEORY, WHETHER IN TORT (INCLUDING WITHOUT LIMITATION
#NEGLIGENCE), CONTRACT, STRICT LIABILITY, STATUTORY OR OTHERWISE, FOR ANY SPECIAL,
#INCIDENTAL, CONSEQUENTIAL, EXEMPLARY, PUNITIVE OR INDIRECT DAMAGE OF ANY KIND, INCLUDING
#WITHOUT LIMITATION LOSS OF REVENUE, PROFITS, GOODWILL, USE, AND/OR DATA OR THE COST OF
#PROCUREMENT OF SUBSTITUTE GOODS OR SERVICES, EVEN IF APPRISED OF THE POSSIBILITY OF SUCH
#DAMAGES IN ADVANCE.
#--------------------------------------------------#

~VERSION INFORMATION
VERS. 2.0 : CWLS LOG ASCII STANDARD - VERSION 2.0
WRAP. NO : ONE LINE PER DEPTH STEP
~WELL INFORMATION
#MNEMONIC     .UNIT              VALUE :DESCRIPTION
STRT       .FT                2834.00000 :START DEPTH
STOP       .FT                7010.00000 :STOP DEPTH
STEP       .FT                0.50000 :STEP
NULL       .                -999.25000 :NULL VALUE
UWI       .                42389304120000 :UNIQUE WELL ID
API       .                42389304120000 :API NUMBER
COMP       .                 :COMPANY
WELL       .                 :WELL
FLD       .                 :FIELD
LOC       .                 :LOCATION
CNTY       .                 :COUNTY
STAT       .                 :STATE
CTRY       .                 :COUNTRY
SRVC       .                 :SERVICE COMPANY
DATE       .                 :DATE
~CURVE INFORMATION
#MNEMONIC     .UNIT      API CODE :CURVE DESCRIPTION
DEPTH       .FT                      :MEASURED DEPTH
CAL       .IN        UNKNOWN   :CAL
DT       .US/FT        UNKNOWN   :DT
GR       .GAPI        UNKNOWN   :GR
~A    DEPTH    CAL    DT    GR
# ...
4313.50000    14.09123    64.72228    76.81035
4314.00000    14.05988    63.54554    75.57671
4314.50000    14.02854    62.36880    74.34308
4315.00000    13.99720    61.19206    73.10944
4315.50000    13.96586    60.01532    71.87580
4316.00000    13.94681    58.83858    73.06294
4316.50000    13.95177    57.66184    75.11447
4317.00000    13.95673    56.75381    77.16600
4317.50000    13.96169    56.66934    77.04346
4318.00000    13.96665    60.34081    74.80910
4318.50000    13.97161    69.35491    72.57474
4319.00000    13.97657    74.79303    70.34039
4319.50000    13.98152    73.99545    68.10603
4320.00000    13.98649    73.19787    65.87167
4320.50000    13.99145    72.23315    66.61886
4321.00000    13.99640    71.25294    70.48211
4321.50000    14.00136    70.27273    74.34537
4322.00000    14.00632    69.29252    78.20862
4322.50000    14.01128    68.31231    82.07188
4323.00000    14.01624    67.33210    85.93513
4323.50000    14.02120    66.35190    89.79839
4324.00000    14.02616    65.37169    83.01561
4324.50000    14.03112    64.39148    59.11698
4325.00000    14.05333    63.41127    40.05623
4325.50000    14.12419    63.12569    38.14343
4326.00000    14.19506    63.75512    36.23062
4326.50000    14.26592    66.97395    34.31781
4327.00000    14.33679    70.19279    32.40501
4327.50000    14.40765    73.41161    30.49220
4328.00000    14.47852    76.63045    29.18395
4328.50000    14.54938    79.84928    29.48087
4329.00000    14.62025    82.21682    29.77779
4329.50000    14.69111    78.19084    30.07471
4330.00000    14.76198    74.16486    30.37162
4330.50000    14.83284    70.13889    30.66854
4331.00000    14.88093    66.11291    30.96546
4331.50000    14.90695    63.16722    31.08134
4332.00000    14.93297    65.75115    30.70128
4332.50000    14.95899    68.33509    30.32123
4333.00000    14.98502    70.91902    29.94118
4333.50000    15.01104    73.50295    29.56113
4334.00000    15.03706    76.08688    29.39203
4334.50000    15.06308    78.67081    29.79001
4335.00000    15.08910    81.25475    30.18798
4335.50000    15.11512    83.83868    30.58596
4336.00000    15.14114    86.42261    30.98393
4336.50000    15.16716    89.00654    31.44551
4337.00000    15.19318    91.59047    33.35422
4337.50000    15.21920    84.83161    35.26293
4338.00000    15.24522    78.77954    37.17165
4338.50000    15.27125    81.78637    39.08036
4339.00000    15.29727    84.07664    40.98907
4339.50000    15.32329    83.48794    40.49488
4340.00000    15.34931    82.89924    39.33120
4340.50000    15.37533    82.31054    38.16751
4341.00000    15.40135    81.72184    37.00383
4341.50000    15.42737    81.69508    35.84014
4342.00000    15.45339    81.69596    34.95495
4342.50000    15.47941    81.87442    34.28223
4343.00000    15.50543    82.43729    33.60950
4343.50000    15.53145    83.00016    32.93678
4344.00000    15.55747    81.83799    32.26405
4344.50000    15.56593    80.27126    31.76661
4345.00000    15.56779    78.70453    31.45179
4345.50000    15.56964    77.13780    31.13697
4346.00000    15.57149    75.57107    30.82215
4346.50000    15.57335    74.00434    30.50734
4347.00000    15.57520    72.43761    30.18673
4347.50000    15.57705    77.08731    30.18182
4348.00000    15.57891    103.28788    30.45061
4348.50000    15.58076    103.87238    30.71940
4349.00000    15.58261    103.32694    31.02247
4349.50000    15.58446    102.78150    31.68158
4350.00000    15.58632    101.99004    32.34068
4350.50000    15.58817    101.18579    32.99979
4351.00000    15.59002    100.38156    33.65889
4351.50000    15.59187    99.57731    34.31800
4352.00000    15.59373    98.77308    33.70604
4352.50000    15.59558    98.14261    32.98251
4353.00000    15.59743    97.89023    32.25898
4353.50000    15.59929    97.63785    31.53545
4354.00000    15.60114    97.41558    30.81192
4354.50000    15.60299    97.29644    30.08839
4355.00000    15.60485    97.17730    29.36486
4355.50000    15.60670    96.85361    28.76993
4356.00000    15.59843    96.40457    30.63475
4356.50000    15.56338    95.95553    32.49958
4357.00000    15.52834    94.50783    34.38703
4357.50000    15.49329    92.86645    36.36203
4358.00000    15.45824    92.85818    38.33702
4358.50000    15.42320    94.18147    40.31201
4359.00000    15.38815    95.50477    42.03389
4359.50000    15.35310    96.82807    43.55771
4360.00000    15.31806    96.05556    45.08154
4360.50000    15.28301    94.13458    46.60536
4361.00000    15.24797    92.21360    48.12919
4361.50000    15.21292    90.29262    50.06787
4362.00000    15.17788    88.37164    52.29431
4362.50000    15.14283    86.45067    54.52074
4363.00000    15.10827    84.52969    56.74718
4363.50000    15.07815    82.60871    58.80739
4364.00000    15.04803    80.68773    60.04268
4364.50000    15.01791    78.76675    61.27797
4365.00000    14.98779    76.84577    62.51325
4365.50000    14.95767    74.92479    63.74854
4366.00000    14.92755    73.19145    64.98383
4366.50000    14.89743    73.02718    66.21911
4367.00000    14.86731    72.86290    67.45440
4367.50000    14.83719    72.69863    68.68969
4368.00000    14.80707    72.53435    69.51314
4368.50000    14.77695    72.37008    70.19305
4369.00000    14.74683    72.20580    70.87296
4369.50000    14.71671    72.04153    71.55288
4370.00000    14.68659    71.87800    69.90284
4370.50000    14.65647    71.72850    67.83506
4371.00000    14.63482    71.57900    64.81407
4371.50000    14.63003    71.42950    60.19291
4372.00000    14.62523    71.32093    55.57175
4372.50000    14.62044    71.27210    50.95059
4373.00000    14.61565    71.22326    49.12813
4373.50000    14.61602    71.17443    47.52013
4374.00000    14.62119    71.12559    45.91214
4374.50000    14.62637    71.07676    44.30414
4375.00000    14.63155    71.01222    42.69615
4375.50000    14.63672    70.81170    41.08815
4376.00000    14.64190    70.61118    39.48015
4376.50000    14.64708    69.26238    37.87216
4377.00000    14.65225    67.57417    36.26416
4377.50000    14.65743    65.88597    34.65617
4378.00000    14.66261    64.84545    33.04817
4378.50000    14.66779    68.94285    31.44017
4379.00000    14.67296    71.29999    29.83218
4379.50000    14.67814    71.35980    30.30946
4380.00000    14.70022    71.41962    31.19534
4380.50000    14.72799    71.47944    32.08122
4381.00000    14.75577    71.79704    32.96710
4381.50000    14.78354    72.42723    33.85298
4382.00000    14.81132    73.05742    34.73886
4382.50000    14.83909    73.58208    34.76945
4383.00000    14.86687    73.10326    34.65437
4383.50000    14.89464    72.62444    34.53929
4384.00000    14.92241    72.14562    34.42420
4384.50000    14.95019    71.66680    34.30912
4385.00000    14.97634    71.20611    34.19404
4385.50000    14.99759    71.20692    34.07896
4386.00000    15.01883    71.20774    33.96388
4386.50000    15.04007    71.20856    33.84879
4387.00000    15.06132    71.20937    33.73371
4387.50000    15.08256    71.21019    33.61863
4388.00000    15.10380    69.18129    33.60339
4388.50000    15.12505    69.70401    34.03549
4389.00000    15.14629    70.54155    34.46760
4389.50000    15.16754    71.37909    34.89970
4390.00000    15.18878    72.21662    35.33181
4390.50000    15.21002    73.05416    34.93487
4391.00000    15.23127    73.80894    34.34462
4391.50000    15.24933    74.24322    33.75437
4392.00000    15.26525    74.67750    33.23973
4392.50000    15.28116    75.11178    32.77727
4393.00000    15.29708    75.54606    32.31482
4393.50000    15.31300    75.98034    31.85236
4394.00000    15.32892    76.41462    31.38990
4394.50000    15.34484    77.00376    30.92744
4395.00000    15.36075    77.88687    30.46499
4395.50000    15.37667    78.76997    30.00253
4396.00000    15.39259    79.65308    29.75743
4396.50000    15.40851    80.53618    29.88728
4397.00000    15.42443    81.41929    30.01712
4397.50000    15.44034    82.57913    30.14697
4398.00000    15.45626    83.30537    30.27681
4398.50000    15.47218    83.71919    30.40666
