#--------------------------------------------------#
#-------------------ENVERUS, INC.------------------#
#------------------WWW.ENVERUS.COM-----------------#
#------------------COPYRIGHT 2020------------------#
#--------------------------------------------------#
#THIS FILE MAY BE USED ONLY IN ACCORDANCE WITH A CURRENT SUBSCRIPTION AGREEMENT BETWEEN
#THE USER AND ENVERUS, INC. NO PART OF THIS FILE MAY BE REPRODUCED, USED, COPIED,
#MODIFIED, PROPAGATED, OR DISTRIBUTED EXCEPT IN ACCORDANCE WITH THE SUBSCRIPTION
#AGREEMENT. UNAUTHORIZED USE OR DISTRIBUTION OF ALL OR ANY PART OF THIS FILE MAY VIOLATE
#COPYRIGHT, TRADEMARK, AND/OR OTHER LAWS AND IS SUBJECT TO CIVIL AS WELL AS CRIMINAL
#SANCTIONS.
#--------------------------------------------------#
#THIS FILE IS PROVIDED "AS-IS" AND ALL WARRANTIES ARE EXPRESSLY DISCLAIMED, WHETHER
#EXPRESS, ORAL, IMPLIED, STATUTORY OR OTHERWISE, INCLUDING ANY IMPLIED WARRANTY OF FITNESS
#FOR A PARTICULAR PURPOSE, MERCHANTABILITY, TITLE OR NON-INFRINGEMENT, AND ANY WARRANTIES
#ARISING BY VIRTUE OF CUSTOM OF TRADE OR COURSE OF DEALING.  FURTHER, ENVERUS, INC.
#AND ITS LICENSORS DO NOT REPRESENT OR WARRANT THAT THIS FILE WILL MEET USER'S
#REQUIREMENTS OR ARE SUITABLE FOR USER'S NEEDS OR THAT THE DATA OR RESULTS PROVIDED IN
#CONJUNCTION THEREWITH ARE CORRECT, ACCURATE, TIMELY OR RELIABLE. THESE DISCLAIMERS SHALL
#APPLY REGARDLESS OF ANY FAILURE OF ESSENTIAL PURPOSE OF ANY LIMITED REMEDY.  SOME
#JURISDICTIONS DO NOT ALLOW THE EXCLUSION OF CERTAIN WARRANTIES SO SOME OF THE ABOVE
#EXCLUSIONS MAY NOT APPLY. IN NO EVENT SHALL ENVERUS, INC. OR ANY OF ITS AFFILIATES
#BE LIABLE UNDER ANY LEGAL THEORY, WHETHER IN TORT (INCLUDING WITHOUT LIMITATION
#NEGLIGENCE), CONTRACT, STRICT LIABILITY, STATUTORY OR OTHERWISE, FOR ANY SPECIAL,
#INCIDENTAL, CONSEQUENTIAL, EXEMPLARY, PUNITIVE OR INDIRECT DAMAGE OF ANY KIND, INCLUDING
#WITHOUT LIMITATION LOSS OF REVENUE, PROFITS, GOODWILL, USE, AND/OR DATA OR THE COST OF
#PROCUREMENT OF SUBSTITUTE GOODS OR SERVICES, EVEN IF APPRISED OF THE POSSIBILITY OF SUCH
#DAMAGES IN ADVANCE.
#--------------------------------------------------#

~VERSION INFORMATION
VERS. 2.0 : CWLS LOG ASCII STANDARD - VERSION 2.0
WRAP. NO : ONE LINE PER DEPTH STEP
~WELL INFORMATION
#MNEMONIC     .UNIT              VALUE :DESCRIPTION
STRT       .FT                2834.00000 :START DEPTH
STOP       .FT                7010.00000 :STOP DEPTH
STEP       .FT                0.50000 :STEP
NULL       .                -999.25000 :NULL VALUE
UWI       .                42389304120000 :UNIQUE WELL ID
API       .                42389304120000 :API NUMBER
COMP       .                 :COMPANY
WELL       .                 :WELL
FLD       .                 :FIELD
LOC       .                 :LOCATION
CNTY       .                 :COUNTY
STAT       .                 :STATE
CTRY       .                 :COUNTRY
SRVC       .                 :SERVICE COMPANY
DATE       .                 :DATE
~CURVE INFORMATION
#MNEMONIC     .UNIT      API CODE :CURVE DESCRIPTION
DEPTH       .FT                      :MEASURED DEPTH
CAL       .IN        UNKNOWN   :CAL
DT       .US/FT        UNKNOWN   :DT
GR       .GAPI        UNKNOWN   :GR
~A    DEPTH    CAL    DT    GR
# ...
3238.00000    13.53463    -999.25000    35.69588
3238.50000    13.48087    -999.25000    35.81618
3239.00000    13.42710    -999.25000    35.93647
3239.50000    13.37334    -999.25000    36.05677
3240.00000    13.31958    -999.25000    36.17706
3240.50000    13.26581    -999.25000    36.29736
3241.00000    13.21204    -999.25000    36.41766
3241.50000    13.24198    -999.25000    37.12997
3242.00000    13.29054    -999.25000    37.86859
3242.50000    13.33911    -999.25000    38.60721
3243.00000    13.38768    -999.25000    39.34583
3243.50000    13.43625    -999.25000    39.72147
3244.00000    13.48482    -999.25000    39.90736
3244.50000    13.53339    -999.25000    40.09326
3245.00000    13.58196    -999.25000    40.27916
3245.50000    13.63053    -999.25000    40.46506
3246.00000    13.67910    -999.25000    40.65096
3246.50000    13.72767    -999.25000    40.83686
3247.00000    13.77624    -999.25000    41.02276
3247.50000    13.83367    -999.25000    41.20866
3248.00000    13.89576    -999.25000    41.43530
3248.50000    13.95786    -999.25000    42.15027
3249.00000    14.01996    -999.25000    42.86524
3249.50000    14.08205    -999.25000    43.58021
3250.00000    14.14415    -999.25000    44.29518
3250.50000    14.17006    -999.25000    45.01015
3251.00000    14.17525    -999.25000    45.72513
3251.50000    14.18044    -999.25000    46.44010
3252.00000    14.18563    -999.25000    47.15507
3252.50000    14.19082    -999.25000    46.06393
3253.00000    14.19600    -999.25000    42.87347
3253.50000    14.20119    -999.25000    39.68301
3254.00000    14.20638    -999.25000    36.49255
3254.50000    14.21157    -999.25000    33.30209
3255.00000    14.21675    -999.25000    30.11163
3255.50000    14.22194    -999.25000    26.92116
3256.00000    14.22713    -999.25000    23.73070
3256.50000    14.23232    -999.25000    20.54024
3257.00000    14.23751    -999.25000    17.34978
3257.50000    14.24269    -999.25000    14.15932
3258.00000    14.24788    -999.25000    10.96886
3258.50000    14.25056    -999.25000    12.36645
3259.00000    14.24899    -999.25000    18.46250
3259.50000    14.24742    -999.25000    24.55854
3260.00000    14.24585    -999.25000    30.65458
3260.50000    14.24428    -999.25000    36.75062
3261.00000    14.24271    -999.25000    42.84667
3261.50000    14.24114    -999.25000    47.90206
3262.00000    14.23957    -999.25000    50.63556
3262.50000    14.23800    -999.25000    49.32678
3263.00000    14.23644    -999.25000    48.01799
3263.50000    14.23487    -999.25000    46.70921
3264.00000    14.23330    -999.25000    45.40042
3264.50000    14.23173    -999.25000    44.09164
3265.00000    14.23016    -999.25000    42.78285
3265.50000    14.22859    -999.25000    41.47407
3266.00000    14.22702    -999.25000    40.16528
3266.50000    14.22545    -999.25000    38.85650
3267.00000    14.24618    -999.25000    37.54771
3267.50000    14.28994    -999.25000    36.23893
3268.00000    14.33369    -999.25000    34.93015
3268.50000    14.37744    -999.25000    33.62136
3269.00000    14.42120    -999.25000    32.31258
3269.50000    14.46495    -999.25000    31.00379
3270.00000    14.50870    -999.25000    32.49640
3270.50000    14.55246    -999.25000    35.13116
3271.00000    14.59621    -999.25000    37.76591
3271.50000    14.63996    -999.25000    40.40067
3272.00000    14.68371    -999.25000    43.03543
3272.50000    14.72747    -999.25000    44.86922
3273.00000    14.77122    -999.25000    43.63736
3273.50000    14.81497    -999.25000    42.40550
3274.00000    14.85873    -999.25000    41.17363
3274.50000    14.90248    -999.25000    39.94177
3275.00000    14.94525    -999.25000    38.70991
3275.50000    14.98427    -999.25000    37.47805
3276.00000    15.02328    -999.25000    36.24619
3276.50000    15.06229    -999.25000    35.75529
3277.00000    15.10131    -999.25000    35.34790
3277.50000    15.14032    -999.25000    34.94052
3278.00000    15.17933    -999.25000    34.53313
3278.50000    15.21835    -999.25000    34.24248
3279.00000    15.25736    -999.25000    34.08080
3279.50000    15.29579    -999.25000    33.91912
3280.00000    15.28412    -999.25000    33.75744
3280.50000    15.27246    -999.25000    33.59575
3281.00000    15.26080    -999.25000    34.40890
3281.50000    15.24913    -999.25000    36.96329
3282.00000    15.23747    -999.25000    39.49082
3282.50000    15.22581    -999.25000    39.88520
3283.00000    15.21415    -999.25000    40.27957
3283.50000    15.20248    -999.25000    40.67395
3284.00000    15.19082    -999.25000    41.06832
3284.50000    15.17916    -999.25000    41.46269
3285.00000    15.16749    -999.25000    41.85707
3285.50000    15.15583    -999.25000    42.25144
3286.00000    15.14417    -999.25000    42.64581
3286.50000    15.13251    -999.25000    43.04019
3287.00000    15.13505    -999.25000    43.43456
3287.50000    15.14525    -999.25000    42.28313
3288.00000    15.15544    -999.25000    40.26584
3288.50000    15.16564    -999.25000    38.24854
3289.00000    15.17584    -999.25000    36.23124
3289.50000    15.18604    -999.25000    34.21395
3290.00000    15.19623    -999.25000    32.19665
3290.50000    15.20643    -999.25000    30.17936
3291.00000    15.21663    -999.25000    29.73010
3291.50000    15.22683    -999.25000    29.93316
3292.00000    15.23702    -999.25000    30.13623
3292.50000    15.24722    -999.25000    30.33930
3293.00000    15.25742    -999.25000    30.54237
3293.50000    15.26762    -999.25000    30.74543
3294.00000    15.27781    -999.25000    30.94850
3294.50000    15.28801    -999.25000    31.15157
3295.00000    15.29821    -999.25000    31.37485
3295.50000    15.30290    -999.25000    31.78586
3296.00000    15.29943    -999.25000    32.19687
3296.50000    15.29595    -999.25000    32.60788
3297.00000    15.29248    -999.25000    33.01890
3297.50000    15.28900    -999.25000    33.42991
3298.00000    15.28553    -999.25000    33.84092
3298.50000    15.28205    -999.25000    34.25193
3299.00000    15.27858    -999.25000    34.21681
3299.50000    15.27511    -999.25000    33.94977
3300.00000    15.27163    -999.25000    33.68273
3300.50000    15.26816    -999.25000    33.41569
3301.00000    15.26468    -999.25000    33.14865
3301.50000    15.26121    -999.25000    32.88161
3302.00000    15.25773    -999.25000    32.61456
3302.50000    15.25426    -999.25000    32.34752
3303.00000    15.25204    -999.25000    32.09494
3303.50000    15.26465    -999.25000    31.93173
3304.00000    15.27726    -999.25000    31.76853
3304.50000    15.28988    -999.25000    31.60532
3305.00000    15.30249    -999.25000    31.44211
3305.50000    15.31510    -999.25000    31.27890
3306.00000    15.32772    -999.25000    31.11569
3306.50000    15.34033    -999.25000    30.95248
3307.00000    15.35294    -999.25000    30.78927
3307.50000    15.36556    -999.25000    30.62606
3308.00000    15.37817    -999.25000    30.46286
3308.50000    15.39078    -999.25000    31.40482
3309.00000    15.40340    -999.25000    32.38288
3309.50000    15.41601    -999.25000    33.36093
3310.00000    15.42862    -999.25000    34.33899
3310.50000    15.44124    -999.25000    35.31705
3311.00000    15.45385    -999.25000    36.29511
3311.50000    15.46646    -999.25000    37.27316
3312.00000    15.47907    -999.25000    38.25122
3312.50000    15.49169    -999.25000    39.22928
3313.00000    15.50430    -999.25000    40.20734
3313.50000    15.51691    -999.25000    40.08628
3314.00000    15.52730    -999.25000    38.99110
3314.50000    15.52647    -999.25000    37.89591
3315.00000    15.52564    -999.25000    36.80073
3315.50000    15.52481    -999.25000    35.70555
3316.00000    15.52398    -999.25000    34.61036
3316.50000    15.52315    -999.25000    33.51518
3317.00000    15.52232    -999.25000    32.42000
3317.50000    15.52149    -999.25000    31.32481
3318.00000    15.52066    -999.25000    30.22963
3318.50000    15.51983    -999.25000    29.13445
3319.00000    15.51900    -999.25000    28.03926
3319.50000    15.51817    -999.25000    26.94408
