###############################################
##         ENVERUS                           ##
##         ESS - Open Hole                   ##
##         PERMIAN / DELAWARE                ##
##         Nov 04 2023  V4.0                 ##
##         42-389-30422-00-00                ##
###############################################
## Copyright 2017-2023  ENVERUS.  All Rights Reserved. 
## Confidential - Property of ENVERUS, use governed by terms and 
## conditions found within the existing Information Services Subscription Agreement 
## (as may be amended, the “ISSA”) between Customer and ENVERUS. 
## 
~VERSION INFORMATION
# MNEM.UNIT                               DATA : DESCRIPTION OF MNEMONIC
#-----.-----     ----------------------------- : -----------------------------
VERS.                                     2.00 : CWLS LOG ASCII STANDARD - VERSION 2.00
WRAP.                                       NO : MULTIPLE LINES PER DEPTH STEP
VEND.                                  ENVERUS : VENDOR
TYPE.                          ESS - OPEN HOLE : ENVERUS ESSENTIAL CURVES – ACCESSIBLE THROUGH ENVERUS PRISM(TM)
DOC.                                  31749874 : ENVERUS HEADER RAW DOCUMENT ID
#___________________________________________________________________________________________________ 
~WELL INFORMATION 
# u82sU1u0B8de5w9HEAjaYOtqLlVzfD+KUeD2ZoqivGgiUzwSeb1LYInaR9MNeJxDUIxxjb7EPbXz9g+KH10l6Q== 
# MNEM.UNIT                                              DATA : DESCRIPTION OF MNEMONIC 
#-----.-----                    ----------------------------- : ----------------------------- 
CNTY.                                                  REEVES : COUNTY 
STATE.                                                  TEXAS : STATE 
CNTRY.                                                    USA : COUNTRY 
API.                                             42-389-30422 : API (10 Digit) 
API_14.                                    42-389-30422-00-00 : API (14 Digits) 
API_14_std.                                 42-389-30422-0000 : API (14 Digits Standard) 
UWI.                                           42389304220000 : UNIQUE WELL ID 
WELL.                                    BECKHAM  AGNES 26  1 : WELL NAME
STRT.FT                                                  89.0 : START DEPTH
STOP.FT                                               15719.0 : STOP DEPTH
STEP.FT                                                   0.5 : STEP BETWEEN DEPTHS
NULL.                                                 -999.25 : NULL VALUE
COMP.                                     WALSH & WATTS  INC. : COMPANY
#___________________________________________________________________________________________________ 
~CURVE INFORMATION 
# MNEM.UNIT           : CURVE DESCRIPTION 
#-----.-----          : ----------------------------- 
 DEPT.FT               : MEASURED DEPTH 
 CALI.IN               : CALIPER (CAL - CAL) 
 GR.API                : GAMMA RAY (GR) 
 DT.US/FT              : SONIC DELTA TRANSIT TIME (DT) 
 #___________________________________________________________________________________________________ 
~A         DEPT           CALI             GR             DT
# ...
         9065.0         12.564         43.552         71.876
         9065.5         12.568         40.804         66.534
         9066.0         12.571         38.055         61.192
         9066.5         12.574         45.637         55.849
         9067.0         12.578         56.879         58.174
         9067.5         12.581         68.122         61.524
         9068.0         12.584         74.336         64.875
         9068.5         12.587         69.832         68.226
         9069.0         12.591         65.328         71.577
         9069.5         12.594         60.824         74.928
         9070.0         12.597         56.320         74.070
         9070.5         12.601         51.816         71.962
         9071.0         12.604         47.313         69.854
         9071.5         12.607         42.809         67.746
         9072.0         12.611         41.101         65.638
         9072.5         12.614         46.336         63.530
         9073.0         12.617         51.572         61.820
         9073.5         12.620         56.808         61.317
         9074.0         12.624         62.043         60.813
         9074.5         12.627         67.279         60.799
         9075.0         12.630         72.515         62.300
         9075.5         12.631         77.750         63.801
         9076.0         12.628         82.986         66.574
         9076.5         12.624         88.222         73.764
         9077.0         12.620         63.438         77.665
         9077.5         12.616         58.839         74.294
         9078.0         12.613         59.779         70.923
         9078.5         12.609         60.718         67.552
         9079.0         12.605         61.657         65.407
         9079.5         12.601         62.597         67.859
         9080.0         12.598         62.657         70.311
         9080.5         12.594         54.607         72.763
         9081.0         12.590         46.558         75.215
         9081.5         12.586         38.508         77.667
         9082.0         12.582         30.458         72.317
         9082.5         12.579         37.237         63.566
         9083.0         12.575         45.188         54.814
         9083.5         12.571         48.412         54.987
         9084.0         12.567         51.636         57.336
         9084.5         12.564         54.860         59.684
         9085.0         12.561         57.697         62.033
         9085.5         12.563         57.763         63.662
         9086.0         12.565         57.829         64.786
         9086.5         12.567         57.894         65.910
         9087.0         12.569         48.813         67.035
         9087.5         12.571         39.529         68.159
         9088.0         12.573         37.418         69.284
         9088.5         12.575         39.110         66.393
         9089.0         12.577         40.802         60.095
         9089.5         12.579         42.494         59.167
         9090.0         12.580         46.194         59.779
         9090.5         12.582         50.151         60.390
         9091.0         12.584         54.109         61.002
         9091.5         12.589         57.184         61.614
         9092.0         12.597         56.691         65.429
         9092.5         12.604         56.198         69.376
         9093.0         12.612         55.706         70.829
         9093.5         12.620         55.213         69.888
         9094.0         12.627         57.050         68.947
         9094.5         12.635         62.746         68.005
         9095.0         12.643         62.571         67.064
         9095.5         12.650         62.395         66.123
         9096.0         12.658         62.219         65.181
         9096.5         12.665         62.044         66.827
         9097.0         12.673         74.297         68.674
         9097.5         12.681         71.355         70.522
         9098.0         12.688         66.729         72.369
         9098.5         12.696         61.096         74.217
         9099.0         12.704         52.402         73.918
         9099.5         12.711         43.707         70.978
         9100.0         12.719         38.163         68.039
         9100.5         12.727         40.256         65.100
         9101.0         12.734         42.349         62.161
         9101.5         12.742         44.442         59.222
         9102.0         12.749         46.536         58.317
         9102.5         12.757         48.629         59.369
         9103.0         12.765         50.722         60.422
         9103.5         12.772         49.056         61.474
         9104.0         12.780         47.007         62.526
         9104.5         12.778         44.958         63.579
         9105.0         12.777         42.910         64.631
         9105.5         12.776         40.861         65.683
         9106.0         12.774         38.812         66.735
         9106.5         12.773         36.764         66.880
         9107.0         12.771         37.190         65.969
         9107.5         12.770         37.654         65.059
         9108.0         12.769         38.118         64.148
         9108.5         12.767         38.581         63.238
         9109.0         12.766         35.574         62.327
         9109.5         12.764         32.741         61.417
         9110.0         12.763         30.572         60.506
         9110.5         12.762         28.403         59.865
         9111.0         12.760         26.235         59.362
         9111.5         12.759         24.066         58.859
         9112.0         12.758         24.176         58.357
         9112.5         12.761         24.624         57.854
         9113.0         12.777         25.073         57.352
         9113.5         12.794         25.521         56.849
         9114.0         12.811         25.969         56.346
         9114.5         12.827         26.418         55.844
         9115.0         12.844         26.866         55.372
         9115.5         12.843         27.315         55.849
         9116.0         12.820         27.763         56.326
         9116.5         12.797         29.973         56.786
         9117.0         12.773         32.955         56.501
         9117.5         12.750         34.144         56.215
         9118.0         12.734         33.458         55.929
         9118.5         12.740         32.772         55.644
         9119.0         12.746         32.086         55.358
         9119.5         12.752         31.399         55.073
         9120.0         12.757         30.713         55.002
         9120.5         12.763         30.027         55.253
         9121.0         12.769         28.494         55.504
         9121.5         12.775         26.399         55.755
         9122.0         12.780         24.422         56.006
         9122.5         12.786         24.672         55.568
         9123.0         12.792         24.923         54.643
         9123.5         12.798         25.173         53.719
         9124.0         12.803         25.424         52.794
         9124.5         12.806         25.674         51.869
         9125.0         12.806         25.924         51.744
         9125.5         12.806         26.175         51.869
         9126.0         12.806         26.425         51.995
         9126.5         12.806         26.676         52.120
         9127.0         12.807         26.926         52.245
         9127.5         12.809         28.297         52.719
         9128.0         12.824         31.693         53.851
         9128.5         12.839         35.090         54.984
         9129.0         12.854         38.486         56.117
         9129.5         12.869         41.883         58.152
         9130.0         12.883         45.279         60.501
         9130.5         12.898         48.675         62.849
