###############################################
##         ENVERUS                           ##
##         ESS - Open Hole                   ##
##         PERMIAN / DELAWARE                ##
##         Nov 04 2023  V4.0                 ##
##         42-389-30283-00-00                ##
###############################################
## Copyright 2017-2023  ENVERUS.  All Rights Reserved. 
## Confidential - Property of ENVERUS, use governed by terms and 
## conditions found within the existing Information Services Subscription Agreement 
## (as may be amended, the “ISSA”) between Customer and ENVERUS. 
## 
~VERSION INFORMATION
# MNEM.UNIT                               DATA : DESCRIPTION OF MNEMONIC
#-----.-----     ----------------------------- : -----------------------------
VERS.                                     2.00 : CWLS LOG ASCII STANDARD - VERSION 2.00
WRAP.                                       NO : MULTIPLE LINES PER DEPTH STEP
VEND.                                  ENVERUS : VENDOR
TYPE.                          ESS - OPEN HOLE : ENVERUS ESSENTIAL CURVES – ACCESSIBLE THROUGH ENVERUS PRISM(TM)
DOC.                                  32052778 : ENVERUS HEADER RAW DOCUMENT ID
#___________________________________________________________________________________________________ 
~WELL INFORMATION 
# CKTmoz7OsKELnwE/IP0i4B9qEmEewtam1JWnvb6ghWZsYWfxLv+2EOc67unJ6Yof0W+RqImtxqI23GomxkzDLA== 
# MNEM.UNIT                                              DATA : DESCRIPTION OF MNEMONIC 
#-----.-----                    ----------------------------- : ----------------------------- 
CNTY.                                                  REEVES : COUNTY 
STATE.                                                  TEXAS : STATE 
CNTRY.                                                    USA : COUNTRY 
API.                                             42-389-30283 : API (10 Digit) 
API_14.                                    42-389-30283-00-00 : API (14 Digits) 
API_14_std.                                 42-389-30283-0000 : API (14 Digits Standard) 
UWI.                                           42389302830000 : UNIQUE WELL ID 
WELL.                       RANDOLPH  A. T.  ET AL-STATE  1 L : WELL NAME
STRT.FT                                                 155.0 : START DEPTH
STOP.FT                                               15740.0 : STOP DEPTH
STEP.FT                                                   0.5 : STEP BETWEEN DEPTHS
NULL.                                                 -999.25 : NULL VALUE
COMP.                                     RIO PETROLEUM  INC. : COMPANY
#___________________________________________________________________________________________________ 
~CURVE INFORMATION 
# MNEM.UNIT           : CURVE DESCRIPTION 
#-----.-----          : ----------------------------- 
 DEPT.FT               : MEASURED DEPTH 
 CALI__A.IN            : CALIPER (CAL - CAL) 
 GR__A.API             : GAMMA RAY (GR) 
 SP__A.MV              : SPONTANEOUS POTENTIAL (SP) 
 DT__A.US/FT           : SONIC DELTA TRANSIT TIME (DT) 
 RESD__A.OHMM          : DEEP INDUCTION RESISTIVITY (ILD - ILD) 
 NPHI__A.V/V           : NEUTRON POROSITY (NPH - NPH) 
 #___________________________________________________________________________________________________ 
~A         DEPT        CALI__A          GR__A          SP__A          DT__A        RESD__A        NPHI__A
# ...
         8553.0         12.507         33.826       -999.250         57.321       -999.250     -999.25000
         8553.5         12.507         32.563       -999.250         58.914       -999.250     -999.25000
         8554.0         12.513         31.299       -999.250         60.506       -999.250     -999.25000
         8554.5         12.520         33.669       -999.250         62.098       -999.250     -999.25000
         8555.0         12.526         39.968       -999.250         63.690       -999.250     -999.25000
         8555.5         12.533         44.719       -999.250         65.317       -999.250     -999.25000
         8556.0         12.539         50.019       -999.250         66.946       -999.250     -999.25000
         8556.5         12.546         57.524       -999.250         68.575       -999.250     -999.25000
         8557.0         12.552         59.624       -999.250         70.204       -999.250     -999.25000
         8557.5         12.559         59.125       -999.250         71.833       -999.250     -999.25000
         8558.0         12.565         58.627       -999.250         72.946       -999.250     -999.25000
         8558.5         12.572         63.355       -999.250         72.661       -999.250     -999.25000
         8559.0         12.578         66.873       -999.250         72.376       -999.250     -999.25000
         8559.5         12.585         69.307       -999.250         71.418       -999.250     -999.25000
         8560.0         12.592         71.211       -999.250         70.132       -999.250     -999.25000
         8560.5         12.598         68.999       -999.250         70.700       -999.250     -999.25000
         8561.0         12.613         64.771       -999.250         71.268       -999.250     -999.25000
         8561.5         12.629         63.647       -999.250         71.107       -999.250     -999.25000
         8562.0         12.646         65.948       -999.250         69.781       -999.250     -999.25000
         8562.5         12.662         68.862       -999.250         68.456       -999.250     -999.25000
         8563.0         12.679         69.811       -999.250         67.130       -999.250     -999.25000
         8563.5         12.695         70.329       -999.250         65.805       -999.250     -999.25000
         8564.0         12.711         67.824       -999.250         66.199       -999.250     -999.25000
         8564.5         12.728         63.002       -999.250         69.232       -999.250     -999.25000
         8565.0         12.734         58.853       -999.250         72.264       -999.250     -999.25000
         8565.5         12.735         59.224       -999.250         75.297       -999.250     -999.25000
         8566.0         12.735         68.022       -999.250         74.858       -999.250     -999.25000
         8566.5         12.735         75.526       -999.250         74.145       -999.250     -999.25000
         8567.0         12.735         74.936       -999.250         73.209       -999.250     -999.25000
         8567.5         12.735         72.424       -999.250         70.558       -999.250     -999.25000
         8568.0         12.736         68.064       -999.250         67.907       -999.250     -999.25000
         8568.5         12.736         63.386       -999.250         65.255       -999.250     -999.25000
         8569.0         12.736         58.696       -999.250         62.604       -999.250     -999.25000
         8569.5         12.736         54.122       -999.250         59.953       -999.250     -999.25000
         8570.0         12.735         50.725       -999.250         60.176       -999.250     -999.25000
         8570.5         12.731         48.769       -999.250         61.014       -999.250     -999.25000
         8571.0         12.727         49.464       -999.250         63.109       -999.250     -999.25000
         8571.5         12.723         51.344       -999.250         67.741       -999.250     -999.25000
         8572.0         12.719         60.817       -999.250         68.579       -999.250     -999.25000
         8572.5         12.715         64.269       -999.250         69.416       -999.250     -999.25000
         8573.0         12.710         65.445       -999.250         70.393       -999.250     -999.25000
         8573.5         12.706         67.069       -999.250         71.486       -999.250     -999.25000
         8574.0         12.702         72.074       -999.250         72.222       -999.250     -999.25000
         8574.5         12.698         71.886       -999.250         72.274       -999.250     -999.25000
         8575.0         12.694         71.698       -999.250         71.465       -999.250     -999.25000
         8575.5         12.690         71.510       -999.250         69.676       -999.250     -999.25000
         8576.0         12.685         66.751       -999.250         67.638       -999.250     -999.25000
         8576.5         12.681         60.363       -999.250         64.975       -999.250     -999.25000
         8577.0         12.677         53.669       -999.250         62.313       -999.250     -999.25000
         8577.5         12.673         46.974       -999.250         59.650       -999.250     -999.25000
         8578.0         12.669         40.360       -999.250         59.471       -999.250     -999.25000
         8578.5         12.665         40.027       -999.250         59.699       -999.250     -999.25000
         8579.0         12.660         39.694       -999.250         61.515       -999.250     -999.25000
         8579.5         12.656         39.361       -999.250         63.997       -999.250     -999.25000
         8580.0         12.653         44.824       -999.250         65.220       -999.250     -999.25000
         8580.5         12.674         48.792       -999.250         66.016       -999.250     -999.25000
         8581.0         12.694         50.654       -999.250         65.214       -999.250     -999.25000
         8581.5         12.715         53.271       -999.250         64.413       -999.250     -999.25000
         8582.0         12.735         52.772       -999.250         66.348       -999.250     -999.25000
         8582.5         12.755         53.638       -999.250         69.146       -999.250     -999.25000
         8583.0         12.776         54.770       -999.250         70.303       -999.250     -999.25000
         8583.5         12.777         55.903       -999.250         71.460       -999.250     -999.25000
         8584.0         12.754         63.470       -999.250         71.423       -999.250     -999.25000
         8584.5         12.732         66.404       -999.250         70.674       -999.250     -999.25000
         8585.0         12.710         68.756       -999.250         70.544       -999.250     -999.25000
         8585.5         12.687         68.425       -999.250         70.617       -999.250     -999.25000
         8586.0         12.665         65.658       -999.250         70.690       -999.250     -999.25000
         8586.5         12.642         65.018       -999.250         70.763       -999.250     -999.25000
         8587.0         12.620         65.082       -999.250         69.057       -999.250     -999.25000
         8587.5         12.607         63.898       -999.250         66.517       -999.250     -999.25000
         8588.0         12.599         59.870       -999.250         63.976       -999.250     -999.25000
         8588.5         12.592         51.347       -999.250         63.231       -999.250     -999.25000
         8589.0         12.584         49.526       -999.250         64.543       -999.250     -999.25000
         8589.5         12.576         52.083       -999.250         67.338       -999.250     -999.25000
         8590.0         12.569         54.281       -999.250         70.133       -999.250     -999.25000
         8590.5         12.561         65.297       -999.250         72.147       -999.250     -999.25000
