###############################################
##         ENVERUS                           ##
##         EPlus - Open Hole                 ##
##         PERMIAN / DELAWARE                ##
##         Copyright ©                       ##
##         Enverus Version - V4.0            ##
##         Nov 21 2023                       ##
##         42-389-34025-00-00                ##
###############################################
## Copyright 2017-2023  ENVERUS.  All Rights Reserved. 
## Confidential - Property of ENVERUS, use governed by terms and 
## conditions found within the existing Information Services Subscription Agreement 
## (as may be amended, the “ISSA”) between Customer and ENVERUS. 
## 
#___________________________________________________________________________________________________
~VERSION INFORMATION
# MNEM.UNIT                               DATA : DESCRIPTION OF MNEMONIC
#-----.-----     ----------------------------- : -----------------------------
VERS.                                     2.00 : CWLS LOG ASCII STANDARD - VERSION 2.00
WRAP.                                       NO : MULTIPLE LINES PER DEPTH STEP
VEND.                                  ENVERUS : VENDOR
ENV_TYPE.                    EPLUS - OPEN HOLE : Enverus Essential Plus Curves – Accessible through Enverus Core(TM)
ENV_VERS.                                 V4.0 : EPlus - Open Hole Version number 
ENV_DOC.                     25660047,32872652 : ENVERUS Header Document id
ENV_REF.                               PERMIAN : ENVERUS BASIN OR PLAY APPLIED REFERENCE LIMITS 
#___________________________________________________________________________________________________ 
~WELL INFORMATION 
# uyaQ8P8kQDJ9DXFS5hR1PxmExEOYaAUkY5f3/tnOS+scoPAUWgXA1zCIHGRbWCuSuUcwDzaESCjqjWQ81XhadA== 
# MNEM.UNIT                                              DATA : DESCRIPTION OF MNEMONIC 
#-----.-----                    ----------------------------- : ----------------------------- 
CNTY.                                                  REEVES : COUNTY 
STATE.                                                  TEXAS : STATE 
CNTRY.                                                    USA : COUNTRY 
API.                                             42-389-34025 : API (10 Digit) 
API_14.                                    42-389-34025-00-00 : API (14 Digits) 
API_14_std.                                 42-389-34025-0000 : API (14 Digits Standard) 
UWI.                                           42389340250000 : UNIQUE WELL ID
STRT.FT                                                  3800 : START DEPTH
STOP.FT                                                 10653 : STOP DEPTH
STEP.FT                                                   0.5 : STEP DEPTH
NULL.                                               -999.2500 : NULL VALUE
WELL.                                 CLEVELAND STATE 57-23 5 : WELL NAME 
GR_ELEV.                                                 3095 : GROUND ELEVATION 
SLAT.                                                 31.5796 : SURFACE LATITUDE 
SLONG.                                              -103.8242 : SURFACE LONGITUDE
#___________________________________________________________________________________________________ 
~CURVE INFORMATION 
# MNEM.UNIT           : CURVE DESCRIPTION 
#-----.-----          : ----------------------------- 
DEPT.FT               : MEASURED DEPTH 
CALI_E.IN             : ENVERUS CALIPER - CLEANED BLENDED AND LUMPED 
CALI_F.               : ENVERUS CALIPER - OUTLIER INDICATOR - 0=(IN BOUNDS) 1=(OUT OF BOUNDS) 2=(REPEATING) 
CALI_S.               : ENVERUS CALIPER - SOURCE INDICATOR 
CALI_U.               : ENVERUS CALIPER - OPTION INDICATOR - 0=(NO OPTION) 1=(OTHER OPTIONS) 
GR_E.API              : ENVERUS GAMMA RAY - CLEANED BLENDED AND LUMPED 
GR_F.                 : ENVERUS GAMMA RAY - OUTLIER INDICATOR - 0=(IN BOUNDS) 1=(OUT OF BOUNDS) 2=(REPEATING) 
GR_S.                 : ENVERUS GAMMA RAY - SOURCE INDICATOR 
GR_U.                 : ENVERUS GAMMA RAY - OPTION INDICATOR - 0=(NO OPTION) 1=(OTHER OPTIONS) 
DT_E.US/FT            : ENVERUS SONIC TRAVEL TIME - CLEANED BLENDED AND LUMPED 
DT_F.                 : ENVERUS SONIC TRAVEL TIME - OUTLIER INDICATOR - 0=(IN BOUNDS) 1=(OUT OF BOUNDS) 2=(REPEATING) 
DT_S.                 : ENVERUS SONIC TRAVEL TIME - SOURCE INDICATOR 
DT_U.                 : ENVERUS SONIC TRAVEL TIME - OPTION INDICATOR - 0=(NO OPTION) 1=(OTHER OPTIONS)
#___________________________________________________________________________________________________ 
~A         DEPT         CALI_E         CALI_F         CALI_S         CALI_U           GR_E           GR_F           GR_S           GR_U           DT_E           DT_F           DT_S           DT_U
# ...
       10606.00          9.369           0.00           0.00           0.00       -999.250        -999.25        -999.25        -999.25       72.52400           0.00           0.00           0.00
       10606.50          9.369           0.00           0.00           0.00       -999.250        -999.25        -999.25        -999.25       71.92500           0.00           0.00           0.00
       10607.00          9.370           0.00           0.00           0.00       -999.250        -999.25        -999.25        -999.25       71.14100           0.00           0.00           0.00
       10607.50          9.371           0.00           0.00           0.00       -999.250        -999.25        -999.25        -999.25       70.25500           0.00           0.00           0.00
       10608.00          9.372           0.00           0.00           0.00       -999.250        -999.25        -999.25        -999.25       70.99400           0.00           0.00           0.00
       10608.50          9.373           0.00           0.00           0.00       -999.250        -999.25        -999.25        -999.25       71.82800           0.00           0.00           0.00
       10609.00          9.374           0.00           0.00           0.00       -999.250        -999.25        -999.25        -999.25       72.67800           0.00           0.00           0.00
       10609.50          9.375           0.00           0.00           0.00       -999.250        -999.25        -999.25        -999.25       73.59300           0.00           0.00           0.00
       10610.00          9.376           0.00           0.00           0.00       -999.250        -999.25        -999.25        -999.25       74.51900           0.00           0.00           0.00
       10610.50          9.376           0.00           0.00           0.00       -999.250        -999.25        -999.25        -999.25       75.45200           0.00           0.00           0.00
       10611.00          9.377           0.00           0.00           0.00       -999.250        -999.25        -999.25        -999.25       76.37700           0.00           0.00           0.00
       10611.50          9.378           0.00           0.00           0.00       -999.250        -999.25        -999.25        -999.25       76.44700           0.00           0.00           0.00
       10612.00          9.379           0.00           0.00           0.00       -999.250        -999.25        -999.25        -999.25       75.94000           0.00           0.00           0.00
       10612.50          9.380           0.00           0.00           0.00       -999.250        -999.25        -999.25        -999.25       75.92600           0.00           0.00           0.00
       10613.00          9.381           0.00           0.00           0.00       -999.250        -999.25        -999.25        -999.25       76.20700           0.00           0.00           0.00
       10613.50          9.382           0.00           0.00           0.00       -999.250        -999.25        -999.25        -999.25       75.55000           0.00           0.00           0.00
       10614.00          9.383           0.00           0.00           0.00       -999.250        -999.25        -999.25        -999.25       75.39700           0.00           0.00           0.00
       10614.50          9.384           0.00           0.00           0.00       -999.250        -999.25        -999.25        -999.25       75.25100           0.00           0.00           0.00
       10615.00          9.377           0.00           0.00           0.00       -999.250        -999.25        -999.25        -999.25       74.98600           0.00           0.00           0.00
       10615.50          9.370           0.00           0.00           0.00       -999.250        -999.25        -999.25        -999.25       74.20600           0.00           0.00           0.00
       10616.00          9.363           0.00           0.00           0.00       -999.250        -999.25        -999.25        -999.25       72.02800           0.00           0.00           0.00
       10616.50          9.355           0.00           0.00           0.00       -999.250        -999.25        -999.25        -999.25       69.92300           0.00           0.00           0.00
       10617.00          9.348           0.00           0.00           0.00       -999.250        -999.25        -999.25        -999.25       68.78900           0.00           0.00           0.00
       10617.50          9.349           0.00           0.00           0.00       -999.250        -999.25        -999.25        -999.25       68.66000           0.00           0.00           0.00
       10618.00          9.368           0.00           0.00           0.00       -999.250        -999.25        -999.25        -999.25       68.70100           0.00           0.00           0.00
       10618.50          9.384           0.00           0.00           0.00       -999.250        -999.25        -999.25        -999.25       68.73700           0.00           0.00           0.00
       10619.00          9.382           0.00           0.00           0.00       -999.250        -999.25        -999.25        -999.25       69.30300           0.00           0.00           0.00
       10619.50          9.380           0.00           0.00           0.00       -999.250        -999.25        -999.25        -999.25       69.99500           0.00           0.00           0.00
       10620.00          9.378           0.00           0.00           0.00       -999.250        -999.25        -999.25        -999.25       70.68900           0.00           0.00           0.00
       10620.50          9.376           0.00           0.00           0.00       -999.250        -999.25        -999.25        -999.25       71.35000           0.00           0.00           0.00
       10621.00          9.375           0.00           0.00           0.00       -999.250        -999.25        -999.25        -999.25       71.30600           0.00           0.00           0.00
       10621.50          9.373           0.00           0.00           0.00       -999.250        -999.25        -999.25        -999.25       71.26200           0.00           0.00           0.00
       10622.00          9.371           0.00           0.00           0.00       -999.250        -999.25        -999.25        -999.25       70.99600           0.00           0.00           0.00
       10622.50          9.369           0.00           0.00           0.00       -999.250        -999.25        -999.25        -999.25       70.40200           0.00           0.00           0.00
       10623.00          9.368           0.00           0.00           0.00       -999.250        -999.25        -999.25        -999.25       69.53900           0.00           0.00           0.00
       10623.50          9.366           0.00           0.00           0.00       -999.250        -999.25        -999.25        -999.25       68.68100           0.00           0.00           0.00
       10624.00          9.364           0.00           0.00           0.00       -999.250        -999.25        -999.25        -999.25       68.40700           0.00           0.00           0.00
       10624.50          9.363           0.00           0.00           0.00       -999.250        -999.25        -999.25        -999.25       68.69100           0.00           0.00           0.00
       10625.00          9.361           0.00           0.00           0.00       -999.250        -999.25        -999.25        -999.25       69.65000           0.00           0.00           0.00
       10625.50          9.359           0.00           0.00           0.00       -999.250        -999.25        -999.25        -999.25       70.33600           0.00           0.00           0.00
       10626.00          9.357           0.00           0.00           0.00       -999.250        -999.25        -999.25        -999.25       71.05000           0.00           0.00           0.00
