#--------------------------------------------------#
#-------------------ENVERUS, INC.------------------#
#------------------WWW.ENVERUS.COM-----------------#
#------------------COPYRIGHT 2020------------------#
#--------------------------------------------------#
#THIS FILE MAY BE USED ONLY IN ACCORDANCE WITH A CURRENT SUBSCRIPTION AGREEMENT BETWEEN
#THE USER AND ENVERUS, INC. NO PART OF THIS FILE MAY BE REPRODUCED, USED, COPIED,
#MODIFIED, PROPAGATED, OR DISTRIBUTED EXCEPT IN ACCORDANCE WITH THE SUBSCRIPTION
#AGREEMENT. UNAUTHORIZED USE OR DISTRIBUTION OF ALL OR ANY PART OF THIS FILE MAY VIOLATE
#COPYRIGHT, TRADEMARK, AND/OR OTHER LAWS AND IS SUBJECT TO CIVIL AS WELL AS CRIMINAL
#SANCTIONS.
#--------------------------------------------------#
#THIS FILE IS PROVIDED "AS-IS" AND ALL WARRANTIES ARE EXPRESSLY DISCLAIMED, WHETHER
#EXPRESS, ORAL, IMPLIED, STATUTORY OR OTHERWISE, INCLUDING ANY IMPLIED WARRANTY OF FITNESS
#FOR A PARTICULAR PURPOSE, MERCHANTABILITY, TITLE OR NON-INFRINGEMENT, AND ANY WARRANTIES
#ARISING BY VIRTUE OF CUSTOM OF TRADE OR COURSE OF DEALING.  FURTHER, ENVERUS, INC.
#AND ITS LICENSORS DO NOT REPRESENT OR WARRANT THAT THIS FILE WILL MEET USER'S
#REQUIREMENTS OR ARE SUITABLE FOR USER'S NEEDS OR THAT THE DATA OR RESULTS PROVIDED IN
#CONJUNCTION THEREWITH ARE CORRECT, ACCURATE, TIMELY OR RELIABLE. THESE DISCLAIMERS SHALL
#APPLY REGARDLESS OF ANY FAILURE OF ESSENTIAL PURPOSE OF ANY LIMITED REMEDY.  SOME
#JURISDICTIONS DO NOT ALLOW THE EXCLUSION OF CERTAIN WARRANTIES SO SOME OF THE ABOVE
#EXCLUSIONS MAY NOT APPLY. IN NO EVENT SHALL ENVERUS, INC. OR ANY OF ITS AFFILIATES
#BE LIABLE UNDER ANY LEGAL THEORY, WHETHER IN TORT (INCLUDING WITHOUT LIMITATION
#NEGLIGENCE), CONTRACT, STRICT LIABILITY, STATUTORY OR OTHERWISE, FOR ANY SPECIAL,
#INCIDENTAL, CONSEQUENTIAL, EXEMPLARY, PUNITIVE OR INDIRECT DAMAGE OF ANY KIND, INCLUDING
#WITHOUT LIMITATION LOSS OF REVENUE, PROFITS, GOODWILL, USE, AND/OR DATA OR THE COST OF
#PROCUREMENT OF SUBSTITUTE GOODS OR SERVICES, EVEN IF APPRISED OF THE POSSIBILITY OF SUCH
#DAMAGES IN ADVANCE.
#--------------------------------------------------#

~VERSION INFORMATION
VERS. 2.0 : CWLS LOG ASCII STANDARD - VERSION 2.0
WRAP.  NO : ONE LINE PER DEPTH STEP
~WELL INFORMATION
#MNEMONIC     .UNIT              VALUE :DESCRIPTION
STRT       .FT                24 :START DEPTH
STOP       .FT                5035 :STOP DEPTH
STEP       .FT                   0.500 :STEP
NULL       .                  -999.250 :NULL
UWI        .              42389314500000 :UNIQUE WELL ID
API        .              42389314500000 :API NUMBER
COMP       .         SLEDGE BROS. OIL CO. :COMPANY
WELL       .        ELIZABETH MITCHELL  1 :WELL
DATE       .                18-DEC-1983 :LOG DATE
~CURVE INFORMATION
#MNEMONIC     .UNIT      API CODE :CURVE DESCRIPTION
DEPTH       .FT                      :MEASURED DEPTH
CAL.INCH        UNKNOWN   :CAL
DT.US/FT        UNKNOWN   :DT
GR.API        UNKNOWN   :GR
~A    DEPTH    CAL    DT    GR
# ...
 4000.5     9.054   78.308   134.007
 4001     9.06   74.792   118.212
 4001.5     9.065   71.628   107.348
 4002     9.07   70.262   87.311
 4002.5     9.076   68.895   78.446
 4003     9.081   68.425   77.14
 4003.5     9.086   68.783   77.714
 4004     9.092   69.366   77.696
 4004.5     9.097   69.948   74.497
 4005     9.102   69.942   70.992
 4005.5     9.108   69.855   67.786
 4006     9.113   70.547   67.068
 4006.5     9.118   70.715   66.026
 4007     9.124   69.971   62.399
 4007.5     9.131   68.889   58.465
 4008     9.142   67.802   54.157
 4008.5     9.154   67.643   52.435
 4009     9.165   68.056   53.628
 4009.5     9.176   68.469   56.335
 4010     9.187   68.818   55.877
 4010.5     9.199   69.033   52.435
 4011     9.21   69.247   50.003
 4011.5     9.221   69.462   48.941
 4012     9.232   70.86   49.815
 4012.5     9.243   71.62   48.578
 4013     9.261   70.84   48.225
 4013.5     9.327   70.06   46.115
 4014     9.392   69.73   44.71
 4014.5     9.458   70.477   44.159
 4015     9.51   72.979   44.478
 4015.5     9.539   76.356   45.653
 4016     9.567   78.056   46.827
 4016.5     9.596   78.465   48.002
 4017     9.625   78.694   50.564
 4017.5     9.654   78.662   54.525
 4018     9.693   78.225   58.843
 4018.5     9.738   77.787   63.163
 4019     9.782   77.349   66.221
 4019.5     9.837   76.925   64.422
 4020     9.892   77.139   61.008
 4020.5     9.948   77.777   56.997
 4021     10.003   78.416   52.987
 4021.5     10.059   79.055   49.712
 4022     10.114   79.693   46.66
 4022.5     10.138   80.068   45.6
 4023     10.163   80.296   45.763
 4023.5     10.187   80.524   47.511
 4024     10.211   80.326   49.259
 4024.5     10.236   79.881   48.53
 4025     10.26   79.436   47.611
 4025.5     10.285   79.484   47.879
 4026     10.309   79.841   49.477
 4026.5     10.333   80.198   51.956
 4027     10.358   80.555   57.314
 4027.5     10.382   80.913   57.888
 4028     10.406   81.27   58.283
 4028.5     10.431   81.854   55.559
 4029     10.455   82.525   52.834
 4029.5     10.471   82.615   50.11
 4030     10.48   82.421   47.398
 4030.5     10.489   81.711   47.61
 4031     10.499   81.001   51.778
 4031.5     10.508   81.077   53.966
 4032     10.518   81.324   52.116
 4032.5     10.527   81.571   48.886
 4033     10.537   81.779   45.657
 4033.5     10.546   81.37   44.318
 4034     10.556   80.961   43.675
 4034.5     10.565   80.906   46.011
 4035     10.575   81.024   49.171
 4035.5     10.584   81.061   49.924
 4036     10.59   80.899   49.776
 4036.5     10.577   80.641   50.119
 4037     10.565   79.978   51.31
 4037.5     10.552   78.372   51.007
 4038     10.54   77.14   48.151
 4038.5     10.527   76.28   43.829
 4039     10.515   76.064   42.015
 4039.5     10.502   76.471   42.082
 4040     10.49   77.263   42.889
 4040.5     10.477   78.077   47.185
 4041     10.463   79.069   53.734
 4041.5     10.447   80.061   53.843
 4042     10.431   80.476   51.766
 4042.5     10.415   80.457   49.248
 4043     10.399   79.979   46.555
 4043.5     10.384   79.5   43.862
 4044     10.368   79.212   42.271
 4044.5     10.352   79.303   41.572
 4045     10.336   79.394   48.068
 4045.5     10.32   78.79   54.563
 4046     10.305   77.888   61.058
 4046.5     10.289   76.988   63.911
 4047     10.273   76.101   66.125
 4047.5     10.257   75.559   68.555
 4048     10.24   75.352   71.101
 4048.5     10.222   75.279   71.451
 4049     10.205   75.44   64.183
 4049.5     10.187   75.44   57.672
 4050     10.17   75.397   54.896
 4050.5     10.152   75.629   57.746
 4051     10.134   75.862   58.22
 4051.5     10.117   75.892   57.919
 4052     10.086   75.857   57.619
 4052.5     10.055   75.823   57.318
 4053     10.024   75.858   57.185
 4053.5     9.992   76.413   58.641
 4054     9.961   76.968   60.096
 4054.5     9.929   77.522   60.016
 4055     9.898   78.077   59.022
 4055.5     9.867   78.055   58.702
 4056     9.835   77.723   60.148
 4056.5     9.804   77.278   67.241
 4057     9.773   77.102   74.536
 4057.5     9.753   77.334   72.821
 4058     9.733   77.942   71.012
 4058.5     9.712   78.55   69.084
 4059     9.692   79.159   67.304
 4059.5     9.672   79.703   66.102
 4060     9.652   79.573   64.834
 4060.5     9.632   79.282   63.054
 4061     9.611   78.144   62.782
 4061.5     9.594   76.135   67.186
 4062     9.594   73.726   75.995
 4062.5     9.595   74.379   78.139
 4063     9.595   76.033   71.086
 4063.5     9.595   77.149   66.534
 4064     9.596   77.123   65.597
 4064.5     9.607   76.513   65.007
 4065     9.624   73.542   58.264
 4065.5     9.642   72.138   48.56
 4066     9.659   71.968   44.181
 4066.5     9.677   73.456   42.652
 4067     9.694   74.944   42.053
 4067.5     9.712   75.702   41.815
 4068     9.729   75.593   41.01
 4068.5     9.747   75.392   39.605
 4069     9.765   75.191   38.311
 4069.5     9.786   75.214   37.22
 4070     9.807   75.24   37.333
 4070.5     9.828   75.266   38.996
 4071     9.849   74.876   41.621
 4071.5     9.87   74.476   41.951
 4072     9.891   74.388   44.098
 4072.5     9.912   74.626   46.969
 4073     9.933   75.394   49.219
 4073.5     9.954   76.162   49.008
 4074     9.975   76.789   46.866
 4074.5     10   77.409   45.918
 4075     10.034   78.03   46.356
 4075.5     10.069   78.416   47.667
 4076     10.104   78.791   49.696
 4076.5     10.139   79.167   51.608
 4077     10.173   79.52   51.694
 4077.5     10.208   79.555   54.243
 4078     10.243   79.003   56.793
 4078.5     10.258   78.451   60.842
 4079     10.26   77.927   65.42
 4079.5     10.263   77.926   62.32
 4080     10.266   78.276   55.603
 4080.5     10.268   78.656   48.675
 4081     10.271   79.068   44.648
 4081.5     10.273   79.331   46.15
 4082     10.276   79.324   48.693
 4082.5     10.278   78.982   48.266
 4083     10.281   78.657   49.362
 4083.5     10.282   79.014   50.954
 4084     10.284   79.371   52.236
 4084.5     10.286   79.727   52.844
 4085     10.288   79.617   45.013
 4085.5     10.29   78.785   44.226
 4086     10.292   77.954   43.439
 4086.5     10.294   77.79   46.348
 4087     10.296   78.562   51.762
 4087.5     10.297   78.809   55.987
 4088     10.299   78.484   59.231
 4088.5     10.301   77.754   60.541
 4089     10.303   77.099   54.954
 4089.5     10.303   77.649   54.162
 4090     10.286   79.148   53.866
 4090.5     10.269   80.163   54.171
 4091     10.252   80.428   53.549
 4091.5     10.235   79.936   51.94
 4092     10.218   79.444   50.591
 4092.5     10.201   79.146   49.303
 4093     10.184   79.386   48.678
 4093.5     10.167   79.805   51.482
 4094     10.15   80.056   54.498
 4094.5     10.133   79.963   59.348
 4095     10.116   79.712   63.228
 4095.5     10.099   79.068   63.427
 4096     10.082   78.3   63.626
 4096.5     10.065   77.561   63.376
 4097     10.048   77.463   61.006
 4097.5     10.031   77.187   52.452
 4098     10.014   76.441   49.461
 4098.5     9.998   75.622   49.036
 4099     9.983   75.409   48.887
 4099.5     9.968   76.279   50.749
 4100     9.953   77.647   54.297
 4100.5     9.937   78.001   56.275
 4101     9.922   78   56.727
 4101.5     9.907   77.695   54.63
 4102     9.892   77.391   53.103
 4102.5     9.877   77.43   53.876
 4103     9.862   78.633   54.65
 4103.5     9.846   79.296   55.067
 4104     9.831   79.781   52.57
 4104.5     9.816   79.58   50.073
 4105     9.801   79.379   48.014
 4105.5     9.786   79.236   46.175
 4106     9.768   79.197   43.089
 4106.5     9.751   79.157   42.705
 4107     9.733   79.077   43.253
 4107.5     9.716   78.44   46.816
 4108     9.698   77.333   53.097
 4108.5     9.681   76.665   57.427
 4109     9.663   77.228   58.202
 4109.5     9.646   78.312   54.83
 4110     9.628   78.22   47.93
 4110.5     9.611   75.984   44.594
 4111     9.593   73.623   44.132
 4111.5     9.576   72.002   46.026
 4112     9.558   71.787   55.439
 4112.5     9.541   72.893   64.933
 4113     9.524   73.815   69.746
 4113.5     9.506   73.942   71.354
 4114     9.489   73.921   72.54
