###############################################
##         ENVERUS                           ##
##         ESS - Open Hole                   ##
##         PERMIAN / DELAWARE                ##
##         Nov 04 2023  V4.0                 ##
##         42-389-32421-01-00                ##
###############################################
## Copyright 2017-2023  ENVERUS.  All Rights Reserved. 
## Confidential - Property of ENVERUS, use governed by terms and 
## conditions found within the existing Information Services Subscription Agreement 
## (as may be amended, the “ISSA”) between Customer and ENVERUS. 
## 
~VERSION INFORMATION
# MNEM.UNIT                               DATA : DESCRIPTION OF MNEMONIC
#-----.-----     ----------------------------- : -----------------------------
VERS.                                     2.00 : CWLS LOG ASCII STANDARD - VERSION 2.00
WRAP.                                       NO : MULTIPLE LINES PER DEPTH STEP
VEND.                                  ENVERUS : VENDOR
TYPE.                          ESS - OPEN HOLE : ENVERUS ESSENTIAL CURVES – ACCESSIBLE THROUGH ENVERUS PRISM(TM)
DOC.                                  51226874 : ENVERUS HEADER RAW DOCUMENT ID
#___________________________________________________________________________________________________ 
~WELL INFORMATION 
# Tb73rb1SL3MkDZoC3l18/hn1AqNnLhXquKbAWMIBLpWCEGQs+cUq/9XFz1I3dh1trdNBSXyPtAuUBW0L3ONtkQ== 
# MNEM.UNIT                                              DATA : DESCRIPTION OF MNEMONIC 
#-----.-----                    ----------------------------- : ----------------------------- 
CNTY.                                                  REEVES : COUNTY 
STATE.                                                  TEXAS : STATE 
CNTRY.                                                    USA : COUNTRY 
API.                                             42-389-32421 : API (10 Digit) 
API_14.                                    42-389-32421-01-00 : API (14 Digits) 
API_14_std.                                 42-389-32421-0100 : API (14 Digits Standard) 
UWI.                                           42389324210100 : UNIQUE WELL ID 
WELL.                                      ARMSTRONG STATE  1 : WELL NAME
STRT.FT                                                 182.0 : START DEPTH
STOP.FT                                               14775.0 : STOP DEPTH
STEP.FT                                                   0.5 : STEP BETWEEN DEPTHS
NULL.                                                 -999.25 : NULL VALUE
PREV_UWI.                                      42389324210000 : UNIQUE WELL ID 
PREV_API.                                      42389324210000 : API NUMBER 
COMP.                                    STALEY OPERATING CO. : COMPANY 
DATE.                                             26-JUN-2006 : LOG DATE
#___________________________________________________________________________________________________ 
~CURVE INFORMATION 
# MNEM.UNIT           : CURVE DESCRIPTION 
#-----.-----          : ----------------------------- 
 DEPT.FT               : MEASURED DEPTH 
 CALI__A.IN            : CALIPER (CAL - CAL) 
 GR__A.API             : GAMMA RAY (GR) 
 DT__A.US/FT           : SONIC DELTA TRANSIT TIME (DT) 
 DPHI__A.V/V           : DENSITY POROSITY (DPHI) 
 NPHI__A.V/V           : NEUTRON POROSITY (NPHI) 
 RHOB__A.G/CC          : BULK DENSITY (RHOB) 
 #___________________________________________________________________________________________________ 
~A         DEPT        CALI__A          GR__A          DT__A        DPHI__A        NPHI__A        RHOB__A
# ...
         5388.0         10.992         96.494        109.173        0.05283        0.14102         2.6130
         5388.5         10.997         96.505        109.052        0.06345        0.13976         2.6000
         5389.0         11.002         97.449        108.851        0.06621        0.13663         2.5860
         5389.5         11.007         98.459        105.699        0.07358        0.13910         2.5720
         5390.0         11.012         97.594         83.829        0.08744        0.14147         2.5580
         5390.5         11.017         94.632         67.401        0.09608        0.14057         2.5470
         5391.0         11.022         93.674         65.381        0.09487        0.13376         2.5530
         5391.5         11.027         93.651         65.885        0.08992        0.12565         2.5600
         5392.0         11.032         93.204         66.214        0.08612        0.12091         2.5650
         5392.5         11.037         91.270         65.587        0.08712        0.11719         2.5650
         5393.0         11.042         88.051         64.959        0.08362        0.11568         2.5650
         5393.5         11.047         85.509         66.086        0.07309        0.11418         2.5820
         5394.0         11.052         87.059         67.489        0.05745        0.11278         2.6010
         5394.5         11.057         90.422         67.667        0.04666        0.11177         2.6200
         5395.0         11.062         95.789         65.516        0.04968        0.11299         2.6160
         5395.5         11.067        102.645         65.957        0.06476        0.11823         2.5950
         5396.0         11.073        102.142         66.398        0.08269        0.12055         2.5740
         5396.5         11.079         98.257         66.017        0.08338        0.12232         2.5760
         5397.0         11.090         95.664         65.618        0.07496        0.12507         2.5790
         5397.5         11.102         93.705         65.786        0.07206        0.12662         2.5820
         5398.0         11.113         93.213         65.954        0.07318        0.12647         2.5850
         5398.5         11.125         93.639         66.122        0.08119        0.12511         2.5850
         5399.0         11.136         92.915         66.290        0.09005        0.12000         2.5650
         5399.5         11.148         91.318         66.458        0.09838        0.11614         2.5450
         5400.0         11.159         91.769         66.547        0.10008        0.11868         2.5490
         5400.5         11.171         92.916         66.224        0.09434        0.12221         2.5550
         5401.0         11.182         94.516         65.901        0.08914        0.12322         2.5580
         5401.5         11.194         96.160         65.579        0.08827        0.12095         2.5540
         5402.0         11.205         97.952         65.344        0.09129        0.11862         2.5500
         5402.5         11.217        100.130         65.581        0.09356        0.11638         2.5460
         5403.0         11.219        102.078         65.818        0.09960        0.11810         2.5420
         5403.5         11.215        100.384         66.055        0.10078        0.12132         2.5370
         5404.0         11.211         96.858         66.292        0.09826        0.12505         2.5410
         5404.5         11.207         93.190         66.425        0.09575        0.12949         2.5480
         5405.0         11.203         90.225         66.325        0.09324        0.13130         2.5540
         5405.5         11.199         88.397         66.224        0.09072        0.12858         2.5610
         5406.0         11.195         87.460         67.070        0.08353        0.12106         2.5670
         5406.5         11.193         86.702         69.093        0.08583        0.11680         2.5680
         5407.0         11.193         84.206         71.116        0.09007        0.11495         2.5650
         5407.5         11.193         80.331         70.990        0.09278        0.11422         2.5610
         5408.0         11.193         78.785         66.328        0.08988        0.11355         2.5580
         5408.5         11.193         78.215         65.859        0.08436        0.11288         2.5610
         5409.0         11.193         78.974         65.996        0.08147        0.11215         2.5660
         5409.5         11.194         80.283         66.133        0.08300        0.11139         2.5710
         5410.0         11.194         81.683         66.069        0.08604        0.11064         2.5730
         5410.5         11.194         82.085         65.932        0.08992        0.10988         2.5620
         5411.0         11.194         81.546         65.795        0.09474        0.11077         2.5500
         5411.5         11.194         80.283         65.876        0.10197        0.11293         2.5380
         5412.0         11.194         79.089         66.109        0.10721        0.11509         2.5280
         5412.5         11.194         76.492         66.341        0.09267        0.11424         2.5450
         5413.0         11.194         74.654         66.573        0.08483        0.11282         2.5620
         5413.5         11.194         73.978         66.159        0.08456        0.11139         2.5640
         5414.0         11.194         73.889         66.061        0.09625        0.10999         2.5500
         5414.5         11.194         75.326         66.457        0.10498        0.10869         2.5360
         5415.0         11.194         75.929         66.852        0.10466        0.10739         2.5360
         5415.5         11.194         76.435         67.248        0.10160        0.10463         2.5380
         5416.0         11.194         76.306         66.180        0.09854        0.10197         2.5400
         5416.5         11.194         75.588         65.201        0.09800        0.10124         2.5420
         5417.0         11.185         75.477         65.502        0.09658        0.10222         2.5430
         5417.5         11.177         75.734         65.804        0.09458        0.10594         2.5450
         5418.0         11.168         76.492         65.620        0.09600        0.10999         2.5460
         5418.5         11.160         77.436         65.261        0.09698        0.11300         2.5460
         5419.0         11.152         78.782         65.490        0.09556        0.11222         2.5460
         5419.5         11.138         82.625         65.930        0.09623        0.11144         2.5460
         5420.0         11.125         87.109         66.709        0.08931        0.11876         2.5520
         5420.5         11.112         98.592         67.896        0.08548        0.13735         2.5650
         5421.0         11.098        119.295         69.084        0.09126        0.17897         2.5650
         5421.5         11.085        158.684         70.271        0.08825        0.20253         2.5590
         5422.0         11.044        193.504         71.459        0.07539        0.18769         2.5520
         5422.5         10.985        199.813         70.972        0.03297        0.13156         2.5810
         5423.0         10.926        197.659         69.436       -0.01205        0.11285         2.7240
         5423.5         10.929        163.684         67.899       -0.05531        0.10082         2.8670
         5424.0         10.937        145.322         66.363       -0.08061        0.09998         2.8590
         5424.5         10.944        130.756         66.342       -0.08435        0.10054         2.8520
         5425.0         10.951        138.620         67.350       -0.06310        0.10381         2.8440
         5425.5         10.959        162.340         68.358       -0.04185        0.11957         2.8070
