#--------------------------------------------------#
#-------------------ENVERUS, INC.------------------#
#------------------WWW.ENVERUS.COM-----------------#
#------------------COPYRIGHT 2020------------------#
#--------------------------------------------------#
#THIS FILE MAY BE USED ONLY IN ACCORDANCE WITH A CURRENT SUBSCRIPTION AGREEMENT BETWEEN
#THE USER AND ENVERUS, INC. NO PART OF THIS FILE MAY BE REPRODUCED, USED, COPIED,
#MODIFIED, PROPAGATED, OR DISTRIBUTED EXCEPT IN ACCORDANCE WITH THE SUBSCRIPTION
#AGREEMENT. UNAUTHORIZED USE OR DISTRIBUTION OF ALL OR ANY PART OF THIS FILE MAY VIOLATE
#COPYRIGHT, TRADEMARK, AND/OR OTHER LAWS AND IS SUBJECT TO CIVIL AS WELL AS CRIMINAL
#SANCTIONS.
#--------------------------------------------------#
#THIS FILE IS PROVIDED "AS-IS" AND ALL WARRANTIES ARE EXPRESSLY DISCLAIMED, WHETHER
#EXPRESS, ORAL, IMPLIED, STATUTORY OR OTHERWISE, INCLUDING ANY IMPLIED WARRANTY OF FITNESS
#FOR A PARTICULAR PURPOSE, MERCHANTABILITY, TITLE OR NON-INFRINGEMENT, AND ANY WARRANTIES
#ARISING BY VIRTUE OF CUSTOM OF TRADE OR COURSE OF DEALING.  FURTHER, ENVERUS, INC.
#AND ITS LICENSORS DO NOT REPRESENT OR WARRANT THAT THIS FILE WILL MEET USER'S
#REQUIREMENTS OR ARE SUITABLE FOR USER'S NEEDS OR THAT THE DATA OR RESULTS PROVIDED IN
#CONJUNCTION THEREWITH ARE CORRECT, ACCURATE, TIMELY OR RELIABLE. THESE DISCLAIMERS SHALL
#APPLY REGARDLESS OF ANY FAILURE OF ESSENTIAL PURPOSE OF ANY LIMITED REMEDY.  SOME
#JURISDICTIONS DO NOT ALLOW THE EXCLUSION OF CERTAIN WARRANTIES SO SOME OF THE ABOVE
#EXCLUSIONS MAY NOT APPLY. IN NO EVENT SHALL ENVERUS, INC. OR ANY OF ITS AFFILIATES
#BE LIABLE UNDER ANY LEGAL THEORY, WHETHER IN TORT (INCLUDING WITHOUT LIMITATION
#NEGLIGENCE), CONTRACT, STRICT LIABILITY, STATUTORY OR OTHERWISE, FOR ANY SPECIAL,
#INCIDENTAL, CONSEQUENTIAL, EXEMPLARY, PUNITIVE OR INDIRECT DAMAGE OF ANY KIND, INCLUDING
#WITHOUT LIMITATION LOSS OF REVENUE, PROFITS, GOODWILL, USE, AND/OR DATA OR THE COST OF
#PROCUREMENT OF SUBSTITUTE GOODS OR SERVICES, EVEN IF APPRISED OF THE POSSIBILITY OF SUCH
#DAMAGES IN ADVANCE.
#--------------------------------------------------#

# EXPORTED FROM DI TRANSFORM
# DI TRANSFORM - A PRODUCT OF DRILLINGINFO, INC. - WWW.DRILLINGINFO.COM
#
~VERSION INFORMATION
 VERS.        2.0 : LAS ASCII STANDARD - VERSION 2.0
 WRAP.         NO : ONE LINE PER DEPTH STEP

~WELL INFORMATION
#MNEM.UNIT       DATA TYPE       INFORMATION
#---------       ---------       -----------
 STRT.FT          3310 : START DEPTH
 STOP.FT         11910 : STOP DEPTH
 STEP.FT           0.5 : STEP LENGTH
 NULL.         -999.25 : NULL VALUE
 UWI.   42389328760000 : UNIQUE WELL ID
 API.   42389328760000 : WELL IDENTIFIER
 COMP.                 : COMPANY
 WELL.          DRD_55 : WELL NAME
 FLD.                  : FIELD NAME
 LOC.                  : WELL LOCATION
 CNTY.                 : COUNTY
 STAT.                 : STATE OR PROVINCE
 CTRY.                 : COUNTRY
 SRVC.                 : SERVICE COMPANY
 DATE.                 : DATE

~CURVE INFORMATION
#MNEM.UNIT       API CODE       CURVE DESCRIPTION
#---------       --------       -----------------
 DEPT.FT        : <MEASURED DEPTH>
 CAL.IN         : CALIPER
 DT.US/FT       : SONIC
 GR.GAPI        : GAMMA RAY
 ILD.OHMM       : DEEP RESISTIVITY
 ILS.OHMM       : SHALLOW RESISTIVITY

~PARAMETER INFORMATION
#MNEM.UNIT       VALUE       DESCRIPTION
#---------       -----       -----------
 EKB.FT      3168.5 : ELEVATION ABOVE MSL

~A       DEPT         CAL          DT          GR         ILD         ILS
# ...
      10667.5      8.1514     83.9927    112.1781     30.1257     21.4228
        10668      8.1514     82.2642    107.6227     31.4357     23.8909
      10668.5      8.1514     79.4669    102.6001     31.4357      23.295
        10669      8.1514     76.0433     93.2779     31.7235      23.289
      10669.5      8.1514     74.2665     77.2521     35.1884     23.9347
        10670      8.1514     73.0891     70.7691     35.8609     29.5644
      10670.5      8.1514     73.2428     69.7344     33.7677     29.0052
        10671      8.1514      76.888     83.3736     32.2193     28.3444
      10671.5      8.1514     79.8895    101.3038     31.3137      27.057
        10672      8.1514     80.8341    109.2972     33.1649     29.3479
      10672.5      8.1514     81.3444    106.7926     46.3758     43.3679
        10673      8.1514     81.8546    105.2722     63.7721     58.8133
      10673.5      8.1514     81.9707    104.9471     67.7317     64.2296
        10674      8.1514     81.8074    102.2717     77.9171     69.2514
      10674.5      8.1514     81.6441     98.0495     86.4213    104.9165
        10675      8.1514     81.0007     95.6175     70.7883     86.5988
      10675.5      8.1514     80.0739     96.8905     66.8513     67.8594
        10676      8.1514     79.0243    102.2187     60.0731     59.9031
      10676.5      8.1514     78.8743    109.3267     41.9271     38.2853
        10677      8.1514     79.4866     114.977     38.6539     36.7996
      10677.5      8.1514      80.165     116.977     40.5126     44.5844
        10678      8.1514     81.5236    118.6681     44.7422     47.0396
      10678.5      8.1514     81.8342    122.5545     48.7046     48.4103
        10679      8.1514     82.1498     123.175     51.4225     54.5026
      10679.5      8.1514     81.9457    111.7236       39.81     47.6458
        10680      8.1514     80.6866    109.5459     34.8203     36.2477
      10680.5      8.1514     79.4883    115.6457     33.2197     35.3069
        10681      8.1514     79.3371    108.9571     31.1192     33.4827
      10681.5      8.1514     80.4608     98.0124     30.8074     32.0472
        10682      8.1514     79.3592     85.5061     31.4141      32.148
      10682.5      8.1514     76.3176     85.0603     42.0945     40.5668
        10683      8.1514     74.6167      88.581     42.8076     41.6527
      10683.5      8.1514     75.1062     86.5027     44.6403     47.7131
        10684      8.1514     75.7192       92.06     45.4719     47.2909
      10684.5      8.1514      76.209     93.3601      43.536     44.7538
        10685      8.1514      76.709     92.3159     41.5379     45.3538
      10685.5      8.1514     77.2533     94.4305     40.3718     45.6416
        10686      8.1514     77.7976    103.6577     37.8168     44.7556
      10686.5      8.1514     78.7594    124.3563     36.0807     36.8324
        10687      8.1514     79.3371    130.5619     35.1171     35.7038
      10687.5      8.1514     79.2419     127.255     35.1171     36.4236
        10688      8.1514     73.0703    122.2537     39.3375     38.7027
      10688.5      8.1514     68.7765    103.9196     52.6418     49.2921
        10689      8.1514     67.2255     68.7334     97.7215     81.7534
      10689.5      8.1514     64.8569     50.6152    134.1335     149.109
        10690      8.1514     61.4892       45.81    149.1243    201.8481
      10690.5      8.1514     59.7513     44.8207    173.3981    207.9515
        10691      8.1514     58.7881     43.2375     225.042    211.2679
      10691.5      8.1514     58.6654     38.2952    272.2297    260.7646
        10692      8.1514     59.3422     27.5954   1374.3946    396.3222
      10692.5      8.1514     60.4988     31.7251        2000    377.8371
        10693      8.1514     62.2422        57.5    306.1294    170.5709
      10693.5      8.1514     65.2895     94.1203     75.9926     75.8828
        10694      8.1514     69.9707    127.5881     60.3148     54.3352
      10694.5      8.1514     76.5913    150.4955     59.9769     57.4157
        10695      8.1514     80.7266    155.5959     58.0339      56.087
      10695.5      8.1514     82.0247    143.9406     54.6993     50.6986
        10696      8.1514     81.9335    124.2014     43.7132     43.7156
      10696.5      8.1514     81.1171    105.3478     37.5188     37.6717
        10697      8.1571     79.6058    101.6162     36.4377     36.7784
      10697.5      8.1437     77.0742     97.9927     37.4667      36.621
        10698      8.1437     74.7416     89.4603     42.2956      36.148
      10698.5      8.1437     73.4161     83.3745     48.9819      45.172
        10699      8.1437     72.0573     81.9554     56.8928     50.2175
      10699.5      8.1762     70.1897     84.9484      60.392     52.2994
        10700      8.1912     64.4747     69.0789     79.8574     60.6718
      10700.5      8.1912     58.9306      48.521    118.2376    105.9372
        10701      8.1912      54.344     30.9521    188.0218    497.6258
      10701.5      8.1912     54.3561     26.1641   1494.3102   1994.1039
        10702      8.1912     54.5375     24.9126   1662.9136        2000
      10702.5      8.1912     56.2654     31.6904   1521.6163   1998.0509
        10703      8.1912     59.6754     50.7227    181.1193    379.5872
      10703.5      8.1912     62.5393     71.8953     67.3086       63.24
        10704      8.1912     65.9657     81.4661     54.3224     54.3042
      10704.5      8.1912     70.4346     88.0689      51.626     52.8721
        10705      8.1912     74.9249    100.7042     48.6605     51.2805
      10705.5      8.1912     78.7469     113.213      40.689     45.7906
        10706      8.1912     79.6581    106.8034     38.5123     41.5885
      10706.5      8.1912     79.5418    100.7559      41.429     40.9645
        10707      8.1912     76.4331     96.7924     43.6995     41.4339
      10707.5      8.1912     69.7054     81.2092     45.8013      46.829
        10708      8.1912     66.9101     53.5294     50.1194      88.982
      10708.5      8.1912      65.813     59.0948    114.0736     151.564
        10709      8.1912     65.8938     70.0343    100.5228    123.4089
      10709.5      8.1912     67.1003     83.8867     83.3063     71.2565
        10710      8.1912     77.2857     98.1342     53.3217     45.0603
      10710.5      8.1912     78.5467    102.0515      46.618     42.6543
        10711      8.1912     78.2476     93.2931     54.7154     60.5614
      10711.5      8.1912     76.7961     88.1572     62.9447     65.8624
        10712      8.1912     71.3971     84.0917     67.2165     76.5222
      10712.5      8.1912     65.9421     75.3673     99.6362     100.626
        10713      8.1912     63.6467      57.712    146.4772    169.0602
      10713.5      8.1912     63.0883     48.5285    195.1446    258.5303
        10714      8.1912     64.0559     50.4081    271.1118    323.9101
      10714.5      8.1912     69.8089     59.2101    255.2799    330.6833
        10715      8.1912     75.7196     78.7408    167.4826     228.595
      10715.5      8.1912     78.8407    105.4878      55.127     97.2487
        10716      8.1912     79.6382    119.3998     40.5032     48.4536
      10716.5      8.1912     79.0157     117.565     39.0984     42.4981
        10717      8.1912     76.2791    113.0844     39.0339     41.3088
      10717.5      8.1912     73.9167     98.2101     40.9106     41.7501
        10718      8.1912     71.1678     81.5048     42.8772     43.1526
      10718.5      8.1912     70.2383     69.0375     57.1793     59.7728
        10719      8.1912     70.1236      62.893     60.9865      60.958
      10719.5      8.1912     71.8472     65.6209     63.9204     64.2488
        10720      8.1912     73.2259     82.7275     72.7613       85.86
      10720.5      8.1912     74.5232     95.3315     87.6232      90.668
        10721      8.1912     75.1798     90.5734     91.8333     94.3003
      10721.5      8.1912     75.4093     85.6827     94.4908     94.6118
