~Version Information
 VERS.                  2.0:   CWLS log ASCII Standard -VERSION 2.0
 WRAP.                   NO:   One line per depth step
~Well Information Block
#MNEM.UNIT     VALUE/NAME     DESCRIPTION
#---------     -----------    ---------------------------
 STRT.F              8800.0000: START DEPTH
 STOP.F             14300.0000: STOP DEPTH
 STEP.F                 0.5000: STEP DEPTH
 NULL.                 -999.25: NULL VALUE
 LOC .     336'' FSL & 729' FWL:  LOCATION
 FL6 .        API 42-389-36322:  LOCATIONLINE6
 FL4 .           ABSTRACT 3622:  LOCATIONLINE4
 FL3 .        T&P RR CO SURVEY:  LOCATIONLINE3
 FL2 .     SECTION 36, BLOCK 58 T2:  LOCATIONLINE2
 FL1 .     336'' FSL & 729' FWL:  LOCATIONLINE1
 DMF .                      KB:  DRILL MEAS FROM
 PDAT.                      GL:  PERMANENT DATUM
 CNTY.                  REEVES:  COUNTY NAME
 FLD .     FORD, WEST (WOLFCAMP):  FIELD NAME
 WELL.        AVA STATE 36 #2H:  WELL NAME
 COMP.     CAPITAN ENERGY INC.:  COMPANY
 DATE.             01-Nov-2017:  DATE
 SVCO.             Halliburton:  SERVICECONAME
 PROV.                   TEXAS:  PROVINCE
 STAT.                   TEXAS:  STATE NAME
 CTRY.           UNITED STATES:  COUNTRY NAME
 HIDE.                        :  WELLNAMEOPERAT
 BASI.                 PERMIAN:  BASIN
 UWI .            42-389-36322LAT:  UNIQUE WELL IDENTIFIER
 API .            42-389-36322LAT:  API NUMBER
 RANG.                     N/A:  RANGE
 TOWN.                     N/A:  TOWNSHIP
 SECT.                     N/A:  SECTION
 SON .               904399722:  JOB NUMBER
 SRVC.             Halliburton:  SERVICE COMPANY
 LMF .                      KB:  LOG MEASURED FROM
 EGL .ft             3011.0000:  GROUND ELEVATION
 BAP .ft                0.0000:  GL ELEV ONSHORE
 GVFD.g                 1.0000:  GRAVITY FIELD
 EKB .ft             3037.0000:  KB ELEVATION
 EDF .ft             3036.0000:  DF ELEVATION
~Curve Information Block
#MNEM.UNIT                 API CODE     Curve Description
#---------               -----------    ---------------------------
 DEPT.F                 00 000 000 000:  Depth
 CCL .V                 00 000 000 000:  Casing Collar Locator
 NPHI_OH.pu             00 000 000 000:  NPHI_OH
 NPHI_CHI.pu            00 000 000 000:  NPHI_CHI
 GR_CHI.api             00 000 000 000:  GR_CHI
 GR_OH.api              00 000 000 000:  GR_OH
 RHOB_OH.g/cc           00 000 000 000:  RHOB_OH
 RHOB_CHI.g/cc          00 000 000 000:  RHOB_CHI
 PE_CHI.b/e             00 000 000 000:  PE_CHI
 PE_OH.b/e              00 000 000 000:  PE_OH
 DTC_OH.uspf            00 000 000 000:  DTC_OH
 DTC_CHI.uspf           00 000 000 000:  DTC_CHI
 SPHI_CHI.pu            00 000 000 000:  Acou Porosity CHI
 RT10_OH.ohmm           00 000 000 000:  RT10_OH
 RT10_CHI.ohmm          00 000 000 000:  RT10_CHI
 RT30_OH.ohmm           00 000 000 000:  RT30_OH
 RT30_CHI.ohmm          00 000 000 000:  RT30_CHI
 RT90_OH.ohmm           00 000 000 000:  RT90_OH
 RT90_CHI.ohmm          00 000 000 000:  RT90_CHI
 SGF .cu                00 000 000 000:  Formation Sigma
 CRNF.NONE              00 000 000 000:  CM GrsCaptRatio
 RIN .NONE              00 000 000 000:  CM GrsInelRatio
#Other Information
#
#WARRANTY: Halliburton will use its best efforts to furnish customers with 
#accurate information and interpretations that are part of, and incident to, the services 
#provided.  However, Halliburton cannot and does not warrant the accuracy 
#or correctness of such information and interpretations.  Under no circumstances should any 
#such information or interpretation be relied upon as the sole basis for any drilling, 
#completion, production, or financial decision or any procedure involving any risk to the 
#safety of any drilling venture, drilling rig or its crew or any other third party.  The 
#Customer has full responsibility for all drilling, completion and production operation.  
#Halliburton makes no representations or warranties, either expressed or 
#implied, including, but not limited to, the implied warranties of merchantability or fitness 
#for a particular purpose, with respect to the services rendered.  In no event will 
#Halliburton be liable for failure to obtain any particular results or for 
#any damages, including, but not limited to, indirect, special or consequential damages, 
#resulting from the use of any information or interpretation provided by Halliburton.
#
~A    DEPT      CCL   NPHI_OH NPHI_CHI   GR_CHI   GR_OH   RHOB_OH RHOB_CHI  PE_CHI   PE_OH  DTC_OH  DTC_CHI SPHI_CHI RT10_OH  RT10_CHI RT30_OH  RT30_CHI RT90_OH  RT90_CHI   SGF    CRNF   RIN   
# ...
   10984.0000  0.0000 -999.25   10.9084  88.5854  -999.25 -999.25    2.5625  3.9700 -999.25 -999.25 64.8547  12.2000  -999.25  43.8781  -999.25  45.6898  -999.25  50.1917 21.6422 0.9311 1.0126
   10984.5000  0.0000 -999.25   10.7255  89.5339  -999.25 -999.25    2.5641  3.9902 -999.25 -999.25 64.2481  11.7700  -999.25  44.7254  -999.25  47.1734  -999.25  52.0312 21.4131 0.9315 1.0065
   10985.0000  0.0000 -999.25   10.4098  86.5030  -999.25 -999.25    2.5670  4.0402 -999.25 -999.25 63.7354  11.4100  -999.25  45.1714  -999.25  47.9078  -999.25  52.9768 21.1450 0.9367 1.0026
   10985.5000  0.0000 -999.25   10.4016  87.5366  -999.25 -999.25    2.5674  4.0518 -999.25 -999.25 63.6170  11.3300  -999.25  45.4519  -999.25  48.3386  -999.25  53.4875 20.8401 0.9360 1.0031
   10986.0000  0.0000 -999.25   10.5948  91.7512  -999.25 -999.25    2.5661  4.0355 -999.25 -999.25 63.6759  11.3700  -999.25  45.8223  -999.25  48.9987  -999.25  54.2532 20.5470 0.9307 1.0035
   10986.5000  0.0000 -999.25   10.4795  86.2526  -999.25 -999.25    2.5670  4.0778 -999.25 -999.25 63.8770  11.5100  -999.25  45.5994  -999.25  48.5692  -999.25  53.7607 20.3368 0.9218 1.0024
   10987.0000  0.0000 -999.25   10.4829  86.1880  -999.25 -999.25    2.5670  4.0899 -999.25 -999.25 63.8649  11.5000  -999.25  45.8459  -999.25  49.0127  -999.25  54.3098 20.2622 0.9126 1.0004
   10987.5000  0.0000 -999.25   10.1262  80.1942  -999.25 -999.25    2.5700  4.1476 -999.25 -999.25 63.5834  11.3000  -999.25  45.9414  -999.25  49.1540  -999.25  54.5577 20.2479 0.9067 0.9959
   10988.0000  0.0000 -999.25    9.7978  77.4016  -999.25 -999.25    2.5730  4.1904 -999.25 -999.25 63.1266  10.9800  -999.25  46.1639  -999.25  49.5228  -999.25  55.0599 20.3174 0.9025 0.9932
   10988.5000  0.0000 -999.25    9.7942  80.9789  -999.25 -999.25    2.5731  4.1766 -999.25 -999.25 62.7709  10.7300  -999.25  46.6821  -999.25  50.5314  -999.25  56.3112 20.4092 0.9048 0.9896
   10989.0000  0.0000 -999.25    9.7508  82.0973  -999.25 -999.25    2.5733  4.1694 -999.25 -999.25 62.5641  10.5800  -999.25  46.8556  -999.25  50.9734  -999.25  56.8863 20.5007 0.9101 0.9861
   10989.5000  0.0000 -999.25    9.4075  77.0522  -999.25 -999.25    2.5761  4.2137 -999.25 -999.25 62.3374  10.4200  -999.25  46.5381  -999.25  50.5072  -999.25  56.3833 20.6337 0.9193 0.9839
   10990.0000  0.0000 -999.25    9.8040  82.7146  -999.25 -999.25    2.5720  4.1435 -999.25 -999.25 62.6165  10.6200  -999.25  46.6759  -999.25  50.9754  -999.25  56.9415 20.8786 0.9252 0.9809
   10990.5000  0.0000 -999.25   10.1157  86.5115  -999.25 -999.25    2.5691  4.0918 -999.25 -999.25 62.9264  10.8400  -999.25  46.6594  -999.25  50.9548  -999.25  56.8685 21.1898 0.9308 0.9824
   10991.0000  0.0000 -999.25   10.5354  91.4310  -999.25 -999.25    2.5652  4.0234 -999.25 -999.25 63.4146  11.1800  -999.25  46.5042  -999.25  50.6395  -999.25  56.4008 21.6158 0.9346 0.9865
   10991.5000  0.0000 -999.25   10.5883  91.3154  -999.25 -999.25    2.5649  4.0119 -999.25 -999.25 63.6035  11.3200  -999.25  46.0703  -999.25  49.7366  -999.25  55.2469 21.9118 0.9381 0.9926
   10992.0000  0.0000 -999.25   10.8627  96.9077  -999.25 -999.25    2.5630  3.9603 -999.25 -999.25 63.8334  11.4800  -999.25  45.8259  -999.25  49.2094  -999.25  54.5067 22.2482 0.9472 1.0005
   10992.5000  0.0000 -999.25   10.3806  86.1285  -999.25 -999.25    2.5674  4.0376 -999.25 -999.25 63.7454  11.4200  -999.25  44.8735  -999.25  47.3304  -999.25  52.2568 22.5677 0.9561 1.0062
   10993.0000  0.0000 -999.25   10.5703  89.6246  -999.25 -999.25    2.5658  3.9992 -999.25 -999.25 63.9292  11.5500  -999.25  44.6645  -999.25  46.9836  -999.25  51.7924 23.0204 0.9631 1.0096
   10993.5000  0.0000 -999.25   10.8257  91.1656  -999.25 -999.25    2.5632  3.9576 -999.25 -999.25 64.4417  11.9100  -999.25  44.2086  -999.25  46.2846  -999.25  50.9200 23.4370 0.9659 1.0111
   10994.0000  0.0000 -999.25   10.7487  84.4182  -999.25 -999.25    2.5630  3.9606 -999.25 -999.25 64.8465  12.2000  -999.25  43.2451  -999.25  44.7039  -999.25  49.0511 23.8503 0.9691 1.0114
   10994.5000  0.0000 -999.25   10.9579  86.4184  -999.25 -999.25    2.5610  3.9210 -999.25 -999.25 65.2354  12.4700  -999.25  42.8144  -999.25  44.0459  -999.25  48.2323 24.1574 0.9738 1.0135
   10995.0000  0.0000 -999.25   11.2672  93.9142  -999.25 -999.25    2.5586  3.8603 -999.25 -999.25 65.4968  12.6600  -999.25  42.8049  -999.25  44.1256  -999.25  48.2741 24.3020 0.9798 1.0154
   10995.5000  0.0000 -999.25   11.3881  95.0163  -999.25 -999.25    2.5571  3.8290 -999.25 -999.25 65.7363  12.8300  -999.25  42.5237  -999.25  43.7800  -999.25  47.8620 24.4170 0.9808 1.0144
   10996.0000  0.0000 -999.25   11.4083  91.9152  -999.25 -999.25    2.5562  3.8220 -999.25 -999.25 65.9887  13.0000  -999.25  42.0767  -999.25  43.1446  -999.25  47.1292 24.3518 0.9772 1.0126
   10996.5000  0.0000 -999.25   11.3716  85.8080  -999.25 -999.25    2.5555  3.8243 -999.25 -999.25 66.2802  13.2100  -999.25  41.3874  -999.25  42.1765  -999.25  46.0252 24.3126 0.9739 1.0096
   10997.0000  0.0000 -999.25   11.4932  87.7210  -999.25 -999.25    2.5543  3.8069 -999.25 -999.25 66.3991  13.2900  -999.25  41.5045  -999.25  42.4316  -999.25  46.3264 24.1229 0.9723 1.0081
   10997.5000  0.0000 -999.25   11.4446  88.2557  -999.25 -999.25    2.5548  3.8089 -999.25 -999.25 66.2343  13.1800  -999.25  41.6565  -999.25  42.6929  -999.25  46.6455 23.9547 0.9766 1.0074
   10998.0000  0.0000 -999.25   11.4239  89.1669  -999.25 -999.25    2.5551  3.8145 -999.25 -999.25 66.0853  13.0700  -999.25  41.9685  -999.25  43.1828  -999.25  47.2328 23.7310 0.9796 1.0065
   10998.5000  0.0000 -999.25   11.3665  88.8075  -999.25 -999.25    2.5558  3.8310 -999.25 -999.25 65.9676  12.9900  -999.25  42.1665  -999.25  43.4223  -999.25  47.5150 23.5537 0.9764 1.0071
   10999.0000  0.0000 -999.25   11.1875  82.0274  -999.25 -999.25    2.5574  3.8805 -999.25 -999.25 66.0300  13.0300  -999.25  41.8770  -999.25  42.8050  -999.25  46.7947 23.5041 0.9719 1.0084
   10999.5000  0.0000 -999.25   11.4725  87.0470  -999.25 -999.25    2.5549  3.8475 -999.25 -999.25 66.2911  13.2200  -999.25  42.2241  -999.25  43.4243  -999.25  47.5053 23.6557 0.9654 1.0072
   11000.0000  0.0000 -999.25   11.8605  98.9146  -999.25 -999.25    2.5519  3.7801 -999.25 -999.25 66.3760  13.2800  -999.25  43.0135  -999.25  44.8507  -999.25  49.1554 23.9554 0.9629 1.0060
   11000.5000  0.0000 -999.25   12.0730 107.9555  -999.25 -999.25    2.5505  3.7309 -999.25 -999.25 66.3192  13.2400  -999.25  43.5191  -999.25  45.7780  -999.25  50.2209 24.2259 0.9650 1.0064
   11001.0000  0.0000 -999.25   11.4962  97.7120  -999.25 -999.25    2.5557  3.8055 -999.25 -999.25 65.6838  12.7900  -999.25  42.9208  -999.25  44.5778  -999.25  48.8352 24.3907 0.9695 1.0099
   11001.5000  0.0000 -999.25   11.3097  96.8544  -999.25 -999.25    2.5581  3.8289 -999.25 -999.25 65.4200  12.6000  -999.25  42.7532  -999.25  44.1424  -999.25  48.2928 24.3358 0.9750 1.0149
   11002.0000  0.0000 -999.25   11.2203  93.8555  -999.25 -999.25    2.5587  3.8408 -999.25 -999.25 65.4645  12.6300  -999.25  42.3971  -999.25  43.5304  -999.25  47.5707 24.1245 0.9784 1.0160
   11002.5000  0.0000 -999.25   11.4826  98.3917  -999.25 -999.25    2.5566  3.8100 -999.25 -999.25 65.7944  12.8700  -999.25  42.5557  -999.25  43.8447  -999.25  47.9121 23.9875 0.9795 1.0159
   11003.0000  0.0000 -999.25   11.7801 102.4592  -999.25 -999.25    2.5538  3.7784 -999.25 -999.25 66.2120  13.1600  -999.25  42.7682  -999.25  44.2936  -999.25  48.4253 23.9091 0.9805 1.0140
   11003.5000  0.0000 -999.25   11.9115 103.5419  -999.25 -999.25    2.5525  3.7675 -999.25 -999.25 66.4394  13.3200  -999.25  42.8265  -999.25  44.4342  -999.25  48.5866 23.9433 0.9796 1.0129
   11004.0000  0.0000 -999.25   11.5115  90.9715  -999.25 -999.25    2.5554  3.8349 -999.25 -999.25 66.2521  13.1900  -999.25  42.1917  -999.25  43.2663  -999.25  47.2631 23.8455 0.9827 1.0125
   11004.5000  0.0000 -999.25   11.4304  87.1704  -999.25 -999.25    2.5556  3.8430 -999.25 -999.25 66.2840  13.2100  -999.25  41.9061  -999.25  42.8570  -999.25  46.8090 23.4330 0.9803 1.0106
