#--------------------------------------------------#
#-------------------ENVERUS, INC.------------------#
#------------------WWW.ENVERUS.COM-----------------#
#------------------COPYRIGHT 2020------------------#
#--------------------------------------------------#
#THIS FILE MAY BE USED ONLY IN ACCORDANCE WITH A CURRENT SUBSCRIPTION AGREEMENT BETWEEN
#THE USER AND ENVERUS, INC. NO PART OF THIS FILE MAY BE REPRODUCED, USED, COPIED,
#MODIFIED, PROPAGATED, OR DISTRIBUTED EXCEPT IN ACCORDANCE WITH THE SUBSCRIPTION
#AGREEMENT. UNAUTHORIZED USE OR DISTRIBUTION OF ALL OR ANY PART OF THIS FILE MAY VIOLATE
#COPYRIGHT, TRADEMARK, AND/OR OTHER LAWS AND IS SUBJECT TO CIVIL AS WELL AS CRIMINAL
#SANCTIONS.
#--------------------------------------------------#
#THIS FILE IS PROVIDED "AS-IS" AND ALL WARRANTIES ARE EXPRESSLY DISCLAIMED, WHETHER
#EXPRESS, ORAL, IMPLIED, STATUTORY OR OTHERWISE, INCLUDING ANY IMPLIED WARRANTY OF FITNESS
#FOR A PARTICULAR PURPOSE, MERCHANTABILITY, TITLE OR NON-INFRINGEMENT, AND ANY WARRANTIES
#ARISING BY VIRTUE OF CUSTOM OF TRADE OR COURSE OF DEALING.  FURTHER, ENVERUS, INC.
#AND ITS LICENSORS DO NOT REPRESENT OR WARRANT THAT THIS FILE WILL MEET USER'S
#REQUIREMENTS OR ARE SUITABLE FOR USER'S NEEDS OR THAT THE DATA OR RESULTS PROVIDED IN
#CONJUNCTION THEREWITH ARE CORRECT, ACCURATE, TIMELY OR RELIABLE. THESE DISCLAIMERS SHALL
#APPLY REGARDLESS OF ANY FAILURE OF ESSENTIAL PURPOSE OF ANY LIMITED REMEDY.  SOME
#JURISDICTIONS DO NOT ALLOW THE EXCLUSION OF CERTAIN WARRANTIES SO SOME OF THE ABOVE
#EXCLUSIONS MAY NOT APPLY. IN NO EVENT SHALL ENVERUS, INC. OR ANY OF ITS AFFILIATES
#BE LIABLE UNDER ANY LEGAL THEORY, WHETHER IN TORT (INCLUDING WITHOUT LIMITATION
#NEGLIGENCE), CONTRACT, STRICT LIABILITY, STATUTORY OR OTHERWISE, FOR ANY SPECIAL,
#INCIDENTAL, CONSEQUENTIAL, EXEMPLARY, PUNITIVE OR INDIRECT DAMAGE OF ANY KIND, INCLUDING
#WITHOUT LIMITATION LOSS OF REVENUE, PROFITS, GOODWILL, USE, AND/OR DATA OR THE COST OF
#PROCUREMENT OF SUBSTITUTE GOODS OR SERVICES, EVEN IF APPRISED OF THE POSSIBILITY OF SUCH
#DAMAGES IN ADVANCE.
#--------------------------------------------------#

~VERSION INFORMATION
VERS. 2.0 : CWLS LOG ASCII STANDARD - VERSION 2.0
WRAP.  NO : ONE LINE PER DEPTH STEP
~WELL INFORMATION
#MNEMONIC     .UNIT              VALUE :DESCRIPTION
STRT       .FT                0 :START DEPTH
STOP       .FT                15770 :STOP DEPTH
STEP       .FT                   0.500 :STEP
NULL       .                  -999.250 :NULL
UWI        .              42389309020000 :UNIQUE WELL ID
API        .              42389309020000 :API NUMBER
COMP       .         WALSH & WATTS  INC. :COMPANY
WELL       .        SABRE  1WS :WELL
DATE       .                28-JAN-1987 :LOG DATE
~CURVE INFORMATION
#MNEMONIC     .UNIT      API CODE :CURVE DESCRIPTION
DEPTH       .FT                      :MEASURED DEPTH
CAL.INCH        UNKNOWN   :CAL
DT.US/FT        UNKNOWN   :DT
GR.API        UNKNOWN   :GR
~A    DEPTH    CAL    DT    GR
# ...
 10401.5     12.296   84.15   82.462
 10402     12.278   83.713   80.266
 10402.5     12.26   85.309   74.354
 10403     12.25   86.873   69.255
 10403.5     12.309   85.213   68.208
 10404     12.368   83.553   70.114
 10404.5     12.428   85.534   72.41
 10405     12.487   88.356   74.705
 10405.5     12.452   91.178   74.712
 10406     12.405   90.362   74.553
 10406.5     12.359   88.135   74.395
 10407     12.326   86.009   74.875
 10407.5     12.301   85.81   76.553
 10408     12.275   85.526   78.169
 10408.5     12.25   83.946   79.389
 10409     12.236   82.53   78.689
 10409.5     12.226   82.531   75.354
 10410     12.217   81.422   67.958
 10410.5     12.208   81.193   62.612
 10411     12.198   80.044   61.499
 10411.5     12.191   78.205   61.132
 10412     12.191   77.189   60.152
 10412.5     12.19   76.916   57.71
 10413     12.19   77.926   55.173
 10413.5     12.19   79.009   54.14
 10414     12.19   79.999   55.172
 10414.5     12.19   80.762   56.904
 10415     12.19   80.603   58.635
 10415.5     12.189   80.444   57.351
 10416     12.189   80.285   54.94
 10416.5     12.189   78.875   53.849
 10417     12.189   76.88   59.792
 10417.5     12.189   76.302   65.735
 10418     12.188   76.373   66.243
 10418.5     12.188   77.962   61.931
 10419     12.19   78.826   48.866
 10419.5     12.218   75.113   45.466
 10420     12.263   71.401   47.22
 10420.5     12.338   67.689   55.954
 10421     12.361   65.936   71.283
 10421.5     12.402   74.129   77.249
 10422     12.444   79.742   81.529
 10422.5     12.485   85.706   85.062
 10423     12.487   86.376   88.596
 10423.5     12.416   86.7   86.354
 10424     12.346   87.567   81.491
 10424.5     12.275   87.707   76.628
 10425     12.205   86.524   71.766
 10425.5     12.164   84.263   63.317
 10426     12.173   82.001   59.312
 10426.5     12.182   79.668   62.726
 10427     12.19   75.326   67.623
 10427.5     12.199   74.482   67.908
 10428     12.208   75.804   68.193
 10428.5     12.216   78.651   68.478
 10429     12.225   79.867   69.914
 10429.5     12.234   79.605   74.796
 10430     12.277   79.344   79.758
 10430.5     12.322   80.04   81.445
 10431     12.346   80.995   83.131
 10431.5     12.28   82.312   84.818
 10432     12.214   83.002   85.299
 10432.5     12.148   83.476   81.189
 10433     12.083   81.704   77.078
 10433.5     12.017   79.931   73.489
 10434     12.02   77.839   70.682
 10434.5     12.099   75.086   70.4
 10435     12.168   73.674   70.469
 10435.5     12.212   74.244   70.961
 10436     12.255   74.435   74.014
 10436.5     12.299   78.392   79.044
 10437     12.342   78.907   84.801
 10437.5     12.386   79.646   90.484
 10438     12.393   82.568   90.355
 10438.5     12.368   84.622   89.582
 10439     12.342   85.954   88.096
 10439.5     12.317   85.697   87.112
 10440     12.285   83.979   86.273
 10440.5     12.247   84.255   79.81
 10441     12.209   84.616   72.871
 10441.5     12.171   84.113   68.284
 10442     12.155   81.13   66.122
 10442.5     12.155   76.817   66.193
 10443     12.155   75.612   67.584
 10443.5     12.155   77.344   69.306
 10444     12.154   78.735   70.903
 10444.5     12.155   78.147   72.167
 10445     12.158   76.194   74.106
 10445.5     12.161   76.135   77.323
 10446     12.164   76.075   80.235
 10446.5     12.168   76.016   77.841
 10447     12.171   76.346   75.446
 10447.5     12.174   80.526   73.052
 10448     12.177   84.402   71.541
 10448.5     12.178   86.257   70.51
 10449     12.177   86.755   62.246
 10449.5     12.177   82.07   53.601
 10450     12.177   64.558   44.957
 10450.5     12.177   57.739   42.503
 10451     12.195   57.968   45.327
 10451.5     12.237   62.268   56.144
 10452     12.279   72.029   68.952
 10452.5     12.321   81.056   71.743
 10453     12.363   82.82   74.534
 10453.5     12.405   83.461   77.732
 10454     12.447   83.391   80.923
 10454.5     12.489   82.678   80.557
 10455     12.471   81.965   77.664
 10455.5     12.432   83.304   74.771
 10456     12.393   84.421   73.389
 10456.5     12.354   83.699   73.259
 10457     12.327   82.976   73.447
 10457.5     12.336   82.384   73.636
 10458     12.345   82.313   73.675
 10458.5     12.354   82.242   73.558
 10459     12.363   81.964   73.634
 10459.5     12.372   81.677   74.48
 10460     12.374   81.159   77.412
 10460.5     12.373   80.717   80.344
 10461     12.373   81.296   80.197
 10461.5     12.373   81.134   79.325
 10462     12.373   80.92   79.884
 10462.5     12.373   80.038   80.792
 10463     12.371   79.14   81.701
 10463.5     12.366   78.821   82.609
 10464     12.361   78.754   82.206
 10464.5     12.357   78.82   81.755
 10465     12.352   79.045   79.895
 10465.5     12.347   79.271   77.701
 10466     12.36   79.496   73.291
 10466.5     12.376   79.722   72.07
 10467     12.392   79.948   73.234
 10467.5     12.408   80.173   76.327
 10468     12.424   80.399   79.752
 10468.5     12.44   81.494   83.176
 10469     12.416   83.477   85.155
 10469.5     12.372   85.907   81.246
 10470     12.329   85.805   77.336
 10470.5     12.285   82.997   73.426
 10471     12.241   80.189   69.516
 10471.5     12.197   78.559   66.682
 10472     12.254   77.046   66.251
 10472.5     12.316   74.551   68.08
 10473     12.379   75.607   72.482
 10473.5     12.442   82.438   76.884
 10474     12.455   87.059   81.286
 10474.5     12.467   88.607   79.497
 10475     12.478   86.7   76.823
 10475.5     12.49   84.793   74.927
 10476     12.443   82.886   73.669
 10476.5     12.376   82.389   72.159
 10477     12.309   81.318   67.79
 10477.5     12.242   78.599   63.42
 10478     12.231   75.54   59.846
 10478.5     12.219   72.299   58.309
 10479     12.245   70.953   62.605
 10479.5     12.282   75.189   73.123
 10480     12.318   80.193   83.396
 10480.5     12.355   84.322   84.419
 10481     12.391   86.451   85.441
 10481.5     12.418   85.828   86.464
 10482     12.424   83.921   86.488
 10482.5     12.429   82.669   80.782
 10483     12.435   82.058   75.885
 10483.5     12.437   80.709   75.254
 10484     12.403   80.697   76.068
 10484.5     12.37   80.816   76.999
 10485     12.336   82.294   77.912
 10485.5     12.299   83.586   75.84
 10486     12.262   82.892   70.074
 10486.5     12.215   80.801   63.618
 10487     12.149   78.118   58.508
 10487.5     12.083   75.619   57.708
 10488     12.017   75.515   59.671
 10488.5     11.952   75.675   61.633
 10489     11.886   76.384   63.415
 10489.5     11.889   77.718   63.918
 10490     11.928   78.003   64.42
 10490.5     11.967   78.792   66.138
 10491     12.007   79.83   70.165
 10491.5     12.046   80.539   74.889
 10492     12.085   80.766   79.169
 10492.5     12.141   80.993   81.065
 10493     12.197   81.221   80.988
 10493.5     12.253   80.97   79.035
 10494     12.31   82.766   78.285
 10494.5     12.289   84.161   81.835
 10495     12.266   84.388   84.975
 10495.5     12.243   83.675   85.001
 10496     12.22   83.623   82.352
 10496.5     12.197   81.735   78.541
 10497     12.187   76.369   74.529
 10497.5     12.191   76.452   72.942
 10498     12.194   76.535   74.693
 10498.5     12.197   76.617   77.156
 10499     12.201   76.684   45.077
 10499.5     12.204   76.749   43.304
 10500     12.207   76.814   41.53
 10500.5     12.21   76.879   41.403
 10501     8.548   76.89   43.138
 10501.5     8.549   76.9   44.873
 10502     8.549   77.019   46.608
 10502.5     8.55   77.283   46.099
 10503     8.551   77.546   43.613
 10503.5     8.551   77.81   41.128
 10504     8.552   78.074   36.871
 10504.5     8.553   78.321   31.196
 10505     8.553   78.561   30.995
 10505.5     8.554   78.801   31.072
 10506     8.554   79.041   39.262
 10506.5     8.555   78.921   46.228
 10507     8.556   78.866   46.618
 10507.5     8.556   79.839   47.008
 10508     8.557   80.535   47.398
 10508.5     8.558   81.576   47.706
 10509     8.558   79.768   47.778
 10509.5     8.559   74.565   47.851
 10510     8.559   75.29   46.287
 10510.5     8.56   79.979   44.056
