###############################################
##         ENVERUS                           ##
##         ESS - Open Hole                   ##
##         PERMIAN / DELAWARE                ##
##         Nov 04 2023  V4.0                 ##
##         42-389-30297-00-00                ##
###############################################
## Copyright 2017-2023  ENVERUS.  All Rights Reserved. 
## Confidential - Property of ENVERUS, use governed by terms and 
## conditions found within the existing Information Services Subscription Agreement 
## (as may be amended, the “ISSA”) between Customer and ENVERUS. 
## 
~VERSION INFORMATION
# MNEM.UNIT                               DATA : DESCRIPTION OF MNEMONIC
#-----.-----     ----------------------------- : -----------------------------
VERS.                                     2.00 : CWLS LOG ASCII STANDARD - VERSION 2.00
WRAP.                                       NO : MULTIPLE LINES PER DEPTH STEP
VEND.                                  ENVERUS : VENDOR
TYPE.                          ESS - OPEN HOLE : ENVERUS ESSENTIAL CURVES – ACCESSIBLE THROUGH ENVERUS PRISM(TM)
DOC.                                  32306493 : ENVERUS HEADER RAW DOCUMENT ID
#___________________________________________________________________________________________________ 
~WELL INFORMATION 
# rQStLE5sYsP+YdYw4QOWpp6z6mWwFJBvCxgTqRv2Ioz+qyoYLl+79qTOna8BSHgUk5jTgp49hkgrAQ1kFKyHCg== 
# MNEM.UNIT                                              DATA : DESCRIPTION OF MNEMONIC 
#-----.-----                    ----------------------------- : ----------------------------- 
CNTY.                                                  REEVES : COUNTY 
STATE.                                                  TEXAS : STATE 
CNTRY.                                                    USA : COUNTRY 
API.                                             42-389-30297 : API (10 Digit) 
API_14.                                    42-389-30297-00-00 : API (14 Digits) 
API_14_std.                                 42-389-30297-0000 : API (14 Digits Standard) 
UWI.                                           42389302970000 : UNIQUE WELL ID 
WELL.                              R.S. BRENNAND, JR. ET AL 1 : WELL NAME
STRT.FT                                                   3.0 : START DEPTH
STOP.FT                                               13007.0 : STOP DEPTH
STEP.FT                                                   0.5 : STEP BETWEEN DEPTHS
NULL.                                                 -999.25 : NULL VALUE
#___________________________________________________________________________________________________ 
~CURVE INFORMATION 
# MNEM.UNIT           : CURVE DESCRIPTION 
#-----.-----          : ----------------------------- 
 DEPT.FT               : MEASURED DEPTH 
 CALI.IN               : CALIPER (CAL - CAL) 
 GR.API                : GAMMA RAY (GR) 
 DT.US/FT              : SONIC DELTA TRANSIT TIME (DT) 
 NPHI.V/V              : NEUTRON POROSITY (NPHI) 
 RHOB.G/CC             : BULK DENSITY (RHOB) 
 #___________________________________________________________________________________________________ 
~A         DEPT           CALI             GR             DT           NPHI           RHOB
# ...
         2731.0         10.400          7.912       -999.250       -0.00732      -999.2500
         2731.5         10.400          8.372       -999.250       -0.00728      -999.2500
         2732.0         10.399          8.709       -999.250       -0.00725      -999.2500
         2732.5         10.399          8.141       -999.250       -0.00722      -999.2500
         2733.0         10.399          7.572       -999.250       -0.00719      -999.2500
         2733.5         10.399          7.003       -999.250       -0.00716      -999.2500
         2734.0         10.398          6.435       -999.250       -0.00713      -999.2500
         2734.5         10.398          5.872       -999.250       -0.00710      -999.2500
         2735.0         10.398          6.191       -999.250       -0.00706      -999.2500
         2735.5         10.398          6.511       -999.250       -0.00703      -999.2500
         2736.0         10.397          6.830       -999.250       -0.00701      -999.2500
         2736.5         10.397          7.150       -999.250       -0.00701      -999.2500
         2737.0         10.397          7.469       -999.250       -0.00701      -999.2500
         2737.5         10.397          7.408       -999.250       -0.00701      -999.2500
         2738.0         10.396          7.323       -999.250       -0.00701      -999.2500
         2738.5         10.396          7.239       -999.250       -0.00701      -999.2500
         2739.0         10.396          7.154       -999.250       -0.00701      -999.2500
         2739.5         10.396          7.070       -999.250       -0.00701      -999.2500
         2740.0         10.395          6.985       -999.250       -0.00701      -999.2500
         2740.5         10.395          6.901       -999.250       -0.00701      -999.2500
         2741.0         10.395          7.440       -999.250       -0.00701      -999.2500
         2741.5         10.395          9.344       -999.250       -0.00701      -999.2500
         2742.0         10.395          9.596       -999.250       -0.00701      -999.2500
         2742.5         10.394          7.799       -999.250       -0.00701      -999.2500
         2743.0         10.394          6.002       -999.250       -0.00701      -999.2500
         2743.5         10.394          4.680       -999.250       -0.00701      -999.2500
         2744.0         10.394          5.149       -999.250       -0.00701      -999.2500
         2744.5         10.393          5.618       -999.250       -0.00701      -999.2500
         2745.0         10.393          6.086       -999.250       -0.00701      -999.2500
         2745.5         10.393          6.555       -999.250       -0.00701      -999.2500
         2746.0         10.393          7.024       -999.250       -0.00701      -999.2500
         2746.5         10.392          7.493       -999.250       -0.00701      -999.2500
         2747.0         10.392          7.962       -999.250       -0.00701      -999.2500
         2747.5         10.392          8.106       -999.250       -0.00701      -999.2500
         2748.0         10.392          8.056       -999.250       -0.00701      -999.2500
         2748.5         10.391          8.005       -999.250       -0.00701      -999.2500
         2749.0         10.391          7.954       -999.250       -0.00701      -999.2500
         2749.5         10.391          7.904       -999.250       -0.00701      -999.2500
         2750.0         10.391          7.853       -999.250       -0.00701      -999.2500
         2750.5         10.390          7.713       -999.250       -0.00701      -999.2500
         2751.0         10.390          7.334       -999.250       -0.00701      -999.2500
         2751.5         10.390          6.954       -999.250       -0.00701      -999.2500
         2752.0         10.390          7.379       -999.250       -0.00701      -999.2500
         2752.5         10.389          8.120       -999.250       -0.00701      -999.2500
         2753.0         10.389          8.861       -999.250       -0.00701      -999.2500
         2753.5         10.389          9.601       -999.250       -0.00701      -999.2500
         2754.0         10.389         10.342       -999.250       -0.00701      -999.2500
         2754.5         10.388         10.998       -999.250       -0.00701      -999.2500
         2755.0         10.388          9.848       -999.250       -0.00701      -999.2500
         2755.5         10.388          8.699       -999.250       -0.00701      -999.2500
         2756.0         10.388          7.550       -999.250       -0.00701      -999.2500
         2756.5         10.387          6.401       -999.250       -0.00701      -999.2500
         2757.0         10.387          6.346       -999.250       -0.00701      -999.2500
         2757.5         10.387          7.202       -999.250       -0.00701      -999.2500
         2758.0         10.387          8.057       -999.250       -0.00701      -999.2500
         2758.5         10.387          8.913       -999.250       -0.00701      -999.2500
         2759.0         10.386          8.723       -999.250       -0.00701      -999.2500
         2759.5         10.386          8.217       -999.250       -0.00701      -999.2500
         2760.0         10.386          7.711       -999.250       -0.00701      -999.2500
         2760.5         10.386          7.205       -999.250       -0.00701      -999.2500
         2761.0         10.385          6.699       -999.250       -0.00701      -999.2500
         2761.5         10.385          6.193       -999.250       -0.00701      -999.2500
         2762.0         10.385          5.922       -999.250       -0.00701      -999.2500
         2762.5         10.385          6.029       -999.250       -0.00701      -999.2500
         2763.0         10.384          6.137       -999.250       -0.00701      -999.2500
         2763.5         10.384          6.244       -999.250       -0.00701      -999.2500
         2764.0         10.384          6.352       -999.250       -0.00701      -999.2500
         2764.5         10.384          6.459       -999.250       -0.00701      -999.2500
         2765.0         10.383          6.567       -999.250       -0.00701      -999.2500
         2765.5         10.383          6.674       -999.250       -0.00701      -999.2500
         2766.0         10.383          6.781       -999.250       -0.00701      -999.2500
         2766.5         10.383          6.889       -999.250       -0.00701      -999.2500
         2767.0         10.382          6.996       -999.250       -0.00701      -999.2500
         2767.5         10.382          7.104       -999.250       -0.00701      -999.2500
         2768.0         10.382          7.206       -999.250       -0.00701      -999.2500
         2768.5         10.382          7.299       -999.250       -0.00701      -999.2500
         2769.0         10.381          7.392       -999.250       -0.00701      -999.2500
         2769.5         10.381          7.484       -999.250       -0.00701      -999.2500
         2770.0         10.381          7.577       -999.250       -0.00701      -999.2500
         2770.5         10.381          7.670       -999.250       -0.00701      -999.2500
         2771.0         10.380          7.763       -999.250       -0.00701      -999.2500
         2771.5         10.380          7.677       -999.250       -0.00701      -999.2500
         2772.0         10.380          7.255       -999.250       -0.00701      -999.2500
         2772.5         10.380          6.833       -999.250       -0.00701      -999.2500
         2773.0         10.380          6.411       -999.250       -0.00701      -999.2500
         2773.5         10.380          6.448       -999.250       -0.00701      -999.2500
         2774.0         10.380          6.908       -999.250       -0.00701      -999.2500
         2774.5         10.380          7.368       -999.250       -0.00701      -999.2500
