###############################################
##         ENVERUS                           ##
##         ESS - Open Hole                   ##
##         PERMIAN / DELAWARE                ##
##         Nov 04 2023  V4.0                 ##
##         42-389-32421-01-00                ##
###############################################
## Copyright 2017-2023  ENVERUS.  All Rights Reserved. 
## Confidential - Property of ENVERUS, use governed by terms and 
## conditions found within the existing Information Services Subscription Agreement 
## (as may be amended, the “ISSA”) between Customer and ENVERUS. 
## 
~VERSION INFORMATION
# MNEM.UNIT                               DATA : DESCRIPTION OF MNEMONIC
#-----.-----     ----------------------------- : -----------------------------
VERS.                                     2.00 : CWLS LOG ASCII STANDARD - VERSION 2.00
WRAP.                                       NO : MULTIPLE LINES PER DEPTH STEP
VEND.                                  ENVERUS : VENDOR
TYPE.                          ESS - OPEN HOLE : ENVERUS ESSENTIAL CURVES – ACCESSIBLE THROUGH ENVERUS PRISM(TM)
DOC.                                  51227099 : ENVERUS HEADER RAW DOCUMENT ID
#___________________________________________________________________________________________________ 
~WELL INFORMATION 
# zrraAS4ibxVPgm4F4FjILRFQbgMcjf5VKWH9QXz9oP+5l3DBeEvHFHP9dTNjNwXm2+WMaTXZz7qhRLDoyN0AVg== 
# MNEM.UNIT                                              DATA : DESCRIPTION OF MNEMONIC 
#-----.-----                    ----------------------------- : ----------------------------- 
CNTY.                                                  REEVES : COUNTY 
STATE.                                                  TEXAS : STATE 
CNTRY.                                                    USA : COUNTRY 
API.                                             42-389-32421 : API (10 Digit) 
API_14.                                    42-389-32421-01-00 : API (14 Digits) 
API_14_std.                                 42-389-32421-0100 : API (14 Digits Standard) 
UWI.                                           42389324210100 : UNIQUE WELL ID 
WELL.                                      ARMSTRONG STATE #1 : WELL NAME
STRT.FT                                                2000.0 : START DEPTH
STOP.FT                                               14700.0 : STOP DEPTH
STEP.FT                                                   0.5 : STEP BETWEEN DEPTHS
NULL.                                                 -999.25 : NULL VALUE
COMP.                                   BULLDOG OPERATING CO. : COMPANY 
FLD.                                                  WILDCAT : FIELD 
LOC.                                                3-59-2778 : LOCATION 
SRVC.                                            SCHLUMBERGER : SERVICE COMPANY 
DATE.                                              08/28/2006 : DATE 
PREV_APII.                                       423893242100 : API NUMBER 
PREV_UWI.                                        423893242100 : UWI NUMBER 
TVD.                                                       NO : TVD FLAG
#___________________________________________________________________________________________________ 
~PARAMETER INFORMATION 
# MNEM.UNIT                                              DATA : DESCRIPTION OF MNEMONIC 
#-----.-----                    ----------------------------- : ----------------------------- 
RUN.                                                      ONE : RUN NUMBER 
PDAT.                                                      GL : PERMANENT DATUM 
EPD.FT                                              3134.8000 : ELEVATION OF PERM. DATUM 
LMF.                                            KELLY BUSHING : LOG MEASURED FROM 
EKB.FT                                              3157.8000 : ELEVATION OF KELLY BUSHING 
DF.FT                                               3156.8000 : ELEVATION OF DERRICK FLOOR 
GL.FT                                               3134.8000 : ELEVATION OF GROUND LEVEL 
TD.FT                                              14700.0000 : TOTAL DEPTH 
BHT.DEGF                                               230.00 : BOTTOM HOLE TEMPERATURE 
BLI.FT                                             14700.0000 : BOTTOM LOG INTERVAL 
CSGSIZE.IN                                             9.6250 : CASING SIZE 
BITSIZE.IN                                              8.750 : BITSIZE 
CSGD.FT                                                  2014 : CASING BOTTOM (DRILLER) 1 
CSGL.FT                                                  2014 : CASING BOTTOM (LOGGER) 1 
MUD.                                                    BRINE : DRILLING FLUID TYPE 
MUDV.CP                                               31.0000 : DRILLING FLUID VISCOSITY 
MUDD.LB/USG                                            9.3000 : DRILLING FLUID DENSITY 
FL.ML/30MIN                                           13.0000 : DRILLING FLUID LOSS 
PH.                                                   10.0000 : DRILLING FLUID PH 
MUDS.                                        CIRCULATION TANK : MUD SAMPLE SOURCE 
RM.OHMM                                                0.0540 : RESISTIVITY OF MUD SAMPLE 
RMT.DEGF                                              90.0000 : MUD SAMPLE TEMPERATURE 
RMF.OHMM                                               0.0640 : MUD FILTRATE RESISTIVITY 
RMFT.DEGF                                             80.0000 : MUD FILTRATE SAMPLE TEMPERATURE
#___________________________________________________________________________________________________ 
~CURVE INFORMATION 
# MNEM.UNIT           : CURVE DESCRIPTION 
#-----.-----          : ----------------------------- 
 DEPT.FT               : MEASURED DEPTH 
 DT.US/FT              : SONIC DELTA TRANSIT TIME (DELTA T) 
 SPHI.V/V              : SONIC POROSITY (SONIC POROSITY) 
 #___________________________________________________________________________________________________ 
~A         DEPT             DT           SPHI
# ...
         7046.0         74.644        0.20200
         7046.5         75.540        0.21900
         7047.0         79.135        0.24100
         7047.5         82.731        0.26300
         7048.0         86.317        0.28500
         7048.5         88.462        0.29900
         7049.0         88.390        0.29900
         7049.5         87.243        0.29200
         7050.0         84.376        0.27500
         7050.5         81.509        0.25200
         7051.0         76.922        0.21600
         7051.5         77.827        0.21600
         7052.0         80.091        0.24000
         7052.5         82.354        0.25600
         7053.0         79.537        0.23300
         7053.5         76.720        0.21800
         7054.0         76.720        0.21700
         7054.5         75.262        0.19900
         7055.0         73.438        0.18400
         7055.5         71.615        0.16900
         7056.0         70.785        0.17300
         7056.5         71.187        0.18500
         7057.0         73.369        0.21000
         7057.5         76.316        0.22800
         7058.0         79.830        0.23500
         7058.5         79.367        0.23300
         7059.0         78.750        0.22800
         7059.5         77.973        0.22100
         7060.0         78.496        0.22600
         7060.5         79.537        0.23500
         7061.0         79.465        0.23400
         7061.5         79.394        0.23300
         7062.0         79.336        0.23200
         7062.5         79.068        0.23000
         7063.0         78.844        0.22900
         7063.5         78.621        0.22800
         7064.0         78.276        0.22500
         7064.5         77.850        0.22200
         7065.0         77.425        0.21900
         7065.5         76.999        0.21500
         7066.0         76.573        0.21100
         7066.5         76.778        0.21800
         7067.0         77.928        0.22600
         7067.5         79.537        0.23200
         7068.0         79.115        0.23200
         7068.5         78.419        0.22900
         7069.0         77.703        0.22300
         7069.5         76.981        0.21600
         7070.0         76.831        0.21800
         7070.5         77.065        0.22000
         7071.0         77.253        0.20200
         7071.5         72.915        0.18200
         7072.0         69.304        0.15900
         7072.5         65.699        0.13500
         7073.0         62.101        0.11200
         7073.5         59.752        0.08800
         7074.0         60.856        0.10200
         7074.5         63.019        0.12500
         7075.0         66.436        0.15200
         7075.5         68.554        0.15700
         7076.0         68.672        0.15200
         7076.5         66.971        0.14300
         7077.0         65.553        0.13200
         7077.5         64.136        0.12100
         7078.0         62.435        0.11000
         7078.5         60.986        0.09900
         7079.0         58.813        0.08600
         7079.5         57.337        0.07300
         7080.0         55.493        0.06300
         7080.5         53.984        0.04900
         7081.0         53.179        0.04400
         7081.5         53.179        0.05800
         7082.0         55.728        0.10100
         7082.5         59.975        0.11400
         7083.0         64.223        0.12600
         7083.5         68.471        0.17900
         7084.0         76.519        0.22500
         7084.5         81.549        0.25500
         7085.0         82.052        0.25300
         7085.5         81.952        0.25300
         7086.0         80.744        0.23700
         7086.5         77.284        0.20900
         7087.0         72.093        0.17500
         7087.5         69.908        0.16100
         7088.0         67.233        0.14300
         7088.5         64.477        0.12700
         7089.0         63.616        0.11500
         7089.5         62.439        0.11300
         7090.0         63.358        0.11800
         7090.5         64.924        0.13000
         7091.0         66.491        0.14200
         7091.5         67.532        0.14900
         7092.0         67.666        0.14700
         7092.5         63.977        0.12100
         7093.0         60.903        0.09900
         7093.5         57.829        0.07800
         7094.0         56.600        0.06700
         7094.5         57.337        0.08600
         7095.0         58.813        0.11000
         7095.5         63.763        0.13400
         7096.0         67.062        0.14400
         7096.5         67.213        0.14500
         7097.0         67.339        0.14600
         7097.5         67.465        0.14700
         7098.0         67.591        0.14800
         7098.5         67.716        0.14900
         7099.0         67.867        0.15100
         7099.5         68.264        0.15300
         7100.0         68.763        0.15500
         7100.5         69.266        0.15700
         7101.0         68.931        0.15800
         7101.5         66.033        0.13100
         7102.0         62.459        0.10800
         7102.5         58.882        0.08400
         7103.0         56.958        0.06800
         7103.5         56.275        0.06300
         7104.0         55.559        0.06100
         7104.5         56.033        0.07600
         7105.0         57.807        0.08600
         7105.5         61.358        0.13400
         7106.0         64.648        0.17500
         7106.5         73.743        0.21800
         7107.0         78.464        0.23100
         7107.5         80.552        0.24500
         7108.0         82.354        0.25700
         7108.5         83.159        0.26000
         7109.0         81.875        0.25100
         7109.5         80.359        0.24200
         7110.0         78.555        0.22600
         7110.5         76.529        0.20600
         7111.0         74.024        0.18600
         7111.5         71.288        0.17300
         7112.0         71.087        0.17800
         7112.5         72.696        0.20400
         7113.0         76.753        0.22900
         7113.5         81.751        0.24700
         7114.0         81.687        0.24900
         7114.5         81.615        0.24800
         7115.0         81.549        0.24300
         7115.5         79.384        0.23200
         7116.0         77.525        0.22200
         7116.5         78.301        0.22900
         7117.0         79.025        0.23500
         7117.5         79.748        0.23900
         7118.0         79.797        0.23800
         7118.5         76.651        0.20700
         7119.0         72.242        0.15800
         7119.5         61.026        0.10200
         7120.0         59.547        0.08200
         7120.5         58.684        0.08600
         7121.0         60.624        0.10500
         7121.5         65.855        0.13700
         7122.0         67.329        0.15500
         7122.5         69.063        0.16600
         7123.0         70.839        0.17800
         7123.5         73.339        0.20200
         7124.0         78.476        0.22700
         7124.5         82.322        0.25600
         7125.0         81.702        0.24900
         7125.5         80.697        0.24100
         7126.0         80.461        0.24300
         7126.5         81.450        0.25000
         7127.0         82.389        0.26000
         7127.5         83.159        0.26000
         7128.0         80.053        0.23600
         7128.5         77.423        0.20600
         7129.0         74.708        0.19800
         7129.5         74.847        0.19900
         7130.0         74.990        0.20100
         7130.5         75.111        0.20300
         7131.0         71.779        0.17900
         7131.5         68.898        0.15800
         7132.0         65.855        0.13600
         7132.5         66.328        0.14500
