#--------------------------------------------------#
#-------------------ENVERUS, INC.------------------#
#------------------WWW.ENVERUS.COM-----------------#
#------------------COPYRIGHT 2020------------------#
#--------------------------------------------------#
#THIS FILE MAY BE USED ONLY IN ACCORDANCE WITH A CURRENT SUBSCRIPTION AGREEMENT BETWEEN
#THE USER AND ENVERUS, INC. NO PART OF THIS FILE MAY BE REPRODUCED, USED, COPIED,
#MODIFIED, PROPAGATED, OR DISTRIBUTED EXCEPT IN ACCORDANCE WITH THE SUBSCRIPTION
#AGREEMENT. UNAUTHORIZED USE OR DISTRIBUTION OF ALL OR ANY PART OF THIS FILE MAY VIOLATE
#COPYRIGHT, TRADEMARK, AND/OR OTHER LAWS AND IS SUBJECT TO CIVIL AS WELL AS CRIMINAL
#SANCTIONS.
#--------------------------------------------------#
#THIS FILE IS PROVIDED "AS-IS" AND ALL WARRANTIES ARE EXPRESSLY DISCLAIMED, WHETHER
#EXPRESS, ORAL, IMPLIED, STATUTORY OR OTHERWISE, INCLUDING ANY IMPLIED WARRANTY OF FITNESS
#FOR A PARTICULAR PURPOSE, MERCHANTABILITY, TITLE OR NON-INFRINGEMENT, AND ANY WARRANTIES
#ARISING BY VIRTUE OF CUSTOM OF TRADE OR COURSE OF DEALING.  FURTHER, ENVERUS, INC.
#AND ITS LICENSORS DO NOT REPRESENT OR WARRANT THAT THIS FILE WILL MEET USER'S
#REQUIREMENTS OR ARE SUITABLE FOR USER'S NEEDS OR THAT THE DATA OR RESULTS PROVIDED IN
#CONJUNCTION THEREWITH ARE CORRECT, ACCURATE, TIMELY OR RELIABLE. THESE DISCLAIMERS SHALL
#APPLY REGARDLESS OF ANY FAILURE OF ESSENTIAL PURPOSE OF ANY LIMITED REMEDY.  SOME
#JURISDICTIONS DO NOT ALLOW THE EXCLUSION OF CERTAIN WARRANTIES SO SOME OF THE ABOVE
#EXCLUSIONS MAY NOT APPLY. IN NO EVENT SHALL ENVERUS, INC. OR ANY OF ITS AFFILIATES
#BE LIABLE UNDER ANY LEGAL THEORY, WHETHER IN TORT (INCLUDING WITHOUT LIMITATION
#NEGLIGENCE), CONTRACT, STRICT LIABILITY, STATUTORY OR OTHERWISE, FOR ANY SPECIAL,
#INCIDENTAL, CONSEQUENTIAL, EXEMPLARY, PUNITIVE OR INDIRECT DAMAGE OF ANY KIND, INCLUDING
#WITHOUT LIMITATION LOSS OF REVENUE, PROFITS, GOODWILL, USE, AND/OR DATA OR THE COST OF
#PROCUREMENT OF SUBSTITUTE GOODS OR SERVICES, EVEN IF APPRISED OF THE POSSIBILITY OF SUCH
#DAMAGES IN ADVANCE.
#--------------------------------------------------#

~VERSION INFORMATION
VERS. 2.0 : CWLS LOG ASCII STANDARD - VERSION 2.0
WRAP.  NO : ONE LINE PER DEPTH STEP
~WELL INFORMATION
#MNEMONIC     .UNIT              VALUE :DESCRIPTION
STRT       .FT                51 :START DEPTH
STOP       .FT                4494 :STOP DEPTH
STEP       .FT                   0.500 :STEP
NULL       .                  -999.990 :NULL
UWI        .              42389102200000 :UNIQUE WELL ID
API        .              42389102200000 :API NUMBER
COMP       .         GRUY PETROLEUM MANAGEMENT CO. :COMPANY
WELL       .        REEVES -AQ- FEE  2 :WELL
DATE       .                30-NOV-1992 :LOG DATE
~CURVE INFORMATION
#MNEMONIC     .UNIT      API CODE :CURVE DESCRIPTION
DEPTH       .FT                      :MEASURED DEPTH
CAL.INCH        UNKNOWN   :CAL
GR.API        UNKNOWN   :GR
DT.US/FT        UNKNOWN   :DT
~A    DEPTH    CAL    GR    DT
# ...
 700.5     -999.990   16.179   76.142
 701     -999.990   15.572   76.524
 701.5     -999.990   16.57   73.977
 702     -999.990   17.567   71.43
 702.5     -999.990   18.564   68.883
 703     -999.990   19.562   66.336
 703.5     -999.990   18.516   63.79
 704     -999.990   17.388   61.243
 704.5     -999.990   16.26   58.696
 705     -999.990   15.132   60.067
 705.5     -999.990   14.004   69.295
 706     -999.990   14.348   72.129
 706.5     -999.990   14.787   70.604
 707     -999.990   15.225   69.078
 707.5     -999.990   15.511   67.553
 708     -999.990   15.475   66.425
 708.5     -999.990   14.603   66.546
 709     -999.990   13.732   66.667
 709.5     -999.990   12.86   66.469
 710     -999.990   11.989   64.643
 710.5     -999.990   12.488   62.818
 711     -999.990   12.989   62.299
 711.5     -999.990   12.47   62.42
 712     -999.990   11.414   62.376
 712.5     -999.990   10.357   61.713
 713     -999.990   9.301   61.049
 713.5     -999.990   9.271   62.441
 714     -999.990   10.761   64.57
 714.5     -999.990   12.252   66.699
 715     -999.990   13.742   68.794
 715.5     -999.990   13.948   70.548
 716     -999.990   13.949   71.595
 716.5     -999.990   13.95   70.666
 717     -999.990   13.95   69.737
 717.5     -999.990   13.951   68.807
 718     -999.990   13.48   67.878
 718.5     -999.990   12.893   69.287
 719     -999.990   12.306   70.628
 719.5     -999.990   11.719   69.679
 720     -999.990   11.131   68.73
 720.5     -999.990   10.544   67.782
 721     -999.990   9.957   66.833
 721.5     -999.990   9.37   66.18
 722     -999.990   8.783   67.303
 722.5     -999.990   8.666   68.425
 723     -999.990   9.034   69.421
 723.5     -999.990   9.402   69.058
 724     -999.990   9.77   68.695
 724.5     -999.990   10.137   69.707
 725     -999.990   10.505   71.576
 725.5     -999.990   10.386   72.804
 726     -999.990   9.992   71.125
 726.5     -999.990   9.597   69.446
 727     -999.990   9.202   69.013
 727.5     -999.990   8.807   69.134
 728     -999.990   8.463   68.894
 728.5     -999.990   8.32   67.453
 729     -999.990   8.177   64.789
 729.5     -999.990   8.24   62.111
 730     -999.990   8.527   59.432
 730.5     -999.990   8.813   56.754
 731     -999.990   9.1   54.076
 731.5     -999.990   9.387   54.778
 732     -999.990   9.664   55.569
 732.5     -999.990   9.33   56.964
 733     -999.990   8.995   58.907
 733.5     -999.990   9.176   60.85
 734     -999.990   9.593   62.793
 734.5     -999.990   10.011   61.935
 735     -999.990   10.429   60.682
 735.5     -999.990   10.846   59.429
 736     -999.990   10.217   58.176
 736.5     -999.990   9.588   58.103
 737     -999.990   8.959   59.078
 737.5     -999.990   8.33   60.054
 738     -999.990   7.701   60.258
 738.5     -999.990   7.072   59.595
 739     -999.990   6.443   58.932
 739.5     -999.990   5.814   58.268
 740     -999.990   5.185   61.411
 740.5     -999.990   4.932   65.765
 741     -999.990   4.849   68.506
 741.5     -999.990   4.766   68.375
 742     -999.990   4.683   68.243
 742.5     -999.990   4.61   68.112
 743     -999.990   5.02   67.981
 743.5     -999.990   5.431   67.85
 744     -999.990   5.841   67.718
 744.5     -999.990   6.251   67.587
 745     -999.990   6.259   67.05
 745.5     -999.990   6.116   66.498
 746     -999.990   5.973   65.946
 746.5     -999.990   5.83   65.394
 747     -999.990   5.687   65.645
 747.5     -999.990   5.647   66.35
 748     -999.990   5.87   67.055
 748.5     -999.990   6.093   68.212
 749     -999.990   6.317   69.708
 749.5     -999.990   6.193   70.963
 750     -999.990   5.965   70.57
 750.5     -999.990   5.737   70.177
 751     -999.990   5.51   69.784
 751.5     -999.990   5.573   69.391
 752     -999.990   5.938   69.043
 752.5     -999.990   6.302   68.888
 753     -999.990   6.667   68.732
 753.5     -999.990   6.904   68.576
 754     -999.990   6.626   68.421
 754.5     -999.990   6.347   68.666
 755     -999.990   6.069   68.969
 755.5     -999.990   6.102   69.273
 756     -999.990   6.27   69.379
 756.5     -999.990   6.437   68.615
 757     -999.990   6.605   68.133
 757.5     -999.990   6.773   68.227
 758     -999.990   6.94   68.322
 758.5     -999.990   6.68   68.416
 759     -999.990   6.345   68.51
 759.5     -999.990   6.011   68.604
 760     -999.990   5.676   68.93
 760.5     -999.990   5.519   69.318
 761     -999.990   6.127   69.707
 761.5     -999.990   6.735   70.095
 762     -999.990   7.343   70.483
 762.5     -999.990   7.951   70.871
 763     -999.990   8.559   70.756
 763.5     -999.990   8.55   70.359
 764     -999.990   8.3   69.962
 764.5     -999.990   8.049   69.564
 765     -999.990   7.798   69.572
 765.5     -999.990   7.548   70.437
 766     -999.990   7.537   71.301
 766.5     -999.990   8.163   72.166
 767     -999.990   8.788   73.031
 767.5     -999.990   9.305   73.896
 768     -999.990   9.198   73.509
 768.5     -999.990   9.091   72.808
 769     -999.990   8.985   72.108
 769.5     -999.990   8.878   73.762
 770     -999.990   8.771   76.376
 770.5     -999.990   8.479   75.013
 771     -999.990   8.108   73.126
 771.5     -999.990   7.737   71.239
 772     -999.990   7.366   69.352
 772.5     -999.990   6.995   68.559
 773     -999.990   6.624   68.72
 773.5     -999.990   6.253   68.65
 774     -999.990   5.882   68.473
 774.5     -999.990   5.511   68.297
 775     -999.990   5.079   68.121
 775.5     -999.990   4.627   67.945
 776     -999.990   4.175   67.769
 776.5     -999.990   3.723   67.593
 777     -999.990   4.429   67.764
 777.5     -999.990   5.304   67.972
 778     -999.990   6.179   68.18
 778.5     -999.990   7.053   68.387
 779     -999.990   7.673   69.053
 779.5     -999.990   7.12   70.026
 780     -999.990   6.567   70.999
 780.5     -999.990   6.014   71.973
 781     -999.990   5.739   71.469
 781.5     -999.990   6.13   67.818
 782     -999.990   6.52   68.196
 782.5     -999.990   6.91   68.573
 783     -999.990   6.631   68.95
 783.5     -999.990   6.167   69.328
 784     -999.990   5.704   69.705
 784.5     -999.990   5.24   69.467
 785     -999.990   4.777   68.653
 785.5     -999.990   4.711   67.89
 786     -999.990   4.791   68.306
 786.5     -999.990   4.871   68.722
 787     -999.990   4.95   69.138
 787.5     -999.990   5.03   69.554
 788     -999.990   5.11   69.276
 788.5     -999.990   5.19   68.753
 789     -999.990   5.094   68.229
 789.5     -999.990   4.642   67.734
 790     -999.990   4.191   68.081
 790.5     -999.990   3.739   68.427
 791     -999.990   3.78   68.774
 791.5     -999.990   4.442   69.12
 792     -999.990   5.103   69.039
 792.5     -999.990   5.765   68.797
 793     -999.990   6.426   68.555
 793.5     -999.990   7.087   68.312
 794     -999.990   7.749   68.07
 794.5     -999.990   8.41   71.027
 795     -999.990   9.072   70.363
 795.5     -999.990   9.733   69.698
 796     -999.990   10.395   69.034
 796.5     -999.990   10.493   68.777
 797     -999.990   10.036   68.953
 797.5     -999.990   9.58   69.129
 798     -999.990   9.124   69.306
 798.5     -999.990   8.931   69.482
 799     -999.990   9.632   69.658
 799.5     -999.990   10.333   69.834
 800     -999.990   11.034   71.043
 800.5     -999.990   11.734   72.668
 801     -999.990   12.435   72.14
 801.5     -999.990   12.631   71.307
 802     -999.990   11.961   70.474
 802.5     -999.990   11.291   69.641
 803     -999.990   10.62   68.808
 803.5     -999.990   9.95   67.975
 804     -999.990   9.28   68.359
 804.5     -999.990   9.019   69.28
 805     -999.990   9.103   70.2
 805.5     -999.990   9.067   71.12
 806     -999.990   8.564   71.306
 806.5     -999.990   8.062   70.381
 807     -999.990   7.56   69.455
 807.5     -999.990   7.756   68.53
 808     -999.990   9.438   70.043
 808.5     -999.990   11.119   72.658
 809     -999.990   12.128   75.274
 809.5     -999.990   10.105   75.339
 810     -999.990   8.082   73.947
 810.5     -999.990   6.06   72.554
 811     -999.990   5.262   71.162
 811.5     -999.990   4.976   69.769
