###############################################
##         ENVERUS                           ##
##         ESS - Open Hole                   ##
##         PERMIAN / DELAWARE                ##
##         Nov 04 2023  V4.0                 ##
##         42-389-30422-00-00                ##
###############################################
## Copyright 2017-2023  ENVERUS.  All Rights Reserved. 
## Confidential - Property of ENVERUS, use governed by terms and 
## conditions found within the existing Information Services Subscription Agreement 
## (as may be amended, the “ISSA”) between Customer and ENVERUS. 
## 
~VERSION INFORMATION
# MNEM.UNIT                               DATA : DESCRIPTION OF MNEMONIC
#-----.-----     ----------------------------- : -----------------------------
VERS.                                     2.00 : CWLS LOG ASCII STANDARD - VERSION 2.00
WRAP.                                       NO : MULTIPLE LINES PER DEPTH STEP
VEND.                                  ENVERUS : VENDOR
TYPE.                          ESS - OPEN HOLE : ENVERUS ESSENTIAL CURVES – ACCESSIBLE THROUGH ENVERUS PRISM(TM)
DOC.                                  31749874 : ENVERUS HEADER RAW DOCUMENT ID
#___________________________________________________________________________________________________ 
~WELL INFORMATION 
# u82sU1u0B8de5w9HEAjaYOtqLlVzfD+KUeD2ZoqivGgiUzwSeb1LYInaR9MNeJxDUIxxjb7EPbXz9g+KH10l6Q== 
# MNEM.UNIT                                              DATA : DESCRIPTION OF MNEMONIC 
#-----.-----                    ----------------------------- : ----------------------------- 
CNTY.                                                  REEVES : COUNTY 
STATE.                                                  TEXAS : STATE 
CNTRY.                                                    USA : COUNTRY 
API.                                             42-389-30422 : API (10 Digit) 
API_14.                                    42-389-30422-00-00 : API (14 Digits) 
API_14_std.                                 42-389-30422-0000 : API (14 Digits Standard) 
UWI.                                           42389304220000 : UNIQUE WELL ID 
WELL.                                    BECKHAM  AGNES 26  1 : WELL NAME
STRT.FT                                                  89.0 : START DEPTH
STOP.FT                                               15719.0 : STOP DEPTH
STEP.FT                                                   0.5 : STEP BETWEEN DEPTHS
NULL.                                                 -999.25 : NULL VALUE
COMP.                                     WALSH & WATTS  INC. : COMPANY
#___________________________________________________________________________________________________ 
~CURVE INFORMATION 
# MNEM.UNIT           : CURVE DESCRIPTION 
#-----.-----          : ----------------------------- 
 DEPT.FT               : MEASURED DEPTH 
 CALI.IN               : CALIPER (CAL - CAL) 
 GR.API                : GAMMA RAY (GR) 
 DT.US/FT              : SONIC DELTA TRANSIT TIME (DT) 
 #___________________________________________________________________________________________________ 
~A         DEPT           CALI             GR             DT
# ...
        11507.0          9.853         80.381         78.585
        11507.5          9.838         78.688         77.711
        11508.0          9.823         77.245         76.837
        11508.5          9.808         75.916         75.963
        11509.0          9.793         74.587         75.089
        11509.5          9.778         73.258         74.215
        11510.0          9.763         71.928         73.340
        11510.5          9.748         71.705         75.720
        11511.0          9.733         73.658         78.187
        11511.5          9.718         75.435         80.152
        11512.0          9.703         77.103         79.638
        11512.5          9.688         78.770         79.123
        11513.0          9.673         80.438         78.609
        11513.5          9.659         80.897         78.094
        11514.0          9.644         80.473         77.580
        11514.5          9.629         80.048         77.065
        11515.0          9.614         79.733         76.551
        11515.5          9.599         81.953         78.335
        11516.0          9.584         84.173         80.283
        11516.5          9.569         84.629         82.232
        11517.0          9.554         76.927         84.180
        11517.5          9.541         69.225         83.728
        11518.0          9.540         61.523         83.155
        11518.5          9.539         57.180         82.581
        11519.0          9.537         59.375         82.008
        11519.5          9.536         61.570         81.435
        11520.0          9.535         63.765         54.978
        11520.5          9.534         65.959         63.376
        11521.0          9.533         68.154         71.774
        11521.5          9.531         70.223         75.760
        11522.0          9.530         68.861         74.006
        11522.5          9.529         67.498         72.251
        11523.0          9.528         66.136         70.497
        11523.5          9.526         67.629         72.394
        11524.0          9.525         72.443         75.723
        11524.5          9.524         77.256         77.764
        11525.0          9.523         81.576         79.806
        11525.5          9.522         82.299         80.786
        11526.0          9.520         83.021         81.470
        11526.5          9.519         83.743         82.154
        11527.0          9.518         84.465         82.838
        11527.5          9.517         84.123         83.523
        11528.0          9.516         82.555         84.207
        11528.5          9.514         80.987         82.650
        11529.0          9.513         79.418         76.558
        11529.5          9.512         77.850         72.709
        11530.0          9.511         76.282         75.278
        11530.5          9.510         75.925         77.848
        11531.0          9.508         76.802         79.544
        11531.5          9.507         77.680         80.159
        11532.0          9.506         78.557         80.774
        11532.5          9.505         79.434         81.390
        11533.0          9.503         80.312         82.005
        11533.5          9.502         81.017         79.334
        11534.0          9.501         80.284         78.366
        11534.5          9.500         79.550         77.398
        11535.0          9.499         78.817         77.177
        11535.5          9.497         78.083         77.344
        11536.0          9.496         77.350         77.511
        11536.5          9.495         76.617         77.679
        11537.0          9.494         75.883         77.846
        11537.5          9.493         75.150         78.013
        11538.0          9.493         74.416         76.944
        11538.5          9.492         73.683         75.409
        11539.0          9.491         72.949         73.875
        11539.5          9.490         73.971         72.340
        11540.0          9.489         75.265         69.746
        11540.5          9.489         76.560         71.590
        11541.0          9.488         77.854         75.263
        11541.5          9.487         79.148         78.936
        11542.0          9.486         80.443         80.724
        11542.5          9.485         81.737         80.219
        11543.0          9.485         81.771         79.714
        11543.5          9.484         79.512         79.209
        11544.0          9.483         77.254         78.704
        11544.5          9.482         74.995         73.667
        11545.0          9.481         72.737         66.055
        11545.5          9.481         70.478         63.571
        11546.0          9.480         68.220         66.011
        11546.5          9.479         70.783         68.451
        11547.0          9.478         75.187         70.891
        11547.5          9.477         79.591         73.331
        11548.0          9.477         83.995         75.771
        11548.5          9.476         88.398         78.211
        11549.0          9.475         88.066         79.939
        11549.5          9.474         85.809         81.384
        11550.0          9.473         83.551         81.851
        11550.5          9.473         81.293         80.850
        11551.0          9.472         79.036         79.849
        11551.5          9.471         76.778         78.849
        11552.0          9.470         74.764         77.848
        11552.5          9.469         75.666         76.847
        11553.0          9.469         76.568         76.364
        11553.5          9.468         77.470         76.955
        11554.0          9.467         78.371         77.546
        11554.5          9.466         79.273         78.137
        11555.0          9.465         79.116         78.337
        11555.5          9.465         76.165         77.032
        11556.0          9.464         73.215         75.726
        11556.5          9.463         68.862         74.420
        11557.0          9.462         59.814         69.479
        11557.5          9.461         50.766         61.432
        11558.0          9.461         41.717         53.385
        11558.5          9.460         35.432         53.177
        11559.0          9.459         37.058         56.404
        11559.5          9.458         38.683         59.632
        11560.0          9.457         40.308         61.504
        11560.5          9.457         43.866         60.853
        11561.0          9.456         47.882         60.201
        11561.5          9.455         53.622         59.550
        11562.0          9.454         60.648         67.659
        11562.5          9.453         67.675         73.519
        11563.0          9.453         74.701         78.528
        11563.5          9.452         81.728         77.870
        11564.0          9.451         83.384         77.212
        11564.5          9.450         83.012         76.553
        11565.0          9.450         82.641         75.895
        11565.5          9.449         82.269         75.237
        11566.0          9.448         81.897         76.059
        11566.5          9.453         81.526         77.501
        11567.0          9.461         81.154         78.943
        11567.5          9.470         82.757         80.385
        11568.0          9.479         85.396         80.555
        11568.5          9.487         88.035         80.022
        11569.0          9.496         90.675         79.488
        11569.5          9.504         92.858         78.955
        11570.0          9.513         91.652         78.421
        11570.5          9.522         90.447         80.402
        11571.0          9.530         89.242         79.059
        11571.5          9.539         88.036         77.716
        11572.0          9.548         86.831         76.373
        11572.5          9.556         85.626         75.068
