#--------------------------------------------------#
#-------------------ENVERUS, INC.------------------#
#------------------WWW.ENVERUS.COM-----------------#
#------------------COPYRIGHT 2020------------------#
#--------------------------------------------------#
#THIS FILE MAY BE USED ONLY IN ACCORDANCE WITH A CURRENT SUBSCRIPTION AGREEMENT BETWEEN
#THE USER AND ENVERUS, INC. NO PART OF THIS FILE MAY BE REPRODUCED, USED, COPIED,
#MODIFIED, PROPAGATED, OR DISTRIBUTED EXCEPT IN ACCORDANCE WITH THE SUBSCRIPTION
#AGREEMENT. UNAUTHORIZED USE OR DISTRIBUTION OF ALL OR ANY PART OF THIS FILE MAY VIOLATE
#COPYRIGHT, TRADEMARK, AND/OR OTHER LAWS AND IS SUBJECT TO CIVIL AS WELL AS CRIMINAL
#SANCTIONS.
#--------------------------------------------------#
#THIS FILE IS PROVIDED "AS-IS" AND ALL WARRANTIES ARE EXPRESSLY DISCLAIMED, WHETHER
#EXPRESS, ORAL, IMPLIED, STATUTORY OR OTHERWISE, INCLUDING ANY IMPLIED WARRANTY OF FITNESS
#FOR A PARTICULAR PURPOSE, MERCHANTABILITY, TITLE OR NON-INFRINGEMENT, AND ANY WARRANTIES
#ARISING BY VIRTUE OF CUSTOM OF TRADE OR COURSE OF DEALING.  FURTHER, ENVERUS, INC.
#AND ITS LICENSORS DO NOT REPRESENT OR WARRANT THAT THIS FILE WILL MEET USER'S
#REQUIREMENTS OR ARE SUITABLE FOR USER'S NEEDS OR THAT THE DATA OR RESULTS PROVIDED IN
#CONJUNCTION THEREWITH ARE CORRECT, ACCURATE, TIMELY OR RELIABLE. THESE DISCLAIMERS SHALL
#APPLY REGARDLESS OF ANY FAILURE OF ESSENTIAL PURPOSE OF ANY LIMITED REMEDY.  SOME
#JURISDICTIONS DO NOT ALLOW THE EXCLUSION OF CERTAIN WARRANTIES SO SOME OF THE ABOVE
#EXCLUSIONS MAY NOT APPLY. IN NO EVENT SHALL ENVERUS, INC. OR ANY OF ITS AFFILIATES
#BE LIABLE UNDER ANY LEGAL THEORY, WHETHER IN TORT (INCLUDING WITHOUT LIMITATION
#NEGLIGENCE), CONTRACT, STRICT LIABILITY, STATUTORY OR OTHERWISE, FOR ANY SPECIAL,
#INCIDENTAL, CONSEQUENTIAL, EXEMPLARY, PUNITIVE OR INDIRECT DAMAGE OF ANY KIND, INCLUDING
#WITHOUT LIMITATION LOSS OF REVENUE, PROFITS, GOODWILL, USE, AND/OR DATA OR THE COST OF
#PROCUREMENT OF SUBSTITUTE GOODS OR SERVICES, EVEN IF APPRISED OF THE POSSIBILITY OF SUCH
#DAMAGES IN ADVANCE.
#--------------------------------------------------#

# EXPORTED FROM TRANSFORM SOFTWARE 5.2.0 ON 31-MAY-2019 BY USER BRIAN.UMLANG
# DI TRANSFORM - A PRODUCT OF DRILLINGINFO, INC. - WWW.DRILLINGINFO.COM
#
~VERSION INFORMATION
 VERS.        2.0 : LAS ASCII STANDARD - VERSION 2.0
 WRAP.         NO : ONE LINE PER DEPTH STEP

~WELL INFORMATION
#MNEM.UNIT       DATA TYPE       INFORMATION
#---------       ---------       -----------
 STRT.FT                 256 : START DEPTH
 STOP.FT                4706 : STOP DEPTH
 STEP.FT                 0.5 : STEP LENGTH
 NULL.               -999.25 : NULL VALUE
 UWI.         42301312890000 : UNIQUE WELL ID
 API.         42301312890000 : WELL IDENTIFIER
 COMP.                       : COMPANY
 WELL.  42301312890000_API14 : WELL NAME
 FLD.                        : FIELD NAME
 LOC.                        : WELL LOCATION
 CNTY.                       : COUNTY
 STAT.                       : STATE OR PROVINCE
 CTRY.                       : COUNTRY
 SRVC.                       : SERVICE COMPANY
 DATE.                       : DATE

~CURVE INFORMATION
#MNEM.UNIT       API CODE       CURVE DESCRIPTION
#---------       --------       -----------------
 DEPT.FT          : <MEASURED DEPTH>
 CAL.IN           : CALIPER
 DPHI.%           : DENSITY POROSITY
 DT.US/FT         : SONIC
 GR.GAPI          : GAMMA RAY
 ILD.OHMM         : DEEP RESISTIVITY
 ILS.OHMM         : SHALLOW RESISTIVITY
 NPHI.%           : NEUTRON POROSITY
 PE.B/ELEC        : PHOTOELECTRIC FACTOR
 RHOB.G/CM3       : DENSITY

~PARAMETER INFORMATION
#MNEM.UNIT       VALUE       DESCRIPTION
#---------       -----       -----------
 EKB.FT      2822 : ELEVATION ABOVE MSL

~A      DEPT         CAL        DPHI          DT          GR         ILD         ILS        NPHI          PE        RHOB
# ...
      3170.5        8.72     -999.25     -999.25     13.7725     -999.25     -999.25     -0.6237     -999.25     -999.25
        3171        8.72     -999.25     -999.25     14.0719     -999.25     -999.25      -0.503     -999.25     -999.25
      3171.5         8.7     -999.25     -999.25     14.0719     -999.25     -999.25     -0.4201     -999.25     -999.25
        3172        8.68     -999.25     -999.25     14.0719     -999.25     -999.25      -0.297     -999.25     -999.25
      3172.5        8.68     -999.25     -999.25     13.7725     -999.25     -999.25     -0.2213     -999.25     -999.25
        3173        8.68     -999.25     -999.25     13.7725     -999.25     -999.25     -0.3018     -999.25     -999.25
      3173.5        8.68     -999.25     -999.25     13.3836     -999.25     -999.25     -0.3421     -999.25     -999.25
        3174        8.68     -999.25     -999.25     12.1681     -999.25     -999.25     -0.3823     -999.25     -999.25
      3174.5        8.68     -999.25     -999.25     11.6766     -999.25     -999.25     -0.3421     -999.25     -999.25
        3175       8.649     -999.25     -999.25     11.8198     -999.25     -999.25     -0.3018     -999.25     -999.25
      3175.5        8.64     -999.25     -999.25     13.0352     -999.25     -999.25     -0.2213     -999.25     -999.25
        3176        8.64     -999.25     -999.25     13.9513     -999.25     -999.25     -0.1811     -999.25     -999.25
      3176.5        8.64     -999.25     -999.25     14.2686     -999.25     -999.25     -0.3283     -999.25     -999.25
        3177        8.64     -999.25     -999.25     15.7835     -999.25     -999.25     -0.3823     -999.25     -999.25
      3177.5        8.62     -999.25     -999.25     17.2983     -999.25     -999.25     -0.3823     -999.25     -999.25
        3178      8.6016     -999.25     -999.25     18.8132     -999.25     -999.25     -0.2682     -999.25     -999.25
      3178.5      8.5796     -999.25     -999.25     18.5941     -999.25  10647.3371     -0.2213     -999.25     -999.25
        3179        8.58     -999.25       50.02     16.7798  39850.5464  11613.5338     -0.2598     -999.25     -999.25
      3179.5        8.58     -999.25     50.1002     14.8135  39653.1277  12391.1528     -0.3018     -999.25     -999.25
        3180        8.58     -999.25     50.1476     12.5524  39456.6462  12970.4221     -0.3451     -999.25     -999.25
      3180.5        8.58     -999.25     50.3407     10.9167  39261.1482  13653.8074     -0.3823     -999.25     -999.25
        3181      8.5742     -999.25     50.4208      11.136   39066.655  14095.4515     -0.4225     -999.25     -999.25
      3181.5        8.54     -999.25     50.3407     13.0263  39108.3751  14425.7346     -0.3823     -999.25     -999.25
        3182      8.4489     -999.25     50.2058     16.5433  39828.9328  14763.7623     -0.2225     -999.25     -999.25
      3182.5        8.48     -999.25     49.8833     20.7884  39922.0136  15221.1651     -0.0303     -999.25     -999.25
        3183        8.48     -999.25     49.8196     23.0539  39922.0136  15221.1651      0.1811     -999.25     -999.25
      3183.5        8.48     -999.25     49.8799     21.7131  39922.0136  15221.1651     -0.1204     -999.25     -999.25
        3184        8.48     -999.25      50.002     18.7168  39922.0136  15221.1651     -0.5655     -999.25     -999.25
      3184.5        8.48     -999.25      50.084     14.9029  39922.0136  15221.1651     -0.8898     -999.25     -999.25
        3185        8.46     -999.25     50.2204     16.3734  39563.3963  15221.1651     -1.0262     -999.25     -999.25
      3185.5        8.46     -999.25     50.2731     21.2243  38882.0582  15479.5156     -0.8151     -999.25     -999.25
        3186        8.46     -999.25     50.1109      26.877   26494.213   15842.225     -0.4351     -999.25     -999.25
      3186.5      8.3616     -999.25     50.3073     38.0332  18017.2457  16083.3724      0.8001     -999.25     -999.25
        3187        8.36     -999.25     54.1207     50.2398  15142.0024    9228.243      3.2993     -999.25     -999.25
      3187.5        8.36     -999.25     60.4954     59.6816  13233.4133   3031.7735      8.0755     -999.25     -999.25
        3188        8.36     -999.25     64.3654     67.2918   1040.0458   1867.1485     12.0388     -999.25     -999.25
      3188.5        8.36       8.932     70.0984     78.7941    354.7168    473.9489     16.8243      3.4709     -999.25
        3189        8.36      8.2542     71.0194     88.9134    233.9762    438.5977     17.0534      3.2673     -999.25
      3189.5        8.36      6.5874     68.8744     96.5078    179.7501     320.765     16.6305      3.2826     -999.25
        3190        8.36      5.3544     67.0501     98.2036    138.7912    170.3905     16.0263      3.4322     -999.25
      3190.5        8.36      4.6199     65.4072     96.7602     61.4293     93.4299     15.3662       3.507     -999.25
        3191      8.3905      4.4883     64.5338     95.6252     63.2803     60.8756     14.6167      3.4589     -999.25
      3191.5      8.4776      4.9488      64.548    103.6845     64.9117     65.5276     14.6347      3.3574     -999.25
        3192        8.42      5.7233     65.2125    113.1961      74.506      75.979     15.2419      3.3267      2.6812
      3192.5         8.4      6.3053     66.7922    126.4926      74.506     85.8446     15.7398      3.2866      2.6812
        3193         8.4      6.3488     67.7178    131.3254     68.4002     88.1147     16.1419      3.2531      2.6812
      3193.5      8.4166      5.8537     68.3134    127.0601     56.8237     88.1147     16.1293      3.2212      2.6812
        3194        8.42      5.4136     68.3367    121.5681     47.2063     72.2091     16.0813      3.2626      2.6812
      3194.5        8.42      5.2764     68.4168    113.6764     36.2449     47.5925     16.3101      3.3467      2.6812
        3195        8.42      5.3538     68.0714     108.524     32.5823     40.5996     16.5512      3.3279      2.6812
      3195.5        8.42       5.397     66.7086    105.4116     27.3029     38.3858      16.423      3.2665      2.6807
        3196        8.42      5.1913     65.9011    105.3892     24.8699     35.5252     16.1978      3.2665      2.6761
      3196.5        8.42      4.6131     65.7994    105.4026     22.7815     33.7212     16.2044      3.2665      2.6696
        3197        8.42      3.4292     66.1759     105.988     22.1488     30.0194     16.9966      3.3127      2.6643
      3197.5        8.42      4.0864      66.556    104.5179     21.4386     29.5024     18.0411      3.5349      2.6666
        3198        8.42      4.5178     67.0406    102.2612     20.4547     28.7188     18.3792      3.4735      2.6683
      3198.5        8.42      5.1871     67.2594      98.932     19.0807     26.3179     18.2381       3.164      2.6625
        3199        8.42      5.3787      66.846     96.5525     18.7719     24.9604     17.6177      2.9966      2.6563
      3199.5        8.42       5.175     66.0596     95.2096     20.2117     26.1845     16.6186      2.9253      2.6517
        3200        8.42      5.0352     65.0094      95.509     21.8382     28.0685     15.9371      2.9981      2.6298
      3200.5        8.42      4.9687     64.3629      97.846     23.0824     30.2971     15.9155      3.1197      2.6291
        3201         8.4      4.9146     65.1694    101.3964     24.5313     31.3682     16.4134      3.2064      2.6296
      3201.5         8.4      4.8744     66.0546    105.8582     25.7051     31.1266      17.305      3.2064      2.6302
        3202         8.4      4.9146     66.8612    108.9082     26.4091     30.0638     18.0384      3.2064      2.6302
      3202.5         8.4      5.0319     67.8102    110.1796     26.1656      28.804     18.3204      3.1876      2.6287
        3203         8.4      5.1954     68.3082    108.2449     25.2135     25.6698     18.2567      3.1462      2.6264
      3203.5         8.4      5.6443     68.2431    103.4725       26.34     24.6867      17.851      3.0862       2.619
