###############################################
##         ENVERUS                           ##
##         ESS - Open Hole                   ##
##         PERMIAN / DELAWARE                ##
##         Nov 04 2023  V4.0                 ##
##         42-389-31270-00-00                ##
###############################################
## Copyright 2017-2023  ENVERUS.  All Rights Reserved. 
## Confidential - Property of ENVERUS, use governed by terms and 
## conditions found within the existing Information Services Subscription Agreement 
## (as may be amended, the “ISSA”) between Customer and ENVERUS. 
## 
~VERSION INFORMATION
# MNEM.UNIT                               DATA : DESCRIPTION OF MNEMONIC
#-----.-----     ----------------------------- : -----------------------------
VERS.                                     2.00 : CWLS LOG ASCII STANDARD - VERSION 2.00
WRAP.                                       NO : MULTIPLE LINES PER DEPTH STEP
VEND.                                  ENVERUS : VENDOR
TYPE.                          ESS - OPEN HOLE : ENVERUS ESSENTIAL CURVES – ACCESSIBLE THROUGH ENVERUS PRISM(TM)
DOC.                                  31950282 : ENVERUS HEADER RAW DOCUMENT ID
#___________________________________________________________________________________________________ 
~WELL INFORMATION 
# 0CODbT4LMl4UGLa7W4QP9cEC157HhgZEtdKI2U+cm8ET/zLKkJfEe4mvdgudHboWMGmWziBYTrzgVEWtCsCjWg== 
# MNEM.UNIT                                              DATA : DESCRIPTION OF MNEMONIC 
#-----.-----                    ----------------------------- : ----------------------------- 
CNTY.                                                  REEVES : COUNTY 
STATE.                                                  TEXAS : STATE 
CNTRY.                                                    USA : COUNTRY 
API.                                             42-389-31270 : API (10 Digit) 
API_14.                                    42-389-31270-00-00 : API (14 Digits) 
API_14_std.                                 42-389-31270-0000 : API (14 Digits Standard) 
UWI.                                           42389312700000 : UNIQUE WELL ID 
WELL.                                        FORTUNE UNIT  2R : WELL NAME
STRT.FT                                                3825.0 : START DEPTH
STOP.FT                                               13654.0 : STOP DEPTH
STEP.FT                                                   0.5 : STEP BETWEEN DEPTHS
NULL.                                                 -999.25 : NULL VALUE
COMP.                          SANDRIDGE EXPL. AND PROD.  LLC : COMPANY 
DATE.                                             19-AUG-2004 : LOG DATE
#___________________________________________________________________________________________________ 
~CURVE INFORMATION 
# MNEM.UNIT           : CURVE DESCRIPTION 
#-----.-----          : ----------------------------- 
 DEPT.FT               : MEASURED DEPTH 
 CALI__B.IN            : CALIPER (CAL - CAL) 
 GR__B.API             : GAMMA RAY (GR) 
 DT__B.US/FT           : SONIC DELTA TRANSIT TIME (DT) 
 #___________________________________________________________________________________________________ 
~A         DEPT        CALI__B          GR__B          DT__B
# ...
         9699.0          9.969         54.347         69.387
         9699.5          9.963         55.457         70.203
         9700.0          9.957         57.233         71.019
         9700.5          9.951         59.009         71.836
         9701.0          9.945         60.786         71.367
         9701.5          9.939         62.562         70.157
         9702.0          9.933         63.151         68.948
         9702.5          9.930         62.093         67.738
         9703.0          9.928         61.035         66.529
         9703.5          9.927         59.977         65.319
         9704.0          9.926         58.919         65.653
         9704.5          9.925         57.861         66.712
         9705.0          9.923         56.803         67.770
         9705.5          9.922         55.745         68.829
         9706.0          9.921         56.296         65.327
         9706.5          9.919         59.230         65.410
         9707.0          9.918         61.168         65.705
         9707.5          9.917         58.759         66.001
         9708.0          9.915         56.349         66.297
         9708.5          9.914         53.939         66.593
         9709.0          9.913         51.529         66.889
         9709.5          9.911         51.641         67.185
         9710.0          9.914         51.851         67.481
         9710.5          9.918         52.060         67.777
         9711.0          9.922         52.270         69.479
         9711.5          9.927         52.479         70.061
         9712.0          9.931         56.483         70.486
         9712.5          9.935         63.521         70.912
         9713.0          9.940         70.559         71.338
         9713.5          9.944         76.788         71.287
         9714.0          9.948         75.789         72.206
         9714.5          9.953         74.791         73.126
         9715.0          9.957         73.792         74.045
         9715.5          9.961         72.794         74.965
         9716.0          9.966         74.343         75.858
         9716.5          9.970         82.208         72.332
         9717.0          9.974         90.073         68.807
         9717.5          9.979         97.938         65.281
         9718.0          9.983         97.613         61.894
         9718.5          9.987         69.116         62.608
         9719.0          9.992         63.415         63.322
         9719.5          9.991         59.286         64.037
         9720.0          9.988         56.241         64.751
         9720.5          9.986         55.361         65.990
         9721.0          9.984         54.481         67.809
         9721.5          9.981         53.601         69.628
         9722.0          9.979         52.721         71.447
         9722.5          9.977         58.381         72.522
         9723.0          9.975         70.185         73.511
         9723.5          9.972         81.989         74.500
         9724.0          9.970         93.792         73.675
         9724.5          9.968         91.347         72.657
         9725.0          9.965         87.299         71.640
         9725.5          9.963         83.252         70.622
         9726.0          9.961         79.204         69.605
         9726.5          9.958         75.157         69.936
         9727.0          9.956         70.146         70.483
         9727.5          9.954         62.099         71.030
         9728.0          9.953         61.573         70.709
         9728.5          9.955         61.047         70.165
         9729.0          9.957         60.521         69.621
         9729.5          9.959         59.994         70.616
         9730.0          9.961         59.468         72.978
         9730.5          9.963         62.393         75.341
         9731.0          9.965         74.696         77.703
         9731.5          9.967         87.000         78.913
         9732.0          9.969         99.304         78.017
         9732.5          9.971        100.536         77.122
         9733.0          9.973         95.501         76.226
         9733.5          9.975         90.467         75.330
         9734.0          9.977         85.432         74.435
         9734.5          9.979         80.398         73.219
         9735.0          9.981         75.526         71.701
         9735.5          9.983         70.836         70.184
         9736.0          9.985         66.146         68.666
         9736.5          9.987         61.456         67.148
         9737.0          9.989         56.766         66.971
         9737.5          9.991         54.705         69.716
         9738.0          9.993         59.104         72.462
         9738.5          9.995         63.503         72.739
         9739.0          9.997         67.902         71.256
         9739.5          9.999         72.301         69.773
         9740.0         10.001         76.699         68.799
         9740.5         10.003         79.465         71.401
         9741.0         10.005         70.227         74.002
         9741.5         10.007         75.453         76.604
         9742.0         10.009         89.525         79.206
         9742.5         10.011        103.597         80.050
         9743.0         10.013        104.154         76.969
         9743.5         10.014         93.523         73.888
         9744.0         10.009         82.891         70.807
         9744.5         10.005         72.621         67.726
         9745.0         10.000         65.976         64.645
         9745.5          9.995         59.332         61.564
         9746.0          9.990         52.687         58.483
         9746.5          9.986         46.043         61.273
         9747.0          9.981         39.398         67.600
         9747.5          9.976         45.544         71.368
         9748.0          9.971         51.874         69.185
         9748.5          9.967         58.205         67.002
         9749.0          9.962         64.535         67.036
         9749.5          9.957         70.866         68.617
         9750.0          9.953         66.324         70.199
         9750.5          9.948         64.866         71.780
         9751.0          9.943         74.164         73.362
         9751.5          9.938         83.462         74.944
         9752.0          9.934         92.760         74.804
         9752.5          9.929         98.283         74.202
         9753.0          9.924         89.857         73.600
         9753.5          9.919         81.431         72.998
         9754.0          9.915         78.183         72.395
         9754.5          9.910         77.186         71.581
         9755.0          9.905         76.188         67.015
         9755.5          9.901         75.190         62.449
         9756.0          9.896         74.192         64.765
         9756.5          9.894         65.398         67.726
         9757.0          9.895         55.565         70.687
         9757.5          9.896         45.733         73.648
         9758.0          9.897         91.361         76.609
         9758.5          9.898        103.817         79.571
         9759.0          9.899        113.377         81.249
         9759.5          9.900        105.551         75.712
         9760.0          9.901         97.725         70.174
         9760.5          9.902         89.899         64.801
         9761.0          9.903         82.540         59.461
         9761.5          9.904         75.487         58.134
         9762.0          9.905         68.435         59.935
         9762.5          9.906         61.383         61.735
         9763.0          9.906         54.331         63.535
         9763.5          9.907         47.279         65.336
         9764.0          9.908         40.227         67.136
         9764.5          9.909         37.631         68.937
