~Version Information
 VERS.                  2.0:   CWLS log ASCII Standard -VERSION 2.0
 WRAP.                   NO:   One line per depth step
~Well Information Block
#MNEM.UNIT     VALUE/NAME     DESCRIPTION
#---------     -----------    ---------------------------
 STRT.F              8800.0000: START DEPTH
 STOP.F             14300.0000: STOP DEPTH
 STEP.F                 0.5000: STEP DEPTH
 NULL.                 -999.25: NULL VALUE
 LOC .     336'' FSL & 729' FWL:  LOCATION
 FL6 .        API 42-389-36322:  LOCATIONLINE6
 FL4 .           ABSTRACT 3622:  LOCATIONLINE4
 FL3 .        T&P RR CO SURVEY:  LOCATIONLINE3
 FL2 .     SECTION 36, BLOCK 58 T2:  LOCATIONLINE2
 FL1 .     336'' FSL & 729' FWL:  LOCATIONLINE1
 DMF .                      KB:  DRILL MEAS FROM
 PDAT.                      GL:  PERMANENT DATUM
 CNTY.                  REEVES:  COUNTY NAME
 FLD .     FORD, WEST (WOLFCAMP):  FIELD NAME
 WELL.        AVA STATE 36 #2H:  WELL NAME
 COMP.     CAPITAN ENERGY INC.:  COMPANY
 DATE.             01-Nov-2017:  DATE
 SVCO.             Halliburton:  SERVICECONAME
 PROV.                   TEXAS:  PROVINCE
 STAT.                   TEXAS:  STATE NAME
 CTRY.           UNITED STATES:  COUNTRY NAME
 HIDE.                        :  WELLNAMEOPERAT
 BASI.                 PERMIAN:  BASIN
 UWI .            42-389-36322LAT:  UNIQUE WELL IDENTIFIER
 API .            42-389-36322LAT:  API NUMBER
 RANG.                     N/A:  RANGE
 TOWN.                     N/A:  TOWNSHIP
 SECT.                     N/A:  SECTION
 SON .               904399722:  JOB NUMBER
 SRVC.             Halliburton:  SERVICE COMPANY
 LMF .                      KB:  LOG MEASURED FROM
 EGL .ft             3011.0000:  GROUND ELEVATION
 BAP .ft                0.0000:  GL ELEV ONSHORE
 GVFD.g                 1.0000:  GRAVITY FIELD
 EKB .ft             3037.0000:  KB ELEVATION
 EDF .ft             3036.0000:  DF ELEVATION
~Curve Information Block
#MNEM.UNIT                 API CODE     Curve Description
#---------               -----------    ---------------------------
 DEPT.F                 00 000 000 000:  Depth
 CCL .V                 00 000 000 000:  Casing Collar Locator
 NPHI_OH.pu             00 000 000 000:  NPHI_OH
 NPHI_CHI.pu            00 000 000 000:  NPHI_CHI
 GR_CHI.api             00 000 000 000:  GR_CHI
 GR_OH.api              00 000 000 000:  GR_OH
 RHOB_OH.g/cc           00 000 000 000:  RHOB_OH
 RHOB_CHI.g/cc          00 000 000 000:  RHOB_CHI
 PE_CHI.b/e             00 000 000 000:  PE_CHI
 PE_OH.b/e              00 000 000 000:  PE_OH
 DTC_OH.uspf            00 000 000 000:  DTC_OH
 DTC_CHI.uspf           00 000 000 000:  DTC_CHI
 SPHI_CHI.pu            00 000 000 000:  Acou Porosity CHI
 RT10_OH.ohmm           00 000 000 000:  RT10_OH
 RT10_CHI.ohmm          00 000 000 000:  RT10_CHI
 RT30_OH.ohmm           00 000 000 000:  RT30_OH
 RT30_CHI.ohmm          00 000 000 000:  RT30_CHI
 RT90_OH.ohmm           00 000 000 000:  RT90_OH
 RT90_CHI.ohmm          00 000 000 000:  RT90_CHI
 SGF .cu                00 000 000 000:  Formation Sigma
 CRNF.NONE              00 000 000 000:  CM GrsCaptRatio
 RIN .NONE              00 000 000 000:  CM GrsInelRatio
#Other Information
#
#WARRANTY: Halliburton will use its best efforts to furnish customers with 
#accurate information and interpretations that are part of, and incident to, the services 
#provided.  However, Halliburton cannot and does not warrant the accuracy 
#or correctness of such information and interpretations.  Under no circumstances should any 
#such information or interpretation be relied upon as the sole basis for any drilling, 
#completion, production, or financial decision or any procedure involving any risk to the 
#safety of any drilling venture, drilling rig or its crew or any other third party.  The 
#Customer has full responsibility for all drilling, completion and production operation.  
#Halliburton makes no representations or warranties, either expressed or 
#implied, including, but not limited to, the implied warranties of merchantability or fitness 
#for a particular purpose, with respect to the services rendered.  In no event will 
#Halliburton be liable for failure to obtain any particular results or for 
#any damages, including, but not limited to, indirect, special or consequential damages, 
#resulting from the use of any information or interpretation provided by Halliburton.
#
~A    DEPT      CCL   NPHI_OH NPHI_CHI   GR_CHI   GR_OH   RHOB_OH RHOB_CHI  PE_CHI   PE_OH  DTC_OH  DTC_CHI SPHI_CHI RT10_OH  RT10_CHI RT30_OH  RT30_CHI RT90_OH  RT90_CHI   SGF    CRNF   RIN   
# ...
   10627.0000  0.0000 -999.25   13.0871 126.8904  -999.25 -999.25    2.5471  3.7091 -999.25 -999.25 70.5892  16.2600  -999.25  39.3501  -999.25  39.1755  -999.25  42.0437 26.4747 1.0538 1.0340
   10627.5000  0.0000 -999.25   13.1879 123.1446  -999.25 -999.25    2.5447  3.6861 -999.25 -999.25 70.6328  16.2900  -999.25  39.4647  -999.25  39.4128  -999.25  42.3594 26.3164 1.0452 1.0289
   10628.0000  0.0000 -999.25   13.1449 114.7139  -999.25 -999.25    2.5432  3.6762 -999.25 -999.25 70.4350  16.1500  -999.25  39.3297  -999.25  39.2009  -999.25  42.1728 26.1342 1.0392 1.0243
   10628.5000  0.0000 -999.25   13.2998 122.2507  -999.25 -999.25    2.5423  3.6554 -999.25 -999.25 70.5765  16.2500  -999.25  39.8700  -999.25  40.1427  -999.25  43.2502 26.1224 1.0372 1.0233
   10629.0000  0.0000 -999.25   13.1528 124.9501  -999.25 -999.25    2.5446  3.6788 -999.25 -999.25 70.1983  15.9800  -999.25  40.3166  -999.25  40.7508  -999.25  43.9436 26.1909 1.0447 1.0267
   10629.5000  0.0000 -999.25   12.6679 114.8534  -999.25 -999.25    2.5494  3.7555 -999.25 -999.25 69.4497  15.4500  -999.25  39.9653  -999.25  39.8574  -999.25  42.9118 26.4291 1.0548 1.0337
   10630.0000  0.0000 -999.25   12.5699 118.4230  -999.25 -999.25    2.5517  3.7882 -999.25 -999.25 69.3420  15.3800  -999.25  40.0108  -999.25  39.8730  -999.25  42.8894 26.8148 1.0657 1.0393
   10630.5000  0.0000 -999.25   12.6443 120.6178  -999.25 -999.25    2.5520  3.8019 -999.25 -999.25 69.7086  15.6400  -999.25  39.6866  -999.25  39.3830  -999.25  42.2822 27.2300 1.0692 1.0423
   10631.0000  0.0000 -999.25   12.9778 128.4147  -999.25 -999.25    2.5498  3.7721 -999.25 -999.25 70.4675  16.1700  -999.25  39.5361  -999.25  39.3322  -999.25  42.1813 27.6167 1.0641 1.0413
   10631.5000  0.0000 -999.25   13.1821 128.9283  -999.25 -999.25    2.5479  3.7535 -999.25 -999.25 71.0147  16.5600  -999.25  39.0913  -999.25  38.7088  -999.25  41.4448 27.8588 1.0594 1.0398
   10632.0000  0.0000 -999.25   13.2085 131.1864  -999.25 -999.25    2.5487  3.7659 -999.25 -999.25 71.1968  16.6900  -999.25  38.8346  -999.25  38.3040  -999.25  40.9465 28.0869 1.0590 1.0428
   10632.5000  0.0000 -999.25   13.1862 136.0499  -999.25 -999.25    2.5499  3.7669 -999.25 -999.25 71.1136  16.6300  -999.25  39.0036  -999.25  38.5901  -999.25  41.2581 27.9847 1.0608 1.0448
   10633.0000  0.0000 -999.25   12.6398 119.6966  -999.25 -999.25    2.5534  3.8111 -999.25 -999.25 70.3075  16.0600  -999.25  38.3501  -999.25  37.2787  -999.25  39.7963 27.7618 1.0636 1.0470
   10633.5000  0.0000 -999.25   12.6060 117.8493  -999.25 -999.25    2.5534  3.8132 -999.25 -999.25 70.2349  16.0100  -999.25  38.3462  -999.25  37.2509  -999.25  39.7734 27.3684 1.0585 1.0466
   10634.0000  0.0000 -999.25   12.9821 129.1963  -999.25 -999.25    2.5507  3.7747 -999.25 -999.25 70.7422  16.3700  -999.25  38.9015  -999.25  38.3253  -999.25  40.9863 26.9619 1.0526 1.0439
   10634.5000  0.0000 -999.25   13.0630 127.6645  -999.25 -999.25    2.5492  3.7687 -999.25 -999.25 70.8430  16.4400  -999.25  38.9957  -999.25  38.4950  -999.25  41.1948 26.5827 1.0444 1.0418
   10635.0000  0.0000 -999.25   13.0254 125.2659  -999.25 -999.25    2.5484  3.7543 -999.25 -999.25 70.5911  16.2600  -999.25  39.3097  -999.25  38.9866  -999.25  41.7996 26.3613 1.0390 1.0385
   10635.5000  0.0000 -999.25   12.9077 121.5731  -999.25 -999.25    2.5487  3.7574 -999.25 -999.25 70.2198  16.0000  -999.25  39.5488  -999.25  39.3021  -999.25  42.1976 26.4250 1.0326 1.0371
   10636.0000  0.0000 -999.25   12.8854 126.6285  -999.25 -999.25    2.5495  3.7558 -999.25 -999.25 69.9833  15.8300  -999.25  40.0663  -999.25  40.1577  -999.25  43.1848 26.7089 1.0340 1.0378
   10636.5000  0.0000 -999.25   12.7070 123.4981  -999.25 -999.25    2.5509  3.7676 -999.25 -999.25 69.6084  15.5600  -999.25  40.0564  -999.25  40.0474  -999.25  43.0728 27.0030 1.0354 1.0387
   10637.0000  0.0000 -999.25   12.4751 117.6864  -999.25 -999.25    2.5523  3.7696 -999.25 -999.25 69.1481  15.2400  -999.25  39.8816  -999.25  39.6668  -999.25  42.6660 27.0898 1.0402 1.0381
   10637.5000  0.0000 -999.25   12.4886 113.1248  -999.25 -999.25    2.5507  3.7378 -999.25 -999.25 69.2010  15.2800  -999.25  39.5031  -999.25  39.1638  -999.25  42.1233 27.0541 1.0403 1.0334
   10638.0000  0.0000 -999.25   12.6527 111.3272  -999.25 -999.25    2.5475  3.6812 -999.25 -999.25 69.3921  15.4100  -999.25  39.2626  -999.25  39.0599  -999.25  42.0563 27.0233 1.0413 1.0256
   10638.5000  0.0000 -999.25   12.7765 109.6194  -999.25 -999.25    2.5455  3.6599 -999.25 -999.25 69.6355  15.5800  -999.25  39.0190  -999.25  38.8112  -999.25  41.7871 26.8176 1.0446 1.0222
   10639.0000  0.0000 -999.25   12.9312 117.6360  -999.25 -999.25    2.5452  3.6509 -999.25 -999.25 69.8496  15.7400  -999.25  39.4949  -999.25  39.5595  -999.25  42.6172 26.7250 1.0448 1.0234
   10639.5000  0.0000 -999.25   12.8262 116.0725  -999.25 -999.25    2.5468  3.6908 -999.25 -999.25 69.7485  15.6600  -999.25  39.5732  -999.25  39.4879  -999.25  42.5104 26.5211 1.0473 1.0276
   10640.0000  0.0000 -999.25   12.6995 111.1581  -999.25 -999.25    2.5481  3.7281 -999.25 -999.25 69.6770  15.6100  -999.25  39.3144  -999.25  38.9279  -999.25  41.8522 26.4101 1.0436 1.0308
   10640.5000  0.0000 -999.25   12.6086 105.8054  -999.25 -999.25    2.5484  3.7429 -999.25 -999.25 69.5255  15.5100  -999.25  39.1966  -999.25  38.6716  -999.25  41.5757 26.4320 1.0416 1.0305
   10641.0000  0.0000 -999.25   12.7275 106.8909  -999.25 -999.25    2.5470  3.7285 -999.25 -999.25 69.7015  15.6300  -999.25  39.2564  -999.25  38.8293  -999.25  41.7614 26.5987 1.0406 1.0286
   10641.5000  0.0000 -999.25   12.8826 114.0658  -999.25 -999.25    2.5458  3.6934 -999.25 -999.25 69.8058  15.7000  -999.25  39.6834  -999.25  39.6418  -999.25  42.7006 27.0082 1.0425 1.0262
   10642.0000  0.0000 -999.25   12.8424 116.0429  -999.25 -999.25    2.5467  3.6972 -999.25 -999.25 69.7477  15.6600  -999.25  39.7161  -999.25  39.6793  -999.25  42.7308 27.4116 1.0491 1.0278
   10642.5000  0.0000 -999.25   12.6115 110.8653  -999.25 -999.25    2.5488  3.7212 -999.25 -999.25 69.5049  15.4900  -999.25  39.2100  -999.25  38.7927  -999.25  41.7055 27.7748 1.0559 1.0306
   10643.0000  0.0000 -999.25   12.4007 106.6962  -999.25 -999.25    2.5513  3.7580 -999.25 -999.25 69.3843  15.4100  -999.25  38.6869  -999.25  37.8485  -999.25  40.5943 27.9635 1.0599 1.0354
   10643.5000  0.0000 -999.25   12.5936 117.0355  -999.25 -999.25    2.5518  3.7666 -999.25 -999.25 69.9005  15.7700  -999.25  38.7512  -999.25  37.9770  -999.25  40.6671 28.2366 1.0593 1.0401
   10644.0000  0.0000 -999.25   12.9449 128.5533  -999.25 -999.25    2.5502  3.7470 -999.25 -999.25 70.5739  16.2500  -999.25  38.9493  -999.25  38.4495  -999.25  41.1572 28.3767 1.0515 1.0407
   10644.5000  0.0000 -999.25   13.2267 136.9451  -999.25 -999.25    2.5486  3.7199 -999.25 -999.25 71.0701  16.6000  -999.25  39.0472  -999.25  38.7673  -999.25  41.4921 28.4947 1.0462 1.0398
   10645.0000  0.0000 -999.25   13.2585 135.2731  -999.25 -999.25    2.5472  3.6885 -999.25 -999.25 71.0758  16.6000  -999.25  38.9297  -999.25  38.6854  -999.25  41.4283 28.2438 1.0410 1.0356
   10645.5000  0.0000 -999.25   13.1835 134.3232  -999.25 -999.25    2.5469  3.6563 -999.25 -999.25 70.7728  16.3900  -999.25  38.9912  -999.25  38.8975  -999.25  41.7157 27.9342 1.0404 1.0316
   10646.0000  0.0000 -999.25   12.9511 124.2571  -999.25 -999.25    2.5469  3.6533 -999.25 -999.25 70.2602  16.0300  -999.25  38.7603  -999.25  38.5201  -999.25  41.3461 27.5356 1.0378 1.0284
   10646.5000  0.0000 -999.25   12.8548 120.3266  -999.25 -999.25    2.5468  3.6495 -999.25 -999.25 69.9331  15.7900  -999.25  38.9031  -999.25  38.7253  -999.25  41.6214 27.2349 1.0289 1.0263
   10647.0000  0.0000 -999.25   13.0439 126.6704  -999.25 -999.25    2.5456  3.6368 -999.25 -999.25 70.1086  15.9200  -999.25  39.5775  -999.25  39.7853  -999.25  42.8329 27.0698 1.0215 1.0254
   10647.5000  0.0000 -999.25   14.0883 124.4355  -999.25 -999.25    2.5264  3.3037 -999.25 -999.25 70.8875  16.4700  -999.25  37.4661  -999.25  39.1465  -999.25  42.4607 26.6928 0.9757 0.9798
