###############################################
##         ENVERUS                           ##
##         ESS - Open Hole                   ##
##         PERMIAN / DELAWARE                ##
##         Nov 04 2023  V4.0                 ##
##         42-389-32245-00-00                ##
###############################################
## Copyright 2017-2023  ENVERUS.  All Rights Reserved. 
## Confidential - Property of ENVERUS, use governed by terms and 
## conditions found within the existing Information Services Subscription Agreement 
## (as may be amended, the “ISSA”) between Customer and ENVERUS. 
## 
~VERSION INFORMATION
# MNEM.UNIT                               DATA : DESCRIPTION OF MNEMONIC
#-----.-----     ----------------------------- : -----------------------------
VERS.                                     2.00 : CWLS LOG ASCII STANDARD - VERSION 2.00
WRAP.                                       NO : MULTIPLE LINES PER DEPTH STEP
VEND.                                  ENVERUS : VENDOR
TYPE.                          ESS - OPEN HOLE : ENVERUS ESSENTIAL CURVES – ACCESSIBLE THROUGH ENVERUS PRISM(TM)
DOC.                                  24742630 : ENVERUS HEADER RAW DOCUMENT ID
#___________________________________________________________________________________________________ 
~WELL INFORMATION 
# u9Wg0OWXiPz858M7Kubpm0lpDPxjGuyhH3tqBPDGtvBYDDDqGrwiIchrhDPbdkpmsDZNCKsM7+2eKUVstoQO7Q== 
# MNEM.UNIT                                              DATA : DESCRIPTION OF MNEMONIC 
#-----.-----                    ----------------------------- : ----------------------------- 
CNTY.                                                  REEVES : COUNTY 
STATE.                                                  TEXAS : STATE 
CNTRY.                                                    USA : COUNTRY 
API.                                             42-389-32245 : API (10 Digit) 
API_14.                                    42-389-32245-00-00 : API (14 Digits) 
API_14_std.                                 42-389-32245-0000 : API (14 Digits Standard) 
UWI.                                           42389322450000 : UNIQUE WELL ID 
WELL.                          TEXAS PACIFIC LAND TRUST #25-1 : WELL NAME
STRT.FT                                                2530.0 : START DEPTH
STOP.FT                                               10610.0 : STOP DEPTH
STEP.FT                                                   0.5 : STEP BETWEEN DEPTHS
NULL.                                                 -999.25 : NULL VALUE
COMP.                                             CONOCO INC. : COMPANY 
FLD.                                            FORD WOLFCAMP : FIELD 
LOC.                                                 25-2S-58 : LOCATION 
SRVC.                                            SCHLUMBERGER : SERVICE COMPANY 
DATE.                                              03/21/2002 : DATE 
TVD.                                                       NO : TVD FLAG
#___________________________________________________________________________________________________ 
~PARAMETER INFORMATION 
# MNEM.UNIT                                              DATA : DESCRIPTION OF MNEMONIC 
#-----.-----                    ----------------------------- : ----------------------------- 
RUN.                                                      ONE : RUN NUMBER 
PDAT.                                                      GL : PERMANENT DATUM 
EPD.FT                                              2993.0000 : ELEVATION OF PERM. DATUM 
LMF.                                            KELLY BUSHING : LOG MEASURED FROM 
EKB.FT                                              3021.0000 : ELEVATION OF KELLY BUSHING 
DF.FT                                               3020.0000 : ELEVATION OF DERRICK FLOOR 
GL.FT                                               2993.0000 : ELEVATION OF GROUND LEVEL 
TD.FT                                              10610.0000 : TOTAL DEPTH 
BHT.DEGF                                               130.00 : BOTTOM HOLE TEMPERATURE 
BLI.FT                                             10610.0000 : BOTTOM LOG INTERVAL 
CSGSIZE.IN                                             9.6250 : CASING SIZE 
BITSIZE.IN                                              8.750 : BITSIZE 
CSGD.FT                                                  2642 : CASING BOTTOM (DRILLER) 1 
CSGL.FT                                                  2538 : CASING BOTTOM (LOGGER) 1 
MUD.                                                CUT BRINE : DRILLING FLUID TYPE 
MUDV.CP                                               28.0000 : DRILLING FLUID VISCOSITY 
MUDD.LB/USG                                           10.0000 : DRILLING FLUID DENSITY 
PH.                                                    8.5000 : DRILLING FLUID PH 
MUDS.                                        CIRCULATION TANK : MUD SAMPLE SOURCE 
RM.OHMM                                                0.0610 : RESISTIVITY OF MUD SAMPLE 
RMT.DEGF                                              75.0000 : MUD SAMPLE TEMPERATURE 
RMF.OHMM                                               0.0610 : MUD FILTRATE RESISTIVITY 
RMFT.DEGF                                             75.0000 : MUD FILTRATE SAMPLE TEMPERATURE
#___________________________________________________________________________________________________ 
~CURVE INFORMATION 
# MNEM.UNIT           : CURVE DESCRIPTION 
#-----.-----          : ----------------------------- 
 DEPT.FT               : MEASURED DEPTH 
 CALI.IN               : CALIPER (CALIPER) 
 GR.API                : GAMMA RAY (GAMMA RAY) 
 DT.US/FT              : SONIC DELTA TRANSIT TIME (DELTA T) 
 SPHI.V/V              : SONIC POROSITY (SONIC POROSITY) 
 #___________________________________________________________________________________________________ 
~A         DEPT           CALI             GR             DT           SPHI
# ...
         4650.0          9.260         67.380         60.540        0.09000
         4650.5          9.260         65.170         60.960        0.10000
         4651.0          9.270         60.500         62.150        0.11000
         4651.5          9.270         60.560         63.700        0.12000
         4652.0          9.270         65.030         64.380        0.12000
         4652.5          9.270         68.810         64.760        0.13000
         4653.0          9.270         71.140         66.320        0.14000
         4653.5          9.270         71.410         68.070        0.15000
         4654.0          9.280         68.330         69.710        0.16000
         4654.5          9.280         65.120         70.030        0.16000
         4655.0          9.290         69.230         70.390        0.16000
         4655.5          9.300         75.400         70.680        0.16000
         4656.0          9.310         79.970         70.550        0.16000
         4656.5          9.320         65.830         70.160        0.16000
         4657.0          9.370         51.650         69.760        0.15000
         4657.5          9.420         39.090         69.370        0.15000
         4658.0          9.470         39.570         68.970        0.15000
         4658.5          9.530         40.540         69.160        0.15000
         4659.0          9.580         40.320         69.420        0.15000
         4659.5          9.630         40.210         69.560        0.16000
         4660.0          9.690         41.720         69.710        0.16000
         4660.5          9.740         45.120         69.850        0.16000
         4661.0          9.790         47.350         69.900        0.16000
         4661.5          9.830         49.190         69.000        0.15000
         4662.0          9.840         54.230         68.190        0.14000
         4662.5          9.860         60.650         67.720        0.14000
         4663.0          9.880         67.070         67.730        0.14000
         4663.5          9.880         72.910         68.230        0.15000
         4664.0          9.880         76.120         70.080        0.16000
         4664.5          9.880         77.910         72.510        0.18000
         4665.0          9.880         77.920         74.270        0.19000
         4665.5          9.880         72.360         73.920        0.18000
         4666.0          9.870         68.070         72.260        0.17000
         4666.5          9.830         68.670         70.590        0.16000
         4667.0          9.790         70.020         69.060        0.15000
         4667.5          9.750         73.170         69.460        0.16000
         4668.0          9.680         77.980         69.810        0.16000
         4668.5          9.620         97.500         69.620        0.15000
         4669.0          9.560        126.550         67.730        0.13000
         4669.5          9.500        158.340         65.080        0.11000
         4670.0          9.440        199.250         62.430        0.09000
         4670.5          9.380        180.390         60.710        0.10000
         4671.0          9.340        151.940         62.150        0.11000
         4671.5          9.330        127.240         63.700        0.12000
         4672.0          9.320        129.490         65.250        0.13000
         4672.5          9.310        133.590         66.690        0.14000
         4673.0          9.300        119.170         67.820        0.14000
         4673.5          9.290         99.940         67.730        0.14000
         4674.0          9.280         81.490         66.790        0.13000
         4674.5          9.270         59.740         65.700        0.12000
         4675.0          9.260         59.300         64.730        0.12000
         4675.5          9.250         66.050         64.010        0.11000
         4676.0          9.260         73.140         63.640        0.11000
         4676.5          9.280         76.760         63.500        0.11000
         4677.0          9.290         76.080         63.660        0.12000
         4677.5          9.300         74.550         64.110        0.12000
         4678.0          9.320         69.570         64.810        0.13000
         4678.5          9.330         64.700         65.530        0.13000
         4679.0          9.340         66.110         65.450        0.12000
         4679.5          9.360         68.870         64.760        0.12000
         4680.0          9.360         69.900         64.070        0.11000
         4680.5          9.360         69.880         63.380        0.11000
         4681.0          9.360         70.440         62.920        0.11000
         4681.5          9.360         69.320         64.270        0.12000
         4682.0          9.380         66.110         65.280        0.13000
         4682.5          9.420         62.010         65.860        0.13000
         4683.0          9.460         57.940         66.330        0.13000
         4683.5          9.490         54.220         66.810        0.14000
         4684.0          9.500         57.510         67.160        0.14000
         4684.5          9.520         62.770         66.910        0.14000
         4685.0          9.530         68.200         66.600        0.13000
         4685.5          9.570         68.350         66.160        0.13000
         4686.0          9.610         66.840         65.680        0.13000
         4686.5          9.660         65.360         65.300        0.12000
         4687.0          9.690         64.070         64.990        0.12000
         4687.5          9.730         64.830         64.560        0.12000
         4688.0          9.760         65.060         64.160        0.12000
         4688.5          9.800         63.240         64.820        0.12000
         4689.0          9.840         59.980         65.390        0.13000
         4689.5          9.870         57.620         65.700        0.13000
         4690.0          9.910         57.730         65.940        0.13000
         4690.5          9.940         55.940         65.990        0.13000
         4691.0          9.970         55.310         65.880        0.13000
         4691.5          9.980         56.700         65.830        0.13000
         4692.0          9.990         57.610         66.110        0.13000
         4692.5         10.000         55.770         66.400        0.13000
         4693.0         10.010         54.620         66.460        0.13000
         4693.5         10.010         55.990         66.380        0.13000
         4694.0         10.020         57.210         66.310        0.13000
         4694.5         10.030         56.820         65.870        0.13000
         4695.0         10.040         56.770         65.900        0.13000
         4695.5         10.050         57.550         65.980        0.13000
         4696.0         10.050         57.400         65.940        0.13000
         4696.5         10.060         56.460         65.900        0.13000
         4697.0         10.050         56.880         65.860        0.13000
         4697.5         10.040         57.360         66.320        0.13000
         4698.0         10.030         55.470         67.350        0.15000
         4698.5         10.020         55.140         69.670        0.18000
         4699.0         10.000         64.460         75.140        0.23000
         4699.5          9.990         73.170         79.750        0.21000
         4700.0          9.980         79.300         76.110        0.17000
         4700.5          9.970         84.050         70.550        0.22000
         4701.0          9.960         87.990         77.680        0.27000
         4701.5          9.950         87.760         90.680        0.30000
         4702.0          9.940         80.920        100.370        0.30000
         4702.5          9.930         73.460        104.890        0.30000
