###############################################
##         ENVERUS                           ##
##         ESS - Open Hole                   ##
##         PERMIAN / DELAWARE                ##
##         Nov 04 2023  V4.0                 ##
##         42-389-30259-00-00                ##
###############################################
## Copyright 2017-2023  ENVERUS.  All Rights Reserved. 
## Confidential - Property of ENVERUS, use governed by terms and 
## conditions found within the existing Information Services Subscription Agreement 
## (as may be amended, the “ISSA”) between Customer and ENVERUS. 
## 
~VERSION INFORMATION
# MNEM.UNIT                               DATA : DESCRIPTION OF MNEMONIC
#-----.-----     ----------------------------- : -----------------------------
VERS.                                     2.00 : CWLS LOG ASCII STANDARD - VERSION 2.00
WRAP.                                       NO : MULTIPLE LINES PER DEPTH STEP
VEND.                                  ENVERUS : VENDOR
TYPE.                          ESS - OPEN HOLE : ENVERUS ESSENTIAL CURVES – ACCESSIBLE THROUGH ENVERUS PRISM(TM)
DOC.                                  32063127 : ENVERUS HEADER RAW DOCUMENT ID
#___________________________________________________________________________________________________ 
~WELL INFORMATION 
# gPsidqVjAScFWwbHY3NvrhVb9Q0dnpAvxUas8qP1mSjKWoj7hBgJ2nw/4lW9Nf69eTG+8mlPQw3CFq6Jh/Hagw== 
# MNEM.UNIT                                              DATA : DESCRIPTION OF MNEMONIC 
#-----.-----                    ----------------------------- : ----------------------------- 
CNTY.                                                  REEVES : COUNTY 
STATE.                                                  TEXAS : STATE 
CNTRY.                                                    USA : COUNTRY 
API.                                             42-389-30259 : API (10 Digit) 
API_14.                                    42-389-30259-00-00 : API (14 Digits) 
API_14_std.                                 42-389-30259-0000 : API (14 Digits Standard) 
UWI.                                           42389302590000 : UNIQUE WELL ID 
WELL.                                         FORTUNE UNIT  1 : WELL NAME
STRT.FT                                                     0 : START DEPTH
STOP.FT                                               15675.0 : STOP DEPTH
STEP.FT                                                   0.5 : STEP BETWEEN DEPTHS
NULL.                                                 -999.25 : NULL VALUE
COMP.                          SANDRIDGE EXPL. AND PROD.  LLC : COMPANY 
DATE.                                             19-FEB-2007 : LOG DATE
#___________________________________________________________________________________________________ 
~CURVE INFORMATION 
# MNEM.UNIT           : CURVE DESCRIPTION 
#-----.-----          : ----------------------------- 
 DEPT.FT               : MEASURED DEPTH 
 CALI__B.IN            : CALIPER (CAL - CAL) 
 GR__B.API             : GAMMA RAY (GR) 
 DT__B.US/FT           : SONIC DELTA TRANSIT TIME (DT) 
 #___________________________________________________________________________________________________ 
~A         DEPT        CALI__B          GR__B          DT__B
# ...
        11748.0         10.406         66.725         65.618
        11748.5         10.352         67.531         64.892
        11749.0         10.358         68.230         62.739
        11749.5         10.396         68.929         64.383
        11750.0         10.419         69.629         65.315
        11750.5         10.394         70.952         64.112
        11751.0         10.370         74.957         65.126
        11751.5         10.346         78.963         67.987
        11752.0         10.360         82.968         68.813
        11752.5         10.419         85.965         74.160
        11753.0         10.456         83.403         74.197
        11753.5         10.479         80.842         73.456
        11754.0         10.502         80.766         72.734
        11754.5         10.526         82.301         73.977
        11755.0         10.549         83.836         75.385
        11755.5         10.572         85.371         76.792
        11756.0         10.595         84.677         77.202
        11756.5         10.618         79.999         76.785
        11757.0         10.642         75.322         75.572
        11757.5         10.655         70.644         73.065
        11758.0         10.618         65.966         67.979
        11758.5         10.581         61.288         62.239
        11759.0         10.544         56.610         60.810
        11759.5         10.507         62.926         61.556
        11760.0         10.523         69.327         65.082
        11760.5         10.560         75.728         71.481
        11761.0         10.597         76.778         73.427
        11761.5         10.634         76.511         73.862
        11762.0         10.628         79.295         73.005
        11762.5         10.608         80.115         72.149
        11763.0         10.589         75.915         71.292
        11763.5         10.570         66.870         66.731
        11764.0         10.551         57.396         61.963
        11764.5         10.532         50.214         58.505
        11765.0         10.516         54.683         59.470
        11765.5         10.542         59.152         63.318
        11766.0         10.568         63.621         67.953
        11766.5         10.594         68.090         70.524
        11767.0         10.620         71.323         71.376
        11767.5         10.646         73.216         71.011
        11768.0         10.672         74.417         70.585
        11768.5         10.695         78.315         70.998
        11769.0         10.669         83.306         71.882
        11769.5         10.643         83.639         72.663
        11770.0         10.617         81.800         72.345
        11770.5         10.591         78.096         71.153
        11771.0         10.566         74.393         69.076
        11771.5         10.552         72.363         67.302
        11772.0         10.557         69.897         66.254
        11772.5         10.563         66.552         65.627
        11773.0         10.568         63.208         66.363
        11773.5         10.574         65.261         65.853
        11774.0         10.579         67.520         67.810
        11774.5         10.584         69.754         67.775
        11775.0         10.565         71.889         66.886
        11775.5         10.536         74.175         67.827
        11776.0         10.506         78.307         69.490
        11776.5         10.495         82.440         72.502
        11777.0         10.495         77.571         70.761
        11777.5         10.469         72.217         67.342
        11778.0         10.423         68.845         65.608
        11778.5         10.390         73.700         65.508
        11779.0         10.423         78.555         69.196
        11779.5         10.457         82.224         73.589
        11780.0         10.490         81.555         74.030
        11780.5         10.523         80.962         73.601
        11781.0         10.556         81.128         74.383
        11781.5         10.548         81.294         73.757
        11782.0         10.520         81.460         70.689
        11782.5         10.492         74.815         67.640
        11783.0         10.491         74.097         67.789
        11783.5         10.529         78.494         69.488
        11784.0         10.566         78.757         71.136
        11784.5         10.551         75.011         70.218
        11785.0         10.536         74.141         70.080
        11785.5         10.521         77.807         68.914
        11786.0         10.505         81.474         69.346
        11786.5         10.499         85.140         71.388
        11787.0         10.523         83.441         71.597
        11787.5         10.548         81.979         70.472
        11788.0         10.572         84.469         72.309
        11788.5         10.597         86.960         74.147
        11789.0         10.622         89.450         75.398
        11789.5         10.646         85.873         74.708
        11790.0         10.632         81.521         72.335
        11790.5         10.585         77.169         70.537
        11791.0         10.537         72.817         66.894
        11791.5         10.517         71.789         67.044
        11792.0         10.530         72.969         69.835
        11792.5         10.543         76.300         70.030
        11793.0         10.556         79.631         72.172
        11793.5         10.569         82.963         73.113
        11794.0         10.582         84.203         72.790
        11794.5         10.595         81.221         73.602
        11795.0         10.597         78.239         72.534
        11795.5         10.586         75.258         71.126
        11796.0         10.575         72.276         69.153
        11796.5         10.564         72.902         68.412
        11797.0         10.553         75.315         68.989
        11797.5         10.542         77.727         69.889
        11798.0         10.531         80.139         70.911
        11798.5         10.520         81.920         70.703
        11799.0         10.509         81.200         70.193
        11799.5         10.498         80.480         72.076
        11800.0         10.513         83.369         74.695
        11800.5         10.557         90.808         77.744
        11801.0         10.601         95.446         80.568
        11801.5         10.645         93.774         79.833
        11802.0         10.689         92.102         78.821
        11802.5         10.701         90.136         77.781
        11803.0         10.681         88.078         76.742
        11803.5         10.661         85.992         75.702
        11804.0         10.613         79.414         74.462
        11804.5         10.558         72.836         73.009
        11805.0         10.503         66.258         68.038
        11805.5         10.447         59.680         63.363
        11806.0         10.392         53.102         59.739
        11806.5         10.336         46.524         56.277
        11807.0         10.281         47.665         55.853
        11807.5         10.225         60.892         60.508
        11808.0         10.255         75.999         64.005
        11808.5         10.361         78.975         67.449
        11809.0         10.409         80.309         72.280
        11809.5         10.336         83.193         73.055
        11810.0         10.433         86.582         73.513
        11810.5         10.504         86.876         73.971
        11811.0         10.478         82.742         74.075
        11811.5         10.453         78.608         71.153
        11812.0         10.428         78.081         70.053
        11812.5         10.403         78.081         70.593
        11813.0         10.378         81.383         70.140
        11813.5         10.391         84.824         73.320
