###############################################
##         ENVERUS                           ##
##         ESS - Open Hole                   ##
##         PERMIAN / DELAWARE                ##
##         Nov 04 2023  V4.0                 ##
##         42-389-30414-00-00                ##
###############################################
## Copyright 2017-2023  ENVERUS.  All Rights Reserved. 
## Confidential - Property of ENVERUS, use governed by terms and 
## conditions found within the existing Information Services Subscription Agreement 
## (as may be amended, the “ISSA”) between Customer and ENVERUS. 
## 
~VERSION INFORMATION
# MNEM.UNIT                               DATA : DESCRIPTION OF MNEMONIC
#-----.-----     ----------------------------- : -----------------------------
VERS.                                     2.00 : CWLS LOG ASCII STANDARD - VERSION 2.00
WRAP.                                       NO : MULTIPLE LINES PER DEPTH STEP
VEND.                                  ENVERUS : VENDOR
TYPE.                          ESS - OPEN HOLE : ENVERUS ESSENTIAL CURVES – ACCESSIBLE THROUGH ENVERUS PRISM(TM)
DOC.                                  31965441 : ENVERUS HEADER RAW DOCUMENT ID
#___________________________________________________________________________________________________ 
~WELL INFORMATION 
# 4Nagw4FJNzCtYOfTAudVsymR6uv0ccMrNFKiy1Vrqa1gQVNLoB6NNR/Tzdk8H0Jxf2Akv2rjPRKaT9zVNBkTiw== 
# MNEM.UNIT                                              DATA : DESCRIPTION OF MNEMONIC 
#-----.-----                    ----------------------------- : ----------------------------- 
CNTY.                                                  REEVES : COUNTY 
STATE.                                                  TEXAS : STATE 
CNTRY.                                                    USA : COUNTRY 
API.                                             42-389-30414 : API (10 Digit) 
API_14.                                    42-389-30414-00-00 : API (14 Digits) 
API_14_std.                                 42-389-30414-0000 : API (14 Digits Standard) 
UWI.                                           42389304140000 : UNIQUE WELL ID 
WELL.                                            TXL 17-39  2 : WELL NAME
STRT.FT                                                 237.0 : START DEPTH
STOP.FT                                               13872.0 : STOP DEPTH
STEP.FT                                                   0.5 : STEP BETWEEN DEPTHS
NULL.                                                 -999.25 : NULL VALUE
COMP.                          ENDEAVOR ENERGY RESOURCES L.P. : COMPANY
#___________________________________________________________________________________________________ 
~CURVE INFORMATION 
# MNEM.UNIT           : CURVE DESCRIPTION 
#-----.-----          : ----------------------------- 
 DEPT.FT               : MEASURED DEPTH 
 CALI.IN               : CALIPER (CAL - CAL) 
 GR.API                : GAMMA RAY (GR) 
 DT.US/FT              : SONIC DELTA TRANSIT TIME (DT) 
 RESS.OHMM             : SHALLOW INDUCTION RESISTIVITY (ILS - ILS) 
 RESD.OHMM             : DEEP INDUCTION RESISTIVITY (ILD - ILD) 
 #___________________________________________________________________________________________________ 
~A         DEPT           CALI             GR             DT           RESS           RESD
# ...
         6265.0         10.275         54.039         62.931         22.569         25.914
         6265.5         10.272         55.555         63.298         22.299         25.490
         6266.0         10.269         57.071         63.665         22.029         25.067
         6266.5         10.266         58.588         64.031         21.758         24.643
         6267.0         10.262         60.104         63.940         21.560         24.220
         6267.5         10.259         61.620         63.425         21.380         23.809
         6268.0         10.256         63.137         62.909         21.199         23.653
         6268.5         10.260         69.542         62.937         21.019         23.497
         6269.0         10.264         78.942         63.640         20.839         23.341
         6269.5         10.268         88.342         64.344         20.658         23.184
         6270.0         10.273         92.328         64.242         20.703         23.028
         6270.5         10.277         92.961         63.135         20.750         22.872
         6271.0         10.282         93.594         62.028         20.798         22.716
         6271.5         10.286         94.227         60.921         20.846         22.560
         6272.0         10.291         94.860         59.815         41.446         27.045
         6272.5         10.295         99.541         59.962         85.303         35.578
         6273.0         10.299        104.547         61.116        129.187        133.890
         6273.5         10.304        109.553         62.269        229.797        234.159
         6274.0         10.308        111.954         62.102        330.407        342.201
         6274.5         10.313        109.830         60.980        431.018        620.432
         6275.0         10.317        117.328         59.858        527.391        898.663
         6275.5         10.321        129.343         58.736        541.702       1176.894
         6276.0         10.326        139.233         58.883        491.340        861.249
         6276.5         10.330        149.122         59.951        460.716        657.144
         6277.0         10.335        155.944         61.019        566.376        774.992
         6277.5         10.339        158.148         62.086        672.035        892.840
         6278.0         10.343        159.931         63.167        777.694       1010.688
         6278.5         10.348        151.944         64.165        883.353       1128.537
         6279.0         10.352        143.957         63.344        950.813       1246.385
         6279.5         10.357        135.970         62.854       1004.611       1279.309
         6280.0         10.361        133.357         63.228       1012.808       1121.725
         6280.5         10.365        119.053         63.601        816.244        964.141
         6281.0         10.365        104.749         63.975        652.790        806.557
         6281.5         10.365         90.445         63.864        495.739        648.973
         6282.0         10.365         76.140         63.005        375.627        491.389
         6282.5         10.366         67.139         62.147        325.093        385.155
         6283.0         10.366         63.555         61.288        274.560        335.618
         6283.5         10.366         59.972         61.239        224.027        286.082
         6284.0         10.366         56.388         61.325        173.494        236.545
         6284.5         10.366         52.805         61.412        124.327        187.008
         6285.0         10.366         49.221         60.408         80.426        137.472
         6285.5         10.366         49.281         59.163         54.434         87.935
         6286.0         10.366         50.965         57.917         42.553         51.520
         6286.5         10.366         55.155         56.672         41.581         44.298
         6287.0         10.366         59.543         55.827         50.087         48.330
         6287.5         10.366         63.931         55.675         58.592         58.229
         6288.0         10.366         68.319         57.450         67.097         68.129
         6288.5         10.366         72.707         60.391         75.602         78.028
         6289.0         10.366         77.084         62.816         66.743         87.928
         6289.5         10.366         78.348         62.414         57.995         76.498
         6290.0         10.367         79.612         62.012         51.453         62.771
         6290.5         10.367         80.876         62.035         44.912         49.044
         6291.0         10.367         81.094         62.443         41.433         47.664
         6291.5         10.367         80.170         62.851         40.744         46.471
         6292.0         10.368         79.246         62.514         40.723         45.278
         6292.5         10.370         78.322         62.126         44.484         44.084
         6293.0         10.372         77.398         61.738         48.246         46.477
         6293.5         10.374         76.474         62.014         52.008         52.223
         6294.0         10.376         75.241         62.387         57.894         57.970
         6294.5         10.378         68.005         62.761         63.846         63.716
         6295.0         10.380         60.769         63.135         69.798         69.462
         6295.5         10.382         55.242         62.488         73.327         70.834
         6296.0         10.384         57.762         61.827         64.520         63.135
         6296.5         10.385         60.889         61.167         56.158         55.437
         6297.0         10.387         64.904         60.506         48.064         47.804
         6297.5         10.389         68.918         60.702         39.970         42.485
         6298.0         10.391         70.476         61.499         31.876         37.165
         6298.5         10.393         68.991         62.297         27.236         32.770
         6299.0         10.395         67.506         63.094         28.000         34.075
         6299.5         10.397         66.020         63.892         28.764         35.379
         6300.0         10.399         64.535         64.689         29.527         36.684
         6300.5         10.400         63.050         65.487         30.291         35.598
         6301.0         10.402         61.565         65.895         28.766         32.267
         6301.5         10.404         60.080         65.413         24.637         28.935
         6302.0         10.406         58.594         65.075         20.508         24.497
         6302.5         10.408         57.109         65.883         16.379         16.288
         6303.0         10.410         55.624         66.692         15.459         12.033
         6303.5         10.412         57.925         67.500         16.009         11.758
         6304.0         10.414         60.445         66.900         16.558         11.483
         6304.5         10.416         62.964         65.647         15.883         11.208
         6305.0         10.417         65.484         64.393         13.881         11.419
         6305.5         10.419         68.003         63.140         12.157         12.259
         6306.0         10.421         70.523         63.454         15.371         13.099
         6306.5         10.422         73.042         64.506         18.585         17.010
         6307.0         10.420         71.019         64.741         21.799         22.729
         6307.5         10.419         68.325         64.301         25.013         28.449
         6308.0         10.417         65.630         63.860         28.254         34.169
         6308.5         10.415         62.935         63.420         32.101         39.889
