#--------------------------------------------------#
#-------------------ENVERUS, INC.------------------#
#------------------WWW.ENVERUS.COM-----------------#
#------------------COPYRIGHT 2020------------------#
#--------------------------------------------------#
#THIS FILE MAY BE USED ONLY IN ACCORDANCE WITH A CURRENT SUBSCRIPTION AGREEMENT BETWEEN
#THE USER AND ENVERUS, INC. NO PART OF THIS FILE MAY BE REPRODUCED, USED, COPIED,
#MODIFIED, PROPAGATED, OR DISTRIBUTED EXCEPT IN ACCORDANCE WITH THE SUBSCRIPTION
#AGREEMENT. UNAUTHORIZED USE OR DISTRIBUTION OF ALL OR ANY PART OF THIS FILE MAY VIOLATE
#COPYRIGHT, TRADEMARK, AND/OR OTHER LAWS AND IS SUBJECT TO CIVIL AS WELL AS CRIMINAL
#SANCTIONS.
#--------------------------------------------------#
#THIS FILE IS PROVIDED "AS-IS" AND ALL WARRANTIES ARE EXPRESSLY DISCLAIMED, WHETHER
#EXPRESS, ORAL, IMPLIED, STATUTORY OR OTHERWISE, INCLUDING ANY IMPLIED WARRANTY OF FITNESS
#FOR A PARTICULAR PURPOSE, MERCHANTABILITY, TITLE OR NON-INFRINGEMENT, AND ANY WARRANTIES
#ARISING BY VIRTUE OF CUSTOM OF TRADE OR COURSE OF DEALING.  FURTHER, ENVERUS, INC.
#AND ITS LICENSORS DO NOT REPRESENT OR WARRANT THAT THIS FILE WILL MEET USER'S
#REQUIREMENTS OR ARE SUITABLE FOR USER'S NEEDS OR THAT THE DATA OR RESULTS PROVIDED IN
#CONJUNCTION THEREWITH ARE CORRECT, ACCURATE, TIMELY OR RELIABLE. THESE DISCLAIMERS SHALL
#APPLY REGARDLESS OF ANY FAILURE OF ESSENTIAL PURPOSE OF ANY LIMITED REMEDY.  SOME
#JURISDICTIONS DO NOT ALLOW THE EXCLUSION OF CERTAIN WARRANTIES SO SOME OF THE ABOVE
#EXCLUSIONS MAY NOT APPLY. IN NO EVENT SHALL ENVERUS, INC. OR ANY OF ITS AFFILIATES
#BE LIABLE UNDER ANY LEGAL THEORY, WHETHER IN TORT (INCLUDING WITHOUT LIMITATION
#NEGLIGENCE), CONTRACT, STRICT LIABILITY, STATUTORY OR OTHERWISE, FOR ANY SPECIAL,
#INCIDENTAL, CONSEQUENTIAL, EXEMPLARY, PUNITIVE OR INDIRECT DAMAGE OF ANY KIND, INCLUDING
#WITHOUT LIMITATION LOSS OF REVENUE, PROFITS, GOODWILL, USE, AND/OR DATA OR THE COST OF
#PROCUREMENT OF SUBSTITUTE GOODS OR SERVICES, EVEN IF APPRISED OF THE POSSIBILITY OF SUCH
#DAMAGES IN ADVANCE.
#--------------------------------------------------#

~VERSION INFORMATION
VERS. 2.0 : CWLS LOG ASCII STANDARD - VERSION 2.0
WRAP.  NO : ONE LINE PER DEPTH STEP
~WELL INFORMATION
#MNEMONIC     .UNIT              VALUE :DESCRIPTION
STRT       .FT                51 :START DEPTH
STOP       .FT                4494 :STOP DEPTH
STEP       .FT                   0.500 :STEP
NULL       .                  -999.990 :NULL
UWI        .              42389102200000 :UNIQUE WELL ID
API        .              42389102200000 :API NUMBER
COMP       .         GRUY PETROLEUM MANAGEMENT CO. :COMPANY
WELL       .        REEVES -AQ- FEE  2 :WELL
DATE       .                30-NOV-1992 :LOG DATE
~CURVE INFORMATION
#MNEMONIC     .UNIT      API CODE :CURVE DESCRIPTION
DEPTH       .FT                      :MEASURED DEPTH
CAL.INCH        UNKNOWN   :CAL
GR.API        UNKNOWN   :GR
DT.US/FT        UNKNOWN   :DT
~A    DEPTH    CAL    GR    DT
# ...
 3589     8.967   49.184   77.381
 3589.5     9.004   50.663   76.562
 3590     9.042   50.852   76.957
 3590.5     9.079   48.712   77.351
 3591     9.117   46.573   77.746
 3591.5     9.154   44.827   78.14
 3592     9.192   43.327   78.535
 3592.5     9.229   41.827   79.088
 3593     9.267   41.744   80.895
 3593.5     9.304   43.161   82.702
 3594     9.343   43.134   84.509
 3594.5     9.389   41.933   84.387
 3595     9.435   41.935   84.039
 3595.5     9.482   42.743   83.692
 3596     9.528   43.551   83.344
 3596.5     9.574   44.359   82.455
 3597     9.62   43.027   81.216
 3597.5     9.666   40.864   81.198
 3598     9.712   39.998   81.483
 3598.5     9.736   41.346   81.768
 3599     9.74   42.598   82.053
 3599.5     9.744   41.847   82.337
 3600     9.748   41.989   82.241
 3600.5     9.752   43.078   82.068
 3601     9.756   44.166   81.895
 3601.5     9.76   45.255   81.721
 3602     9.764   46.343   80.938
 3602.5     9.768   48.197   79.603
 3603     9.772   50.99   78.551
 3603.5     9.777   53.029   79.497
 3604     9.781   50.318   80.442
 3604.5     9.771   47.606   81.388
 3605     9.712   44.894   81.928
 3605.5     9.653   44.296   81.685
 3606     9.594   45.09   81.442
 3606.5     9.534   45.883   81.125
 3607     9.475   45.322   80.606
 3607.5     9.416   44.589   80.087
 3608     9.357   43.857   79.568
 3608.5     9.297   43.124   79.049
 3609     9.238   42.391   78.95
 3609.5     9.179   42.035   79.524
 3610     9.119   41.762   80.098
 3610.5     9.06   41.489   80.673
 3611     9.001   41.216   81.247
 3611.5     8.942   41.878   81.821
 3612     8.869   43.345   82.395
 3612.5     8.797   44.812   82.351
 3613     8.724   46.279   81.704
 3613.5     8.652   46.633   81.057
 3614     8.58   46.433   80.41
 3614.5     8.507   45.655   79.987
 3615     8.435   44.653   80.261
 3615.5     8.362   43.651   80.535
 3616     8.29   43.19   80.809
 3616.5     8.217   43.091   81.083
 3617     8.145   42.991   80.174
 3617.5     8.072   42.891   79.126
 3618     8   45.531   78.374
 3618.5     7.928   49.303   77.947
 3619     7.855   54.34   77.444
 3619.5     7.783   59.717   75.604
 3620     7.761   62.388   75.292
 3620.5     7.745   62.305   74.979
 3621     7.729   62.506   74.667
 3621.5     7.713   64.183   74.233
 3622     7.697   65.861   73.122
 3622.5     7.681   67.539   72.011
 3623     7.677   69.216   70.9
 3623.5     7.677   70.894   69.789
 3624     7.677   72.572   68.888
 3624.5     7.677   74.25   68.431
 3625     7.677   68.431   67.974
 3625.5     7.677   60.872   65.492
 3626     7.677   53.314   62.716
 3626.5     7.677   45.755   59.94
 3627     7.677   38.468   57.164
 3627.5     7.677   42.203   54.388
 3628     7.677   45.937   54.042
 3628.5     7.677   49.672   55.244
 3629     7.677   53.268   56.447
 3629.5     7.678   56.758   57.649
 3630     7.678   60.248   58.852
 3630.5     7.678   63.353   60.054
 3631     7.658   66.402   59.868
 3631.5     7.629   69.086   59.71
 3632     7.601   70.096   61.834
 3632.5     7.572   67.778   63.958
 3633     7.543   63.503   66.082
 3633.5     7.515   59.228   67.303
 3634     7.486   57.406   68.351
 3634.5     7.457   58.314   69.399
 3635     7.429   59.223   70.448
 3635.5     7.4   60.131   71.496
 3636     7.372   60.135   70.966
 3636.5     7.343   59.523   70.024
 3637     7.314   58.91   69.082
 3637.5     7.305   55.262   68.139
 3638     7.304   58.376   67.197
 3638.5     7.303   61.49   65.778
 3639     7.302   64.604   63.411
 3639.5     7.3   56.996   61.044
 3640     7.299   49.355   58.677
 3640.5     7.298   44.458   56.31
 3641     7.297   39.561   54.376
 3641.5     7.295   34.664   52.716
 3642     7.294   30.093   52.521
 3642.5     7.293   32.311   52.658
 3643     7.292   34.529   52.795
 3643.5     7.29   36.747   52.932
 3644     7.289   37.325   52.896
 3644.5     7.288   37.829   52.668
 3645     7.287   37.937   52.441
 3645.5     7.285   36.786   52.214
 3646     7.284   35.635   51.987
 3646.5     7.283   34.484   52.491
 3647     7.282   35   53.583
 3647.5     7.28   38.846   54.675
 3648     7.279   42.692   55.767
 3648.5     7.278   46.539   56.859
 3649     7.277   49.464   56.437
 3649.5     7.275   45.006   54.532
 3650     7.274   40.548   52.93
 3650.5     7.273   38.386   53.577
 3651     7.272   40.551   54.223
 3651.5     7.27   42.716   54.869
 3652     7.269   44.881   55.516
 3652.5     7.268   46.637   55.46
 3653     7.266   44.64   55.157
 3653.5     7.265   43.251   55.165
 3654     7.264   45.603   55.97
 3654.5     7.263   47.955   56.774
 3655     7.261   50.306   57.579
 3655.5     7.26   52.658   58.384
 3656     7.259   51.827   59.189
 3656.5     7.263   50.626   58.541
 3657     7.267   48.09   57.053
 3657.5     7.271   45.473   55.566
 3658     7.274   42.856   54.079
 3658.5     7.278   40.239   52.591
 3659     7.282   41.328   53.894
 3659.5     7.293   54.522   55.795
 3660     7.321   67.717   57.695
 3660.5     7.349   75.416   59.596
 3661     7.378   66.976   58.7
 3661.5     7.406   58.535   57.752
 3662     7.434   50.094   56.803
 3662.5     7.458   41.654   55.854
 3663     7.455   37.541   54.905
 3663.5     7.452   34.213   53.957
 3664     7.449   30.952   53.008
 3664.5     7.446   27.692   52.059
 3665     7.443   24.432   51.11
 3665.5     7.44   24.442   51.194
 3666     7.437   25.621   51.434
 3666.5     7.434   26.8   51.674
 3667     7.431   29.888   51.914
 3667.5     7.428   38.694   52.154
 3668     7.425   47.5   53.268
 3668.5     7.422   62.258   56.614
 3669     7.419   77.113   59.959
 3669.5     7.416   91.415   63.304
 3670     7.413   79.74   65.327
 3670.5     7.406   68.064   64.766
 3671     7.372   62.055   64.206
 3671.5     7.338   59.959   63.96
 3672     7.303   60.027   64.527
 3672.5     7.269   61.354   65.095
 3673     7.26   62.681   65.662
 3673.5     7.258   64.587   66.229
 3674     7.256   66.998   66.797
 3674.5     7.254   66.733   67.364
 3675     7.252   66.446   67.931
 3675.5     7.25   65.703   67.484
 3676     7.249   63.706   66.772
 3676.5     7.247   61.709   66.06
 3677     7.245   59.714   65.255
 3677.5     7.243   58.701   63.833
 3678     7.241   58.033   62.411
 3678.5     7.239   54.743   59.917
 3679     7.237   48.85   57.004
 3679.5     7.259   47.991   55.165
 3680     7.285   47.132   55.195
 3680.5     7.311   47.766   55.225
 3681     7.337   45.46   55.255
 3681.5     7.363   41.222   55.285
 3682     7.389   36.984   54.944
 3682.5     7.415   33.49   54.087
 3683     7.441   34.211   53.231
 3683.5     7.468   34.932   52.374
 3684     7.494   36.81   52.755
 3684.5     7.525   40.187   53.517
 3685     7.565   43.563   54.278
 3685.5     7.605   46.939   55.04
 3686     7.646   49.079   55.802
 3686.5     7.686   46.422   56.563
 3687     7.726   43.765   56.673
 3687.5     7.767   41.109   56.141
 3688     7.807   38.452   55.608
 3688.5     7.847   38.55   55.076
 3689     7.869   41.474   54.544
 3689.5     7.883   55.719   56.741
 3690     7.897   70.508   60.119
 3690.5     7.911   75.108   61.891
 3691     7.926   75.973   63.664
 3691.5     7.94   76.738   65.437
 3692     7.954   71.655   67.209
 3692.5     7.968   66.572   68.877
 3693     7.982   62.454   70.521
 3693.5     7.996   61.286   70.441
 3694     8.01   60.118   70.211
 3694.5     8.025   59.81   69.98
 3695     8.042   59.595   69.75
 3695.5     8.063   59.632   69.52
 3696     8.084   60.832   69.29
 3696.5     8.105   62.033   69.475
 3697     8.127   63.124   69.787
 3697.5     8.148   62.942   70.098
 3698     8.169   62.76   69.82
 3698.5     8.19   62.578   69.238
 3699     8.212   62.396   68.656
 3699.5     8.233   67.088   68.074
 3700     8.254   73.025   67.492
 3700.5     8.275   78.072   67.062
 3701     8.337   77.02   67.474
 3701.5     8.418   75.968   67.887
 3702     8.498   74.917   68.3
 3702.5     8.579   75.035   68.713
 3703     8.66   79.2   69.125
 3703.5     8.741   83.365   69.135
 3704     8.822   84.269   68.823
