###############################################
##         ENVERUS                           ##
##         ESS - Open Hole                   ##
##         PERMIAN / DELAWARE                ##
##         Nov 04 2023  V4.0                 ##
##         42-389-32245-00-00                ##
###############################################
## Copyright 2017-2023  ENVERUS.  All Rights Reserved. 
## Confidential - Property of ENVERUS, use governed by terms and 
## conditions found within the existing Information Services Subscription Agreement 
## (as may be amended, the “ISSA”) between Customer and ENVERUS. 
## 
~VERSION INFORMATION
# MNEM.UNIT                               DATA : DESCRIPTION OF MNEMONIC
#-----.-----     ----------------------------- : -----------------------------
VERS.                                     2.00 : CWLS LOG ASCII STANDARD - VERSION 2.00
WRAP.                                       NO : MULTIPLE LINES PER DEPTH STEP
VEND.                                  ENVERUS : VENDOR
TYPE.                          ESS - OPEN HOLE : ENVERUS ESSENTIAL CURVES – ACCESSIBLE THROUGH ENVERUS PRISM(TM)
DOC.                                  24742630 : ENVERUS HEADER RAW DOCUMENT ID
#___________________________________________________________________________________________________ 
~WELL INFORMATION 
# u9Wg0OWXiPz858M7Kubpm0lpDPxjGuyhH3tqBPDGtvBYDDDqGrwiIchrhDPbdkpmsDZNCKsM7+2eKUVstoQO7Q== 
# MNEM.UNIT                                              DATA : DESCRIPTION OF MNEMONIC 
#-----.-----                    ----------------------------- : ----------------------------- 
CNTY.                                                  REEVES : COUNTY 
STATE.                                                  TEXAS : STATE 
CNTRY.                                                    USA : COUNTRY 
API.                                             42-389-32245 : API (10 Digit) 
API_14.                                    42-389-32245-00-00 : API (14 Digits) 
API_14_std.                                 42-389-32245-0000 : API (14 Digits Standard) 
UWI.                                           42389322450000 : UNIQUE WELL ID 
WELL.                          TEXAS PACIFIC LAND TRUST #25-1 : WELL NAME
STRT.FT                                                2530.0 : START DEPTH
STOP.FT                                               10610.0 : STOP DEPTH
STEP.FT                                                   0.5 : STEP BETWEEN DEPTHS
NULL.                                                 -999.25 : NULL VALUE
COMP.                                             CONOCO INC. : COMPANY 
FLD.                                            FORD WOLFCAMP : FIELD 
LOC.                                                 25-2S-58 : LOCATION 
SRVC.                                            SCHLUMBERGER : SERVICE COMPANY 
DATE.                                              03/21/2002 : DATE 
TVD.                                                       NO : TVD FLAG
#___________________________________________________________________________________________________ 
~PARAMETER INFORMATION 
# MNEM.UNIT                                              DATA : DESCRIPTION OF MNEMONIC 
#-----.-----                    ----------------------------- : ----------------------------- 
RUN.                                                      ONE : RUN NUMBER 
PDAT.                                                      GL : PERMANENT DATUM 
EPD.FT                                              2993.0000 : ELEVATION OF PERM. DATUM 
LMF.                                            KELLY BUSHING : LOG MEASURED FROM 
EKB.FT                                              3021.0000 : ELEVATION OF KELLY BUSHING 
DF.FT                                               3020.0000 : ELEVATION OF DERRICK FLOOR 
GL.FT                                               2993.0000 : ELEVATION OF GROUND LEVEL 
TD.FT                                              10610.0000 : TOTAL DEPTH 
BHT.DEGF                                               130.00 : BOTTOM HOLE TEMPERATURE 
BLI.FT                                             10610.0000 : BOTTOM LOG INTERVAL 
CSGSIZE.IN                                             9.6250 : CASING SIZE 
BITSIZE.IN                                              8.750 : BITSIZE 
CSGD.FT                                                  2642 : CASING BOTTOM (DRILLER) 1 
CSGL.FT                                                  2538 : CASING BOTTOM (LOGGER) 1 
MUD.                                                CUT BRINE : DRILLING FLUID TYPE 
MUDV.CP                                               28.0000 : DRILLING FLUID VISCOSITY 
MUDD.LB/USG                                           10.0000 : DRILLING FLUID DENSITY 
PH.                                                    8.5000 : DRILLING FLUID PH 
MUDS.                                        CIRCULATION TANK : MUD SAMPLE SOURCE 
RM.OHMM                                                0.0610 : RESISTIVITY OF MUD SAMPLE 
RMT.DEGF                                              75.0000 : MUD SAMPLE TEMPERATURE 
RMF.OHMM                                               0.0610 : MUD FILTRATE RESISTIVITY 
RMFT.DEGF                                             75.0000 : MUD FILTRATE SAMPLE TEMPERATURE
#___________________________________________________________________________________________________ 
~CURVE INFORMATION 
# MNEM.UNIT           : CURVE DESCRIPTION 
#-----.-----          : ----------------------------- 
 DEPT.FT               : MEASURED DEPTH 
 CALI.IN               : CALIPER (CALIPER) 
 GR.API                : GAMMA RAY (GAMMA RAY) 
 DT.US/FT              : SONIC DELTA TRANSIT TIME (DELTA T) 
 SPHI.V/V              : SONIC POROSITY (SONIC POROSITY) 
 #___________________________________________________________________________________________________ 
~A         DEPT           CALI             GR             DT           SPHI
# ...
         8943.0          9.030         48.010         69.000        0.16000
         8943.5          9.030         55.300         70.950        0.17000
         8944.0          9.030         62.560         72.900        0.19000
         8944.5          9.030         69.840         74.860        0.20000
         8945.0          9.030         77.160         75.580        0.20000
         8945.5          9.030         81.950         74.790        0.19000
         8946.0          9.030         76.210         73.670        0.18000
         8946.5          9.030         70.870         72.760        0.18000
         8947.0          9.030         67.000         72.480        0.18000
         8947.5          9.040         70.170         72.250        0.18000
         8948.0          9.040         74.660         72.980        0.19000
         8948.5          9.040         79.160         73.960        0.19000
         8949.0          9.050         83.010         74.920        0.19000
         8949.5          9.050         86.010         74.990        0.18000
         8950.0          9.060         88.940         72.480        0.17000
         8950.5          9.060         85.770         70.100        0.15000
         8951.0          9.060         77.110         68.990        0.15000
         8951.5          9.070         68.200         69.500        0.16000
         8952.0          9.070         64.390         70.370        0.17000
         8952.5          9.070         64.400         71.210        0.16000
         8953.0          9.070         64.910         69.330        0.15000
         8953.5          9.070         60.340         65.270        0.13000
         8954.0          9.060         57.080         65.660        0.14000
         8954.5          9.060         58.760         68.780        0.16000
         8955.0          9.060         65.420         71.590        0.17000
         8955.5          9.050         71.730         73.070        0.18000
         8956.0          9.050         73.800         73.640        0.19000
         8956.5          9.050         74.370         74.020        0.19000
         8957.0          9.040         75.000         74.290        0.19000
         8957.5          9.040         75.070         73.980        0.18000
         8958.0          9.040         74.350         73.530        0.18000
         8958.5          9.030         73.600         73.100        0.19000
         8959.0          9.030         73.570         73.940        0.19000
         8959.5          9.030         74.300         74.390        0.19000
         8960.0          9.020         75.300         74.600        0.19000
         8960.5          9.020         76.310         74.800        0.19000
         8961.0          9.020         77.310         75.010        0.20000
         8961.5          9.010         78.300         75.260        0.20000
         8962.0          9.010         79.310         75.750        0.20000
         8962.5          9.010         77.680         75.840        0.19000
         8963.0          8.990         72.440         73.640        0.17000
         8963.5          8.980         62.030         70.750        0.16000
         8964.0          8.970         52.020         68.590        0.14000
         8964.5          8.950         45.380         67.230        0.14000
         8965.0          8.940         40.930         66.770        0.14000
         8965.5          8.950         45.680         68.010        0.15000
         8966.0          8.960         55.370         70.260        0.17000
         8966.5          8.970         64.660         72.640        0.20000
         8967.0          8.980         74.170         74.900        0.20000
         8967.5          8.990         78.110         76.230        0.19000
         8968.0          9.000         78.810         74.100        0.18000
         8968.5          9.010         76.140         71.850        0.16000
         8969.0          9.010         68.760         69.610        0.15000
         8969.5          9.010         60.550         67.360        0.13000
         8970.0          9.020         54.570         66.770        0.14000
         8970.5          9.020         56.370         69.170        0.16000
         8971.0          9.020         62.760         71.340        0.18000
         8971.5          9.020         69.250         73.160        0.18000
         8972.0          9.020         73.200         72.950        0.18000
         8972.5          9.020         70.030         72.580        0.18000
         8973.0          9.030         66.910         72.840        0.18000
         8973.5          9.030         66.670         73.100        0.18000
         8974.0          9.030         68.440         73.310        0.18000
         8974.5          9.030         71.490         73.700        0.19000
         8975.0          9.050         75.120         74.270        0.19000
         8975.5          9.070         78.760         74.840        0.20000
         8976.0          9.090         80.000         75.410        0.20000
         8976.5          9.110         81.140         75.860        0.20000
         8977.0          9.100         82.290         75.750        0.20000
         8977.5          9.060         83.430         75.090        0.19000
         8978.0          9.020         81.580         74.080        0.17000
         8978.5          8.990         78.170         70.680        0.15000
         8979.0          8.980         71.330         67.610        0.13000
         8979.5          8.980         64.630         66.380        0.14000
         8980.0          8.980         60.330         69.460        0.17000
         8980.5          8.970         65.780         72.500        0.18000
         8981.0          8.970         71.690         73.620        0.18000
         8981.5          8.970         73.510         72.670        0.17000
         8982.0          8.960         68.630         72.180        0.17000
         8982.5          8.960         65.930         72.180        0.17000
         8983.0          8.960         66.910         71.370        0.17000
         8983.5          8.950         67.980         70.550        0.16000
         8984.0          8.950         67.100         69.720        0.16000
         8984.5          8.950         66.190         70.110        0.17000
         8985.0          8.940         68.380         72.520        0.18000
         8985.5          8.940         73.190         74.800        0.20000
         8986.0          8.930         77.920         75.770        0.19000
         8986.5          8.930         79.960         73.550        0.18000
         8987.0          8.930         75.210         71.660        0.16000
         8987.5          8.920         68.520         69.760        0.15000
         8988.0          8.920         61.660         68.400        0.15000
         8988.5          8.920         62.950         68.990        0.16000
         8989.0          8.910         68.880         71.480        0.18000
         8989.5          8.910         75.330         72.960        0.18000
         8990.0          8.910         76.280         72.450        0.17000
         8990.5          8.900         69.570         71.560        0.17000
         8991.0          8.900         64.750         71.210        0.17000
         8991.5          8.900         64.930         72.060        0.18000
         8992.0          8.900         72.670         72.920        0.18000
         8992.5          8.910         78.810         73.550        0.18000
         8993.0          8.910         81.230         73.570        0.18000
         8993.5          8.910         82.630         73.600        0.18000
         8994.0          8.920         83.870         73.230        0.18000
         8994.5          8.920         83.090         71.620        0.17000
         8995.0          8.920         79.890         70.170        0.15000
         8995.5          8.920         76.290         68.720        0.14000
