###############################################
##         ENVERUS                           ##
##         ESS - Open Hole                   ##
##         PERMIAN / DELAWARE                ##
##         Nov 04 2023  V4.0                 ##
##         42-389-31270-00-00                ##
###############################################
## Copyright 2017-2023  ENVERUS.  All Rights Reserved. 
## Confidential - Property of ENVERUS, use governed by terms and 
## conditions found within the existing Information Services Subscription Agreement 
## (as may be amended, the “ISSA”) between Customer and ENVERUS. 
## 
~VERSION INFORMATION
# MNEM.UNIT                               DATA : DESCRIPTION OF MNEMONIC
#-----.-----     ----------------------------- : -----------------------------
VERS.                                     2.00 : CWLS LOG ASCII STANDARD - VERSION 2.00
WRAP.                                       NO : MULTIPLE LINES PER DEPTH STEP
VEND.                                  ENVERUS : VENDOR
TYPE.                          ESS - OPEN HOLE : ENVERUS ESSENTIAL CURVES – ACCESSIBLE THROUGH ENVERUS PRISM(TM)
DOC.                                  31950282 : ENVERUS HEADER RAW DOCUMENT ID
#___________________________________________________________________________________________________ 
~WELL INFORMATION 
# 0CODbT4LMl4UGLa7W4QP9cEC157HhgZEtdKI2U+cm8ET/zLKkJfEe4mvdgudHboWMGmWziBYTrzgVEWtCsCjWg== 
# MNEM.UNIT                                              DATA : DESCRIPTION OF MNEMONIC 
#-----.-----                    ----------------------------- : ----------------------------- 
CNTY.                                                  REEVES : COUNTY 
STATE.                                                  TEXAS : STATE 
CNTRY.                                                    USA : COUNTRY 
API.                                             42-389-31270 : API (10 Digit) 
API_14.                                    42-389-31270-00-00 : API (14 Digits) 
API_14_std.                                 42-389-31270-0000 : API (14 Digits Standard) 
UWI.                                           42389312700000 : UNIQUE WELL ID 
WELL.                                        FORTUNE UNIT  2R : WELL NAME
STRT.FT                                                3825.0 : START DEPTH
STOP.FT                                               13654.0 : STOP DEPTH
STEP.FT                                                   0.5 : STEP BETWEEN DEPTHS
NULL.                                                 -999.25 : NULL VALUE
COMP.                          SANDRIDGE EXPL. AND PROD.  LLC : COMPANY 
DATE.                                             19-AUG-2004 : LOG DATE
#___________________________________________________________________________________________________ 
~CURVE INFORMATION 
# MNEM.UNIT           : CURVE DESCRIPTION 
#-----.-----          : ----------------------------- 
 DEPT.FT               : MEASURED DEPTH 
 CALI__B.IN            : CALIPER (CAL - CAL) 
 GR__B.API             : GAMMA RAY (GR) 
 DT__B.US/FT           : SONIC DELTA TRANSIT TIME (DT) 
 #___________________________________________________________________________________________________ 
~A         DEPT        CALI__B          GR__B          DT__B
# ...
        12273.0          7.039         54.623         52.325
        12273.5          7.038         56.434         54.418
        12274.0          7.037         59.279         56.510
        12274.5          7.037         65.386         58.603
        12275.0          7.036         71.493         60.696
        12275.5          7.036         77.601         62.789
        12276.0          7.035         83.708         64.882
        12276.5          7.034         89.815         66.975
        12277.0          7.034         84.610         66.062
        12277.5          7.033         73.808         64.460
        12278.0          7.032         68.720         63.139
        12278.5          7.032         70.327         64.545
        12279.0          7.031         71.934         65.951
        12279.5          7.031         73.541         66.549
        12280.0          7.030         75.147         65.007
        12280.5          7.029         76.754         63.465
        12281.0          7.029         64.562         61.923
        12281.5          7.028         66.373         60.381
        12282.0          7.028         68.185         60.755
        12282.5          7.028         69.996         61.676
        12283.0          7.028         72.804         62.597
        12283.5          7.029         76.091         63.557
        12284.0          7.029         79.377         64.806
        12284.5          7.029         82.664         66.056
        12285.0          7.029         85.950         67.305
        12285.5          7.030         89.237         68.555
        12286.0          7.030         90.685         69.804
        12286.5          7.030         87.989         69.015
        12287.0          7.031         85.293         66.159
        12287.5          7.031         82.597         65.698
        12288.0          7.031         78.629         65.238
        12288.5          7.031         69.764         64.777
        12289.0          7.032         60.899         64.329
        12289.5          7.032         56.827         63.933
        12290.0          7.032         58.604         63.537
        12290.5          7.033         60.382         63.140
        12291.0          7.033         62.159         62.744
        12291.5          7.033         61.263         62.348
        12292.0          7.034         57.968         61.952
        12292.5          7.034         59.150         62.312
        12293.0          7.034         65.171         63.004
        12293.5          7.034         71.231         63.695
        12294.0          7.035         77.290         64.387
        12294.5          7.035         75.588         63.598
        12295.0          7.035         72.142         62.760
        12295.5          7.036         68.696         61.923
        12296.0          7.036         65.250         61.085
        12296.5          7.036         61.804         60.248
        12297.0          7.037         65.004         59.410
        12297.5          7.037         70.392         58.572
        12298.0          7.037         75.781         60.316
        12298.5          7.037         74.138         64.304
        12299.0          7.038         69.918         64.599
        12299.5          7.038         71.019         64.894
        12300.0          7.038         74.055         65.189
        12300.5          7.039         77.091         65.484
        12301.0          7.039         80.127         65.779
        12301.5          7.039         83.162         66.074
        12302.0          7.040         86.198         66.369
        12302.5          7.040         84.431         66.664
        12303.0          7.040         82.622         66.959
        12303.5          7.040         79.525         67.254
        12304.0          7.041         76.286         66.436
        12304.5          7.041         73.048         64.666
        12305.0          7.041         73.988         62.896
        12305.5          7.042         75.678         61.125
        12306.0          7.042         77.367         60.192
        12306.5          7.042         79.056         59.350
        12307.0          7.042         74.164         58.509
        12307.5          7.043         58.485         57.667
        12308.0          7.043         55.713         56.825
        12308.5          7.043         58.199         55.984
        12309.0          7.044         60.686         55.949
        12309.5          7.044         63.172         59.249
        12310.0          7.044         70.014         62.550
        12310.5          7.045         78.398         65.850
        12311.0          7.045         86.782         66.864
        12311.5          7.045         95.166         64.604
        12312.0          7.045         92.461         62.343
        12312.5          7.046         88.412         60.083
        12313.0          7.046         84.363         57.823
        12313.5          7.046         80.315         55.563
        12314.0          7.047         76.266         53.302
        12314.5          7.047         56.197         51.042
        12315.0          7.047         46.739         52.574
        12315.5          7.048         47.569         54.663
        12316.0          7.048         48.399         56.752
        12316.5          7.048         49.229         58.240
        12317.0          7.048         50.059         59.011
        12317.5          7.049         50.889         59.782
        12318.0          7.049         51.719         60.552
        12318.5          7.049         56.210         61.323
        12319.0          7.050         63.392         62.094
        12319.5          7.050         70.574         62.865
        12320.0          7.050         77.756         63.636
        12320.5          7.050         84.938         64.407
        12321.0          7.051         91.207         65.177
        12321.5          7.051         83.486         65.749
        12322.0          7.051         75.765         60.969
        12322.5          7.052         74.230         60.919
        12323.0          7.052         75.470         61.814
        12323.5          7.052         76.710         62.709
        12324.0          7.053         77.950         63.603
        12324.5          7.053         79.190         63.817
        12325.0          7.053         80.430         63.015
        12325.5          7.053         80.880         62.213
        12326.0          7.054         80.818         61.507
        12326.5          7.054         80.757         62.145
        12327.0          7.054         80.695         62.782
        12327.5          7.055         80.634         63.419
        12328.0          7.055         81.711         64.056
        12328.5          7.055         83.175         63.106
        12329.0          7.056         84.639         60.875
        12329.5          7.056         81.856         58.644
        12330.0          7.056         78.949         59.202
        12330.5          7.056         76.042         60.662
        12331.0          7.057         74.579         62.121
        12331.5          7.057         75.546         57.836
        12332.0          7.057         76.512         56.227
        12332.5          7.058         76.551         55.962
        12333.0          7.058         64.735         55.697
        12333.5          7.058         56.079         55.432
        12334.0          7.059         55.627         55.167
        12334.5          7.059         55.175         55.237
        12335.0          7.059         54.950         58.016
        12335.5          7.059         58.478         60.795
        12336.0          7.060         62.007         62.001
        12336.5          7.060         65.535         61.436
        12337.0          7.060         69.065         60.871
        12337.5          7.061         72.596         60.306
        12338.0          7.061         73.958         59.741
        12338.5          7.061         75.011         60.300
