#   WellGreen Tech Inc.   Digitizing Services
#   www.wellgreentech.com
#   email: sales@wellgreentech.com
#
~Version Information Block
 VERS.                2.00:     CWLS LOG ASCII STANDARD - VERSION 2.000000
 WRAP.                  NO:     One Line Per Depth Step
#
~Well Information Block
#MNEM.UNIT                     Data                         Information
#----------   ------------------------------------------   ----------------
 STRT.FT                                     4000.0000:     START DEPTH
 STOP.FT                                    15710.0000:     STOP DEPTH
 STEP.FT                                        0.5000:     STEP
 NULL.                                       -999.2500:     NULL VALUE
 COMP.                        THE SUPERIOR OIL COMPANY:     COMPANY
 WELL.                                FORTUNE STATE #1:     WELL
 FLD .                                    CHAPMAN DEEP:     FIELD
 LOC .                                                :     LOCATION
 CNTY.                                          REEVES:     COUNTY
 STAT.                                              TX:     STATE
 CTRY.                                             USA:     COUNTRY
 SRVC.                                    SCHLUMBERGER:     SERVICE COMPANY
 DATE.                                      11/10/1974:     DATE
 API .               42389302950000:    API NUMBER
 UWI .               42389302950000:    UWI NUMBER
 TVD .                                              NO:     TVD flag
 MATRIX .G/CC                  :    Matrix Density
#
~Curve Information Block
#MNEM.UNIT       API CODE      Curve Description
#----------    -------------   -------------------
 DEPT.FT                   :   Depth in Feet
 CALI.IN       70 280 01 01:   Caliper
 GR  .API      35 310 01 01:   Gamma Ray
 DT  .US/F     60 520 08 01:   Sonic transit time
#
~Parameter Information Block
#MNEM.UNIT            Value               Description
#----------    --------------------    -------------------
 RUN .                         ONE:    Run Number
 PDAT.                          GL:    Permanent Datum
 EPD .FT                  000.0000:    Elevation Of Perm. Datum
 LMF .               KELLY BUSHING:    Log Measured From
 EKB .FT                  3065.0:    Elevation Of Kelly Bushing
 DF .FT                    000.0:    Elevation Of Derrick Floor
 GL .FT                   3034.0:    Elevation Of Ground Level
 TD .FT                  15710.0000:    Total Depth
 BHT .DEGF               260.00 :  Bottom Hole Temperature
 BLI .FT               15710.0000:   Bottom Log Interval
 CSGSIZE.IN              9.6250:   Casing Size
 BITSIZE.IN               8.750 :  BitSize
 CSGD.FT                  4000.0:    Casing Bottom (Driller) 1
 CSGL.FT                  400.0:    Casing Bottom (Logger) 1
 MUD . BRINE                                :    Drilling Fluid Type
 MUDV .CP                  27.0:    Drilling Fluid Viscosity
 MUDD .LB/USG              9.25:    Drilling Fluid Density
 PH.                        6.2:    Drilling Fluid Ph
 FL .ML/30MIN              11.0:    Drilling Fluid Loss
 MUDS .FLOW LINE                        :    Mud Sample Source
 RM .OHMM                   0.09:    Resistivity Of Mud Sample
 RMT .DEGF                 60.00:    Mud Sample Temperature
 RMF .OHMM                  0.09:    Mud Filtrate Resistivity
 RMFT.DEGF                 60.00:    Mud Filtrate Sample Temperature
 RMC .OHMM                  0.00:    Mud Cake Resistivity
 RMCT.DEGF                 00.00:    Mud Cake Sample Temperature
 RMB .OHMM                 0.027:    Mud Resistivity At Bht
 TMAX .DEGF               260.00:    Bottom Hole Temperature
#
~Other Information Block
<DescLogPlotStart>   NEURALOG PLOT DEFINITION
PLOTDEFVERSION: 3
LASFILE: D:\nds\projects\G\DAVE\new work\RS Energy - Texas - May 17 - Folder 2\
DEPTHSCALE: 240.000000
RESOLUTION: 400
DEPTHLABELFREQ: 100.000000
HEAVYGRIDFREQ: 100.000000
MEDIUMGRIDFREQ: 50.000000
LIGHTGRIDFREQ: 10.000000
#
#   TRACK 1
#
STARTTRACK: 
 LEFTX: 0.500000 inch
 RIGHTX: 3.000000 inch
 SCALETYPE: Linear
 NUMCHARTDIVISIONS: 10
CURVE: CALI  6.000000   16.000000  (0,0,255)      Solid             2     N    
CURVE: GR    0.000000   125.000000 (0,131,131)    Dot               2     Y    
BACKUP: 125.000000 250.000000 (0,131,131)    Dot               2    
ENDTRACK: 
#
#   TRACK 2
#
STARTTRACK: 
 LEFTX: 3.500000 inch
 RIGHTX: 8.500000 inch
 SCALETYPE: Linear
 NUMCHARTDIVISIONS: 10
CURVE: DT    100.000000 40.000000  (255,0,255)    Solid             2     Y    
BACKUP: 160.000000 100.000000 (255,0,255)    Solid             2    
ENDTRACK: 
<DescLogPlotEnd>
~A DEPTH     CALI             GR               DT              
# ...
   11750.000 10.027           30.366           52.349          
   11750.500 10.008           25.194           50.150          
   11751.000 9.989            34.648           52.161          
   11751.500 9.970            42.791           56.987          
   11752.000 9.975            50.930           63.279          
   11752.500 9.982            59.063           69.627          
   11753.000 9.989            67.013           66.434          
   11753.500 9.996            62.153           63.180          
   11754.000 9.989            57.211           58.516          
   11754.500 9.958            50.374           61.529          
   11755.000 9.929            54.862           66.864          
   11755.500 9.936            62.782           72.202          
   11756.000 9.945            71.284           74.571          
   11756.500 9.954            68.861           75.205          
   11757.000 9.963            68.699           75.842          
   11757.500 9.972            73.833           76.647          
   11758.000 9.980            77.383           73.467          
   11758.500 9.989            70.788           69.012          
   11759.000 9.970            63.948           64.559          
   11759.500 9.951            57.110           60.561          
   11760.000 9.932            49.269           66.073          
   11760.500 9.935            53.568           69.669          
   11761.000 9.945            58.978           67.596          
   11761.500 9.957            65.924           66.047          
   11762.000 9.943            62.220           64.500          
   11762.500 9.930            54.105           63.623          
   11763.000 9.916            57.006           69.277          
   11763.500 9.912            63.466           72.255          
   11764.000 9.918            69.801           71.671          
   11764.500 9.924            68.624           71.021          
   11765.000 9.931            67.363           70.373          
   11765.500 9.937            65.527           69.717          
   11766.000 9.943            62.466           67.561          
   11766.500 9.950            59.395           65.081          
   11767.000 9.956            56.325           62.601          
   11767.500 9.962            51.050           60.121          
   11768.000 9.969            42.793           58.696          
   11768.500 9.975            47.676           65.768          
   11769.000 9.981            54.994           69.610          
   11769.500 9.987            62.318           68.528          
   11770.000 9.994            65.210           67.641          
   11770.500 10.000           63.912           66.757          
   11771.000 10.006           62.620           66.582          
   11771.500 10.013           65.028           71.188          
   11772.000 10.019           76.015           73.440          
   11772.500 10.025           71.919           69.148          
   11773.000 10.021           65.503           65.977          
   11773.500 10.000           59.093           63.373          
   11774.000 9.979            54.205           66.529          
   11774.500 9.983            64.984           69.206          
   11775.000 9.993            73.894           71.218          
   11775.500 10.002           67.557           68.244          
   11776.000 10.007           68.582           70.505          
   11776.500 9.999            69.927           69.820          
   11777.000 9.992            70.803           70.497          
   11777.500 9.989            66.376           71.671          
   11778.000 9.984            66.982           72.845          
   11778.500 9.979            67.888           73.838          
   11779.000 9.974            66.637           69.639          
   11779.500 9.969            63.664           66.001          
   11780.000 9.964            60.694           63.164          
   11780.500 9.959            57.728           64.679          
   11781.000 9.954            57.493           66.582          
   11781.500 9.949            58.159           65.297          
   11782.000 9.944            57.770           61.844          
   11782.500 9.939            55.045           62.558          
   11783.000 9.934            52.863           63.803          
   11783.500 9.929            55.817           66.349          
   11784.000 9.931            58.709           69.705          
   11784.500 9.932            61.601           73.298          
   11785.000 9.934            64.496           72.639          
   11785.500 9.936            66.687           71.923          
   11786.000 9.938            64.083           71.210          
   11786.500 9.940            61.706           70.505          
   11787.000 9.942            62.898           67.027          
   11787.500 9.943            64.117           68.231          
   11788.000 9.945            62.678           67.643          
   11788.500 9.947            59.586           66.823          
   11789.000 9.949            60.428           67.989          
   11789.500 9.951            62.597           69.346          
   11790.000 9.952            64.766           70.703          
   11790.500 9.954            66.935           72.082          
   11791.000 9.956            69.106           71.207          
   11791.500 9.958            70.837           70.235          
   11792.000 9.960            67.553           69.040          
   11792.500 9.962            64.191           70.000          
   11793.000 9.963            60.826           68.612          
   11793.500 9.965            57.809           67.270          
   11794.000 9.967            59.247           65.412          
   11794.500 9.969            59.473           66.288          
   11795.000 9.971            57.715           67.715          
   11795.500 9.973            55.955           69.250          
   11796.000 9.974            54.197           65.988          
   11796.500 9.976            51.460           62.457          
   11797.000 9.978            47.562           57.173          
   11797.500 9.978            43.667           58.205          
   11798.000 9.975            40.978           60.313          
   11798.500 9.972            48.525           62.410          
   11799.000 9.969            56.854           63.739          
   11799.500 9.966            55.494           64.892          
   11800.000 9.963            52.253           65.622          
   11800.500 9.960            53.530           63.461          
   11801.000 9.957            55.958           67.117          
   11801.500 9.954            58.384           66.462          
   11802.000 9.952            60.804           69.541          
   11802.500 9.949            63.952           73.751          
   11803.000 9.946            67.804           77.962          
   11803.500 9.943            72.158           80.645          
   11804.000 9.940            69.183           71.139          
   11804.500 9.944            65.443           72.383          
   11805.000 9.952            68.728           73.288          
   11805.500 9.959            72.760           74.648          
   11806.000 9.967            76.778           74.317          
   11806.500 9.975            79.530           73.645          
   11807.000 9.982            73.345           72.977          
   11807.500 9.990            68.230           72.308          
   11808.000 9.998            63.119           68.505          
   11808.500 9.982            58.008           64.220          
   11809.000 9.963            52.897           59.931          
   11809.500 9.943            47.787           56.658          
   11810.000 9.924            42.677           60.092          
   11810.500 9.923            36.731           63.553          
   11811.000 9.928            41.983           67.014          
   11811.500 9.933            49.391           70.475          
   11812.000 9.938            56.796           72.579          
